     3.05           OBSERVATION DATA    MIXED               RINEX VERSION / TYPE
TPS2RIN 1.0.29.3920 TPS-USER            20240511 191203 UTC PGM / RUN BY / DATE
Win64 build Feb 23, 2024 (c) Topcon Positioning Systems     COMMENT
SRC: 20240508_GUI11.tps                                     COMMENT
OPT: -S -v 3.05                                             COMMENT
Observer            Agency                                  OBSERVER / AGENCY
O0M3X53SBGM         TPS HIPER_SR        4.8 HSR Jul,08,2022 REC # / TYPE / VERS
FW: 4.8 HSR Jul,08,2022 p3                                  COMMENT
SN: HiPer SR 1212-12575                                     COMMENT
000                 TPSHIPER_SR     NONE                    ANT # / TYPE
        1.8000        0.0000        0.0000                  ANTENNA: DELTA H/E/N
GUI11                                                       MARKER NAME
  5387580.8501 -1584766.7820  3015038.8715                  APPROX POSITION XYZ
  2024     5     8    11    21   40.0000000     GPS         TIME OF FIRST OBS
  2024     5     8    11    36   41.0000000     GPS         TIME OF LAST OBS
     1.000                                                  INTERVAL
   902 EPOCHS                                               COMMENT
G   16 C1C L1C D1C S1C C1W L1W D1W S1W C2W L2W D2W S2W C2X  SYS / # / OBS TYPES
       L2X D2X S2X                                          SYS / # / OBS TYPES
R   16 C1C L1C D1C S1C C1P L1P D1P S1P C2P L2P D2P S2P C2C  SYS / # / OBS TYPES
       L2C D2C S2C                                          SYS / # / OBS TYPES
    11                                                      # OF SATELLITES
   G10   902   902   902   902   902   902   902   902   902PRN / # OF OBS
         902   902   902   902   902   902   902            PRN / # OF OBS
   G16   902   902   902   902   902   902   902   902   902PRN / # OF OBS
         902   902   902     0     0     0     0            PRN / # OF OBS
   G21   902   902   902   902   902   902   902   902   902PRN / # OF OBS
         902   902   902     0     0     0     0            PRN / # OF OBS
   G23   902   902   902   902   902   902   902   902   902PRN / # OF OBS
         902   902   902   902   902   902   902            PRN / # OF OBS
   G26   902   902   902   902   902   902   902   902   902PRN / # OF OBS
         902   902   902   902   902   902   902            PRN / # OF OBS
   G27   902   902   902   902   902   902   902   902   902PRN / # OF OBS
         902   902   902   902   902   902   902            PRN / # OF OBS
   G31   902   902   902   902   902   902   902   902   902PRN / # OF OBS
         902   902   902   902   902   902   902            PRN / # OF OBS
   R09   902   902   902   902   902   902   902   902   902PRN / # OF OBS
         902   902   902   902   902   902   902            PRN / # OF OBS
   R10   902   902   902   902   902   902   902   902     0PRN / # OF OBS
           0     0     0     0     0     0     0            PRN / # OF OBS
   R11    92    92    92    92    86    86    86    86    86PRN / # OF OBS
          86    86    86    85    85    85    85            PRN / # OF OBS
   R21   902   902   902   902   902   902   902   902   902PRN / # OF OBS
         902   902   902   902   902   902   902            PRN / # OF OBS
G L1C                                                       SYS / PHASE SHIFT
G L1W -0.25000                                              SYS / PHASE SHIFT
G L2W  0.00000                                              SYS / PHASE SHIFT
G L2X  0.25000                                              SYS / PHASE SHIFT
R L1C                                                       SYS / PHASE SHIFT
R L1P -0.25000                                              SYS / PHASE SHIFT
R L2P -0.25000                                              SYS / PHASE SHIFT
R L2C                                                       SYS / PHASE SHIFT
  4 R09 -2 R10 -7 R11  0 R21  4                             GLONASS SLOT / FRQ #
                                                            GLONASS COD/PHS/BIS
    18    18  1929     7GPS                                 LEAP SECONDS
                                                            END OF HEADER
> 2024 05 08 11 21 40.0000000  0 10
R21  21168619.940   113277564.501 7      4531.970          44.875    21168618.560   113277564.516 7      4531.970          45.437    21168630.720    88104816.316 8      3524.866          49.000    21168630.720    88104815.315 7      3524.866          47.812
G23  23057373.000   121167318.828 6      2761.183          40.937    23057371.540   121167318.831 5      2761.183          32.125    23057379.660    94416112.144 5      2151.572          32.062    23057380.260    94416116.145 7      2151.572          47.125
G31  23376598.160   122844861.980 7      -886.760          45.062    23376597.360   122844861.984 7      -886.760          42.187    23376604.780    95723298.443 6      -690.982          41.875    23376605.400    95723300.440 7      -690.982          46.125
R10  19371773.760   103262474.763 7      3623.355          46.875    19371773.320   103262474.780 7      3623.355          45.312
G26  21046673.220   110601020.667 7       884.115          47.187    21046671.900   110601020.675 7       884.115          47.875    21046678.980    86182630.875 7       688.921          47.625    21046679.400    86182634.878 8       688.921          48.812
G21  22788584.840   119754819.466 7      5684.640          45.062    22788584.420   119754819.476 5      5684.640          30.750    22788590.000    93315466.583 5      4429.590          31.125
G16  20454507.160   107489160.379 7      2943.993          45.625    20454505.380   107489160.384 6      2943.993          39.812    20454508.540    83757791.225 6      2294.020          39.312
G27  20814627.780   109381614.243 8      2589.558          48.125    20814626.680   109381614.251 7      2589.558          42.250    20814632.140    85232435.835 7      2017.837          42.250    20814632.400    85232440.835 8      2017.837          52.062
G10  22905995.120   120371815.703 7      4350.310          44.375    22905993.580   120371815.710 7      4350.310          42.875    22906003.220    93796253.278 7      3389.852          42.937    22906003.260    93796257.283 7      3389.852          45.000
R09  19880381.360   106160132.611 8       178.082          48.875    19880381.820   106160132.617 8       178.082          48.875    19880389.100    82569021.227 8       138.509          51.750    19880389.180    82569029.225 8       138.509          52.375
> 2024 05 08 11 21 41.0000000  0 10
R21  21167773.180   113273032.900 7      4531.487          44.875    21167772.240   113273032.915 7      4531.487          44.187    21167784.080    88101291.735 8      3524.490          48.250    21167784.000    88101290.734 7      3524.490          47.937
G23  23056847.780   121164558.038 6      2760.639          40.937    23056846.340   121164558.043 5      2760.639          32.125    23056854.300    94413960.879 5      2151.147          32.062    23056854.700    94413964.880 7      2151.147          47.250
G31  23376766.860   122845748.890 7      -886.833          45.125    23376766.260   122845748.900 6      -886.833          41.625    23376773.800    95723989.534 6      -691.039          41.062    23376774.160    95723991.535 7      -691.039          46.500
R10  19371094.040   103258851.929 7      3622.576          46.687    19371093.560   103258851.943 7      3622.576          45.625
G26  21046505.020   110600136.857 7       883.645          47.437    21046503.740   110600136.867 7       883.645          47.062    21046510.700    86181942.192 7       688.554          47.062    21046511.480    86181946.193 8       688.554          48.562
G21  22787503.100   119749135.078 7      5684.245          44.562    22787502.780   119749135.081 5      5684.245          31.000    22787508.280    93311037.196 5      4429.282          31.125
G16  20453947.020   107486216.647 7      2943.606          46.000    20453945.260   107486216.652 6      2943.606          39.937    20453948.140    83755497.408 6      2293.719          39.250
G27  20814135.020   109379024.914 8      2589.380          48.437    20814133.880   109379024.916 7      2589.380          42.500    20814139.240    85230418.174 7      2017.698          42.437    20814139.960    85230423.168 8      2017.698          51.625
G10  22905167.360   120367465.808 7      4349.904          44.625    22905165.700   120367465.810 7      4349.904          43.437    22905175.480    93792863.748 7      3389.536          43.125    22905175.160    93792867.755 7      3389.536          44.875
R09  19880348.200   106159954.964 8       177.434          48.062    19880348.520   106159954.962 8       177.434          48.187    19880355.760    82568883.043 8       138.005          51.750    19880355.840    82568891.045 8       138.005          51.937
> 2024 05 08 11 21 42.0000000  0 10
R21  21166926.260   113268501.989 7      4530.677          43.937    21166925.920   113268502.004 7      4530.677          44.000    21166937.260    88097767.691 7      3523.860          47.937    21166937.120    88097766.688 7      3523.860          46.937
G23  23056322.640   121161797.959 6      2759.782          41.562    23056320.960   121161797.964 5      2759.782          31.812    23056329.160    94411810.168 5      2150.480          31.937    23056329.440    94411814.169 7      2150.480          46.625
G31  23376935.620   122846636.066 7      -887.204          44.875    23376934.920   122846636.079 6      -887.204          41.500    23376942.580    95724680.830 6      -691.328          41.437    23376943.080    95724682.829 7      -691.328          46.000
R10  19370414.840   103255229.998 7      3621.599          46.187    19370413.660   103255230.009 7      3621.599          45.437
G26  21046336.860   110599253.619 7       882.967          47.250    21046335.700   110599253.627 7       882.967          46.687    21046342.780    86181253.951 7       688.026          46.687    21046343.540    86181257.954 8       688.026          48.312
G21  22786421.700   119743451.206 7      5683.702          44.812    22786420.880   119743451.213 5      5683.702          31.000    22786426.780    93306608.213 5      4428.859          31.125
G16  20453387.120   107483273.465 7      2943.007          46.375    20453385.260   107483273.467 6      2943.007          39.812    20453388.080    83753204.015 6      2293.252          39.250
G27  20813642.360   109376435.931 8      2588.896          48.250    20813641.200   109376435.936 6      2588.896          41.812    20813646.580    85228400.781 6      2017.322          41.750    20813647.360    85228405.779 8      2017.322          50.812
G10  22904339.560   120363116.394 7      4349.205          45.500    22904338.060   120363116.398 7      4349.205          42.500    22904347.860    93789474.596 7      3388.991          42.312    22904347.680    93789478.597 7      3388.991          44.500
R09  19880315.260   106159778.124 8       176.468          48.875    19880315.400   106159778.127 8       176.468          48.187    19880322.620    82568745.501 8       137.253          49.875    19880322.860    82568753.501 8       137.253          51.000
> 2024 05 08 11 21 43.0000000  0 10
R21  21166079.320   113263971.595 7      4530.040          44.000    21166079.620   113263971.602 7      4530.040          44.812    21166090.960    88094244.047 8      3523.364          48.625    21166090.480    88094243.042 8      3523.364          48.125
G23  23055797.760   121159038.380 7      2759.282          42.000    23055795.960   121159038.387 5      2759.282          31.812    23055803.960    94409659.851 5      2150.090          31.937    23055804.280    94409663.848 7      2150.090          47.000
G31  23377104.300   122847523.292 7      -887.299          44.937    23377103.800   122847523.300 6      -887.299          41.875    23377111.420    95725372.165 6      -691.402          41.562    23377112.200    95725374.159 7      -691.402          46.375
R10  19369735.360   103251608.773 7      3620.800          46.562    19369734.740   103251608.782 7      3620.800          45.437
G26  21046168.700   110598370.766 7       882.504          46.812    21046167.760   110598370.776 7       882.504          47.500    21046174.760    86180566.011 7       687.666          47.125    21046175.380    86180570.014 8       687.666          49.187
G21  22785340.080   119737767.662 7      5683.377          45.000    22785339.340   119737767.669 5      5683.377          31.000    22785345.260    93302179.479 5      4428.605          31.125
G16  20452826.880   107480330.645 7      2942.561          46.875    20452825.460   107480330.647 6      2942.561          39.937    20452828.100    83750910.909 6      2292.904          39.812
G27  20813149.940   109373847.104 8      2588.660          49.187    20813148.680   109373847.111 7      2588.660          42.625    20813154.000    85226383.517 7      2017.137          42.875    20813154.720    85226388.517 8      2017.137          52.000
G10  22903511.940   120358767.253 7      4348.945          45.375    22903510.440   120358767.252 7      4348.945          43.000    22903520.180    93786085.655 7      3388.788          43.250    22903520.340    93786089.658 7      3388.788          45.125
R09  19880282.280   106159601.964 8       175.752          49.187    19880282.340   106159601.979 7       175.752          47.750    19880289.700    82568608.494 8       136.696          51.500    19880290.000    82568616.490 8       136.696          52.312
> 2024 05 08 11 21 44.0000000  0 10
R21  21165233.180   113259441.588 7      4529.879          45.062    21165232.900   113259441.598 7      4529.879          44.812    21165244.560    88090720.710 8      3523.239          48.937    21165243.920    88090719.712 8      3523.239          48.687
G23  23055272.700   121156279.242 7      2759.014          42.625    23055270.940   121156279.244 5      2759.014          32.312    23055279.040    94407509.867 5      2149.881          31.937    23055279.180    94407513.862 7      2149.881          47.000
G31  23377273.180   122848410.490 7      -887.159          45.125    23377272.660   122848410.500 7      -887.159          42.062    23377280.220    95726063.481 6      -691.292          41.625    23377280.620    95726065.475 7      -691.292          46.125
R10  19369056.260   103247988.143 7      3620.444          46.187    19369055.320   103247988.157 7      3620.444          45.250
G26  21046000.860   110597488.196 7       882.497          46.500    21045999.780   110597488.198 7       882.497          47.312    21046006.800    86179878.283 7       687.660          47.062    21046007.420    86179882.284 8       687.660          48.937
G21  22784258.620   119732084.380 7      5683.220          44.437    22784257.960   119732084.385 5      5683.220          30.875    22784263.780    93297750.952 5      4428.483          31.125
G16  20452267.040   107477388.077 7      2942.534          45.437    20452265.340   107477388.085 6      2942.534          39.625    20452268.200    83748617.999 6      2292.884          39.250
G27  20812657.260   109371258.345 8      2588.809          49.000    20812656.060   109371258.352 7      2588.809          42.500    20812661.380    85224366.304 7      2017.254          42.375    20812661.960    85224371.306 8      2017.254          51.562
G10  22902684.440   120354418.327 7      4348.899          44.750    22902682.860   120354418.327 7      4348.899          42.937    22902692.540    93782696.880 7      3388.753          43.000    22902692.780    93782700.885 7      3388.753          45.062
R09  19880249.200   106159426.384 8       175.366          48.437    19880249.600   106159426.401 8       175.366          48.625    19880256.760    82568471.930 8       136.396          51.812    19880257.100    82568479.924 8       136.396          52.937
> 2024 05 08 11 21 45.0000000  0 10
R21  21164386.860   113254911.991 7      4529.253          45.625    21164386.560   113254912.003 7      4529.253          45.125    21164398.340    88087197.693 8      3522.752          49.125    21164397.480    88087196.698 8      3522.752          48.687
G23  23054747.740   121153520.524 7      2758.313          43.125    23054745.920   121153520.537 5      2758.313          32.312    23054754.000    94405360.221 5      2149.335          32.062    23054754.220    94405364.228 7      2149.335          46.687
G31  23377442.320   122849297.655 7      -887.270          44.250    23377441.440   122849297.663 6      -887.270          41.562    23377448.940    95726754.765 6      -691.379          41.250    23377449.440    95726756.759 7      -691.379          45.937
R10  19368377.260   103244368.169 7      3619.542          46.187    19368376.180   103244368.183 7      3619.542          45.312
G26  21045833.180   110596605.917 7       882.061          47.187    21045831.920   110596605.927 7       882.061          47.437    21045839.000    86179190.798 7       687.320          47.000    21045839.460    86179194.799 8       687.320          49.312
G21  22783177.100   119726401.333 7      5682.845          44.812    22783176.420   119726401.337 5      5682.845          30.875    22783182.300    93293322.607 5      4428.191          31.125
G16  20451707.040   107474445.809 7      2941.991          46.750    20451705.500   107474445.819 6      2941.991          39.562    20451708.360    83746325.326 6      2292.461          38.875
G27  20812164.660   109368669.675 8      2588.506          48.875    20812163.460   109368669.682 7      2588.506          42.687    20812168.740    85222349.160 7      2017.017          42.375    20812169.240    85222354.158 8      2017.017          51.437
G10  22901856.960   120350069.609 7      4348.437          46.062    22901855.260   120350069.614 7      4348.437          42.625    22901865.200    93779308.274 7      3388.393          42.500    22901865.300    93779312.286 7      3388.393          45.437
R09  19880216.420   106159251.386 7       174.539          47.812    19880216.700   106159251.395 8       174.539          48.562    19880224.240    82568335.812 8       135.753          51.625    19880224.320    82568343.802 8       135.753          52.375
> 2024 05 08 11 21 46.0000000  0 10
R21  21163540.760   113250383.068 7      4528.586          45.062    21163539.940   113250383.075 7      4528.586          44.937    21163551.860    88083675.193 8      3522.233          49.187    21163551.380    88083674.202 8      3522.233          48.437
G23  23054222.980   121150762.513 7      2757.717          42.500    23054221.120   121150762.524 5      2757.717          32.312    23054229.080    94403211.124 5      2148.870          32.062    23054229.340    94403215.131 7      2148.870          47.312
G31  23377611.060   122850185.097 7      -887.666          44.375    23377610.300   122850185.104 6      -887.666          41.937    23377617.840    95727446.271 6      -691.688          41.625    23377618.320    95727448.255 7      -691.688          46.187
R10  19367698.200   103240749.106 7      3618.539          46.250    19367697.180   103240749.120 7      3618.539          45.437
G26  21045665.260   110595724.246 7       881.418          47.125    21045664.160   110595724.251 7       881.418          47.437    21045671.160    86178503.777 7       686.819          47.312    21045671.640    86178507.776 8       686.819          49.062
G21  22782096.000   119720718.816 7      5682.298          44.750    22782095.060   119720718.821 5      5682.298          30.875    22782101.140    93288894.678 5      4427.764          30.625
G16  20451147.160   107471504.103 7      2941.361          46.187    20451145.740   107471504.108 6      2941.361          39.875    20451148.400    83744033.082 6      2291.970          39.500
G27  20811672.220   109366081.368 8      2588.072          49.437    20811670.840   109366081.375 7      2588.072          42.437    20811676.120    85220332.291 7      2016.679          42.437    20811676.840    85220337.289 8      2016.679          51.750
G10  22901029.580   120345721.380 7      4348.037          45.687    22901027.860   120345721.388 7      4348.037          43.187    22901037.760    93775920.050 7      3388.081          42.812    22901037.620    93775924.057 7      3388.081          45.437
R09  19880184.040   106159077.243 8       173.746          49.062    19880184.040   106159077.254 7       173.746          47.437    19880191.300    82568200.363 8       135.136          52.187    19880191.860    82568208.357 8       135.136          52.437
> 2024 05 08 11 21 47.0000000  0 10
R21  21162694.240   113245854.744 7      4528.185          45.062    21162693.520   113245854.762 7      4528.185          44.437    21162705.820    88080153.174 8      3521.922          49.125    21162705.420    88080152.186 8      3521.922          48.875
G23  23053698.400   121148005.160 7      2757.225          42.812    23053696.300   121148005.172 5      2757.225          32.062    23053704.560    94401062.532 5      2148.487          32.062    23053704.800    94401066.541 7      2148.487          47.250
G31  23377779.980   122851072.691 7      -887.570          43.875    23377779.180   122851072.693 6      -887.570          41.562    23377786.560    95728137.887 6      -691.613          41.125    23377787.140    95728139.879 7      -691.613          46.250
R10  19367019.040   103237130.858 7      3617.943          46.562    19367018.260   103237130.880 7      3617.943          45.000
G26  21045497.400   110594843.068 7       881.047          47.062    21045496.500   110594843.073 7       881.047          47.125    21045503.520    86177817.141 7       686.530          46.937    21045503.700    86177821.140 8       686.530          49.312
G21  22781014.840   119715036.759 7      5681.985          44.187    22781013.640   119715036.766 5      5681.985          30.875    22781020.020    93284467.105 5      4427.521          30.625
G16  20450587.520   107468562.839 7      2941.212          46.500    20450585.900   107468562.847 6      2941.212          39.187    20450588.740    83741741.186 6      2291.854          38.812
G27  20811179.840   109363493.326 8      2588.045          49.125    20811178.380   109363493.331 7      2588.045          42.125    20811183.520    85218315.633 7      2016.658          42.125    20811184.160    85218320.629 8      2016.658          51.437
G10  22900202.300   120341373.585 7      4347.736          44.375    22900200.460   120341373.589 7      4347.736          42.812    22900210.320    93772532.157 7      3387.846          42.812    22900210.440    93772536.164 7      3387.846          45.375
R09  19880151.560   106158903.914 7       173.064          47.875    19880151.540   106158903.925 7       173.064          47.937    19880159.100    82568065.543 8       134.605          52.000    19880159.400    82568073.541 8       134.605          52.500
> 2024 05 08 11 21 48.0000000  0 10
R21  21161847.700   113241327.111 7      4527.360          44.250    21161847.620   113241327.123 7      4527.360          44.937    21161859.880    88076631.683 8      3521.280          49.000    21161859.220    88076630.687 8      3521.280          48.750
G23  23053173.560   121145248.476 7      2756.354          42.375    23053171.760   121145248.488 5      2756.354          32.062    23053180.060    94398914.465 5      2147.808          31.750    23053180.100    94398918.474 7      2147.808          47.062
G31  23377948.720   122851960.489 7      -887.928          44.562    23377948.020   122851960.494 6      -887.928          41.875    23377955.460    95728829.674 6      -691.892          41.187    23377955.840    95728831.672 7      -691.892          45.500
R10  19366340.800   103233513.499 7      3616.901          46.250    19366339.820   103233513.510 7      3616.901          45.437
G26  21045329.940   110593962.424 7       880.430          47.562    21045328.900   110593962.424 7       880.430          47.312    21045335.960    86177130.919 7       686.049          47.375    21045336.220    86177134.922 8       686.049          49.187
G21  22779933.960   119709355.190 7      5681.377          44.750    22779932.540   119709355.198 5      5681.377          30.625    22779938.960    93280039.909 5      4427.047          30.625
G16  20450027.600   107465622.116 7      2940.526          46.562    20450026.400   107465622.123 6      2940.526          39.625    20450029.140    83739449.713 6      2291.319          39.250
G27  20810687.380   109360905.602 8      2587.596          50.062    20810686.000   109360905.612 7      2587.596          42.875    20810691.160    85216299.231 7      2016.309          42.625    20810691.520    85216304.231 8      2016.309          51.312
G10  22899375.180   120337026.220 7      4347.189          46.125    22899373.280   120337026.225 7      4347.189          43.125    22899383.120    93769144.602 7      3387.420          43.000    22899383.700    93769148.611 7      3387.420          45.187
R09  19880119.120   106158731.383 7       172.148          47.625    19880119.200   106158731.389 8       172.148          48.625    19880126.780    82567931.346 8       133.893          52.312    19880127.000    82567939.348 8       133.893          52.875
> 2024 05 08 11 21 49.0000000  0 10
R21  21161001.800   113236799.976 7      4526.699          46.125    21161001.800   113236799.993 7      4526.699          44.937    21161013.800    88073110.584 8      3520.766          49.500    21161013.180    88073109.583 8      3520.766          49.125
G23  23052648.900   121142492.328 7      2755.705          42.125    23052647.340   121142492.341 5      2755.705          32.062    23052655.600    94396766.819 5      2147.303          31.750    23052655.660    94396770.820 7      2147.303          46.750
G31  23378117.840   122852848.357 7      -888.029          44.562    23378116.980   122852848.364 6      -888.029          41.500    23378124.340    95729521.512 6      -691.971          41.437    23378124.780    95729523.517 7      -691.971          45.937
R10  19365662.100   103229896.856 7      3616.131          46.375    19365661.300   103229896.867 7      3616.131          45.562
G26  21045162.460   110593082.182 7       879.826          47.687    21045161.340   110593082.189 7       879.826          47.937    21045168.480    86176445.020 7       685.579          47.812    21045168.800    86176449.021 8       685.579          49.375
G21  22778852.820   119703673.977 7      5680.834          44.375    22778851.340   119703673.984 5      5680.834          30.625    22778857.800    93275612.994 5      4426.624          30.625
G16  20449468.340   107462681.763 7      2940.021          46.750    20449466.760   107462681.773 6      2940.021          40.187    20449469.680    83737158.533 6      2290.926          39.687
G27  20810195.020   109358318.064 8      2587.286          49.875    20810193.620   109358318.072 7      2587.286          42.562    20810198.820    85214282.964 7      2016.067          42.187    20810199.080    85214287.966 8      2016.067          51.125
G10  22898547.820   120332679.197 7      4346.657          45.312    22898545.980   120332679.202 7      4346.657          43.437    22898555.780    93765757.312 7      3387.005          43.125    22898556.300    93765761.317 7      3387.005          45.687
R09  19880086.940   106158559.514 8       171.381          49.000    19880087.080   106158559.517 7       171.381          47.875    19880094.700    82567797.664 8       133.297          52.187    19880094.840    82567805.662 8       133.297          53.062
> 2024 05 08 11 21 50.0000000  0 10
R21  21160156.000   113232273.402 7      4526.200          45.437    21160156.540   113232273.419 7      4526.200          45.437    21160167.900    88069589.913 8      3520.378          48.937    21160167.320    88069588.913 8      3520.378          48.875
G23  23052124.500   121139736.774 7      2755.285          42.000    23052123.060   121139736.784 5      2755.285          32.000    23052131.300    94394619.634 5      2146.975          32.000    23052131.400    94394623.635 7      2146.975          47.250
G31  23378286.700   122853736.397 7      -888.141          44.062    23378285.840   122853736.407 6      -888.141          41.250    23378293.380    95730213.484 6      -692.058          41.000    23378293.840    95730215.482 7      -692.058          45.937
R10  19364983.600   103226281.047 7      3615.288          46.187    19364983.140   103226281.064 7      3615.288          45.375
G26  21044995.140   110592202.408 7       879.475          47.312    21044993.920   110592202.412 7       879.475          47.625    21045001.080    86175759.473 7       685.305          47.750    21045001.420    86175763.474 8       685.305          49.000
G21  22777771.680   119697993.176 7      5680.477          45.125    22777770.120   119697993.181 5      5680.477          30.625    22777776.720    93271186.398 5      4426.346          30.312
G16  20448908.780   107459741.868 7      2939.606          47.125    20448907.420   107459741.878 6      2939.606          39.687    20448910.180    83734867.706 6      2290.602          39.187
G27  20809702.560   109355730.779 8      2587.113          49.375    20809701.360   109355730.784 7      2587.113          42.750    20809706.620    85212266.896 7      2015.933          42.625    20809706.620    85212271.898 8      2015.933          51.250
G10  22897720.640   120328332.536 7      4346.459          46.187    22897718.900   120328332.536 7      4346.459          43.437    22897728.720    93762370.308 7      3386.851          43.250    22897729.460    93762374.310 7      3386.851          45.687
R09  19880055.000   106158388.411 8       170.690          48.750    19880054.900   106158388.418 8       170.690          48.500    19880062.700    82567664.588 8       132.759          51.812    19880062.840    82567672.580 8       132.759          53.000
> 2024 05 08 11 21 51.0000000  0 10
R21  21159310.500   113227747.513 7      4525.448          46.125    21159311.080   113227747.520 7      4525.448          45.000    21159322.000    88066069.772 8      3519.793          49.125    21159321.580    88066068.769 8      3519.793          48.687
G23  23051600.440   121136981.932 6      2754.483          41.750    23051598.740   121136981.937 5      2754.483          32.000    23051607.060    94392473.000 5      2146.350          32.000    23051607.060    94392477.013 7      2146.350          47.312
G31  23378455.620   122854624.685 7      -888.529          44.125    23378454.900   122854624.695 6      -888.529          41.250    23378462.360    95730905.643 6      -692.360          40.812    23378463.240    95730907.644 7      -692.360          46.000
R10  19364305.540   103222666.121 7      3614.434          46.375    19364304.820   103222666.134 7      3614.434          45.250
G26  21044827.740   110591323.206 8       878.905          48.687    21044826.520   110591323.211 7       878.905          47.437    21044833.820    86175074.381 7       684.861          47.437    21044834.020    86175078.384 8       684.861          49.500
G21  22776690.880   119692312.892 7      5680.017          44.375    22776689.260   119692312.897 5      5680.017          30.062    22776695.860    93266760.211 5      4425.988          30.312
G16  20448349.720   107456802.522 7      2939.004          46.375    20448347.980   107456802.532 6      2939.004          40.125    20448350.820    83732577.304 6      2290.133          39.812
G27  20809210.320   109353143.830 8      2586.716          48.875    20809209.040   109353143.840 7      2586.716          42.562    20809214.300    85210251.093 7      2015.623          42.375    20809214.360    85210256.093 8      2015.623          51.125
G10  22896893.560   120323986.375 7      4345.855          45.687    22896891.860   120323986.380 7      4345.855          43.562    22896901.740    93758983.694 7      3386.381          43.437    22896901.840    93758987.697 7      3386.381          45.500
R09  19880023.160   106158218.139 8       169.768          49.437    19880023.020   106158218.151 8       169.768          48.500    19880030.580    82567532.152 8       132.041          51.812    19880031.080    82567540.140 8       132.041          52.875
> 2024 05 08 11 21 52.0000000  0 10
R21  21158464.740   113223222.213 7      4524.989          45.500    21158465.320   113223222.220 7      4524.989          45.437    21158476.460    88062550.089 8      3519.436          48.437    21158475.880    88062549.093 7      3519.436          47.937
G23  23051076.580   121134227.712 6      2753.851          41.750    23051074.780   121134227.720 5      2753.851          32.375    23051082.880    94390326.855 5      2145.858          32.000    23051083.220    94390330.866 7      2145.858          47.250
G31  23378625.000   122855513.080 7      -888.481          43.937    23378623.920   122855513.090 6      -888.481          40.875    23378631.460    95731597.891 6      -692.323          40.687    23378632.200    95731599.894 7      -692.323          45.937
R10  19363627.380   103219052.010 7      3613.757          46.312    19363626.680   103219052.021 7      3613.757          44.875
G26  21044660.360   110590444.483 7       878.479          47.312    21044659.280   110590444.487 7       878.479          46.687    21044666.600    86174389.655 7       684.529          46.500    21044666.760    86174393.656 8       684.529          48.437
G21  22775609.840   119686633.032 7      5679.724          44.500    22775608.540   119686633.037 5      5679.724          30.062    22775614.880    93262334.350 5      4425.759          30.312
G16  20447790.340   107453863.619 7      2938.686          46.625    20447788.640   107453863.627 6      2938.686          39.812    20447791.680    83730287.246 6      2289.885          39.250
G27  20808718.120   109350557.139 8      2586.550          48.562    20808716.720   109350557.144 7      2586.550          42.437    20808722.000    85208235.484 7      2015.494          42.250    20808721.980    85208240.486 8      2015.494          50.687
G10  22896066.460   120319640.592 7      4345.542          46.375    22896064.860   120319640.597 7      4345.542          42.562    22896074.780    93755597.370 7      3386.137          42.375    22896074.560    93755601.381 7      3386.137          45.500
R09  19879991.140   106158048.641 8       169.125          48.375    19879991.320   106158048.656 7       169.125          47.812    19879999.020    82567400.317 8       131.541          50.125    19879999.220    82567408.306 8       131.541          50.750
> 2024 05 08 11 21 53.0000000  0 10
R21  21157618.760   113218697.218 7      4524.854          45.437    21157619.740   113218697.217 7      4524.854          45.312    21157630.660    88059030.647 8      3519.331          48.875    21157630.500    88059029.652 8      3519.331          48.750
G23  23050552.660   121131473.787 7      2753.716          42.687    23050550.620   121131473.792 5      2753.716          32.375    23050558.840    94388180.937 5      2145.752          32.187    23050559.400    94388184.949 7      2145.752          47.500
G31  23378793.980   122856401.354 7      -888.237          44.625    23378792.980   122856401.364 6      -888.237          41.312    23378800.580    95732290.045 6      -692.133          41.125    23378801.800    95732292.045 7      -692.133          46.187
R10  19362949.500   103215438.427 7      3613.258          45.625    19362948.840   103215438.440 7      3613.258          45.250
G26  21044493.200   110589565.938 7       878.411          47.250    21044492.140   110589565.943 7       878.411          47.500    21044499.460    86173705.075 7       684.476          47.312    21044499.500    86173709.074 8       684.476          49.062
G21  22774529.200   119680953.337 7      5679.535          44.812    22774527.760   119680953.339 5      5679.535          30.062    22774533.820    93257908.617 5      4425.612          30.312
G16  20447231.020   107450924.885 7      2938.561          46.875    20447229.420   107450924.888 6      2938.561          39.937    20447232.460    83727997.324 6      2289.788          39.312
G27  20808225.800   109347970.413 8      2586.654          48.687    20808224.580   109347970.421 7      2586.654          42.500    20808229.700    85206219.855 7      2015.575          42.312    20808230.060    85206224.860 8      2015.575          52.000
G10  22895239.420   120315294.911 7      4345.544          44.625    22895237.800   120315294.914 7      4345.544          42.750    22895247.680    93752211.130 7      3386.138          42.687    22895247.940    93752215.143 7      3386.138          45.000
R09  19879959.840   106157879.624 8       168.772          49.437    19879959.760   106157879.625 8       168.772          48.125    19879967.340    82567268.848 8       131.267          51.062    19879967.820    82567276.840 8       131.267          51.562
> 2024 05 08 11 21 54.0000000  0 10
R21  21156772.960   113214172.867 7      4524.200          45.250    21156774.180   113214172.885 7      4524.200          45.250    21156785.260    88055511.726 8      3518.823          49.125    21156785.020    88055510.732 8      3518.823          48.812
G23  23050028.600   121128720.577 7      2752.968          43.000    23050026.720   121128720.585 5      2752.968          32.187    23050035.000    94386035.579 5      2145.170          32.187    23050035.340    94386039.592 7      2145.170          47.687
G31  23378963.140   122857289.884 7      -888.596          44.312    23378961.860   122857289.894 6      -888.596          41.562    23378969.760    95732982.395 6      -692.413          41.250    23378970.760    95732984.396 7      -692.413          46.250
R10  19362271.700   103211825.734 7      3612.368          45.625    19362271.220   103211825.748 7      3612.368          45.625
G26  21044326.260   110588687.976 7       877.778          47.000    21044325.060   110588687.981 7       877.778          47.562    21044332.360    86173020.949 7       683.983          47.125    21044332.760    86173024.950 8       683.983          48.812
G21  22773448.360   119675274.136 7      5678.990          43.875    22773446.980   119675274.144 5      5678.990          30.062    22773453.140    93253483.264 5      4425.187          30.187
G16  20446672.040   107447986.692 7      2938.025          46.500    20446670.460   107447986.700 6      2938.025          40.125    20446673.380    83725707.823 6      2289.370          39.562
G27  20807733.580   109345384.022 8      2586.369          49.062    20807732.360   109345384.034 7      2586.369          42.937    20807737.440    85204204.489 7      2015.353          42.500    20807738.080    85204209.495 8      2015.353          51.500
G10  22894412.460   120310949.733 7      4344.930          45.125    22894411.100   120310949.735 7      4344.930          43.312    22894420.860    93748825.274 7      3385.659          43.062    22894420.860    93748829.281 7      3385.659          45.562
R09  19879927.940   106157711.451 7       167.890          47.437    19879928.140   106157711.449 8       167.890          48.000    19879935.940    82567138.041 8       130.581          52.062    19879936.060    82567146.036 8       130.581          52.812
> 2024 05 08 11 21 55.0000000  0 10
R21  21155927.700   113209648.900 7      4523.769          45.875    21155928.900   113209648.917 7      4523.769          45.312    21155939.880    88051993.083 8      3518.487          49.000    21155939.680    88051992.086 8      3518.487          49.437
G23  23049504.700   121125967.798 7      2752.518          43.937    23049502.880   121125967.805 5      2752.518          32.187    23049511.240    94383890.554 5      2144.819          31.750    23049511.280    94383894.559 7      2144.819          47.687
G31  23379132.080   122858178.368 7      -888.590          44.437    23379131.060   122858178.373 6      -888.590          41.312    23379138.800    95733674.709 6      -692.408          41.187    23379139.420    95733676.705 7      -692.408          46.000
R10  19361594.220   103208213.675 7      3611.694          46.562    19361593.700   103208213.678 7      3611.694          44.875
G26  21044159.340   110587810.288 8       877.560          48.562    21044158.040   110587810.293 8       877.560          48.062    21044165.280    86172337.030 7       683.813          47.750    21044165.580    86172341.029 8       683.813          48.875
G21  22772367.520   119669595.169 7      5678.877          44.062    22772366.240   119669595.174 4      5678.877          29.875    22772372.320    93249058.099 5      4425.099          30.187
G16  20446112.960   107445048.765 7      2937.825          45.937    20446111.360   107445048.770 6      2937.825          39.500    20446114.320    83723418.527 6      2289.214          39.187
G27  20807241.420   109342797.716 8      2586.249          49.437    20807240.260   109342797.729 7      2586.249          42.125    20807245.420    85202189.185 7      2015.259          42.000    20807245.900    85202194.189 8      2015.259          51.437
G10  22893585.740   120306604.712 7      4344.923          44.875    22893584.320   120306604.714 7      4344.923          43.375    22893594.020    93745439.544 7      3385.654          42.812    22893593.920    93745443.551 7      3385.654          44.937
R09  19879896.520   106157543.840 8       167.308          48.062    19879896.800   106157543.847 8       167.308          48.062    19879904.480    82567007.679 8       130.129          52.250    19879904.720    82567015.673 8       130.129          52.750
> 2024 05 08 11 21 56.0000000  0 10
R21  21155082.540   113205125.392 7      4523.090          44.937    21155083.520   113205125.410 7      4523.090          45.250    21155094.460    88048474.799 8      3517.959          49.250    21155094.200    88048473.800 8      3517.959          49.125
G23  23048980.880   121123215.505 7      2751.937          43.500    23048979.260   121123215.515 5      2751.937          32.187    23048987.520    94381745.912 5      2144.366          31.750    23048987.620    94381749.927 7      2144.366          47.625
G31  23379301.220   122859066.869 7      -888.604          43.687    23379300.060   122859066.881 6      -888.604          41.187    23379307.940    95734367.040 6      -692.419          41.250    23379308.460    95734369.041 7      -692.419          46.187
R10  19360916.700   103204602.283 7      3610.856          46.125    19360916.080   103204602.294 7      3610.856          45.562
G26  21043992.580   110586932.981 7       877.084          47.687    21043991.120   110586932.983 7       877.084          47.687    21043998.460    86171653.412 7       683.442          47.562    21043998.840    86171657.411 8       683.442          48.625
G21  22771287.020   119663916.525 7      5678.496          44.062    22771285.740   119663916.530 4      5678.496          29.875    22771291.740    93244633.188 5      4424.802          30.187
G16  20445553.900   107442111.200 7      2937.357          46.375    20445552.300   107442111.208 6      2937.357          39.687    20445555.320    83721129.515 6      2288.850          39.250
G27  20806749.360   109340211.556 8      2585.993          48.937    20806748.100   109340211.566 7      2585.993          42.687    20806753.360    85200173.994 7      2015.059          42.250    20806753.820    85200178.999 8      2015.059          52.000
G10  22892758.920   120302260.006 7      4344.503          44.937    22892757.480   120302260.014 7      4344.503          42.812    22892767.280    93742054.065 7      3385.327          43.062    22892767.020    93742058.074 7      3385.327          45.250
R09  19879865.220   106157376.892 8       166.513          48.750    19879865.440   106157376.901 8       166.513          48.062    19879873.260    82566877.829 8       129.510          52.375    19879873.480    82566885.822 8       129.510          53.062
> 2024 05 08 11 21 57.0000000  0 10
R21  21154237.360   113200602.567 7      4522.594          46.062    21154238.360   113200602.574 7      4522.594          45.250    21154249.040    88044957.036 8      3517.573          48.437    21154249.060    88044956.039 8      3517.573          48.625
G23  23048457.140   121120463.931 7      2751.335          43.000    23048455.480   121120463.944 5      2751.335          32.187    23048463.960    94379601.833 5      2143.897          31.750    23048464.240    94379605.832 7      2143.897          47.250
G31  23379470.260   122859955.621 7      -888.684          44.125    23379469.060   122859955.637 6      -888.684          41.250    23379477.260    95735059.567 6      -692.481          41.187    23379477.940    95735061.567 7      -692.481          46.500
R10  19360239.520   103200991.781 7      3610.139          46.312    19360238.800   103200991.787 7      3610.139          45.062
G26  21043825.800   110586056.231 7       876.641          47.562    21043824.240   110586056.239 7       876.641          47.562    21043831.460    86170970.233 7       683.097          47.500    21043831.820    86170974.231 8       683.097          49.312
G21  22770206.700   119658238.417 7      5677.900          43.437    22770205.120   119658238.422 4      5677.900          29.875    22770211.180    93240208.698 5      4424.337          30.187
G16  20444995.140   107439174.174 7      2936.914          45.875    20444993.400   107439174.176 6      2936.914          39.937    20444996.440    83718840.919 6      2288.504          39.312
G27  20806257.320   109337625.737 8      2585.849          48.562    20806256.040   109337625.742 7      2585.849          42.375    20806261.140    85198159.064 7      2014.948          42.125    20806261.860    85198164.069 8      2014.948          51.562
G10  22891932.340   120297915.760 7      4344.246          44.687    22891930.700   120297915.768 7      4344.246          43.625    22891940.500    93738668.940 7      3385.127          43.250    22891940.640    93738672.945 7      3385.127          45.125
R09  19879834.340   106157210.753 8       165.898          48.750    19879834.300   106157210.760 8       165.898          48.187    19879842.080    82566748.601 8       129.032          51.375    19879842.220    82566756.597 8       129.032          52.437
> 2024 05 08 11 21 58.0000000  0 10
R21  21153392.280   113196080.494 7      4521.769          44.437    21153393.680   113196080.517 7      4521.769          44.937    21153403.640    88041439.874 8      3516.932          48.750    21153403.700    88041438.871 8      3516.932          48.375
G23  23047933.420   121117713.104 7      2750.631          43.750    23047932.120   121117713.114 5      2750.631          32.187    23047940.380    94377458.327 5      2143.349          32.000    23047940.760    94377462.328 7      2143.349          47.562
G31  23379639.320   122860844.692 7      -889.086          44.562    23379638.460   122860844.704 6      -889.086          40.875    23379646.420    95735752.335 6      -692.794          40.812    23379647.160    95735754.333 7      -692.794          46.500
R10  19359562.260   103197382.217 7      3609.217          46.500    19359561.660   103197382.231 7      3609.217          45.375
G26  21043659.000   110585180.130 7       875.905          47.187    21043657.580   110585180.140 7       875.905          47.375    21043664.860    86170287.552 7       682.523          47.187    21043665.180    86170291.547 8       682.523          49.125
G21  22769126.000   119652560.859 7      5677.435          43.750    22769124.480   119652560.866 4      5677.435          29.875    22769130.600    93235784.635 4      4423.976          29.312
G16  20444436.340   107436237.747 7      2936.261          46.187    20444434.680   107436237.752 6      2936.261          39.562    20444437.680    83716552.794 6      2287.995          39.375
G27  20805765.400   109335040.325 8      2585.348          48.312    20805763.980   109335040.335 7      2585.348          42.250    20805769.240    85196144.462 7      2014.557          42.250    20805769.760    85196149.466 8      2014.557          51.625
G10  22891105.700   120293572.100 7      4343.428          45.312    22891104.260   120293572.108 7      4343.428          43.062    22891113.900    93735284.274 7      3384.489          42.875    22891114.140    93735288.277 7      3384.489          45.437
R09  19879803.180   106157045.552 8       164.868          48.437    19879803.420   106157045.555 8       164.868          48.312    19879811.100    82566620.111 8       128.231          52.437    19879811.460    82566628.107 8       128.231          53.125
> 2024 05 08 11 21 59.0000000  0 10
R21  21152547.620   113191558.886 7      4521.322          45.125    21152548.820   113191558.911 7      4521.322          44.875    21152558.480    88037923.068 8      3516.583          48.937    21152558.860    88037922.063 8      3516.583          48.625
G23  23047410.000   121114962.768 7      2750.080          43.625    23047408.680   121114962.776 5      2750.080          32.125    23047416.960    94375315.206 5      2142.920          32.000    23047416.980    94375319.203 7      2142.920          47.375
G31  23379808.620   122861733.765 7      -889.152          44.687    23379807.700   122861733.778 6      -889.152          41.437    23379815.780    95736445.113 6      -692.846          41.500    23379816.460    95736447.111 7      -692.846          46.562
R10  19358885.460   103193773.341 7      3608.531          46.062    19358884.900   103193773.354 7      3608.531          45.312
G26  21043492.280   110584304.352 7       875.566          47.125    21043490.860   110584304.362 7       875.566          47.625    21043498.180    86169605.126 7       682.259          47.562    21043498.560    86169609.123 8       682.259          49.125
G21  22768045.460   119646883.615 7      5677.079          44.250    22768044.160   119646883.620 4      5677.079          28.937    22768049.980    93231360.809 4      4423.698          29.312
G16  20443877.580   107433301.635 7      2935.917          46.500    20443875.940   107433301.643 6      2935.917          40.062    20443878.880    83714264.917 6      2287.728          39.375
G27  20805273.460   109332455.031 8      2585.193          48.812    20805271.980   109332455.039 7      2585.193          42.750    20805277.320    85194129.943 7      2014.436          42.500    20805277.820    85194134.952 8      2014.436          51.875
G10  22890279.340   120289228.672 7      4343.171          45.500    22890277.680   120289228.674 7      4343.171          43.250    22890287.400    93731899.784 7      3384.289          43.250    22890287.760    93731903.785 7      3384.289          45.812
R09  19879772.460   106156880.948 8       164.286          49.625    19879772.420   106156880.954 8       164.286          48.437    19879780.380    82566492.081 8       127.778          51.562    19879780.740    82566500.077 8       127.778          52.875
> 2024 05 08 11 22  0.0000000  0 10
R21  21151702.860   113187037.770 7      4521.017          44.125    21151703.920   113187037.790 7      4521.017          45.000    21151713.380    88034406.638 8      3516.347          48.187    21151713.620    88034405.635 8      3516.347          48.500
G23  23046886.960   121112212.947 7      2749.723          43.375    23046885.220   121112212.952 5      2749.723          32.125    23046893.820    94373172.487 5      2142.641          32.000    23046893.440    94373176.489 7      2142.641          47.250
G31  23379977.880   122862622.891 7      -888.950          45.000    23379976.980   122862622.903 6      -888.950          41.687    23379984.840    95737137.928 6      -692.688          41.312    23379985.500    95737139.922 7      -692.688          46.250
R10  19358208.640   103190165.184 7      3607.999          46.062    19358207.960   103190165.187 7      3607.999          45.375
G26  21043325.800   110583428.968 7       875.326          47.562    21043324.220   110583428.976 7       875.326          46.937    21043331.560    86168923.007 7       682.072          47.062    21043331.820    86168927.003 8       682.072          49.750
G21  22766965.360   119641206.716 7      5676.870          43.187    22766963.780   119641206.721 4      5676.870          28.937    22766969.600    93226937.255 4      4423.535          29.312
G16  20443318.900   107430365.899 7      2935.704          45.937    20443317.340   107430365.904 6      2935.704          39.375    20443320.340    83711977.328 6      2287.562          39.000
G27  20804781.400   109329869.898 8      2585.255          48.250    20804780.040   109329869.903 7      2585.255          42.750    20804785.300    85192115.554 7      2014.485          42.187    20804785.960    85192120.558 8      2014.485          51.312
G10  22889452.900   120284885.532 7      4343.093          45.437    22889451.240   120284885.537 7      4343.093          43.437    22889460.880    93728515.522 7      3384.228          43.312    22889461.800    93728519.522 7      3384.228          45.687
R09  19879741.900   106156716.993 7       163.855          47.500    19879741.860   106156717.002 8       163.855          48.062    19879749.600    82566364.559 8       127.443          52.062    19879750.080    82566372.557 8       127.443          52.562
> 2024 05 08 11 22  1.0000000  0 10
R21  21150857.960   113182517.182 7      4520.377          45.625    21150858.380   113182517.197 7      4520.377          45.000    21150868.860    88030890.621 8      3515.849          48.500    21150869.020    88030889.618 8      3515.849          48.375
G23  23046363.820   121109463.684 7      2749.049          44.062    23046362.300   121109463.694 5      2749.049          32.125    23046370.620    94371030.203 5      2142.116          32.000    23046370.820    94371034.212 7      2142.116          47.562
G31  23380146.880   122863512.161 7      -889.313          44.437    23380146.220   122863512.166 6      -889.313          41.562    23380154.060    95737830.849 6      -692.971          41.187    23380154.660    95737832.848 7      -692.971          46.250
R10  19357532.000   103186557.806 7      3607.022          46.187    19357531.180   103186557.809 7      3607.022          45.375
G26  21043159.180   110582554.015 7       874.776          47.625    21043157.740   110582554.020 7       874.776          47.937    21043165.120    86168241.219 7       681.643          47.687    21043165.260    86168245.216 8       681.643          48.875
G21  22765885.020   119635530.187 7      5676.379          44.062    22765883.580   119635530.192 4      5676.379          28.937    22765889.620    93222513.996 4      4423.152          29.312
G16  20442760.280   107427430.565 7      2935.206          46.937    20442758.720   107427430.572 6      2935.206          39.937    20442761.800    83709690.059 6      2287.173          39.500
G27  20804289.520   109327284.994 8      2584.810          49.062    20804288.160   109327285.004 7      2584.810          42.312    20804293.440    85190101.344 7      2014.138          42.500    20804293.920    85190106.349 8      2014.138          51.437
G10  22888626.580   120280542.757 7      4342.604          44.937    22888624.800   120280542.765 7      4342.604          43.312    22888634.520    93725131.546 7      3383.847          43.000    22888635.260    93725135.546 7      3383.847          45.625
R09  19879711.020   106156553.804 8       162.804          48.625    19879711.260   106156553.805 7       162.804          47.937    19879719.080    82566237.624 8       126.626          52.000    19879719.240    82566245.624 8       126.626          52.250
> 2024 05 08 11 22  2.0000000  0 10
R21  21150013.440   113177997.225 7      4519.557          45.250    21150013.480   113177997.237 7      4519.557          45.000    21150024.080    88027375.099 7      3515.211          47.500    21150024.100    88027374.096 8      3515.211          48.375
G23  23045841.080   121106715.108 7      2748.263          43.312    23045839.360   121106715.118 5      2748.263          32.187    23045847.700    94368888.454 5      2141.503          32.000    23045847.920    94368892.449 7      2141.503          47.000
G31  23380316.260   122864401.584 7      -889.595          43.812    23380315.680   122864401.591 6      -889.595          41.375    23380323.240    95738523.898 6      -693.191          41.312    23380324.180    95738525.898 7      -693.191          45.687
R10  19356855.620   103182951.264 7      3606.103          46.187    19356854.420   103182951.270 7      3606.103          45.312
G26  21042992.840   110581679.583 7       874.165          46.687    21042991.420   110581679.590 7       874.165          47.000    21042998.780    86167559.841 7       681.167          46.250    21042998.780    86167563.833 8       681.167          48.812
G21  22764804.580   119629854.147 7      5675.745          43.000    22764803.440   119629854.155 4      5675.745          28.937    22764809.500    93218091.116 4      4422.658          29.312
G16  20442201.820   107424495.751 7      2934.532          46.500    20442200.220   107424495.759 6      2934.532          39.812    20442203.220    83707403.183 6      2286.648          39.375
G27  20803797.560   109324700.373 8      2584.458          48.500    20803796.360   109324700.380 7      2584.458          42.312    20803801.440    85188087.352 7      2013.863          42.437    20803802.320    85188092.356 8      2013.863          50.562
G10  22887800.300   120276200.414 7      4342.008          45.125    22887798.420   120276200.424 7      4342.008          42.750    22887808.420    93721747.905 7      3383.383          42.687    22887808.840    93721751.910 7      3383.383          45.312
R09  19879680.520   106156391.414 8       161.919          48.687    19879680.700   106156391.407 7       161.919          47.812    19879688.620    82566111.310 8       125.937          50.812    19879688.800    82566119.308 8       125.937          51.812
> 2024 05 08 11 22  3.0000000  0 10
R21  21149169.160   113173477.873 7      4519.019          44.875    21149168.160   113173477.879 7      4519.019          44.500    21149179.800    88023860.047 8      3514.792          48.250    21149179.520    88023859.044 8      3514.792          48.875
G23  23045318.340   121103967.166 7      2747.596          43.062    23045316.460   121103967.174 5      2747.596          32.187    23045324.800    94366747.198 5      2140.984          31.812    23045325.180    94366751.201 7      2140.984          47.250
G31  23380485.540   122865291.201 7      -889.674          44.312    23380484.940   122865291.213 6      -889.674          41.187    23380492.400    95739217.100 6      -693.253          40.750    23380493.500    95739219.104 7      -693.253          45.937
R10  19356179.280   103179345.594 7      3605.222          45.250    19356178.300   103179345.597 7      3605.222          45.500
G26  21042826.660   110580805.686 7       873.586          46.875    21042825.180   110580805.688 7       873.586          46.937    21042832.480    86166878.876 7       680.716          46.812    21042832.920    86166882.871 8       680.716          49.250
G21  22763724.600   119624178.549 7      5675.422          42.625    22763723.560   119624178.556 4      5675.422          28.937    22763729.520    93213668.578 4      4422.407          28.312
G16  20441643.360   107421561.410 7      2934.156          46.937    20441641.860   107421561.415 6      2934.156          39.500    20441644.840    83705116.681 6      2286.356          39.312
G27  20803305.840   109322116.057 8      2584.190          48.312    20803304.500   109322116.061 7      2584.190          42.812    20803309.760    85186073.599 7      2013.655          42.625    20803310.520    85186078.599 8      2013.655          51.375
G10  22886974.020   120271858.491 7      4341.781          44.812    22886972.380   120271858.498 7      4341.781          42.750    22886981.980    93718364.587 7      3383.206          42.937    22886982.100    93718368.587 7      3383.206          45.500
R09  19879650.540   106156229.763 7       161.230          47.375    19879650.420   106156229.767 8       161.230          48.750    19879658.240    82565985.584 8       125.401          51.500    19879658.660    82565993.582 8       125.401          52.187
> 2024 05 08 11 22  4.0000000  0 10
R21  21148324.500   113168959.130 7      4518.588          44.687    21148323.760   113168959.126 7      4518.588          44.437    21148335.720    88020345.463 8      3514.457          48.875    21148335.160    88020344.465 8      3514.457          48.562
G23  23044795.420   121101219.839 7      2747.029          43.750    23044793.660   121101219.849 5      2747.029          31.812    23044801.940    94364606.428 5      2140.542          31.812    23044802.420    94364610.437 7      2140.542          47.687
G31  23380654.940   122866180.970 7      -889.686          44.687    23380654.240   122866180.983 6      -889.686          41.687    23380661.580    95739910.418 6      -693.261          41.125    23380662.660    95739912.431 7      -693.261          45.937
R10  19355502.800   103175740.724 7      3604.528          46.500    19355501.920   103175740.727 7      3604.528          44.937
G26  21042660.520   110579932.239 7       873.279          46.812    21042658.760   110579932.244 7       873.279          47.500    21042666.200    86166198.268 7       680.477          47.187    21042666.840    86166202.263 8       680.477          49.437
G21  22762644.940   119618503.412 7      5675.033          42.812    22762643.620   119618503.412 4      5675.033          28.187    22762649.580    93209246.402 4      4422.104          28.312
G16  20441085.080   107418627.537 7      2933.832          46.125    20441083.560   107418627.542 6      2933.832          39.937    20441086.500    83702830.549 6      2286.103          39.562
G27  20802814.200   109319531.988 8      2584.031          48.687    20802812.780   109319531.995 7      2584.031          42.812    20802818.060    85184060.037 7      2013.531          42.500    20802818.700    85184065.043 8      2013.531          51.375
G10  22886147.960   120267516.978 7      4341.444          44.562    22886145.940   120267516.988 7      4341.444          42.937    22886155.840    93714981.593 7      3382.943          43.000    22886155.840    93714985.590 7      3382.943          45.562
R09  19879620.460   106156068.878 8       160.592          48.875    19879620.360   106156068.885 8       160.592          48.250    19879628.180    82565860.447 8       124.905          51.687    19879628.440    82565868.449 8       124.905          52.687
> 2024 05 08 11 22  5.0000000  0 10
R21  21147480.180   113164440.955 7      4517.722          44.875    21147480.020   113164440.954 7      4517.722          44.625    21147491.440    88016831.331 8      3513.784          48.562    21147491.060    88016830.329 8      3513.784          48.812
G23  23044272.460   121098473.108 7      2746.144          42.750    23044270.980   121098473.121 5      2746.144          31.812    23044279.300    94362466.118 5      2139.853          31.812    23044279.860    94362470.121 7      2139.853          47.312
G31  23380824.300   122867070.892 7      -890.188          45.125    23380823.600   122867070.907 6      -890.188          41.437    23380830.980    95740603.856 6      -693.653          40.750    23380831.900    95740605.862 7      -693.653          46.562
R10  19354826.820   103172136.634 7      3603.525          46.250    19354825.700   103172136.640 7      3603.525          45.250
G26  21042494.480   110579059.275 7       872.515          47.187    21042492.640   110579059.277 7       872.515          47.500    21042500.120    86165518.030 7       679.882          47.312    21042500.620    86165522.027 8       679.882          49.125
G21  22761564.980   119612828.663 7      5674.395          42.875    22761563.640   119612828.667 4      5674.395          28.187    22761569.580    93204824.531 4      4421.606          28.312
G16  20440526.600   107415694.116 7      2932.986          46.375    20440525.460   107415694.118 6      2932.986          40.000    20440528.360    83700544.766 6      2285.444          39.625
G27  20802322.460   109316948.171 8      2583.503          48.562    20802321.160   109316948.176 7      2583.503          42.375    20802326.300    85182046.673 7      2013.119          42.187    20802326.900    85182051.681 8      2013.119          51.625
G10  22885321.820   120263175.840 7      4340.769          45.250    22885320.020   120263175.848 7      4340.769          43.562    22885329.700    93711598.889 7      3382.417          43.562    22885329.740    93711602.884 7      3382.417          45.500
R09  19879590.620   106155908.752 8       159.557          48.562    19879590.400   106155908.753 8       159.557          48.562    19879598.220    82565735.902 8       124.100          51.875    19879598.640    82565743.902 8       124.100          53.187
> 2024 05 08 11 22  6.0000000  0 10
R21  21146635.760   113159923.347 7      4517.406          45.187    21146635.880   113159923.349 7      4517.406          44.937    21146647.280    88013317.641 8      3513.538          49.250    21146646.840    88013316.640 8      3513.538          48.750
G23  23043749.660   121095727.000 7      2745.738          42.250    23043748.560   121095727.013 5      2745.738          31.812    23043756.780    94360326.294 5      2139.536          31.937    23043756.920    94360330.295 7      2139.536          47.562
G31  23380993.600   122867960.961 7      -890.070          45.062    23380992.940   122867960.966 6      -890.070          41.562    23381000.500    95741297.400 6      -693.561          41.187    23381001.220    95741299.408 7      -693.561          46.312
R10  19354150.700   103168533.342 7      3603.126          46.625    19354149.700   103168533.345 7      3603.126          45.250
G26  21042328.180   110578186.776 7       872.353          47.812    21042326.680   110578186.784 7       872.353          47.687    21042334.240    86164838.163 7       679.756          47.250    21042334.540    86164842.160 8       679.756          49.437
G21  22760485.280   119607154.351 7      5674.325          43.750    22760483.840   119607154.351 4      5674.325          28.187    22760489.720    93200403.000 4      4421.552          28.312
G16  20439968.560   107412761.136 7      2932.839          45.875    20439967.420   107412761.141 6      2932.839          39.562    20439970.260    83698259.325 6      2285.329          39.312
G27  20801830.700   109314364.593 8      2583.577          48.875    20801829.480   109314364.600 7      2583.577          42.562    20801834.640    85180033.496 7      2013.177          42.125    20801835.420    85180038.504 8      2013.177          52.000
G10  22884495.440   120258835.102 7      4340.600          44.625    22884493.960   120258835.107 7      4340.600          43.312    22884503.600    93708216.495 7      3382.286          43.375    22884504.240    93708220.494 7      3382.286          45.562
R09  19879560.760   106155749.374 8       159.161          48.000    19879560.720   106155749.369 8       159.161          48.750    19879568.320    82565611.935 8       123.792          51.437    19879568.880    82565619.931 8       123.792          53.125
> 2024 05 08 11 22  7.0000000  0 10
R21  21145791.980   113155406.114 7      4516.882          45.875    21145792.260   113155406.113 7      4516.882          45.000    21145803.360    88009804.233 8      3513.130          48.937    21145802.700    88009803.234 8      3513.130          48.500
G23  23043227.340   121092981.273 7      2745.303          42.312    23043226.180   121092981.288 5      2745.303          32.187    23043234.140    94358186.770 5      2139.197          31.937    23043234.420    94358190.767 7      2139.197          47.250
G31  23381162.800   122868850.967 7      -890.195          44.000    23381162.180   122868850.980 6      -890.195          41.312    23381169.780    95741990.907 6      -693.658          40.937    23381170.520    95741992.911 7      -693.658          46.125
R10  19353474.780   103164930.679 7      3602.229          46.437    19353473.860   103164930.679 7      3602.229          45.000
G26  21042161.920   110577314.561 7       871.934          47.437    21042160.680   110577314.561 7       871.934          46.750    21042168.220    86164158.507 7       679.429          46.750    21042168.300    86164162.500 8       679.429          49.187
G21  22759405.300   119601480.272 7      5673.845          43.312    22759403.740   119601480.276 4      5673.845          28.187    22759410.060    93195981.650 4      4421.178          28.312
G16  20439410.520   107409828.416 7      2932.365          46.500    20439409.280   107409828.424 6      2932.365          40.125    20439412.120    83695974.089 6      2284.960          39.750
G27  20801339.180   109311781.094 8      2583.261          48.562    20801337.940   109311781.101 7      2583.261          42.437    20801342.980    85178020.378 7      2012.931          42.312    20801343.840    85178025.386 8      2012.931          51.812
G10  22883669.380   120254494.545 7      4340.218          45.000    22883668.100   120254494.553 7      4340.218          43.625    22883677.740    93704834.248 7      3381.988          43.437    22883677.880    93704838.244 7      3381.988          45.687
R09  19879530.840   106155590.524 7       158.394          47.937    19879530.980   106155590.530 8       158.394          48.562    19879538.520    82565488.385 8       123.196          51.937    19879538.900    82565496.379 8       123.196          52.625
> 2024 05 08 11 22  8.0000000  0 10
R21  21144947.540   113150889.483 7      4516.199          45.812    21144948.680   113150889.490 7      4516.199          45.250    21144959.200    88006291.312 8      3512.599          48.875    21144958.740    88006290.313 8      3512.599          49.250
G23  23042705.100   121090236.187 7      2744.761          42.625    23042703.860   121090236.200 5      2744.761          32.187    23042711.680    94356047.738 5      2138.775          32.187    23042711.840    94356051.735 7      2138.775          47.187
G31  23381332.520   122869741.138 7      -890.375          44.562    23381331.500   122869741.143 6      -890.375          41.000    23381339.180    95742684.532 6      -693.799          40.812    23381339.740    95742686.541 7      -693.799          46.000
R10  19352799.040   103161328.817 7      3601.386          46.312    19352798.100   103161328.823 7      3601.386          45.187
G26  21041996.180   110576442.837 7       871.396          46.562    21041994.840   110576442.842 7       871.396          47.312    21042002.320    86163479.244 7       679.010          46.937    21042002.680    86163483.240 8       679.010          49.500
G21  22758325.420   119595806.641 7      5673.433          43.312    22758324.320   119595806.649 4      5673.433          28.312    22758330.300    93191560.645 4      4420.857          28.500
G16  20438852.720   107406896.157 7      2931.967          46.125    20438851.240   107406896.161 6      2931.967          39.875    20438854.200    83693689.211 6      2284.650          39.437
G27  20800847.560   109309197.839 8      2583.077          49.125    20800846.260   109309197.844 7      2583.077          42.312    20800851.360    85176007.452 7      2012.787          42.375    20800852.320    85176012.456 8      2012.787          51.937
G10  22882843.660   120250154.390 7      4339.842          45.375    22882842.100   120250154.400 7      4339.842          43.250    22882851.760    93701452.313 7      3381.695          43.187    22882852.040    93701456.310 7      3381.695          45.187
R09  19879501.300   106155432.496 8       157.521          48.562    19879501.260   106155432.505 7       157.521          47.812    19879509.020    82565365.475 8       122.517          51.875    19879509.320    82565373.466 8       122.517          53.062
> 2024 05 08 11 22  9.0000000  0 10
R21  21144103.980   113146373.510 7      4515.440          45.625    21144104.500   113146373.512 7      4515.440          45.125    21144115.300    88002778.880 8      3512.009          48.812    21144114.840    88002777.882 8      3512.009          49.687
G23  23042182.940   121087491.752 6      2744.005          41.875    23042181.580   121087491.762 5      2744.005          32.312    23042189.440    94353909.218 5      2138.186          32.187    23042189.440    94353913.214 7      2138.186          47.062
G31  23381501.960   122870631.481 7      -890.582          43.875    23381500.740   122870631.488 6      -890.582          41.500    23381508.660    95743378.297 6      -693.960          41.062    23381509.360    95743380.306 7      -693.960          45.375
R10  19352123.660   103157727.814 7      3600.312          46.312    19352122.420   103157727.823 7      3600.312          45.312
G26  21041830.560   110575571.629 7       870.723          46.812    21041829.100   110575571.636 7       870.723          47.125    21041836.500    86162800.378 7       678.486          47.062    21041836.860    86162804.374 8       678.486          49.625
G21  22757245.880   119590133.491 7      5672.652          42.937    22757244.900   119590133.496 4      5672.652          28.312    22757250.880    93187140.015 4      4420.248          28.500
G16  20438294.900   107403964.396 7      2931.326          46.562    20438293.420   107403964.403 6      2931.326          39.750    20438296.240    83691404.720 6      2284.150          39.500
G27  20800356.020   109306614.897 8      2582.560          48.125    20800354.700   109306614.905 7      2582.560          42.437    20800359.940    85173994.770 7      2012.385          42.187    20800360.860    85173999.772 8      2012.385          51.625
G10  22882017.640   120245814.677 7      4339.219          45.375    22882016.380   120245814.690 7      4339.219          42.937    22882026.040    93698070.720 7      3381.210          42.937    22882026.100    93698074.719 7      3381.210          45.375
R09  19879471.940   106155275.232 8       156.617          49.375    19879471.980   106155275.238 8       156.617          48.250    19879479.580    82565243.154 8       121.813          51.500    19879479.820    82565251.150 8       121.813          52.125
> 2024 05 08 11 22 10.0000000  0 10
R21  21143259.920   113141858.005 7      4515.287          45.812    21143261.140   113141858.012 7      4515.287          45.125    21143271.680    87999266.817 8      3511.890          49.187    21143271.100    87999265.820 8      3511.890          48.937
G23  23041660.600   121084747.857 7      2743.684          43.187    23041659.560   121084747.869 5      2743.684          32.312    23041667.180    94351771.119 5      2137.936          32.187    23041667.200    94351775.110 7      2137.936          46.687
G31  23381671.620   122871521.902 7      -890.366          43.500    23381670.060   122871521.907 6      -890.366          41.250    23381678.180    95744072.118 6      -693.791          41.000    23381678.860    95744074.126 7      -693.791          45.875
R10  19351447.920   103154127.494 7      3600.101          46.375    19351447.260   103154127.505 7      3600.101          45.125
G26  21041664.660   110574700.798 7       870.641          47.625    21041663.440   110574700.806 7       870.641          47.687    21041670.820    86162121.809 7       678.422          47.437    21041671.260    86162125.805 8       678.422          49.687
G21  22756166.740   119584460.615 7      5672.840          43.250    22756165.340   119584460.617 4      5672.840          28.312    22756171.440    93182719.596 4      4420.395          28.500
G16  20437736.860   107401032.993 7      2931.305          46.250    20437735.480   107401032.997 6      2931.305          40.187    20437738.500    83689120.504 6      2284.134          39.500
G27  20799864.600   109304032.100 8      2582.711          48.750    20799863.220   109304032.105 7      2582.711          42.875    20799868.440    85171982.201 7      2012.502          42.937    20799869.160    85171987.203 8      2012.502          51.437
G10  22881192.100   120241475.242 7      4339.347          46.000    22881190.480   120241475.252 7      4339.347          43.375    22881200.180    93694689.346 7      3381.309          43.250    22881200.500    93694693.347 7      3381.309          45.562
R09  19879442.640   106155118.622 8       156.338          49.250    19879442.620   106155118.628 8       156.338          48.000    19879450.220    82565121.342 8       121.596          52.187    19879450.500    82565129.346 8       121.596          52.437
> 2024 05 08 11 22 11.0000000  0 10
R21  21142416.240   113137342.974 7      4514.798          45.312    21142416.600   113137342.984 7      4514.798          45.062    21142428.120    87995755.136 8      3511.509          49.187    21142427.400    87995754.138 8      3511.509          49.312
G23  23041138.560   121082004.471 7      2743.197          43.062    23041137.340   121082004.478 5      2743.197          32.312    23041145.000    94349633.412 5      2137.556          32.062    23041145.340    94349637.411 7      2137.556          46.937
G31  23381840.940   122872412.378 7      -890.491          43.375    23381839.420   122872412.388 6      -890.491          40.875    23381847.800    95744765.989 6      -693.889          40.562    23381848.340    95744768.002 7      -693.889          46.437
R10  19350772.660   103150527.954 7      3599.224          45.687    19350771.720   103150527.962 7      3599.224          45.250
G26  21041499.080   110573830.367 8       870.292          48.000    21041497.860   110573830.375 7       870.292          47.375    21041505.340    86161443.545 7       678.149          47.125    21041505.720    86161447.545 8       678.149          49.312
G21  22755087.120   119578788.146 7      5672.347          43.250    22755085.820   119578788.153 4      5672.347          28.312    22755092.320    93178299.498 4      4420.011          28.500
G16  20437179.160   107398101.973 7      2930.868          45.562    20437177.660   107398101.978 6      2930.868          39.687    20437180.720    83686836.596 6      2283.793          39.000
G27  20799373.220   109301449.492 8      2582.542          48.875    20799371.800   109301449.497 7      2582.542          42.187    20799376.940    85169969.777 7      2012.370          42.000    20799377.880    85169974.775 8      2012.370          52.062
G10  22880366.340   120237136.151 7      4338.977          45.687    22880364.820   120237136.156 7      4338.977          43.250    22880374.560    93691308.233 7      3381.021          43.000    22880374.440    93691312.238 7      3381.021          45.437
R09  19879413.320   106154962.728 8       155.536          48.312    19879413.540   106154962.731 8       155.536          48.125    19879421.020    82565000.085 8       120.972          51.875    19879421.300    82565008.087 8       120.972          52.812
> 2024 05 08 11 22 12.0000000  0 10
R21  21141572.560   113132828.513 7      4514.187          44.812    21141572.860   113132828.533 7      4514.187          45.250    21141584.460    87992243.895 8      3511.034          48.625    21141583.900    87992242.894 8      3511.034          48.250
G23  23040616.520   121079261.699 7      2742.504          43.437    23040615.500   121079261.710 5      2742.504          31.875    23040622.960    94347496.189 5      2137.016          32.062    23040623.280    94347500.190 7      2137.016          46.875
G31  23382010.540   122873303.004 7      -890.686          43.062    23382008.860   122873303.014 6      -890.686          41.187    23382017.200    95745459.977 6      -694.041          40.937    23382018.140    95745461.986 7      -694.041          45.937
R10  19350098.060   103146929.200 7      3598.374          45.750    19350096.820   103146929.214 7      3598.374          45.250
G26  21041333.760   110572960.412 7       869.809          46.625    21041332.220   110572960.417 7       869.809          47.687    21041339.720    86160765.653 7       677.773          47.187    21041340.280    86160769.652 8       677.773          49.000
G21  22754007.780   119573116.086 7      5671.926          43.562    22754006.460   119573116.091 4      5671.926          28.312    22754012.900    93173879.718 4      4419.682          28.500
G16  20436621.360   107395171.387 7      2930.462          46.500    20436620.000   107395171.394 6      2930.462          39.500    20436623.020    83684553.025 6      2283.477          39.375
G27  20798881.560   109298867.131 8      2582.264          48.687    20798880.260   109298867.136 7      2582.264          42.312    20798885.520    85167957.547 6      2012.154          41.875    20798886.200    85167962.545 8      2012.154          50.437
G10  22879540.700   120232797.439 7      4338.542          44.750    22879539.200   120232797.444 7      4338.542          43.125    22879548.920    93687927.420 7      3380.682          43.375    22879548.720    93687931.425 7      3380.682          45.000
R09  19879384.540   106154807.538 7       154.845          47.812    19879384.300   106154807.539 7       154.845          47.812    19879391.980    82564879.373 8       120.435          51.187    19879392.540    82564887.369 8       120.435          51.500
> 2024 05 08 11 22 13.0000000  0 10
R21  21140728.980   113128314.710 7      4513.426          44.687    21140729.320   113128314.722 7      4513.426          44.812    21140740.900    87988733.159 8      3510.442          48.500    21140740.500    87988732.158 8      3510.442          48.500
G23  23040094.640   121076519.601 7      2741.651          43.312    23040093.860   121076519.614 5      2741.651          31.875    23040101.180    94345359.493 5      2136.352          32.062    23040101.960    94345363.488 7      2136.352          46.937
G31  23382180.000   122874193.824 7      -890.957          43.937    23382178.320   122874193.827 6      -890.957          40.562    23382186.840    95746154.109 6      -694.252          40.250    23382187.280    95746156.111 7      -694.252          46.000
R10  19349422.900   103143331.332 7      3597.272          45.937    19349421.900   103143331.346 7      3597.272          45.125
G26  21041168.200   110572090.998 7       869.018          47.312    21041166.720   110572091.003 7       869.018          47.500    21041174.340    86160088.188 7       677.157          47.000    21041174.640    86160092.189 8       677.157          49.500
G21  22752928.880   119567444.508 7      5671.294          43.500    22752927.360   119567444.510 4      5671.294          28.875    22752933.520    93169460.308 4      4419.190          29.000
G16  20436064.140   107392241.326 7      2929.758          46.937    20436062.540   107392241.331 6      2929.758          40.000    20436065.420    83682269.859 6      2282.928          39.437
G27  20798390.200   109296285.074 8      2581.805          49.125    20798388.920   109296285.079 7      2581.805          42.687    20798394.160    85165945.553 7      2011.796          42.500    20798394.820    85165950.555 8      2011.796          51.437
G10  22878715.120   120228459.168 7      4337.848          44.375    22878713.640   120228459.178 7      4337.848          43.312    22878723.480    93684546.957 7      3380.141          43.312    22878723.440    93684550.956 7      3380.141          45.187
R09  19879355.380   106154653.182 7       153.893          47.187    19879355.420   106154653.175 8       153.893          48.500    19879363.020    82564759.312 8       119.695          51.250    19879363.420    82564767.308 8       119.695          52.250
> 2024 05 08 11 22 14.0000000  0 10
R21  21139885.640   113123801.613 7      4512.636          44.375    21139885.100   113123801.614 7      4512.636          44.375    21139897.540    87985222.967 8      3509.828          49.312    21139897.080    87985221.966 8      3509.828          48.812
G23  23039573.240   121073778.217 7      2740.945          43.625    23039572.220   121073778.230 5      2740.945          32.187    23039579.320    94343223.348 5      2135.801          32.000    23039580.140    94343227.345 7      2135.801          47.562
G31  23382349.180   122875084.905 7      -891.242          43.562    23382347.920   122875084.915 6      -891.242          41.125    23382356.380    95746848.449 6      -694.475          41.062    23382357.080    95746850.448 7      -694.475          45.812
R10  19348748.360   103139734.372 7      3596.448          46.000    19348746.960   103139734.386 7      3596.448          45.125
G26  21041003.120   110571222.151 7       868.473          47.687    21041001.340   110571222.156 7       868.473          47.187    21041009.040    86159411.162 7       676.732          47.687    21041009.500    86159415.161 8       676.732          49.687
G21  22751849.620   119561773.484 7      5670.635          43.562    22751848.300   119561773.486 4      5670.635          28.875    22751854.400    93165041.334 4      4418.676          29.000
G16  20435506.700   107389311.823 7      2929.186          46.875    20435505.080   107389311.833 6      2929.186          39.687    20435507.880    83679987.133 6      2282.482          39.375
G27  20797898.960   109293703.391 8      2581.404          48.562    20797897.800   109293703.398 7      2581.404          42.625    20797903.020    85163933.856 7      2011.484          42.437    20797903.440    85163938.854 8      2011.484          51.875
G10  22877889.820   120224121.399 7      4337.394          45.000    22877888.200   120224121.407 7      4337.394          43.437    22877897.760    93681166.875 7      3379.787          43.500    22877897.900    93681170.880 7      3379.787          45.437
R09  19879326.580   106154499.709 8       152.983          49.750    19879326.700   106154499.707 8       152.983          48.625    19879334.260    82564639.945 8       118.986          52.000    19879334.600    82564647.943 8       118.986          52.812
> 2024 05 08 11 22 15.0000000  0 10
R21  21139042.620   113119289.000 7      4512.451          44.375    21139041.560   113119289.005 7      4512.451          44.375    21139054.180    87981713.165 8      3509.684          48.937    21139053.740    87981712.169 8      3509.684          49.312
G23  23039051.540   121071037.361 7      2740.770          44.500    23039050.680   121071037.377 5      2740.770          32.187    23039057.760    94341087.616 5      2135.665          32.000    23039058.400    94341091.613 7      2135.665          47.125
G31  23382519.020   122875976.057 7      -891.018          42.937    23382517.480   122875976.064 6      -891.018          40.750    23382525.980    95747542.843 6      -694.300          40.750    23382526.740    95747544.843 7      -694.300          46.187
R10  19348073.480   103136138.148 7      3596.068          45.562    19348072.300   103136138.159 7      3596.068          45.187
G26  21040837.780   110570353.715 7       868.360          47.812    21040836.160   110570353.720 7       868.360          47.812    21040843.820    86158734.454 7       676.644          47.437    21040844.480    86158738.451 8       676.644          49.750
G21  22750770.580   119556102.791 7      5670.594          43.500    22750769.100   119556102.796 4      5670.594          28.875    22750775.420    93160622.623 4      4418.645          29.000
G16  20434949.480   107386382.708 7      2929.065          47.187    20434947.740   107386382.713 6      2929.065          39.750    20434950.540    83677704.697 6      2282.389          39.437
G27  20797407.860   109291121.855 8      2581.625          48.937    20797406.520   109291121.865 7      2581.625          42.500    20797411.740    85161922.269 7      2011.656          42.250    20797412.200    85161927.269 8      2011.656          51.562
G10  22877064.380   120219783.930 7      4337.474          45.250    22877062.800   120219783.940 7      4337.474          43.125    22877072.460    93677787.033 7      3379.850          42.875    22877072.380    93677791.036 7      3379.850          45.500
R09  19879297.880   106154346.893 8       152.683          49.687    19879297.920   106154346.892 8       152.683          48.437    19879305.660    82564521.084 8       118.753          52.187    19879305.900    82564529.080 8       118.753          52.125
> 2024 05 08 11 22 16.0000000  0 10
R21  21138199.000   113114776.993 7      4511.649          44.375    21138198.800   113114777.005 7      4511.649          44.375    21138211.060    87978203.832 8      3509.060          49.062    21138210.620    87978202.836 8      3509.060          49.000
G23  23038529.980   121068297.110 7      2739.924          43.937    23038529.220   121068297.123 5      2739.924          32.187    23038536.340    94338952.356 5      2135.006          31.562    23038536.660    94338956.361 7      2135.006          46.875
G31  23382688.800   122876867.347 7      -891.416          43.875    23382687.080   122876867.358 6      -891.416          41.125    23382695.560    95748237.347 6      -694.610          40.937    23382696.100    95748239.341 7      -694.610          45.812
R10  19347398.900   103132542.752 7      3594.823          46.375    19347397.860   103132542.766 7      3594.823          45.187
G26  21040672.500   110569485.727 7       867.714          47.062    21040670.920   110569485.738 7       867.714          47.687    21040678.580    86158058.105 7       676.141          47.437    21040679.220    86158062.101 8       676.141          50.000
G21  22749691.460   119550432.505 7      5670.022          43.562    22749690.060   119550432.507 4      5670.022          28.875    22749696.440    93156204.223 4      4418.199          29.000
G16  20434392.080   107383454.024 7      2928.380          46.250    20434390.340   107383454.029 6      2928.380          40.000    20434393.120    83675422.608 6      2281.855          39.312
G27  20796916.700   109288540.589 8      2581.088          49.187    20796915.340   109288540.594 7      2581.088          42.500    20796920.520    85159910.889 7      2011.237          42.187    20796920.920    85159915.891 8      2011.237          52.125
G10  22876239.100   120215446.854 7      4336.915          45.312    22876237.580   120215446.862 7      4336.915          43.062    22876247.200    93674407.496 7      3379.414          43.062    22876246.980    93674411.497 7      3379.414          45.187
R09  19879269.540   106154194.801 7       151.660          47.937    19879269.620   106154194.813 8       151.660          48.312    19879277.000    82564402.794 8       117.958          51.750    19879277.360    82564410.790 8       117.958          52.687
> 2024 05 08 11 22 17.0000000  0 10
R21  21137356.180   113110265.467 7      4511.498          44.062    21137356.160   113110265.484 7      4511.498          44.375    21137367.780    87974694.871 8      3508.943          48.687    21137367.440    87974693.871 8      3508.943          48.750
G23  23038008.700   121065557.358 7      2739.673          44.250    23038007.880   121065557.368 5      2739.673          31.687    23038014.980    94336817.482 5      2134.810          31.562    23038015.600    94336821.485 7      2134.810          47.062
G31  23382858.180   122877758.670 7      -891.149          43.500    23382856.800   122877758.675 6      -891.149          41.000    23382865.020    95748931.871 6      -694.402          41.062    23382865.820    95748933.864 7      -694.402          45.687
R10  19346724.640   103128948.010 7      3594.619          46.375    19346723.540   103128948.016 7      3594.619          45.000
G26  21040507.340   110568618.116 7       867.629          46.875    21040505.940   110568618.121 7       867.629          47.687    21040513.480    86157382.038 7       676.074          47.250    21040514.180    86157386.038 8       676.074          49.687
G21  22748612.480   119544762.558 7      5669.958          42.875    22748610.860   119544762.558 4      5669.958          29.687    22748617.420    93151786.086 4      4418.149          29.812
G16  20433834.560   107380525.687 7      2928.274          46.375    20433833.060   107380525.692 6      2928.274          40.000    20433836.000    83673140.785 6      2281.772          39.750
G27  20796425.500   109285959.452 8      2581.272          48.562    20796424.020   109285959.460 7      2581.272          42.875    20796429.400    85157899.616 7      2011.380          42.437    20796429.760    85157904.616 8      2011.380          51.125
G10  22875413.720   120211110.060 7      4336.815          45.437    22875412.300   120211110.070 7      4336.815          43.500    22875421.880    93671028.180 7      3379.336          43.562    22875422.200    93671032.181 7      3379.336          45.375
R09  19879241.460   106154043.373 8       151.288          49.125    19879241.100   106154043.380 8       151.288          48.437    19879248.840    82564285.011 8       117.669          52.375    19879249.060    82564293.007 8       117.669          52.687
> 2024 05 08 11 22 18.0000000  0 10
R21  21136513.100   113105754.417 7      4510.687          44.812    21136512.920   113105754.434 7      4510.687          44.812    21136524.620    87971186.279 8      3508.312          49.000    21136524.480    87971185.276 8      3508.312          48.812
G23  23037487.720   121062818.121 7      2738.831          45.000    23037486.660   121062818.136 5      2738.831          31.687    23037493.780    94334683.015 5      2134.154          31.562    23037494.380    94334687.014 7      2134.154          46.875
G31  23383027.680   122878650.047 7      -891.596          43.500    23383026.460   122878650.055 6      -891.596          40.875    23383034.600    95749626.445 6      -694.750          40.812    23383035.260    95749628.442 7      -694.750          45.500
R10  19346050.200   103125353.990 7      3593.552          46.312    19346049.300   103125354.007 7      3593.552          44.937
G26  21040342.220   110567750.893 7       866.832          47.187    21040340.880   110567750.898 7       866.832          47.625    21040348.500    86156706.276 7       675.454          47.375    21040349.080    86156710.276 8       675.454          50.125
G21  22747533.840   119539092.937 7      5669.289          43.250    22747531.880   119539092.934 4      5669.289          29.687    22747538.360    93147368.208 4      4417.628          29.812
G16  20433277.580   107377597.702 7      2927.656          46.375    20433275.900   107377597.707 6      2927.656          39.875    20433278.720    83670859.234 6      2281.290          39.687
G27  20795934.340   109283378.476 8      2580.786          49.687    20795932.960   109283378.483 7      2580.786          42.562    20795938.260    85155888.465 7      2011.002          42.312    20795938.480    85155893.470 8      2011.002          51.437
G10  22874588.400   120206773.571 7      4336.196          45.375    22874586.980   120206773.583 7      4336.196          43.750    22874596.720    93667649.097 7      3378.854          43.375    22874597.160    93667653.094 7      3378.854          45.312
R09  19879213.180   106153892.584 8       150.348          48.187    19879212.960   106153892.590 8       150.348          48.125    19879220.680    82564167.724 8       116.938          51.937    19879220.820    82564175.720 8       116.938          52.562
> 2024 05 08 11 22 19.0000000  0 10
R21  21135670.160   113101243.961 7      4509.961          45.187    21135670.060   113101243.984 7      4509.961          44.437    21135681.540    87967678.153 8      3507.747          48.812    21135681.660    87967677.156 8      3507.747          48.625
G23  23036966.460   121060079.530 7      2738.203          44.125    23036965.540   121060079.545 5      2738.203          32.187    23036972.680    94332549.048 5      2133.665          32.000    23036973.260    94332553.039 7      2133.665          46.750
G31  23383197.400   122879541.596 7      -891.710          43.062    23383196.220   122879541.600 6      -891.710          41.000    23383204.100    95750321.148 6      -694.839          41.062    23383204.580    95750323.146 7      -694.839          45.750
R10  19345376.260   103121760.818 7      3592.616          46.750    19345375.260   103121760.829 7      3592.616          45.312
G26  21040177.220   110566884.172 7       866.286          47.500    21040176.000   110566884.180 7       866.286          47.500    21040183.600    86156030.909 7       675.028          47.312    21040183.780    86156034.912 8       675.028          50.125
G21  22746455.160   119533423.771 7      5668.891          43.750    22746453.020   119533423.770 4      5668.891          29.687    22746459.420    93142950.678 4      4417.318          29.812
G16  20432720.400   107374670.222 7      2927.081          46.687    20432718.760   107374670.227 6      2927.081          40.000    20432721.460    83668578.081 6      2280.842          39.187
G27  20795443.240   109280797.796 8      2580.463          49.562    20795441.960   109280797.801 7      2580.463          42.312    20795447.060    85153877.546 7      2010.750          42.187    20795447.540    85153882.544 8      2010.750          51.687
G10  22873763.200   120202437.504 7      4335.704          45.812    22873761.800   120202437.512 7      4335.704          43.062    22873771.460    93664270.344 7      3378.471          42.875    22873771.940    93664274.343 7      3378.471          45.437
R09  19879185.340   106153742.609 8       149.450          48.187    19879184.620   106153742.607 7       149.450          47.812    19879192.600    82564051.070 8       116.239          52.312    19879192.680    82564059.064 8       116.239          52.937
> 2024 05 08 11 22 20.0000000  0 10
R21  21134827.420   113096733.994 7      4509.879          44.187    21134827.360   113096734.001 7      4509.879          44.562    21134839.020    87964170.389 8      3507.684          49.062    21134838.760    87964169.392 8      3507.684          48.687
G23  23036445.400   121057341.478 7      2737.915          43.562    23036444.440   121057341.493 5      2737.915          32.187    23036451.420    94330415.503 5      2133.440          32.000    23036452.460    94330419.498 7      2133.440          46.937
G31  23383367.080   122880433.225 7      -891.512          44.187    23383365.940   122880433.225 6      -891.512          41.000    23383373.820    95751015.914 6      -694.684          40.875    23383374.320    95751017.913 7      -694.684          45.562
R10  19344702.460   103118168.354 7      3592.192          46.312    19344701.620   103118168.368 7      3592.192          45.000
G26  21040012.380   110566017.848 7       866.229          47.250    21040011.020   110566017.858 7       866.229          47.625    21040018.680    86155355.851 7       674.983          46.812    21040019.100    86155359.854 8       674.983          49.687
G21  22745376.220   119527754.991 7      5668.665          43.062    22745374.240   119527754.993 4      5668.665          29.687    22745380.680    93138533.453 4      4417.141          29.812
G16  20432163.220   107371743.120 7      2927.005          47.312    20432161.780   107371743.122 6      2927.005          39.500    20432164.500    83666297.220 6      2280.783          39.562
G27  20794952.080   109278217.298 8      2580.481          49.125    20794950.900   109278217.306 7      2580.481          42.500    20794956.100    85151866.768 7      2010.764          42.125    20794956.420    85151871.768 8      2010.764          51.062
G10  22872938.020   120198101.756 7      4335.696          44.562    22872936.840   120198101.763 7      4335.696          43.000    22872946.460    93660891.841 7      3378.464          43.000    22872946.720    93660895.836 7      3378.464          45.500
R09  19879157.000   106153593.294 8       149.073          48.437    19879156.740   106153593.289 8       149.073          48.000    19879164.700    82563934.928 8       115.946          52.062    19879164.900    82563942.922 8       115.946          52.812
> 2024 05 08 11 22 21.0000000  0 10
R21  21133984.820   113092224.654 7      4508.870          45.812    21133984.040   113092224.653 7      4508.870          44.625    21133996.360    87960663.120 8      3506.899          48.500    21133995.960    87960662.124 8      3506.899          48.625
G23  23035924.560   121054604.019 7      2737.125          43.562    23035923.580   121054604.032 5      2737.125          32.125    23035930.420    94328282.419 5      2132.825          32.000    23035930.900    94328286.412 7      2132.825          46.437
G31  23383536.900   122881324.976 7      -891.931          44.125    23383535.740   122881324.981 6      -891.931          40.562    23383543.360    95751710.777 6      -695.011          40.562    23383544.400    95751712.777 7      -695.011          45.312
R10  19344028.400   103114576.691 7      3591.144          46.625    19344027.880   103114576.699 7      3591.144          45.250
G26  21039847.520   110565151.984 7       865.505          46.812    21039846.280   110565151.989 7       865.505          47.437    21039853.900    86154681.143 7       674.420          47.125    21039854.440    86154685.148 8       674.420          49.125
G21  22744297.740   119522086.597 7      5668.011          43.375    22744295.500   119522086.596 4      5668.011          29.500    22744301.960    93134116.522 4      4416.632          29.562
G16  20431606.380   107368816.451 7      2926.275          45.750    20431604.800   107368816.451 6      2926.275          39.437    20431607.720    83664016.697 6      2280.214          39.062
G27  20794461.080   109275637.028 8      2579.987          49.625    20794459.840   109275637.031 7      2579.987          42.250    20794465.160    85149856.164 7      2010.380          42.125    20794465.660    85149861.160 8      2010.380          51.312
G10  22872112.980   120193766.378 7      4335.085          46.125    22872111.960   120193766.383 7      4335.085          43.125    22872121.400    93657513.624 7      3377.988          43.125    22872121.700    93657517.623 7      3377.988          45.500
R09  19879129.160   106153444.702 8       148.007          48.437    19879128.860   106153444.700 7       148.007          47.625    19879136.920    82563819.356 8       115.116          51.750    19879137.060    82563827.346 8       115.116          52.250
> 2024 05 08 11 22 22.0000000  0 10
R21  21133142.280   113087716.047 7      4508.057          44.500    21133141.300   113087716.051 7      4508.057          43.812    21133153.580    87957156.432 7      3506.267          47.875    21133153.360    87957155.435 8      3506.267          48.625
G23  23035403.840   121051867.352 7      2736.146          43.562    23035402.760   121051867.365 5      2736.146          32.125    23035409.620    94326149.953 5      2132.062          31.937    23035410.080    94326153.952 7      2132.062          46.187
G31  23383706.880   122882217.058 7      -892.311          43.937    23383705.460   122882217.060 6      -892.311          40.562    23383713.040    95752405.895 6      -695.307          40.000    23383713.960    95752407.893 7      -695.307          44.875
R10  19343355.040   103110986.021 7      3590.110          46.250    19343354.220   103110986.024 7      3590.110          45.062
G26  21039682.980   110564286.763 7       864.851          47.250    21039681.620   110564286.765 7       864.851          46.562    21039689.480    86154006.943 7       673.910          46.187    21039689.880    86154010.946 8       673.910          49.312
G21  22743219.400   119516418.802 7      5667.369          43.875    22743216.800   119516418.801 4      5667.369          29.500    22743223.520    93129700.063 4      4416.132          29.562
G16  20431049.560   107365890.395 7      2925.668          46.250    20431048.160   107365890.400 6      2925.668          39.312    20431050.960    83661736.657 6      2279.741          39.000
G27  20793970.140   109273057.187 8      2579.468          49.750    20793968.960   109273057.192 7      2579.468          42.125    20793974.220    85147845.896 6      2009.975          41.687    20793974.740    85147850.894 8      2009.975          50.500
G10  22871288.140   120189431.570 7      4334.391          46.000    22871287.160   120189431.575 7      4334.391          42.625    22871296.560    93654135.854 7      3377.448          42.812    22871296.900    93654139.851 7      3377.448          45.437
R09  19879101.500   106153297.028 8       147.089          48.812    19879101.160   106153297.037 8       147.089          48.250    19879109.280    82563704.499 8       114.403          50.562    19879109.480    82563712.489 8       114.403          50.875
> 2024 05 08 11 22 23.0000000  0 10
R21  21132300.120   113083207.997 7      4507.865          44.625    21132298.540   113083207.998 7      4507.865          43.812    21132311.120    87953650.168 8      3506.117          48.375    21132311.120    87953649.174 8      3506.117          48.937
G23  23034883.240   121049131.278 7      2735.826          42.875    23034882.060   121049131.288 5      2735.826          32.125    23034888.840    94324017.947 5      2131.812          31.937    23034889.500    94324021.948 7      2131.812          46.562
G31  23383876.400   122883109.271 7      -892.331          43.437    23383875.260   122883109.273 6      -892.331          41.062    23383882.860    95753101.118 6      -695.323          40.750    23383883.860    95753103.122 7      -695.323          45.562
R10  19342681.500   103107396.169 7      3589.407          46.062    19342680.640   103107396.178 7      3589.407          45.187
G26  21039518.420   110563422.026 7       864.494          47.062    21039517.120   110563422.031 7       864.494          47.375    21039524.780    86153333.124 7       673.632          47.125    21039525.280    86153337.123 8       673.632          50.062
G21  22742140.740   119510751.443 7      5667.124          42.812    22742138.180   119510751.443 4      5667.124          29.500    22742145.060    93125283.943 4      4415.941          29.562
G16  20430492.760   107362964.804 7      2925.458          46.312    20430491.300   107362964.806 6      2925.458          39.875    20430494.100    83659456.972 6      2279.578          39.500
G27  20793479.320   109270477.582 8      2579.502          49.500    20793478.060   109270477.584 7      2579.502          42.187    20793483.280    85145835.813 7      2010.002          42.000    20793483.780    85145840.815 8      2010.002          51.562
G10  22870463.620   120185097.133 7      4334.269          46.312    22870462.320   120185097.143 7      4334.269          43.125    22870471.800    93650758.374 7      3377.352          43.250    22870471.920    93650762.377 7      3377.352          45.437
R09  19879073.960   106153150.129 8       146.565          48.125    19879074.000   106153150.130 7       146.565          47.937    19879081.820    82563590.238 8       113.995          51.062    19879081.800    82563598.223 8       113.995          51.375
> 2024 05 08 11 22 24.0000000  0 10
R21  21131457.660   113078700.452 7      4507.145          43.500    21131456.860   113078700.459 7      4507.145          44.062    21131468.960    87950144.306 8      3505.557          48.625    21131468.820    87950143.310 8      3505.557          48.750
G23  23034362.560   121046395.738 7      2735.183          43.812    23034361.500   121046395.748 5      2735.183          32.125    23034368.300    94321886.360 5      2131.311          32.000    23034369.300    94321890.358 7      2131.311          46.812
G31  23384046.040   122884001.539 7      -892.439          42.750    23384044.820   122884001.544 6      -892.439          40.562    23384052.440    95753796.383 6      -695.407          40.250    23384053.560    95753798.394 7      -695.407          45.125
R10  19342008.220   103103807.021 7      3588.714          46.312    19342007.340   103103807.025 7      3588.714          45.062
G26  21039354.100   110562557.673 7       863.988          46.312    21039352.720   110562557.680 7       863.988          47.562    21039360.360    86152659.602 7       673.237          47.000    21039361.080    86152663.601 8       673.237          49.937
G21  22741062.520   119505084.421 7      5666.718          43.500    22741059.760   119505084.423 4      5666.718          29.500    22741066.660    93120868.088 4      4415.625          29.562
G16  20429936.320   107360039.588 7      2924.868          46.250    20429934.920   107360039.596 6      2924.868          39.437    20429937.380    83657177.587 6      2279.118          38.937
G27  20792988.440   109267898.148 8      2579.258          48.312    20792987.220   109267898.158 7      2579.258          42.812    20792992.460    85143825.868 7      2009.811          42.500    20792992.980    85143830.870 8      2009.811          51.750
G10  22869638.800   120180763.029 7      4333.778          46.125    22869637.640   120180763.039 7      4333.778          43.875    22869646.900    93647381.153 7      3376.970          43.812    22869647.340    93647385.158 7      3376.970          45.625
R09  19879046.780   106153003.929 8       145.723          48.500    19879046.380   106153003.930 7       145.723          47.625    19879054.380    82563476.527 8       113.340          52.062    19879054.380    82563484.515 8       113.340          52.500
> 2024 05 08 11 22 25.0000000  0 10
R21  21130615.240   113074193.300 7      4507.002          44.562    21130615.460   113074193.304 7      4507.002          44.375    21130626.500    87946638.736 8      3505.446          48.812    21130626.480    87946637.737 8      3505.446          48.875
G23  23033841.920   121043660.658 7      2734.891          43.125    23033840.960   121043660.668 5      2734.891          32.125    23033847.920    94319755.128 5      2131.084          32.000    23033848.720    94319759.129 7      2131.084          46.937
G31  23384215.900   122884893.810 7      -892.188          42.750    23384214.520   122884893.820 6      -892.188          40.375    23384222.320    95754491.651 6      -695.211          40.125    23384223.200    95754493.658 7      -695.211          45.062
R10  19341334.980   103100218.545 7      3588.226          46.250    19341334.060   103100218.557 7      3588.226          45.250
G26  21039189.660   110561693.640 7       863.964          47.187    21039188.300   110561693.642 7       863.964          47.125    21039195.900    86151986.321 7       673.219          47.312    21039196.500    86151990.320 8       673.219          49.625
G21  22739984.340   119499417.664 7      5666.650          43.062    22739981.460   119499417.666 4      5666.650          29.500    22739988.200    93116452.437 4      4415.572          29.562
G16  20429379.800   107357114.656 7      2924.905          46.062    20429378.320   107357114.664 6      2924.905          39.500    20429380.620    83654898.417 6      2279.147          39.000
G27  20792497.520   109265318.813 8      2579.396          48.250    20792496.300   109265318.824 7      2579.396          42.500    20792501.540    85141816.001 7      2009.919          42.312    20792501.880    85141821.003 8      2009.919          51.437
G10  22868813.920   120176429.146 7      4333.812          45.687    22868813.020   120176429.154 7      4333.812          43.000    22868822.140    93644004.099 7      3376.997          42.937    22868822.460    93644008.106 7      3376.997          45.437
R09  19879019.380   106152858.277 8       145.505          48.312    19879019.020   106152858.281 8       145.505          48.000    19879027.140    82563363.238 8       113.171          51.812    19879027.140    82563371.232 8       113.171          52.437
> 2024 05 08 11 22 26.0000000  0 10
R21  21129773.020   113069686.775 7      4505.977          45.750    21129773.440   113069686.771 7      4505.977          44.875    21129784.440    87943133.652 8      3504.649          49.250    21129784.100    87943132.651 8      3504.649          48.687
G23  23033321.720   121040926.221 7      2733.896          44.125    23033320.760   121040926.231 5      2733.896          32.250    23033327.720    94317624.398 5      2130.308          32.000    23033328.160    94317628.393 7      2130.308          46.875
G31  23384385.680   122885786.244 7      -892.653          42.812    23384384.300   122885786.246 6      -892.653          40.562    23384392.060    95755187.038 6      -695.574          40.500    23384393.180    95755189.034 7      -695.574          45.437
R10  19340662.000   103096630.890 7      3587.051          45.687    19340661.000   103096630.907 7      3587.051          45.250
G26  21039025.380   110560830.109 7       863.141          47.750    21039024.020   110560830.111 8       863.141          48.062    21039031.620    86151313.436 7       672.577          47.812    21039032.020    86151317.437 8       672.577          49.750
G21  22738905.880   119493751.367 7      5665.881          44.125    22738903.160   119493751.369 4      5665.881          29.500    22738910.040    93112037.143 4      4414.972          29.437
G16  20428823.460   107354190.221 7      2924.032          45.812    20428821.700   107354190.229 6      2924.032          39.437    20428824.160    83652619.639 6      2278.466          39.375
G27  20792006.740   109262739.766 7      2578.739          47.375    20792005.520   109262739.776 6      2578.739          41.937    20792010.800    85139806.351 6      2009.407          41.937    20792011.080    85139811.351 8      2009.407          51.500
G10  22867989.520   120172095.668 7      4333.165          45.312    22867988.100   120172095.678 7      4333.165          43.250    22867997.580    93640627.369 7      3376.493          43.187    22867997.740    93640631.376 7      3376.493          45.375
R09  19878992.360   106152713.431 8       144.303          48.437    19878991.740   106152713.429 7       144.303          47.687    19879000.120    82563250.574 8       112.235          52.187    19879000.220    82563258.570 8       112.235          53.062
> 2024 05 08 11 22 27.0000000  0 10
R21  21128931.140   113065180.859 7      4505.530          45.250    21128931.300   113065180.855 7      4505.530          44.812    21128942.200    87939629.053 8      3504.301          48.750    21128941.980    87939628.055 8      3504.301          49.062
G23  23032801.580   121038192.402 7      2733.359          44.312    23032800.560   121038192.412 5      2733.359          32.250    23032807.540    94315494.152 5      2129.890          32.375    23032808.240    94315498.148 7      2129.890          47.000
G31  23384555.600   122886678.856 7      -892.778          43.187    23384554.140   122886678.858 6      -892.778          41.250    23384562.140    95755882.574 6      -695.671          40.750    23384562.920    95755884.568 7      -695.671          45.375
R10  19339989.040   103093044.040 7      3586.409          45.687    19339988.200   103093044.056 7      3586.409          45.187
G26  21038861.200   110559967.066 7       862.779          47.687    21038859.840   110559967.066 7       862.779          47.812    21038867.380    86150640.931 7       672.296          47.250    21038867.660    86150644.930 8       672.296          50.250
G21  22737827.560   119488085.524 7      5665.568          43.625    22737825.040   119488085.529 4      5665.568          29.500    22737832.060    93107622.204 4      4414.728          29.437
G16  20428266.920   107351266.243 7      2923.719          46.875    20428265.280   107351266.248 6      2923.719          39.562    20428267.720    83650341.208 6      2278.223          39.375
G27  20791516.180   109260160.988 8      2578.550          48.687    20791514.880   109260160.993 7      2578.550          42.125    20791519.960    85137796.908 7      2009.260          42.000    20791520.360    85137801.908 8      2009.260          51.500
G10  22867164.960   120167762.620 7      4332.869          46.250    22867163.640   120167762.631 7      4332.869          42.812    22867173.220    93637250.973 7      3376.262          42.812    22867173.300    93637254.975 7      3376.262          45.375
R09  19878965.320   106152569.346 7       143.666          47.625    19878964.780   106152569.350 7       143.666          47.687    19878973.120    82563138.507 8       111.740          51.500    19878973.360    82563146.503 8       111.740          52.937
> 2024 05 08 11 22 28.0000000  0 10
R21  21128089.020   113060675.594 7      4504.887          45.187    21128088.660   113060675.604 7      4504.887          44.625    21128100.200    87936124.973 8      3503.801          49.000    21128100.100    87936123.974 8      3503.801          48.750
G23  23032281.420   121035459.250 7      2732.734          43.125    23032280.400   121035459.263 5      2732.734          32.250    23032287.440    94313364.425 5      2129.403          32.375    23032288.040    94313368.416 7      2129.403          46.687
G31  23384725.860   122887571.681 7      -893.077          42.937    23384723.880   122887571.684 6      -893.077          40.125    23384732.080    95756578.272 6      -695.904          39.875    23384732.500    95756580.266 7      -695.904          45.187
R10  19339316.280   103089458.088 7      3585.428          45.437    19339315.340   103089458.104 7      3585.428          45.187
G26  21038696.840   110559104.586 8       862.128          48.125    21038695.600   110559104.588 7       862.128          47.750    21038703.240    86149968.869 7       671.788          47.187    21038703.460    86149972.872 8       671.788          50.062
G21  22736749.220   119482420.165 7      5665.076          43.687    22736747.040   119482420.167 4      5665.076          29.500    22736753.940    93103207.643 4      4414.345          29.437
G16  20427710.660   107348342.804 7      2923.134          46.750    20427709.040   107348342.812 6      2923.134          39.812    20427711.420    83648063.204 6      2277.767          39.875
G27  20791025.360   109257582.532 8      2578.225          48.937    20791024.180   109257582.536 7      2578.225          42.000    20791029.280    85135787.721 6      2009.006          41.937    20791029.700    85135792.725 8      2009.006          51.562
G10  22866340.540   120163430.067 7      4332.199          46.062    22866339.260   120163430.075 7      4332.199          42.750    22866348.620    93633874.955 7      3375.739          42.937    22866348.680    93633878.950 7      3375.739          45.187
R09  19878938.520   106152426.099 7       142.778          46.562    19878938.240   106152426.100 8       142.778          48.187    19878946.360    82563027.085 8       111.049          52.250    19878946.240    82563035.079 8       111.049          53.000
> 2024 05 08 11 22 29.0000000  0 10
R21  21127247.400   113056171.105 7      4504.117          45.250    21127247.220   113056171.112 7      4504.117          44.625    21127258.380    87932621.479 8      3503.202          48.375    21127258.440    87932620.480 8      3503.202          48.812
G23  23031761.360   121032726.884 7      2732.090          44.187    23031760.500   121032726.899 5      2732.090          32.250    23031767.320    94311235.306 5      2128.902          32.125    23031767.940    94311239.299 7      2128.902          46.625
G31  23384896.080   122888464.811 7      -893.286          43.375    23384893.780   122888464.816 6      -893.286          40.625    23384902.000    95757274.205 6      -696.067          40.312    23384902.460    95757276.203 7      -696.067          44.875
R10  19338643.540   103085873.071 7      3584.619          45.687    19338642.900   103085873.090 7      3584.619          44.812
G26  21038532.940   110558242.726 7       861.581          47.375    21038531.660   110558242.731 7       861.581          47.125    21038539.360    86149297.290 7       671.362          46.937    21038539.540    86149301.293 8       671.362          49.125
G21  22735671.440   119476755.428 7      5664.496          43.000    22735669.100   119476755.431 4      5664.496          29.687    22735676.040    93098793.565 4      4413.893          29.437
G16  20427154.540   107345419.969 7      2922.599          46.937    20427152.860   107345419.977 6      2922.599          39.687    20427155.360    83645785.670 6      2277.350          39.562
G27  20790534.840   109255004.482 8      2577.895          49.000    20790533.600   109255004.487 7      2577.895          42.375    20790538.800    85133778.852 7      2008.749          42.375    20790539.140    85133783.852 8      2008.749          51.562
G10  22865516.140   120159098.015 7      4331.846          44.875    22865514.920   120159098.020 7      4331.846          43.250    22865524.080    93630499.332 7      3375.464          43.375    22865524.120    93630503.321 7      3375.464          45.125
R09  19878911.840   106152283.728 8       141.991          49.000    19878911.520   106152283.737 7       141.991          47.812    19878919.780    82562916.356 8       110.438          51.687    19878919.860    82562924.348 8       110.438          53.187
> 2024 05 08 11 22 30.0000000  0 10
R21  21126405.740   113051667.051 7      4504.099          45.500    21126405.580   113051667.058 7      4504.099          44.625    21126416.320    87929118.326 8      3503.188          48.375    21126416.660    87929117.328 8      3503.188          48.687
G23  23031241.420   121029995.040 7      2731.956          44.562    23031240.800   121029995.053 5      2731.956          32.250    23031247.520    94309106.593 5      2128.797          32.125    23031247.500    94309110.590 7      2128.797          46.437
G31  23385065.920   122889357.973 7      -892.893          43.625    23385063.740   122889357.980 6      -892.893          40.687    23385072.060    95757970.169 6      -695.760          40.312    23385072.100    95757972.167 7      -695.760          45.437
R10  19337971.300   103082288.774 7      3584.236          45.562    19337970.700   103082288.798 7      3584.236          45.187
G26  21038368.980   110557381.247 7       861.653          46.875    21038367.860   110557381.249 7       861.653          47.500    21038375.300    86148626.003 7       671.418          47.312    21038375.780    86148630.006 8       671.418          49.750
G21  22734593.220   119471090.999 7      5664.560          43.250    22734591.200   119471090.999 4      5664.560          29.687    22734598.220    93094379.732 4      4413.943          29.875
G16  20426598.400   107342497.505 7      2922.616          47.062    20426596.840   107342497.504 6      2922.616          39.500    20426599.240    83643508.421 6      2277.363          39.375
G27  20790044.420   109252426.596 8      2578.157          48.500    20790043.080   109252426.603 7      2578.157          42.125    20790048.140    85131770.109 6      2008.953          41.937    20790048.360    85131775.109 8      2008.953          51.500
G10  22864692.000   120154766.290 7      4331.817          45.875    22864690.660   120154766.297 7      4331.817          42.750    22864699.780    93627123.964 7      3375.442          43.125    22864700.020    93627127.963 7      3375.442          45.187
R09  19878885.100   106152142.017 8       141.756          48.062    19878884.800   106152142.026 8       141.756          48.062    19878893.240    82562806.128 8       110.254          52.375    19878893.180    82562814.124 8       110.254          53.187
> 2024 05 08 11 22 31.0000000  0 10
R21  21125564.360   113047163.466 7      4503.223          45.000    21125564.400   113047163.463 7      4503.223          44.250    21125574.820    87925615.528 8      3502.507          48.375    21125574.960    87925614.525 8      3502.507          48.312
G23  23030721.620   121027263.675 7      2731.004          44.500    23030721.180   121027263.685 5      2731.004          32.312    23030727.900    94306978.257 5      2128.055          32.125    23030727.680    94306982.262 7      2128.055          46.437
G31  23385235.800   122890251.169 7      -893.334          43.125    23385233.860   122890251.176 6      -893.334          40.750    23385241.980    95758666.153 6      -696.105          40.812    23385242.120    95758668.147 7      -696.105          45.062
R10  19337299.020   103078705.151 7      3583.169          46.187    19337298.420   103078705.165 7      3583.169          45.312
G26  21038205.240   110556520.120 7       860.788          47.250    21038203.920   110556520.123 7       860.788          47.687    21038211.440    86147954.991 7       670.744          47.437    21038211.960    86147958.992 8       670.744          49.812
G21  22733515.260   119465426.875 7      5663.766          42.812    22733513.360   119465426.877 4      5663.766          29.687    22733520.400    93089966.139 4      4413.324          29.875
G16  20426042.200   107339575.353 7      2921.854          47.312    20426040.700   107339575.355 6      2921.854          39.687    20426043.220    83641231.417 6      2276.769          39.375
G27  20789553.620   109249848.840 7      2577.501          47.937    20789552.540   109249848.845 7      2577.501          42.500    20789557.820    85129761.464 7      2008.443          42.312    20789557.980    85129766.468 8      2008.443          50.937
G10  22863867.520   120150434.814 7      4331.181          46.125    22863866.360   120150434.821 7      4331.181          43.187    22863875.580    93623748.792 7      3374.947          43.312    22863875.780    93623752.786 7      3374.947          45.187
R09  19878858.520   106152000.928 8       140.661          48.750    19878858.680   106152000.931 7       140.661          47.687    19878866.880    82562696.388 8       109.403          51.687    19878866.700    82562704.381 8       109.403          52.875
> 2024 05 08 11 22 32.0000000  0 10
R21  21124722.740   113042660.585 7      4502.535          45.625    21124722.940   113042660.595 7      4502.535          44.687    21124733.220    87922113.293 7      3501.972          47.562    21124733.380    87922112.288 7      3501.972          46.812
G23  23030202.040   121024533.041 7      2730.275          44.187    23030201.640   121024533.051 5      2730.275          32.312    23030208.240    94304850.489 5      2127.487          32.437    23030207.940    94304854.501 7      2127.487          46.375
G31  23385405.640   122891144.609 7      -893.514          43.062    23385403.920   122891144.614 6      -893.514          40.437    23385411.900    95759362.328 6      -696.244          40.125    23385412.340    95759364.326 7      -696.244          45.375
R10  19336627.160   103075122.443 7      3582.310          46.062    19336626.380   103075122.451 7      3582.310          44.937
G26  21038041.540   110555659.590 7       860.230          46.875    21038040.220   110555659.589 7       860.230          46.937    21038047.660    86147284.442 7       670.309          46.625    21038048.180    86147288.445 8       670.309          49.312
G21  22732437.180   119459763.297 7      5663.281          44.187    22732435.740   119459763.302 4      5663.281          29.687    22732442.740    93085552.968 4      4412.946          29.875
G16  20425486.340   107336653.774 7      2921.336          47.562    20425484.640   107336653.779 6      2921.336          39.375    20425487.240    83638954.864 6      2276.366          39.062
G27  20789063.340   109247271.424 8      2577.347          48.375    20789062.120   109247271.432 7      2577.347          42.375    20789067.340    85127753.090 7      2008.322          42.250    20789067.440    85127758.094 8      2008.322          50.437
G10  22863043.280   120146103.837 7      4330.801          45.812    22863042.100   120146103.852 7      4330.801          43.062    22863051.360    93620374.011 7      3374.650          42.562    22863051.660    93620378.003 7      3374.650          44.937
R09  19878832.520   106151860.719 8       139.827          49.062    19878832.440   106151860.734 8       139.827          48.250    19878840.640    82562587.339 8       108.754          51.250    19878840.620    82562595.331 8       108.754          51.687
> 2024 05 08 11 22 33.0000000  0 10
R21  21123881.400   113038158.346 7      4502.136          45.500    21123881.780   113038158.356 7      4502.136          44.750    21123892.000    87918611.549 8      3501.661          48.125    21123891.940    87918610.546 7      3501.661          47.812
G23  23029682.580   121021803.055 7      2729.822          43.812    23029682.140   121021803.068 5      2729.822          32.250    23029688.820    94302723.230 5      2127.134          32.437    23029688.540    94302727.237 7      2127.134          46.625
G31  23385575.840   122892038.254 7      -893.595          42.750    23385574.040   122892038.256 6      -893.595          40.437    23385581.980    95760058.664 6      -696.308          40.375    23385582.500    95760060.665 7      -696.308          44.937
R10  19335955.020   103071540.590 7      3581.566          45.937    19335954.120   103071540.596 7      3581.566          45.187
G26  21037878.060   110554799.561 7       859.923          47.187    21037876.640   110554799.564 7       859.923          47.000    21037884.080    86146614.290 7       670.069          46.750    21037884.460    86146618.291 8       670.069          49.937
G21  22731359.680   119454100.177 7      5663.012          43.375    22731358.120   119454100.179 4      5663.012          29.687    22731365.080    93081140.155 4      4412.736          29.875
G16  20424930.340   107333732.694 7      2920.945          46.312    20424929.000   107333732.702 6      2920.945          39.687    20424931.280    83636678.698 6      2276.061          39.562
G27  20788573.000   109244694.334 7      2577.088          47.812    20788571.640   109244694.341 7      2577.088          42.312    20788576.900    85125744.968 6      2008.121          41.937    20788577.100    85125749.972 8      2008.121          51.375
G10  22862219.180   120141773.312 7      4330.485          45.375    22862218.100   120141773.322 7      4330.485          43.312    22862227.280    93616999.575 7      3374.404          43.062    22862228.120    93617003.568 7      3374.404          45.062
R09  19878806.500   106151721.352 8       139.137          48.375    19878806.300   106151721.353 8       139.137          48.062    19878814.480    82562478.930 8       108.218          51.875    19878814.480    82562486.928 8       108.218          52.625
> 2024 05 08 11 22 34.0000000  0 10
R21  21123040.240   113033656.514 7      4501.583          46.062    21123040.300   113033656.520 7      4501.583          44.875    21123050.760    87915110.128 8      3501.231          48.750    21123050.840    87915109.127 8      3501.231          48.625
G23  23029163.380   121019073.513 7      2729.303          44.375    23029162.620   121019073.526 5      2729.303          32.250    23029169.480    94300596.314 5      2126.730          32.187    23029169.400    94300600.321 7      2126.730          47.000
G31  23385745.560   122892931.854 7      -893.693          43.125    23385744.260   122892931.867 6      -893.693          40.812    23385751.960    95760754.974 6      -696.384          40.375    23385752.340    95760756.981 7      -696.384          45.062
R10  19335283.380   103067959.374 7      3580.881          46.562    19335282.700   103067959.380 7      3580.881          45.062
G26  21037714.300   110553939.864 7       859.381          47.062    21037712.940   110553939.866 7       859.381          47.625    21037720.360    86145944.396 7       669.647          47.312    21037720.660    86145948.398 8       669.647          49.375
G21  22730282.140   119448437.327 7      5662.668          44.000    22730280.320   119448437.335 4      5662.668          29.687    22730287.560    93076727.557 4      4412.469          29.750
G16  20424374.560   107330811.903 7      2920.609          47.375    20424373.140   107330811.908 6      2920.609          40.125    20424375.460    83634402.755 6      2275.799          39.750
G27  20788082.620   109242117.317 8      2576.950          48.187    20788081.260   109242117.324 7      2576.950          42.250    20788086.420    85123736.901 7      2008.013          42.250    20788086.680    85123741.909 8      2008.013          51.687
G10  22861395.120   120137443.010 7      4330.219          44.687    22861394.160   120137443.018 7      4330.219          43.125    22861403.160    93613625.314 7      3374.196          42.875    22861403.660    93613629.311 7      3374.196          45.500
R09  19878780.800   106151582.532 8       138.445          48.437    19878780.220   106151582.531 8       138.445          48.250    19878788.580    82562370.955 8       107.680          51.562    19878788.720    82562378.953 8       107.680          53.125
> 2024 05 08 11 22 35.0000000  0 10
R21  21122198.880   113029155.034 7      4501.258          45.062    21122199.040   113029155.033 7      4501.258          44.500    21122209.540    87911608.973 8      3500.979          48.187    21122209.400    87911607.971 8      3500.979          48.250
G23  23028644.060   121016344.389 7      2728.850          44.125    23028643.180   121016344.400 5      2728.850          32.250    23028650.180    94298469.722 5      2126.377          32.187    23028650.180    94298473.733 7      2126.377          47.187
G31  23385915.600   122893825.426 7      -893.708          42.875    23385914.300   122893825.438 6      -893.708          40.562    23385921.940    95761451.256 6      -696.396          40.437    23385922.380    95761453.260 7      -696.396          44.812
R10  19334611.620   103064378.773 7      3580.215          45.687    19334610.840   103064378.787 7      3580.215          45.500
G26  21037550.660   110553080.408 7       859.257          47.812    21037549.420   110553080.418 7       859.257          47.562    21037556.740    86145274.692 7       669.551          47.375    21037557.180    86145278.695 8       669.551          49.750
G21  22729204.640   119442774.737 7      5662.345          44.375    22729202.500   119442774.745 4      5662.345          29.687    22729209.900    93072315.155 4      4412.217          29.750
G16  20423818.840   107327891.362 7      2920.418          47.062    20423817.400   107327891.370 6      2920.418          39.437    20423819.720    83632127.005 6      2275.650          39.437
G27  20787592.200   109239540.360 8      2576.845          48.937    20787591.020   109239540.363 7      2576.845          42.625    20787596.200    85121728.883 7      2007.931          42.625    20787596.360    85121733.889 8      2007.931          51.812
G10  22860570.980   120133112.913 7      4330.012          45.500    22860570.100   120133112.921 7      4330.012          43.437    22860579.300    93610251.217 7      3374.035          43.187    22860579.740    93610255.210 7      3374.035          45.062
R09  19878754.860   106151444.257 8       137.865          48.312    19878754.420   106151444.263 7       137.865          47.937    19878762.760    82562263.409 8       107.229          52.750    19878762.660    82562271.409 8       107.229          52.687
> 2024 05 08 11 22 36.0000000  0 10
R21  21121357.760   113024654.251 7      4500.167          45.437    21121358.040   113024654.252 7      4500.167          44.437    21121368.820    87908108.368 8      3500.130          48.375    21121368.300    87908107.363 8      3500.130          48.437
G23  23028125.000   121013615.965 7      2727.872          44.250    23028123.980   121013615.975 5      2727.872          32.500    23028130.960    94296343.683 5      2125.615          32.187    23028131.260    94296347.692 7      2125.615          46.875
G31  23386085.660   122894719.221 7      -894.137          42.875    23386084.220   122894719.223 6      -894.137          40.312    23386092.060    95762147.703 6      -696.730          39.875    23386092.420    95762149.710 7      -696.730          44.937
R10  19333939.720   103060799.106 7      3579.003          45.812    19333939.240   103060799.115 7      3579.003          45.187
G26  21037387.200   110552221.551 7       858.400          46.937    21037385.920   110552221.556 7       858.400          47.750    21037393.360    86144605.445 7       668.883          47.312    21037393.600    86144609.448 8       668.883          49.312
G21  22728127.180   119437112.642 7      5661.598          43.062    22728125.060   119437112.646 5      5661.598          30.000    22728132.680    93067903.141 4      4411.635          29.750
G16  20423263.200   107324971.383 7      2919.555          46.937    20423261.680   107324971.388 6      2919.555          39.687    20423264.040    83629851.693 6      2274.978          39.250
G27  20787101.900   109236963.746 8      2576.244          48.500    20787100.800   109236963.753 6      2576.244          41.937    20787105.840    85119721.131 7      2007.463          42.062    20787106.460    85119726.137 8      2007.463          52.125
G10  22859747.320   120128783.313 7      4329.138          45.562    22859746.240   120128783.321 7      4329.138          43.562    22859755.320    93606877.501 7      3373.354          43.875    22859755.560    93606881.500 7      3373.354          44.812
R09  19878729.020   106151306.828 8       136.854          48.937    19878728.840   106151306.832 8       136.854          48.250    19878737.040    82562156.512 8       106.442          52.562    19878737.000    82562164.514 8       106.442          53.250
> 2024 05 08 11 22 37.0000000  0 10
R21  21120516.720   113020154.294 7      4499.391          46.000    21120517.320   113020154.303 7      4499.391          45.000    21120528.020    87904608.406 8      3499.526          48.562    21120527.520    87904607.401 8      3499.526          48.937
G23  23027605.920   121010888.388 7      2727.057          44.562    23027605.020   121010888.398 5      2727.057          32.500    23027611.940    94294218.299 5      2124.980          32.375    23027612.460    94294222.308 7      2124.980          47.187
G31  23386255.960   122895613.381 7      -894.385          43.375    23386254.360   122895613.385 6      -894.385          40.312    23386262.240    95762844.443 6      -696.924          40.250    23386262.840    95762846.447 7      -696.924          45.250
R10  19333268.600   103057220.481 7      3578.025          46.562    19333268.280   103057220.487 7      3578.025          45.250
G26  21037223.700   110551363.388 7       857.772          46.937    21037222.700   110551363.393 7       857.772          47.562    21037230.080    86143936.744 7       668.394          47.375    21037230.220    86143940.749 8       668.394          49.312
G21  22727050.100   119431451.197 7      5661.102          43.562    22727047.700   119431451.202 5      5661.102          30.000    22727055.380    93063491.630 4      4411.248          29.750
G16  20422707.660   107322052.090 7      2918.812          47.375    20422706.140   107322052.100 6      2918.812          39.250    20422708.540    83627576.923 6      2274.399          39.125
G27  20786611.640   109234387.627 8      2575.736          48.125    20786610.600   109234387.635 6      2575.736          41.875    20786615.580    85117713.766 7      2007.067          42.187    20786616.580    85117718.772 8      2007.067          51.812
G10  22858923.580   120124454.310 7      4328.598          45.875    22858922.440   120124454.317 7      4328.598          43.187    22858931.480    93603504.257 7      3372.934          43.125    22858931.640    93603508.258 7      3372.934          44.750
R09  19878703.580   106151170.363 8       135.896          49.250    19878703.200   106151170.364 8       135.896          48.500    19878711.500    82562050.368 8       105.697          52.250    19878711.560    82562058.368 8       105.697          53.312
> 2024 05 08 11 22 38.0000000  0 10
R21  21119676.160   113015654.995 7      4499.056          46.812    21119676.820   113015655.002 7      4499.056          45.000    21119687.340    87901108.951 8      3499.266          48.375    21119686.680    87901107.949 8      3499.266          48.250
G23  23027086.820   121008161.498 7      2726.567          45.375    23027086.200   121008161.508 5      2726.567          32.687    23027093.080    94292093.449 5      2124.598          32.375    23027093.800    94292097.450 7      2124.598          47.250
G31  23386425.920   122896507.759 7      -894.361          44.062    23386424.400   122896507.761 6      -894.361          40.687    23386432.360    95763541.351 6      -696.905          40.375    23386432.920    95763543.357 7      -696.905          45.062
R10  19332597.520   103053642.743 7      3577.292          45.875    19332596.680   103053642.749 7      3577.292          45.187
G26  21037060.620   110550505.774 7       857.370          47.250    21037059.460   110550505.779 7       857.370          47.937    21037066.960    86143268.473 7       668.080          47.500    21037066.860    86143272.476 8       668.080          49.750
G21  22725972.660   119425790.274 7      5660.761          43.687    22725970.520   119425790.278 5      5660.761          30.000    22725978.080    93059080.529 5      4410.983          30.250
G16  20422152.200   107319133.317 7      2918.473          47.812    20422150.820   107319133.322 6      2918.473          39.875    20422153.080    83625302.552 6      2274.135          39.625
G27  20786121.520   109231811.806 8      2575.691          48.687    20786120.360   109231811.819 7      2575.691          43.125    20786125.520    85115706.632 7      2007.032          42.500    20786126.280    85115711.643 8      2007.032          51.875
G10  22858099.940   120120125.776 7      4328.346          45.437    22858098.740   120120125.787 7      4328.346          43.875    22858107.840    93600131.378 7      3372.737          43.562    22858107.820    93600135.381 7      3372.737          44.812
R09  19878678.360   106151034.753 8       135.213          49.187    19878677.720   106151034.748 8       135.213          48.875    19878686.020    82561944.889 8       105.165          52.187    19878686.360    82561952.885 8       105.165          53.250
> 2024 05 08 11 22 39.0000000  0 10
R21  21118834.820   113011156.092 7      4498.723          46.812    21118836.240   113011156.099 7      4498.723          45.937    21118846.520    87897609.805 8      3499.007          48.687    21118846.140    87897608.802 8      3499.007          48.562
G23  23026567.940   121005435.046 7      2726.231          44.375    23026567.380   121005435.056 5      2726.231          32.687    23026574.320    94289968.939 5      2124.336          32.687    23026574.820    94289972.936 7      2124.336          46.937
G31  23386596.180   122897402.129 7      -894.307          43.125    23386594.580   122897402.129 6      -894.307          40.250    23386602.600    95764238.246 6      -696.863          40.062    23386603.500    95764240.257 7      -696.863          45.125
R10  19331926.160   103050065.623 7      3576.888          46.750    19331925.840   103050065.632 7      3576.888          45.312
G26  21036897.700   110549648.473 7       857.179          46.937    21036896.320   110549648.473 7       857.179          47.750    21036903.700    86142600.440 7       667.932          47.250    21036903.760    86142604.441 8       667.932          49.312
G21  22724895.280   119420129.618 7      5660.491          43.687    22724893.420   119420129.625 5      5660.491          30.000    22724900.820    93054669.632 5      4410.772          30.250
G16  20421596.720   107316214.818 7      2918.398          47.562    20421595.520   107316214.825 6      2918.398          40.125    20421597.720    83623028.397 6      2274.077          39.250
G27  20785631.500   109229236.077 8      2575.737          49.500    20785630.300   109229236.084 7      2575.737          42.625    20785635.360    85113699.567 7      2007.068          42.437    20785636.120    85113704.577 8      2007.068          52.000
G10  22857276.480   120115797.477 7      4328.213          45.562    22857275.240   120115797.487 7      4328.213          43.250    22857284.200    93596758.678 7      3372.634          42.875    22857284.280    93596762.676 7      3372.634          44.437
R09  19878652.740   106150899.722 8       134.703          49.500    19878652.600   106150899.720 8       134.703          49.375    19878660.760    82561839.859 8       104.769          52.250    19878660.880    82561847.859 8       104.769          53.187
> 2024 05 08 11 22 40.0000000  0 10
R21  21117994.500   113006657.819 7      4497.923          46.250    21117995.820   113006657.823 7      4497.923          45.812    21118005.780    87894111.145 8      3498.384          48.687    21118005.580    87894110.138 8      3498.384          48.812
G23  23026049.120   121002709.267 7      2725.355          44.312    23026048.740   121002709.277 5      2725.355          32.937    23026055.560    94287844.956 5      2123.653          32.687    23026056.140    94287848.955 7      2123.653          47.062
G31  23386766.600   122898296.696 7      -894.772          43.812    23386764.860   122898296.699 6      -894.772          40.187    23386772.820    95764935.307 6      -697.225          39.875    23386773.980    95764937.320 7      -697.225          45.187
R10  19331255.260   103046489.402 7      3575.680          46.687    19331254.760   103046489.411 7      3575.680          45.375
G26  21036734.520   110548791.695 7       856.438          46.625    21036733.260   110548791.697 7       856.438          47.812    21036740.640    86141932.821 7       667.354          47.437    21036740.820    86141936.822 8       667.354          49.437
G21  22723818.280   119414469.424 7      5659.958          44.000    22723816.280   119414469.434 5      5659.958          30.250    22723823.820    93050259.098 5      4410.357          30.250
G16  20421041.520   107313296.831 7      2917.727          47.812    20421040.140   107313296.835 6      2917.727          40.125    20421042.460    83620754.641 6      2273.554          39.812
G27  20785141.500   109226660.655 8      2575.252          48.687    20785140.200   109226660.662 7      2575.252          42.625    20785145.240    85111692.748 7      2006.690          42.312    20785145.760    85111697.754 8      2006.690          52.187
G10  22856452.980   120111469.624 7      4327.539          45.250    22856451.580   120111469.632 7      4327.539          43.250    22856460.560    93593386.327 7      3372.108          43.312    22856460.780    93593390.328 7      3372.108          44.875
R09  19878627.480   106150765.467 8       133.870          48.875    19878627.640   106150765.466 8       133.870          48.437    19878635.600    82561735.437 8       104.121          52.312    19878635.520    82561743.437 8       104.121          52.812
> 2024 05 08 11 22 41.0000000  0 10
R21  21117153.900   113002160.042 7      4497.527          45.375    21117154.380   113002160.052 7      4497.527          44.812    21117165.340    87890612.877 8      3498.076          48.812    21117165.120    87890611.870 8      3498.076          48.562
G23  23025530.740   120999983.993 7      2725.017          43.875    23025530.120   120999984.003 5      2725.017          32.937    23025536.980    94285721.361 5      2123.390          32.562    23025537.420    94285725.368 7      2123.390          46.937
G31  23386936.600   122899191.316 7      -894.608          42.875    23386935.120   122899191.316 6      -894.608          40.375    23386943.000    95765632.399 6      -697.097          40.312    23386944.100    95765634.402 7      -697.097          45.250
R10  19330584.840   103042913.861 7      3575.297          45.875    19330584.080   103042913.859 7      3575.297          45.500
G26  21036571.640   110547935.292 7       856.222          46.687    21036570.300   110547935.302 7       856.222          47.687    21036577.720    86141265.498 7       667.186          47.500    21036578.120    86141269.497 8       667.186          49.625
G21  22722741.380   119408809.601 7      5659.750          44.437    22722739.180   119408809.609 5      5659.750          30.250    22722746.640    93045848.852 5      4410.195          30.062
G16  20420486.400   107310379.235 7      2917.385          47.500    20420484.960   107310379.240 6      2917.385          39.750    20420487.240    83618481.187 6      2273.287          39.312
G27  20784651.580   109224085.396 8      2575.294          48.375    20784650.160   109224085.403 7      2575.294          42.375    20784655.200    85109686.051 7      2006.722          42.062    20784655.760    85109691.057 8      2006.722          52.125
G10  22855629.280   120107142.071 7      4327.432          45.687    22855628.100   120107142.081 7      4327.432          42.812    22855636.900    93590014.209 7      3372.025          42.875    22855637.500    93590018.204 7      3372.025          44.562
R09  19878602.640   106150631.907 8       133.233          48.500    19878602.620   106150631.906 8       133.233          48.500    19878610.640    82561631.555 8       103.626          52.562    19878610.500    82561639.553 8       103.626          52.375
> 2024 05 08 11 22 42.0000000  0 10
R21  21116313.340   112997662.729 7      4497.057          45.000    21116314.120   112997662.741 7      4497.057          44.500    21116324.980    87887114.964 8      3497.711          48.687    21116324.420    87887113.957 7      3497.711          47.875
G23  23025012.400   120997259.228 7      2724.471          43.250    23025011.660   120997259.238 5      2724.471          32.687    23025018.440    94283598.170 5      2122.964          32.562    23025018.960    94283602.175 7      2122.964          47.187
G31  23387107.100   122900085.989 7      -894.873          42.937    23387105.380   122900085.988 6      -894.873          40.625    23387113.480    95766329.539 6      -697.303          40.250    23387114.780    95766331.545 7      -697.303          45.562
R10  19329914.460   103039339.025 7      3574.377          46.062    19329913.400   103039339.039 7      3574.377          45.000
G26  21036408.500   110547079.276 7       855.757          46.187    21036407.420   110547079.278 7       855.757          47.250    21036414.800    86140598.464 7       666.824          47.187    21036415.320    86140602.463 8       666.824          48.750
G21  22721664.800   119403150.088 7      5659.342          44.062    22721662.200   119403150.096 5      5659.342          30.250    22721669.380    93041438.850 5      4409.877          30.062
G16  20419931.320   107307461.960 7      2917.029          47.687    20419929.860   107307461.967 6      2917.029          39.937    20419932.100    83616207.984 6      2273.010          39.500
G27  20784161.360   109221510.302 8      2574.980          48.500    20784160.280   109221510.310 7      2574.980          42.500    20784165.220    85107679.483 7      2006.478          42.625    20784165.820    85107684.485 8      2006.478          50.937
G10  22854805.920   120102814.823 7      4326.978          45.312    22854804.620   120102814.827 7      4326.978          43.125    22854813.560    93586642.326 7      3371.671          43.437    22854813.880    93586646.322 7      3371.671          44.500
R09  19878578.220   106150499.012 8       132.473          48.375    19878577.720   106150499.011 7       132.473          47.937    19878585.800    82561528.186 8       103.035          51.937    19878585.680    82561536.181 8       103.035          52.375
> 2024 05 08 11 22 43.0000000  0 10
R21  21115473.020   112993166.036 7      4496.312          45.375    21115473.740   112993166.062 7      4496.312          44.500    21115484.880    87883617.547 8      3497.132          48.812    21115484.400    87883616.542 7      3497.132          47.937
G23  23024493.780   120994535.109 7      2723.715          43.937    23024493.400   120994535.120 5      2723.715          32.687    23024500.040    94281475.482 5      2122.375          32.562    23024500.520    94281479.489 7      2122.375          47.312
G31  23387277.240   122900980.790 7      -894.804          43.500    23387275.740   122900980.792 6      -894.804          40.687    23387283.640    95767026.776 6      -697.250          40.062    23387284.820    95767028.779 7      -697.250          45.062
R10  19329243.820   103035765.022 7      3573.496          45.875    19329242.880   103035765.033 7      3573.496          44.937
G26  21036245.600   110546223.751 7       855.282          46.375    21036244.720   110546223.753 7       855.282          47.375    21036251.980    86139931.817 7       666.454          47.125    21036252.300    86139935.818 8       666.454          49.187
G21  22720587.760   119397491.048 7      5658.731          43.500    22720585.420   119397491.056 5      5658.731          30.250    22720592.520    93037029.213 5      4409.401          30.062
G16  20419375.980   107304545.179 7      2916.492          47.187    20419374.840   107304545.186 6      2916.492          39.875    20419377.060    83613935.165 6      2272.591          39.687
G27  20783671.300   109218935.456 8      2574.775          48.437    20783670.200   109218935.463 7      2574.775          42.125    20783675.240    85105673.111 7      2006.318          42.250    20783675.840    85105678.113 8      2006.318          51.437
G10  22853982.340   120098487.971 7      4326.619          45.375    22853981.240   120098487.978 7      4326.619          42.937    22853990.220    93583270.759 7      3371.391          42.687    22853990.520    93583274.758 7      3371.391          44.687
R09  19878553.300   106150366.878 8       131.642          48.062    19878552.880   106150366.882 8       131.642          48.062    19878561.020    82561425.412 8       102.388          51.125    19878561.060    82561433.406 8       102.388          52.125
> 2024 05 08 11 22 44.0000000  0 10
R21  21114632.620   112988669.881 7      4496.133          45.125    21114633.580   112988669.891 7      4496.133          44.750    21114644.700    87880120.534 8      3496.992          48.812    21114644.240    87880119.529 8      3496.992          48.687
G23  23023975.320   120991811.572 7      2723.357          43.187    23023975.000   120991811.584 5      2723.357          32.750    23023981.900    94279353.249 5      2122.096          32.687    23023982.360    94279357.246 7      2122.096          47.375
G31  23387447.740   122901875.738 7      -894.805          43.562    23387446.140   122901875.743 6      -894.805          40.625    23387453.920    95767724.130 6      -697.251          40.125    23387454.820    95767726.129 7      -697.251          45.437
R10  19328573.520   103032191.770 7      3573.039          46.500    19328572.660   103032191.789 7      3573.039          45.000
G26  21036082.900   110545368.672 7       855.010          47.125    21036081.960   110545368.680 7       855.010          47.062    21036089.300    86139265.525 7       666.241          47.000    21036089.500    86139269.525 8       666.241          49.562
G21  22719510.780   119391832.395 7      5658.641          43.250    22719508.800   119391832.402 4      5658.641          29.812    22719515.620    93032619.883 5      4409.331          30.062
G16  20418821.140   107301628.813 7      2916.369          47.250    20418819.660   107301628.815 6      2916.369          39.875    20418822.240    83611662.672 6      2272.495          39.375
G27  20783181.280   109216360.859 8      2574.649          48.625    20783180.280   109216360.866 7      2574.649          42.375    20783185.260    85103666.929 7      2006.220          42.187    20783185.780    85103671.937 8      2006.220          52.125
G10  22853158.980   120094161.495 7      4326.510          45.937    22853158.060   120094161.500 7      4326.510          42.750    22853166.840    93579899.479 7      3371.307          42.812    22853167.200    93579903.478 7      3371.307          44.812
R09  19878528.440   106150235.446 8       131.272          48.812    19878528.360   106150235.447 8       131.272          48.062    19878536.320    82561323.188 8       102.101          51.875    19878536.380    82561331.179 8       102.101          52.562
> 2024 05 08 11 22 45.0000000  0 10
R21  21113792.780   112984174.363 7      4495.331          44.500    21113793.480   112984174.376 7      4495.331          44.250    21113804.880    87876624.022 8      3496.369          48.750    21113804.160    87876623.017 8      3496.369          48.812
G23  23023457.400   120989088.672 7      2722.747          44.125    23023457.000   120989088.683 5      2722.747          32.750    23023463.820    94277231.507 5      2121.621          32.687    23023464.120    94277235.504 7      2121.621          47.562
G31  23387617.920   122902770.868 7      -895.106          43.500    23387616.540   122902770.870 6      -895.106          40.437    23387624.200    95768421.628 6      -697.485          40.062    23387625.320    95768423.622 7      -697.485          45.125
R10  19327903.300   103028619.389 7      3572.058          46.375    19327902.600   103028619.403 7      3572.058          44.937
G26  21035920.360   110544514.117 7       854.360          47.250    21035919.280   110544514.122 7       854.360          47.437    21035926.620    86138599.635 7       665.735          47.312    21035926.840    86138603.636 8       665.735          49.375
G21  22718433.880   119386174.232 7      5658.053          43.437    22718431.960   119386174.237 4      5658.053          29.812    22718438.960    93028210.931 5      4408.872          30.062
G16  20418266.220   107298712.951 7      2915.735          46.687    20418264.960   107298712.953 6      2915.735          39.562    20418267.200    83609390.570 6      2272.001          38.937
G27  20782691.340   109213786.538 8      2574.295          48.812    20782690.560   109213786.545 7      2574.295          42.375    20782695.500    85101660.967 7      2005.944          42.312    20782696.280    85101665.973 8      2005.944          51.812
G10  22852336.080   120089835.458 7      4325.885          45.625    22852334.840   120089835.465 7      4325.885          43.000    22852343.560    93576528.547 7      3370.819          43.312    22852343.800    93576532.554 7      3370.819          44.687
R09  19878503.980   106150104.842 8       130.226          48.500    19878503.660   106150104.848 8       130.226          48.187    19878511.840    82561221.604 8       101.287          51.875    19878511.760    82561229.602 8       101.287          52.687
> 2024 05 08 11 22 46.0000000  0 10
R21  21112953.020   112979679.498 7      4494.513          45.625    21112953.620   112979679.510 7      4494.513          44.250    21112964.900    87873128.022 8      3495.733          48.812    21112964.320    87873127.019 8      3495.733          48.750
G23  23022939.460   120986366.464 7      2721.885          43.625    23022938.880   120986366.474 5      2721.885          32.812    23022945.740    94275110.306 5      2120.949          32.875    23022945.900    94275114.309 7      2120.949          46.937
G31  23387788.480   122903666.202 7      -895.519          42.750    23387787.020   122903666.212 6      -895.519          40.875    23387794.800    95769119.287 6      -697.807          40.500    23387795.880    95769121.279 7      -697.807          45.062
R10  19327233.160   103025047.864 7      3571.118          46.000    19327232.440   103025047.870 7      3571.118          45.000
G26  21035758.020   110543660.097 7       853.609          47.125    21035756.800   110543660.102 7       853.609          47.437    21035764.240    86137934.159 7       665.150          47.375    21035764.680    86137938.162 8       665.150          49.562
G21  22717357.100   119380516.569 7      5657.348          43.812    22717355.260   119380516.577 4      5657.348          29.812    22717362.300    93023802.367 4      4408.323          29.875
G16  20417711.460   107295797.607 7      2914.983          47.625    20417710.180   107295797.617 6      2914.983          39.687    20417712.360    83607118.878 6      2271.415          39.187
G27  20782201.580   109211212.537 8      2573.850          48.875    20782200.640   109211212.545 7      2573.850          42.500    20782205.600    85099655.250 7      2005.598          42.375    20782206.460    85099660.258 8      2005.598          52.000
G10  22851513.320   120085509.872 7      4325.322          45.062    22851511.660   120085509.883 7      4325.322          43.312    22851520.460    93573157.967 7      3370.381          43.375    22851520.720    93573161.970 7      3370.381          45.062
R09  19878479.660   106149975.028 8       129.457          48.312    19878479.380   106149975.031 7       129.457          47.812    19878487.460    82561120.629 8       100.688          52.000    19878487.380    82561128.630 8       100.688          52.812
> 2024 05 08 11 22 47.0000000  0 10
R21  21112112.800   112975185.232 7      4494.166          45.375    21112113.980   112975185.239 7      4494.166          44.750    21112124.560    87869632.475 8      3495.463          49.125    21112124.280    87869631.466 8      3495.463          49.375
G23  23022421.700   120983644.866 7      2721.471          44.187    23022420.920   120983644.878 5      2721.471          32.812    23022427.900    94272989.580 5      2120.626          32.875    23022428.140    94272993.587 7      2120.626          46.500
G31  23387958.520   122904561.697 7      -895.459          43.562    23387957.480   122904561.705 6      -895.459          40.562    23387964.960    95769817.063 6      -697.760          40.312    23387966.160    95769819.055 7      -697.760          44.875
R10  19326563.380   103021477.173 7      3570.457          46.062    19326562.600   103021477.179 7      3570.457          44.750
G26  21035595.340   110542806.548 7       853.451          46.937    21035594.420   110542806.550 7       853.451          47.312    21035601.740    86137269.052 7       665.027          47.437    21035602.320    86137273.051 8       665.027          49.062
G21  22716280.360   119374859.334 7      5657.170          43.187    22716278.680   119374859.342 4      5657.170          29.875    22716285.820    93019394.140 4      4408.185          29.875
G16  20417156.700   107292882.734 7      2914.812          46.812    20417155.300   107292882.741 6      2914.812          39.250    20417157.580    83604847.540 6      2271.282          39.187
G27  20781711.820   109208638.808 8      2573.746          48.375    20781711.000   109208638.812 7      2573.746          42.187    20781715.840    85097649.742 6      2005.517          41.937    20781716.660    85097654.748 8      2005.517          51.812
G10  22850690.080   120081184.695 7      4325.142          45.250    22850688.640   120081184.702 7      4325.142          43.062    22850697.320    93569787.695 7      3370.240          43.312    22850697.360    93569791.706 7      3370.240          45.062
R09  19878455.480   106149845.958 8       128.847          48.562    19878455.260   106149845.959 7       128.847          47.375    19878463.380    82561020.236 8       100.214          51.750    19878463.480    82561028.232 8       100.214          53.375
> 2024 05 08 11 22 48.0000000  0 10
R21  21111273.060   112970691.461 7      4493.615          45.937    21111274.100   112970691.471 7      4493.615          44.687    21111285.160    87866137.324 8      3495.034          48.625    21111284.580    87866136.324 8      3495.034          48.875
G23  23021903.800   120980923.829 7      2720.756          44.187    23021903.220   120980923.842 5      2720.756          32.937    23021910.000    94270869.296 5      2120.070          32.812    23021910.380    94270873.295 7      2120.070          46.875
G31  23388128.880   122905457.260 7      -895.662          43.562    23388127.980   122905457.268 6      -895.662          40.687    23388135.380    95770514.894 6      -697.919          40.312    23388136.080    95770516.896 7      -697.919          44.812
R10  19325893.620   103017907.199 7      3569.608          46.000    19325892.800   103017907.213 7      3569.608          44.562
G26  21035433.100   110541953.404 7       852.971          47.187    21035431.980   110541953.411 7       852.971          47.375    21035439.260    86136604.264 7       664.653          47.125    21035439.860    86136608.263 8       664.653          49.812
G21  22715204.040   119369202.451 7      5656.732          43.437    22715202.200   119369202.456 4      5656.732          29.875    22715209.280    93014986.185 4      4407.843          29.875
G16  20416602.320   107289968.244 7      2914.282          46.625    20416600.860   107289968.248 6      2914.282          39.500    20416603.040    83602576.509 6      2270.869          39.250
G27  20781222.180   109206065.246 8      2573.453          48.437    20781221.220   109206065.253 7      2573.453          42.562    20781226.100    85095644.374 7      2005.288          42.312    20781226.860    85095649.380 8      2005.288          51.625
G10  22849867.120   120076859.842 7      4324.628          45.687    22849865.640   120076859.852 7      4324.628          43.000    22849874.240    93566417.686 7      3369.840          43.125    22849874.240    93566421.699 7      3369.840          44.812
R09  19878431.320   106149717.567 8       127.966          48.437    19878431.380   106149717.574 8       127.966          48.312    19878439.320    82560920.374 8        99.529          52.125    19878439.380    82560928.364 8        99.529          53.375
> 2024 05 08 11 22 49.0000000  0 10
R21  21110433.860   112966198.162 7      4493.031          46.250    21110434.500   112966198.168 7      4493.031          45.500    21110445.320    87862642.538 8      3494.580          48.625    21110444.820    87862641.537 8      3494.580          48.500
G23  23021385.980   120978203.258 7      2720.254          42.812    23021385.620   120978203.265 5      2720.254          32.937    23021392.400    94268749.368 5      2119.678          32.812    23021392.640    94268753.369 7      2119.678          46.687
G31  23388299.300   122906352.834 7      -895.701          43.375    23388298.500   122906352.839 6      -895.701          41.000    23388305.720    95771212.733 6      -697.949          40.625    23388306.360    95771214.730 7      -697.949          44.687
R10  19325223.880   103014337.895 7      3568.958          46.187    19325223.560   103014337.909 7      3568.958          45.187
G26  21035271.100   110541100.606 7       852.629          47.250    21035269.700   110541100.614 7       852.629          47.625    21035276.900    86135939.744 7       664.386          47.187    21035277.400    86135943.747 8       664.386          49.125
G21  22714127.740   119363545.850 7      5656.482          44.750    22714125.740   119363545.857 4      5656.482          29.875    22714132.740    93010578.452 4      4407.649          29.812
G16  20416047.800   107287054.072 7      2913.956          46.812    20416046.180   107287054.076 6      2913.956          39.750    20416048.500    83600305.725 6      2270.615          39.500
G27  20780732.540   109203491.805 8      2573.348          48.312    20780731.520   109203491.813 7      2573.348          42.687    20780736.500    85093639.095 7      2005.206          42.687    20780737.040    85093644.097 8      2005.206          51.500
G10  22849044.300   120072535.245 7      4324.385          45.812    22849042.860   120072535.255 7      4324.385          43.000    22849051.400    93563047.870 7      3369.651          43.500    22849051.260    93563051.883 7      3369.651          44.750
R09  19878407.520   106149589.804 7       127.451          47.812    19878407.540   106149589.808 8       127.451          48.250    19878415.420    82560820.999 8        99.129          52.062    19878415.620    82560828.988 8        99.129          53.250
> 2024 05 08 11 22 50.0000000  0 10
R21  21109594.360   112961705.346 7      4492.368          45.687    21109595.100   112961705.355 7      4492.368          45.875    21109605.720    87859148.132 8      3494.064          49.125    21109605.180    87859147.135 8      3494.064          48.750
G23  23020868.240   120975483.207 7      2719.648          42.812    23020867.960   120975483.212 5      2719.648          32.937    23020874.660    94266629.846 5      2119.206          32.500    23020875.020    94266633.845 7      2119.206          46.875
G31  23388469.740   122907248.452 7      -895.792          42.625    23388468.920   122907248.449 6      -895.792          40.250    23388476.120    95771910.599 6      -698.020          40.062    23388476.860    95771912.598 7      -698.020          45.000
R10  19324554.500   103010769.317 7      3568.132          45.687    19324553.900   103010769.326 7      3568.132          44.875
G26  21035108.760   110540248.187 7       852.152          47.437    21035107.400   110540248.189 7       852.152          47.312    21035114.780    86135275.519 7       664.015          47.375    21035115.260    86135279.520 8       664.015          49.250
G21  22713051.420   119357889.619 7      5655.896          44.125    22713049.460   119357889.629 4      5655.896          29.875    22713056.220    93006171.009 4      4407.192          29.812
G16  20415493.240   107284140.262 7      2913.442          46.562    20415491.740   107284140.267 6      2913.442          39.625    20415493.960    83598035.220 6      2270.215          39.375
G27  20780242.860   109200918.519 8      2573.105          48.750    20780241.800   109200918.524 7      2573.105          42.375    20780246.740    85091633.935 7      2005.017          42.375    20780247.280    85091638.937 8      2005.017          51.750
G10  22848221.300   120068210.939 7      4324.008          45.500    22848219.940   120068210.947 7      4324.008          42.750    22848228.440    93559678.283 7      3369.357          43.125    22848228.360    93559682.288 7      3369.357          44.750
R09  19878383.600   106149462.703 8       126.710          49.500    19878383.740   106149462.706 8       126.710          48.125    19878391.580    82560722.136 8        98.552          52.500    19878391.620    82560730.134 8        98.552          53.187
> 2024 05 08 11 22 51.0000000  0 10
R21  21108754.700   112957213.154 7      4491.822          45.437    21108756.040   112957213.171 7      4491.822          45.375    21108766.140    87855654.206 8      3493.639          48.500    21108765.720    87855653.206 8      3493.639          48.000
G23  23020350.800   120972763.829 7      2719.014          42.375    23020350.560   120972763.839 5      2719.014          32.625    23020357.080    94264510.850 5      2118.712          32.500    23020357.460    94264514.851 7      2118.712          47.312
G31  23388640.000   122908144.281 7      -895.892          43.250    23388639.360   122908144.278 6      -895.892          40.375    23388646.520    95772608.637 6      -698.098          40.312    23388647.260    95772610.634 7      -698.098          44.625
R10  19323885.280   103007201.628 7      3567.150          46.187    19323884.620   103007201.642 7      3567.150          44.687
G26  21034946.780   110539396.338 7       851.515          46.812    21034945.480   110539396.342 7       851.515          47.375    21034952.720    86134611.743 7       663.518          47.062    21034953.240    86134615.742 8       663.518          49.500
G21  22711975.260   119352233.881 7      5655.496          44.062    22711973.020   119352233.886 5      5655.496          30.125    22711979.900    93001763.941 4      4406.880          29.812
G16  20414938.820   107281226.978 7      2912.924          47.937    20414937.260   107281226.986 6      2912.924          39.812    20414939.620    83595765.131 6      2269.811          39.375
G27  20779753.360   109198345.575 8      2572.710          48.875    20779752.160   109198345.580 7      2572.710          42.250    20779757.060    85089629.042 6      2004.709          41.937    20779757.720    85089634.050 8      2004.709          51.875
G10  22847398.600   120063887.115 7      4323.513          45.187    22847397.080   120063887.122 7      4323.513          43.062    22847405.600    93556309.073 7      3368.971          42.750    22847405.660    93556313.072 7      3368.971          44.687
R09  19878360.040   106149336.426 8       125.793          48.437    19878359.820   106149336.430 8       125.793          48.187    19878368.080    82560623.919 8        97.839          51.937    19878367.840    82560631.921 8        97.839          52.875
> 2024 05 08 11 22 52.0000000  0 10
R21  21107915.280   112952721.480 7      4491.359          45.937    21107916.720   112952721.490 7      4491.359          45.500    21107926.680    87852160.670 8      3493.279          48.375    21107926.280    87852159.670 7      3493.279          47.812
G23  23019833.380   120970044.999 7      2718.526          42.312    23019833.060   120970045.012 5      2718.526          32.625    23019839.680    94262392.284 5      2118.332          32.500    23019839.940    94262396.299 7      2118.332          46.812
G31  23388810.720   122909040.183 7      -895.933          43.312    23388809.720   122909040.188 6      -895.933          40.312    23388816.920    95773306.737 6      -698.129          40.062    23388817.760    95773308.727 7      -698.129          44.375
R10  19323216.180   103003634.660 7      3566.568          46.062    19323215.600   103003634.672 7      3566.568          44.750
G26  21034784.760   110538544.859 7       851.297          46.375    21034783.320   110538544.861 7       851.297          46.875    21034790.640    86133948.243 7       663.349          47.125    21034790.920    86133952.244 8       663.349          48.687
G21  22710898.960   119346578.481 7      5655.226          43.687    22710896.780   119346578.486 5      5655.226          30.125    22710903.640    92997357.138 4      4406.670          29.812
G16  20414384.500   107278314.065 7      2912.672          46.687    20414383.140   107278314.075 6      2912.672          39.437    20414385.380    83593495.324 6      2269.615          39.250
G27  20779263.640   109195772.781 8      2572.670          48.375    20779262.820   109195772.788 7      2572.670          42.375    20779267.580    85087624.269 7      2004.678          42.312    20779268.240    85087629.275 8      2004.678          51.375
G10  22846575.400   120059563.592 7      4323.368          44.875    22846574.200   120059563.600 7      4323.368          42.687    22846582.860    93552940.097 7      3368.858          42.750    22846583.840    93552944.093 7      3368.858          45.125
R09  19878336.320   106149210.817 7       125.269          47.687    19878336.380   106149210.824 7       125.269          47.500    19878344.360    82560526.223 8        97.432          51.375    19878344.220    82560534.223 8        97.432          51.625
> 2024 05 08 11 22 53.0000000  0 10
R21  21107076.280   112948230.449 7      4490.666          46.312    21107077.280   112948230.464 7      4490.666          45.062    21107087.480    87848667.650 8      3492.740          48.187    21107087.240    87848666.652 8      3492.740          48.250
G23  23019316.380   120967326.869 7      2717.815          43.312    23019315.780   120967326.882 5      2717.815          32.312    23019322.420    94260274.258 5      2117.778          32.250    23019322.720    94260278.265 7      2117.778          46.750
G31  23388981.740   122909936.324 7      -896.304          43.875    23388980.260   122909936.326 6      -896.304          40.187    23388987.480    95774005.016 6      -698.419          40.250    23388988.560    95774007.017 7      -698.419          44.562
R10  19322547.460   103000068.618 7      3565.697          46.375    19322546.580   103000068.616 7      3565.697          45.000
G26  21034622.660   110537693.961 7       850.631          47.812    21034621.600   110537693.966 7       850.631          47.312    21034628.640    86133285.208 7       662.830          46.875    21034629.100    86133289.213 8       662.830          48.875
G21  22709822.920   119340923.608 7      5654.619          43.937    22709820.780   119340923.613 5      5654.619          30.125    22709827.560    92992950.745 5      4406.197          30.312
G16  20413830.220   107275401.703 8      2912.051          48.125    20413828.860   107275401.708 6      2912.051          39.437    20413831.180    83591225.951 6      2269.131          39.125
G27  20778774.080   109193200.344 8      2572.274          49.000    20778773.260   109193200.349 7      2572.274          42.312    20778778.060    85085619.768 7      2004.369          42.312    20778778.540    85085624.777 8      2004.369          51.125
G10  22845752.600   120055240.579 7      4322.816          44.250    22845751.560   120055240.587 7      4322.816          43.062    22845760.140    93549571.515 7      3368.428          42.687    22845761.320    93549575.512 7      3368.428          44.875
R09  19878312.980   106149086.066 8       124.334          49.375    19878313.180   106149086.072 7       124.334          47.875    19878320.980    82560429.192 8        96.704          50.875    19878321.080    82560437.188 8        96.704          51.250
> 2024 05 08 11 22 54.0000000  0 10
R21  21106237.220   112943740.119 7      4490.355          45.562    21106237.900   112943740.137 7      4490.355          45.250    21106248.460    87845175.174 8      3492.499          48.375    21106248.040    87845174.164 8      3492.499          48.062
G23  23018799.160   120964609.469 7      2717.381          43.000    23018798.800   120964609.482 5      2717.381          32.312    23018805.400    94258156.806 5      2117.440          32.250    23018805.760    94258160.817 7      2117.440          47.500
G31  23389152.300   122910832.741 7      -896.277          43.000    23389150.980   122910832.741 6      -896.277          41.062    23389157.940    95774703.515 6      -698.398          40.562    23389158.740    95774705.515 7      -698.398          44.312
R10  19321878.400   102996503.506 7      3565.013          46.562    19321877.400   102996503.519 7      3565.013          45.062
G26  21034460.980   110536843.657 7       850.355          47.375    21034459.840   110536843.662 7       850.355          47.375    21034466.800    86132622.629 7       662.614          47.312    21034467.160    86132626.628 8       662.614          49.562
G21  22708746.580   119335269.274 7      5654.454          43.625    22708744.680   119335269.279 5      5654.454          30.187    22708751.680    92988544.779 5      4406.068          30.312
G16  20413276.220   107272489.912 7      2911.912          47.062    20413274.760   107272489.919 6      2911.912          40.000    20413277.020    83588957.023 6      2269.022          39.687
G27  20778284.560   109190628.280 8      2572.212          49.000    20778283.840   109190628.290 7      2572.212          42.750    20778288.640    85083615.571 7      2004.321          42.625    20778288.860    85083620.577 8      2004.321          51.875
G10  22844929.900   120050918.071 7      4322.590          45.437    22844928.960   120050918.078 7      4322.590          42.687    22844937.660    93546203.333 7      3368.252          42.750    22844938.600    93546207.330 7      3368.252          45.125
R09  19878289.800   106148962.139 7       123.799          47.750    19878289.740   106148962.148 8       123.799          48.375    19878297.700    82560332.798 8        96.288          51.937    19878297.860    82560340.794 8        96.288          53.562
> 2024 05 08 11 22 55.0000000  0 10
R21  21105398.140   112939250.314 7      4489.311          44.750    21105398.380   112939250.326 7      4489.311          44.250    21105409.340    87841683.100 8      3491.687          48.687    21105408.840    87841682.091 8      3491.687          48.500
G23  23018282.380   120961892.608 7      2716.415          42.250    23018281.840   120961892.618 5      2716.415          32.875    23018288.300    94256039.773 5      2116.687          33.000    23018288.620    94256043.778 7      2116.687          47.562
G31  23389323.160   122911729.198 7      -896.673          43.500    23389321.720   122911729.195 6      -896.673          40.937    23389328.540    95775402.038 6      -698.706          40.437    23389329.200    95775404.034 7      -698.706          44.375
R10  19321209.660   102992939.145 7      3563.782          46.000    19321208.940   102992939.153 7      3563.782          45.187
G26  21034299.200   110535993.763 7       849.454          47.000    21034298.000   110535993.762 7       849.454          47.312    21034305.040    86131960.365 7       661.912          47.250    21034305.300    86131964.368 8       661.912          48.687
G21  22707671.020   119329615.321 7      5653.492          44.125    22707668.660   119329615.328 5      5653.492          30.187    22707676.060    92984139.107 5      4405.318          30.312
G16  20412722.260   107269578.514 7      2910.950          47.000    20412720.880   107269578.519 6      2910.950          39.437    20412723.120    83586688.397 6      2268.273          39.187
G27  20777794.980   109188056.386 8      2571.547          48.312    20777794.480   109188056.397 7      2571.547          42.625    20777799.220    85081611.494 7      2003.803          42.375    20777799.300    85081616.504 8      2003.803          51.625
G10  22844107.400   120046595.893 7      4321.718          45.312    22844106.600   120046595.904 7      4321.718          42.937    22844115.220    93542835.403 7      3367.573          43.000    22844116.120    93542839.399 7      3367.573          45.312
R09  19878266.700   106148838.914 8       122.629          48.312    19878266.800   106148838.926 8       122.629          48.062    19878274.720    82560236.955 8        95.378          51.875    19878274.880    82560244.951 8        95.378          52.875
> 2024 05 08 11 22 56.0000000  0 10
R21  21104559.340   112934761.137 7      4488.721          44.625    21104559.700   112934761.152 7      4488.721          44.875    21104570.320    87838191.525 8      3491.228          48.625    21104570.040    87838190.518 8      3491.228          48.812
G23  23017765.460   120959176.419 7      2715.771          43.500    23017764.960   120959176.429 5      2715.771          32.875    23017771.200    94253923.264 5      2116.185          33.000    23017771.740    94253927.265 7      2116.185          47.562
G31  23389493.340   122912625.841 7      -896.738          43.187    23389492.360   122912625.838 6      -896.738          40.375    23389499.240    95776100.711 6      -698.757          40.125    23389499.880    95776102.715 7      -698.757          44.250
R10  19320541.100   102989375.650 7      3562.915          45.750    19320540.320   102989375.659 7      3562.915          45.000
G26  21034137.740   110535144.378 7       848.997          47.687    21034136.380   110535144.383 7       848.997          47.562    21034143.400    86131298.507 7       661.556          47.187    21034143.720    86131302.510 8       661.556          49.125
G21  22706595.400   119323961.820 7      5653.164          43.062    22706592.680   119323961.827 5      5653.164          30.187    22706600.400    92979733.786 5      4405.063          30.312
G16  20412168.480   107266667.611 7      2910.540          46.875    20412166.980   107266667.616 6      2910.540          39.937    20412169.120    83584420.165 6      2267.954          39.625
G27  20777305.580   109185484.801 8      2571.367          48.000    20777305.080   109185484.806 7      2571.367          42.625    20777309.800    85079607.657 7      2003.662          42.437    20777310.000    85079612.665 8      2003.662          52.125
G10  22843285.060   120042274.150 7      4321.402          44.750    22843284.240   120042274.157 7      4321.402          42.875    22843292.700    93539467.814 7      3367.326          43.000    22843293.840    93539471.805 7      3367.326          45.250
R09  19878243.600   106148716.493 7       121.950          47.500    19878243.780   106148716.497 7       121.950          47.937    19878251.760    82560141.728 8        94.850          52.312    19878251.840    82560149.726 8        94.850          52.812
> 2024 05 08 11 22 57.0000000  0 10
R21  21103720.760   112930272.326 7      4488.707          44.250    21103720.900   112930272.341 7      4488.707          44.875    21103731.800    87834700.232 8      3491.216          48.750    21103731.280    87834699.229 8      3491.216          48.500
G23  23017248.620   120956460.635 7      2715.583          43.750    23017248.320   120956460.640 5      2715.583          32.562    23017254.480    94251807.067 5      2116.039          32.437    23017255.360    94251811.060 7      2116.039          47.625
G31  23389664.180   122913522.455 7      -896.651          43.875    23389663.100   122913522.457 6      -896.651          40.875    23389669.740    95776799.367 6      -698.689          40.437    23389670.580    95776801.365 7      -698.689          44.500
R10  19319872.760   102985812.748 7      3562.671          46.000    19319872.060   102985812.753 7      3562.671          45.062
G26  21033976.140   110534295.262 7       848.985          46.937    21033974.840   110534295.264 7       848.985          47.937    21033981.800    86130636.860 7       661.546          47.312    21033982.100    86130640.865 8       661.546          48.812
G21  22705519.980   119318308.537 7      5653.212          43.375    22705516.920   119318308.544 5      5653.212          30.187    22705524.840    92975328.636 5      4405.100          30.625
G16  20411614.620   107263756.960 7      2910.525          47.375    20411613.180   107263756.970 6      2910.525          39.562    20411615.140    83582152.123 6      2267.942          39.250
G27  20776816.200   109182913.249 8      2571.578          48.875    20776815.820   109182913.257 7      2571.578          42.687    20776820.440    85077603.853 6      2003.827          41.937    20776820.880    85077608.859 8      2003.827          52.250
G10  22842462.680   120037952.608 7      4321.462          45.500    22842461.840   120037952.613 7      4321.462          43.000    22842470.360    93536100.379 7      3367.373          43.000    22842471.280    93536104.370 7      3367.373          45.062
R09  19878220.960   106148594.625 8       121.621          48.437    19878220.960   106148594.632 8       121.621          48.312    19878228.900    82560046.940 8        94.594          51.500    19878229.040    82560054.942 8        94.594          52.500
> 2024 05 08 11 22 58.0000000  0 10
R21  21102881.780   112925784.190 7      4487.724          45.375    21102882.720   112925784.203 7      4487.724          44.750    21102892.860    87831209.453 8      3490.452          48.562    21102892.380    87831208.450 7      3490.452          47.812
G23  23016731.960   120953745.479 7      2714.724          44.125    23016731.460   120953745.487 5      2714.724          32.562    23016738.020    94249691.363 5      2115.369          32.437    23016738.460    94249695.358 7      2115.369          47.437
G31  23389834.560   122914419.213 7      -896.895          43.062    23389833.680   122914419.216 6      -896.895          40.750    23389840.560    95777498.123 6      -698.879          40.625    23389841.320    95777500.122 7      -698.879          44.562
R10  19319204.600   102982250.708 7      3561.553          46.312    19319203.800   102982250.722 7      3561.553          44.937
G26  21033814.460   110533446.642 7       848.387          47.687    21033813.260   110533446.647 7       848.387          47.312    21033820.340    86129975.592 7       661.081          47.312    21033820.700    86129979.595 8       661.081          49.500
G21  22704444.160   119312655.729 7      5652.468          43.562    22704441.120   119312655.737 5      5652.468          30.687    22704449.080    92970923.859 5      4404.521          30.625
G16  20411060.980   107260846.795 7      2909.835          47.250    20411059.220   107260846.805 6      2909.835          39.937    20411061.440    83579884.462 6      2267.404          39.500
G27  20776327.120   109180341.994 8      2571.118          48.187    20776326.340   109180341.997 7      2571.118          42.437    20776331.280    85075600.271 7      2003.468          42.437    20776331.920    85075605.275 8      2003.468          51.937
G10  22841640.320   120033631.474 7      4320.950          44.812    22841639.580   120033631.479 7      4320.950          42.812    22841647.900    93532733.264 7      3366.974          42.375    22841648.860    93532737.254 7      3366.974          44.937
R09  19878198.300   106148473.529 7       120.678          47.937    19878198.120   106148473.532 7       120.678          47.875    19878206.260    82559952.747 8        93.861          51.875    19878206.360    82559960.747 8        93.861          52.812
> 2024 05 08 11 22 59.0000000  0 10
R21  21102043.220   112921296.506 7      4487.536          45.125    21102044.180   112921296.521 7      4487.536          44.937    21102054.140    87827719.030 8      3490.306          48.750    21102053.740    87827718.023 8      3490.306          48.250
G23  23016215.360   120951030.844 7      2714.466          43.937    23016214.920   120951030.854 5      2714.466          32.937    23016221.320    94247576.065 5      2115.168          32.437    23016221.860    94247580.053 7      2115.168          47.312
G31  23390005.380   122915316.030 7      -896.787          43.500    23390004.360   122915316.032 6      -896.787          40.562    23390011.160    95778196.931 6      -698.795          40.687    23390012.260    95778198.936 7      -698.795          44.812
R10  19318536.460   102978689.391 7      3560.994          46.187    19318535.700   102978689.408 7      3560.994          45.312
G26  21033653.180   110532598.424 7       848.123          47.375    21033651.940   110532598.431 7       848.123          47.250    21033658.920    86129314.645 7       660.875          46.937    21033659.280    86129318.646 8       660.875          49.187
G21  22703368.400   119307003.253 7      5652.309          42.875    22703365.600   119307003.260 5      5652.309          30.687    22703373.540    92966519.332 5      4404.397          30.625
G16  20410507.220   107257936.989 7      2909.683          47.250    20410505.480   107257936.992 6      2909.683          39.937    20410507.720    83577617.077 6      2267.286          39.750
G27  20775837.840   109177770.903 8      2571.054          48.687    20775837.080   109177770.907 7      2571.054          42.687    20775841.940    85073596.823 7      2003.418          42.625    20775842.460    85073601.831 8      2003.418          52.312
G10  22840818.060   120029310.666 7      4320.696          45.375    22840817.360   120029310.681 7      4320.696          42.812    22840825.660    93529366.408 7      3366.776          43.000    22840826.380    93529370.399 7      3366.776          44.812
R09  19878176.000   106148353.089 8       120.188          48.625    19878175.680   106148353.098 8       120.188          48.000    19878183.720    82559859.072 8        93.480          52.187    19878183.760    82559867.070 8        93.480          53.062
> 2024 05 08 11 23  0.0000000  0 10
R21  21101204.680   112916809.441 7      4486.695          46.000    21101205.600   112916809.464 7      4486.695          45.187    21101215.720    87824229.094 8      3489.652          48.750    21101215.120    87824228.089 8      3489.652          48.125
G23  23015698.820   120948316.886 7      2713.555          43.750    23015698.340   120948316.896 5      2713.555          32.937    23015705.000    94245461.290 5      2114.458          32.875    23015705.300    94245465.283 7      2114.458          46.875
G31  23390176.220   122916213.043 7      -897.150          43.937    23390175.180   122916213.046 6      -897.150          40.750    23390181.800    95778895.895 6      -699.078          40.625    23390183.120    95778897.895 7      -699.078          44.812
R10  19317868.960   102975128.949 7      3559.855          45.375    19317867.640   102975128.962 7      3559.855          44.750
G26  21033491.900   110531750.731 7       847.409          46.812    21033490.640   110531750.734 7       847.409          47.062    21033497.620    86128654.099 7       660.319          47.375    21033498.060    86128658.100 8       660.319          49.375
G21  22702292.860   119301351.262 7      5651.590          44.125    22702290.080   119301351.270 5      5651.590          30.687    22702298.120    92962115.192 5      4403.836          30.625
G16  20409953.640   107255027.694 7      2909.049          47.687    20409951.760   107255027.699 6      2909.049          39.687    20409954.200    83575350.094 6      2266.792          39.312
G27  20775348.500   109175200.100 8      2570.629          48.187    20775347.940   109175200.105 7      2570.629          42.375    20775352.800    85071593.600 7      2003.088          42.750    20775353.120    85071598.606 8      2003.088          51.875
G10  22839996.060   120024990.288 7      4320.171          44.562    22839995.280   120024990.293 7      4320.171          42.562    22840003.580    93525999.878 7      3366.367          43.125    22840003.940    93526003.875 7      3366.367          44.250
R09  19878153.720   106148233.506 8       119.102          48.687    19878153.180   106148233.510 8       119.102          48.750    19878161.140    82559766.057 8        92.635          51.750    19878161.580    82559774.053 8        92.635          52.875
> 2024 05 08 11 23  1.0000000  0 10
R21  21100366.520   112912322.848 7      4486.329          45.500    21100366.800   112912322.874 7      4486.329          45.062    21100377.300    87820739.529 8      3489.367          48.812    21100376.640    87820738.530 8      3489.367          48.000
G23  23015182.440   120945603.435 7      2713.321          43.937    23015181.940   120945603.443 5      2713.321          32.812    23015188.600    94243346.909 5      2114.276          32.875    23015188.640    94243350.900 7      2114.276          46.687
G31  23390346.880   122917110.104 7      -897.090          43.750    23390346.000   122917110.109 6      -897.090          40.375    23390352.360    95779594.891 6      -699.031          40.312    23390353.460    95779596.897 7      -699.031          44.625
R10  19317201.080   102971569.204 7      3559.370          45.625    19317199.820   102971569.218 7      3559.370          45.000
G26  21033330.640   110530903.412 7       847.189          46.937    21033329.420   110530903.417 7       847.189          47.250    21033336.400    86127993.846 7       660.147          46.812    21033336.900    86127997.847 8       660.147          49.062
G21  22701217.080   119295699.590 7      5651.520          43.937    22701214.600   119295699.600 5      5651.520          30.312    22701222.560    92957711.298 5      4403.782          30.625
G16  20409399.900   107252118.767 7      2908.807          47.062    20409398.320   107252118.771 6      2908.807          39.312    20409400.700    83573083.393 6      2266.603          39.187
G27  20774859.600   109172629.463 8      2570.650          49.000    20774858.760   109172629.468 7      2570.650          43.000    20774863.560    85069590.508 7      2003.104          42.812    20774864.120    85069595.513 8      2003.104          51.875
G10  22839174.120   120020670.231 7      4319.865          45.187    22839173.180   120020670.241 7      4319.865          42.750    22839181.520    93522633.604 7      3366.128          42.750    22839181.840    93522637.601 7      3366.128          44.375
R09  19878131.260   106148114.548 7       118.636          47.500    19878131.040   106148114.555 7       118.636          47.937    19878139.020    82559673.534 8        92.273          52.187    19878139.040    82559681.530 8        92.273          53.125
> 2024 05 08 11 23  2.0000000  0 10
R21  21099528.160   112907837.078 7      4485.436          45.812    21099528.200   112907837.103 7      4485.436          45.000    21099539.040    87817250.592 8      3488.673          48.187    21099538.260    87817249.591 8      3488.673          48.000
G23  23014666.080   120942890.828 7      2712.189          44.437    23014665.720   120942890.835 5      2712.189          32.812    23014672.400    94241233.191 5      2113.394          32.500    23014672.560    94241237.196 7      2113.394          46.562
G31  23390517.760   122918007.520 7      -897.561          44.187    23390516.940   122918007.519 6      -897.561          40.500    23390523.300    95780294.167 6      -699.398          40.250    23390524.420    95780296.170 7      -699.398          44.625
R10  19316533.120   102968010.480 7      3558.284          45.500    19316531.980   102968010.497 7      3558.284          44.812
G26  21033169.500   110530056.794 7       846.332          46.375    21033168.460   110530056.797 7       846.332          47.250    21033175.220    86127334.144 7       659.480          47.312    21033175.820    86127338.145 8       659.480          48.250
G21  22700141.440   119290048.572 7      5650.798          43.875    22700139.180   119290048.582 5      5650.798          30.312    22700147.220    92953307.913 5      4403.219          30.625
G16  20408846.480   107249210.501 7      2908.056          47.125    20408844.880   107249210.509 6      2908.056          39.750    20408847.180    83570817.212 6      2266.018          39.437
G27  20774370.420   109170059.301 8      2569.975          49.312    20774369.740   109170059.308 7      2569.975          42.250    20774374.420    85067587.783 7      2002.578          42.062    20774374.960    85067592.791 8      2002.578          51.500
G10  22838352.320   120016350.765 7      4319.243          45.312    22838351.300   120016350.768 7      4319.243          42.875    22838359.480    93519267.783 7      3365.644          42.625    22838359.860    93519271.777 7      3365.644          44.187
R09  19878108.960   106147996.538 8       117.607          48.750    19878108.900   106147996.542 7       117.607          47.687    19878116.960    82559581.744 8        91.472          51.437    19878116.920    82559589.740 8        91.472          52.125
> 2024 05 08 11 23  3.0000000  0 10
R21  21098689.900   112903351.885 7      4484.931          44.625    21098689.660   112903351.908 7      4484.931          44.437    21098700.800    87813762.108 7      3488.280          47.687    21098700.280    87813761.108 7      3488.280          47.750
G23  23014150.060   120940178.765 7      2711.841          43.937    23014149.620   120940178.775 5      2711.841          32.625    23014156.320    94239119.895 5      2113.123          32.500    23014156.660    94239123.902 7      2113.123          46.375
G31  23390688.500   122918905.035 7      -897.670          43.187    23390687.820   122918905.043 6      -897.670          40.250    23390694.140    95780993.522 6      -699.483          39.937    23390695.140    95780995.529 7      -699.483          44.375
R10  19315865.660   102964452.543 7      3557.473          45.500    19315864.520   102964452.557 7      3557.473          44.500
G26  21033008.460   110529210.607 7       845.894          46.812    21033007.440   110529210.610 7       845.894          46.750    21033014.180    86126674.774 7       659.138          46.500    21033014.540    86126678.779 8       659.138          48.875
G21  22699066.140   119284397.971 7      5650.286          43.562    22699064.040   119284397.979 5      5650.286          30.312    22699071.880    92948904.848 5      4402.821          30.625
G16  20408293.120   107246302.675 7      2907.590          46.687    20408291.440   107246302.682 6      2907.590          39.187    20408293.760    83568551.371 6      2265.654          39.062
G27  20773881.360   109167489.339 8      2569.782          48.562    20773880.600   109167489.347 6      2569.782          41.937    20773885.480    85065585.215 6      2002.427          41.937    20773885.840    85065590.223 8      2002.427          51.687
G10  22837530.420   120012031.639 7      4318.989          45.187    22837529.340   120012031.646 7      4318.989          42.562    22837537.640    93515902.237 7      3365.446          42.812    22837537.900    93515906.236 7      3365.446          44.437
R09  19878087.140   106147879.238 8       116.871          48.312    19878087.000   106147879.239 7       116.871          47.750    19878094.980    82559490.503 8        90.899          50.750    19878095.160    82559498.496 8        90.899          51.000
> 2024 05 08 11 23  4.0000000  0 10
R21  21097851.560   112898867.144 7      4484.664          44.312    21097851.140   112898867.170 7      4484.664          44.687    21097862.860    87810273.983 8      3488.072          48.250    21097862.060    87810272.978 8      3488.072          48.062
G23  23013634.120   120937467.221 7      2711.551          44.375    23013633.660   120937467.229 5      2711.551          32.625    23013640.420    94237007.002 5      2112.897          32.312    23013640.640    94237010.999 7      2112.897          47.437
G31  23390859.480   122919802.564 7      -897.333          44.312    23390858.600   122919802.566 6      -897.333          40.812    23390865.020    95781692.882 6      -699.220          40.375    23390866.060    95781694.883 7      -699.220          44.625
R10  19315198.400   102960895.267 7      3557.053          45.750    19315197.300   102960895.278 7      3557.053          44.250
G26  21032847.480   110528364.760 7       845.891          47.000    21032846.480   110528364.764 7       845.891          47.250    21032853.180    86126015.669 7       659.136          47.125    21032853.520    86126019.672 8       659.136          49.250
G21  22697990.940   119278747.647 7      5650.314          42.750    22697988.780   119278747.654 5      5650.314          30.062    22697996.460    92944502.002 5      4402.842          30.312
G16  20407739.840   107243395.174 7      2907.493          46.687    20407738.200   107243395.179 6      2907.493          39.312    20407740.440    83566285.784 6      2265.579          39.187
G27  20773392.400   109164919.506 8      2569.913          49.125    20773391.620   109164919.513 7      2569.913          42.437    20773396.360    85063582.752 6      2002.529          41.937    20773396.740    85063587.762 8      2002.529          51.625
G10  22836708.740   120007712.817 7      4318.891          44.625    22836707.500   120007712.829 7      4318.891          42.312    22836715.720    93512536.928 7      3365.370          42.375    22836716.000    93512540.929 7      3365.370          44.562
R09  19878065.380   106147762.574 8       116.489          48.625    19878065.020   106147762.580 7       116.489          47.812    19878073.200    82559399.762 8        90.602          52.125    19878073.420    82559407.751 8        90.602          53.187
> 2024 05 08 11 23  5.0000000  0 10
R21  21097013.420   112894382.933 7      4483.910          44.312    21097013.340   112894382.956 7      4483.910          44.687    21097024.780    87806786.265 8      3487.486          48.625    21097024.160    87806785.261 7      3487.486          47.750
G23  23013117.920   120934756.264 7      2710.609          43.875    23013117.720   120934756.274 5      2710.609          32.562    23013124.440    94234894.570 5      2112.163          32.312    23013124.860    94234898.573 7      2112.163          47.500
G31  23391030.360   122920700.234 7      -897.829          43.875    23391029.580   122920700.234 6      -897.829          40.687    23391035.780    95782392.356 6      -699.607          40.562    23391036.840    95782394.352 7      -699.607          44.687
R10  19314531.040   102957338.777 7      3556.022          45.812    19314529.860   102957338.782 7      3556.022          44.937
G26  21032686.600   110527519.382 7       845.108          47.250    21032685.540   110527519.387 7       845.108          47.437    21032692.360    86125356.934 7       658.526          47.250    21032692.800    86125360.936 8       658.526          49.000
G21  22696916.020   119273097.756 7      5649.626          43.187    22696913.700   119273097.761 5      5649.626          30.062    22696921.280    92940099.493 5      4402.306          30.312
G16  20407186.340   107240488.093 7      2906.843          47.312    20407185.100   107240488.096 6      2906.843          39.750    20407187.320    83564020.523 6      2265.072          39.312
G27  20772903.480   109162349.906 8      2569.456          49.187    20772902.480   109162349.911 7      2569.456          42.187    20772907.280    85061580.461 6      2002.173          41.812    20772907.620    85061585.473 8      2002.173          51.875
G10  22835886.860   120003394.370 7      4318.167          45.250    22835885.680   120003394.378 7      4318.167          43.187    22835894.040    93509171.907 7      3364.805          43.062    22835894.800    93509175.904 7      3364.805          44.562
R09  19878043.580   106147646.646 8       115.451          48.375    19878043.200   106147646.653 7       115.451          47.687    19878051.640    82559309.596 8        89.795          51.812    19878051.600    82559317.583 8        89.795          53.062
> 2024 05 08 11 23  6.0000000  0 10
R21  21096175.460   112889899.466 7      4483.076          43.750    21096175.760   112889899.478 7      4483.076          44.625    21096187.080    87803299.120 8      3486.837          48.562    21096186.500    87803298.120 8      3486.837          48.000
G23  23012602.200   120932046.072 7      2709.764          44.062    23012601.860   120932046.077 5      2709.764          32.562    23012608.800    94232782.734 5      2111.504          32.312    23012609.340    94232786.735 7      2111.504          47.625
G31  23391201.220   122921598.165 7      -898.050          43.500    23391200.460   122921598.162 6      -898.050          40.875    23391206.620    95783092.030 6      -699.780          40.812    23391207.720    95783094.022 7      -699.780          44.875
R10  19313863.840   102953783.235 7      3555.076          45.937    19313863.020   102953783.249 7      3555.076          44.562
G26  21032525.800   110526674.622 7       844.406          47.000    21032524.740   110526674.627 7       844.406          47.750    21032531.700    86124698.677 7       657.978          47.375    21032532.120    86124702.680 8       657.978          49.812
G21  22695841.120   119267448.422 7      5649.044          43.375    22695838.480   119267448.424 5      5649.044          30.062    22695846.260    92935697.419 5      4401.852          30.312
G16  20406633.240   107237581.631 7      2906.190          46.750    20406632.060   107237581.638 6      2906.190          39.125    20406634.240    83561755.751 6      2264.564          38.812
G27  20772414.680   109159780.709 8      2569.010          49.250    20772413.640   109159780.717 6      2569.010          41.937    20772418.400    85059578.489 6      2001.826          41.687    20772418.700    85059583.501 8      2001.826          51.375
G10  22835065.120   119999076.473 7      4317.558          45.812    22835064.020   119999076.481 7      4317.558          43.062    22835072.220    93505807.312 7      3364.331          43.312    22835072.680    93505811.310 7      3364.331          44.625
R09  19878022.080   106147531.619 7       114.596          47.437    19878021.980   106147531.622 7       114.596          47.937    19878030.040    82559220.117 8        89.130          52.250    19878030.000    82559228.111 8        89.130          52.437
> 2024 05 08 11 23  7.0000000  0 10
R21  21095337.720   112885416.652 7      4482.489          45.250    21095337.660   112885416.669 7      4482.489          45.000    21095349.400    87799812.487 8      3486.380          48.937    21095348.580    87799811.484 8      3486.380          48.500
G23  23012086.700   120929336.560 7      2709.146          43.500    23012086.340   120929336.564 5      2709.146          32.562    23012093.260    94230671.424 5      2111.023          32.437    23012093.840    94230675.418 7      2111.023          47.437
G31  23391372.280   122922496.340 7      -898.333          43.312    23391371.340   122922496.337 6      -898.333          40.312    23391377.560    95783791.894 6      -700.000          40.437    23391378.860    95783793.892 7      -700.000          44.812
R10  19313197.200   102950228.603 7      3554.138          46.000    19313196.120   102950228.609 7      3554.138          44.562
G26  21032365.120   110525830.416 7       843.895          47.375    21032364.180   110525830.416 7       843.895          47.937    21032370.960    86124040.844 7       657.581          47.375    21032371.340    86124044.843 8       657.581          49.312
G21  22694766.160   119261799.595 7      5648.573          43.375    22694763.460   119261799.603 5      5648.573          30.062    22694771.300    92931295.740 5      4401.485          30.312
G16  20406080.220   107234675.698 7      2905.633          47.000    20406079.100   107234675.703 6      2905.633          39.562    20406081.160    83559491.386 6      2264.129          39.437
G27  20771925.640   109157211.843 8      2568.629          49.500    20771924.700   109157211.850 7      2568.629          42.187    20771929.580    85057576.779 7      2001.529          42.375    20771929.760    85057581.787 8      2001.529          51.437
G10  22834243.480   119994759.039 7      4317.019          46.062    22834242.560   119994759.046 7      4317.019          43.125    22834250.700    93502443.079 7      3363.911          43.062    22834251.220    93502447.084 7      3363.911          44.562
R09  19878000.740   106147417.400 8       113.859          48.000    19878000.400   106147417.403 7       113.859          47.437    19878008.660    82559131.278 8        88.557          52.000    19878008.720    82559139.274 8        88.557          52.750
> 2024 05 08 11 23  8.0000000  0 10
R21  21094499.700   112880934.463 7      4481.983          43.875    21094499.900   112880934.484 7      4481.983          44.375    21094511.860    87796326.351 8      3485.987          48.687    21094511.200    87796325.352 8      3485.987          48.562
G23  23011571.140   120926627.681 7      2708.632          43.937    23011571.000   120926627.691 5      2708.632          32.687    23011577.680    94228560.611 5      2110.622          32.437    23011578.440    94228564.606 7      2110.622          46.937
G31  23391542.900   122923394.648 7      -898.335          44.437    23391542.320   122923394.648 6      -898.335          40.562    23391548.400    95784491.869 6      -700.001          40.625    23391550.280    95784493.867 7      -700.001          45.000
R10  19312530.600   102946674.797 7      3553.450          46.000    19312529.220   102946674.816 7      3553.450          44.875
G26  21032204.700   110524986.718 7       843.428          47.000    21032203.760   110524986.723 7       843.428          47.500    21032210.320    86123383.417 7       657.217          47.375    21032210.980    86123387.419 8       657.217          48.500
G21  22693690.980   119256151.254 7      5648.239          42.250    22693688.660   119256151.262 5      5648.239          30.062    22693696.460    92926894.440 5      4401.225          30.000
G16  20405527.380   107231770.245 8      2905.323          48.187    20405526.080   107231770.252 6      2905.323          39.437    20405528.340    83557227.396 6      2263.888          39.125
G27  20771436.900   109154643.239 8      2568.586          49.000    20771436.000   109154643.247 7      2568.586          42.062    20771440.900    85055575.265 6      2001.495          41.937    20771441.140    85055580.274 8      2001.495          51.500
G10  22833421.840   119990442.009 7      4316.936          46.000    22833421.080   119990442.011 7      4316.936          43.500    22833429.120    93499079.161 7      3363.847          43.125    22833429.740    93499083.162 7      3363.847          44.687
R09  19877979.540   106147303.985 8       113.159          48.750    19877979.140   106147303.991 7       113.159          47.562    19877987.380    82559043.065 8        88.013          52.375    19877987.440    82559051.063 8        88.013          53.562
> 2024 05 08 11 23  9.0000000  0 10
R21  21093662.360   112876452.727 7      4481.583          44.625    21093662.500   112876452.742 7      4481.583          44.562    21093674.020    87792840.556 7      3485.676          47.937    21093673.580    87792839.556 8      3485.676          48.250
G23  23011055.920   120923919.330 7      2708.112          44.187    23011055.480   120923919.340 5      2708.112          32.687    23011062.120    94226450.210 5      2110.217          32.375    23011062.620    94226454.215 7      2110.217          46.312
G31  23391713.720   122924293.041 7      -898.425          43.937    23391713.120   122924293.044 6      -898.425          40.312    23391719.180    95785191.907 6      -700.072          40.187    23391720.980    95785193.899 7      -700.072          45.125
R10  19311864.000   102943121.729 7      3552.740          45.437    19311862.780   102943121.737 7      3552.740          44.750
G26  21032044.020   110524143.387 7       843.085          46.687    21032043.140   110524143.397 7       843.085          47.250    21032049.880    86122726.280 7       656.949          47.375    21032050.240    86122730.283 8       656.949          49.437
G21  22692616.100   119250503.237 7      5647.958          42.812    22692613.980   119250503.244 5      5647.958          30.062    22692621.520    92922493.389 5      4401.007          30.000
G16  20404974.680   107228865.164 7      2904.955          47.687    20404973.340   107228865.166 6      2904.955          39.062    20404975.660    83554963.692 6      2263.601          38.875
G27  20770948.040   109152074.807 8      2568.437          49.562    20770947.240   109152074.814 7      2568.437          42.062    20770952.060    85053573.893 6      2001.380          41.375    20770952.300    85053578.899 8      2001.380          52.187
G10  22832600.440   119986125.304 7      4316.615          45.687    22832599.620   119986125.312 7      4316.615          42.875    22832607.760    93495715.496 7      3363.596          42.875    22832608.600    93495719.497 7      3363.596          45.000
R09  19877958.800   106147191.192 8       112.569          48.125    19877958.120   106147191.195 7       112.569          47.500    19877966.260    82558955.335 8        87.554          52.000    19877966.480    82558963.328 8        87.554          52.812
> 2024 05 08 11 23 10.0000000  0 10
R21  21092824.860   112871971.350 7      4481.014          44.625    21092825.000   112871971.357 7      4481.014          44.312    21092836.340    87789355.036 8      3485.233          48.500    21092836.180    87789354.033 8      3485.233          48.125
G23  23010540.840   120921211.368 7      2707.600          44.687    23010540.180   120921211.381 5      2707.600          32.625    23010546.820    94224340.114 5      2109.818          32.375    23010546.880    94224344.121 7      2109.818          46.562
G31  23391884.800   122925191.337 7      -898.496          43.437    23391883.860   122925191.339 6      -898.496          40.250    23391890.160    95785891.869 6      -700.127          40.187    23391891.680    95785893.862 7      -700.127          44.562
R10  19311197.160   102939569.242 7      3551.970          45.875    19311196.800   102939569.245 7      3551.970          44.437
G26  21031883.700   110523300.324 8       842.685          48.000    21031882.660   110523300.324 7       842.685          47.375    21031889.500    86122069.336 7       656.638          47.125    21031889.740    86122073.336 8       656.638          49.375
G21  22691541.500   119244855.440 7      5647.517          43.375    22691539.200   119244855.442 5      5647.517          30.062    22691546.740    92918092.508 5      4400.663          30.000
G16  20404421.940   107225960.319 7      2904.487          46.750    20404420.620   107225960.324 6      2904.487          39.500    20404422.860    83552700.179 6      2263.237          39.375
G27  20770459.400   109149506.426 8      2568.111          48.750    20770458.520   109149506.434 7      2568.111          42.250    20770463.200    85051572.554 6      2001.125          41.937    20770463.500    85051577.560 8      2001.125          51.562
G10  22831779.160   119981808.776 7      4316.210          45.250    22831778.300   119981808.786 7      4316.210          43.250    22831786.420    93492351.973 7      3363.281          42.750    22831787.080    93492355.983 7      3363.281          44.937
R09  19877937.860   106147078.938 8       111.752          48.062    19877937.220   106147078.942 8       111.752          48.312    19877945.260    82558868.020 8        86.919          52.625    19877945.600    82558876.014 8        86.919          53.312
> 2024 05 08 11 23 11.0000000  0 10
R21  21091987.820   112867490.558 7      4480.352          44.437    21091987.980   112867490.560 7      4480.352          44.750    21091998.980    87785869.972 8      3484.718          48.250    21091998.720    87785868.965 8      3484.718          48.125
G23  23010025.560   120918503.992 7      2706.984          44.375    23010025.020   120918504.003 5      2706.984          32.625    23010031.580    94222230.474 5      2109.338          32.500    23010031.540    94222234.475 7      2109.338          46.687
G31  23392056.000   122926089.733 7      -898.540          44.250    23392054.840   122926089.735 6      -898.540          40.812    23392060.920    95786591.906 6      -700.161          40.375    23392062.200    95786593.900 7      -700.161          44.250
R10  19310531.280   102936017.504 7      3551.223          45.312    19310530.260   102936017.512 7      3551.223          44.750
G26  21031723.260   110522457.679 7       842.323          47.500    21031722.420   110522457.682 7       842.323          47.375    21031729.140    86121412.727 7       656.356          47.625    21031729.600    86121416.728 8       656.356          49.125
G21  22690466.960   119239208.027 7      5647.079          43.250    22690464.660   119239208.034 5      5647.079          30.062    22690472.040    92913691.933 5      4400.321          30.000
G16  20403869.240   107223055.885 7      2904.095          46.562    20403867.980   107223055.890 6      2904.095          39.500    20403870.140    83550436.984 6      2262.931          39.125
G27  20769970.460   109146938.246 8      2567.907          48.937    20769969.780   109146938.253 7      2567.907          42.312    20769974.620    85049571.368 6      2000.966          41.937    20769974.700    85049576.374 8      2000.966          51.375
G10  22830957.700   119977492.603 7      4315.879          45.812    22830956.880   119977492.615 7      4315.879          43.062    22830964.940    93488988.725 7      3363.022          42.937    22830965.140    93488992.735 7      3363.022          44.750
R09  19877916.820   106146967.400 8       111.034          48.812    19877916.500   106146967.401 7       111.034          47.562    19877924.400    82558781.260 8        86.360          52.062    19877924.640    82558789.254 8        86.360          52.812
> 2024 05 08 11 23 12.0000000  0 10
R21  21091150.380   112863010.283 7      4480.127          46.000    21091151.360   112863010.290 7      4480.127          45.125    21091161.640    87782385.318 8      3484.543          48.062    21091161.560    87782384.315 7      3484.543          47.500
G23  23009510.360   120915797.189 7      2706.608          44.187    23009509.800   120915797.202 5      2706.608          32.562    23009516.600    94220121.277 5      2109.045          32.500    23009516.780    94220125.276 7      2109.045          46.562
G31  23392226.760   122926988.249 7      -898.412          43.562    23392225.920   122926988.249 6      -898.412          40.625    23392231.940    95787292.034 6      -700.061          40.437    23392233.100    95787294.031 7      -700.061          44.000
R10  19309865.160   102932466.549 7      3550.680          45.562    19309864.040   102932466.553 7      3550.680          44.812
G26  21031563.040   110521615.478 7       842.137          47.875    21031562.200   110521615.481 7       842.137          47.000    21031568.860    86120756.465 7       656.211          46.687    21031569.420    86120760.465 8       656.211          48.375
G21  22689392.360   119233561.018 7      5646.882          43.125    22689390.080   119233561.023 4      5646.882          29.875    22689397.500    92909291.666 5      4400.168          30.125
G16  20403316.800   107220151.863 7      2903.881          46.375    20403315.340   107220151.876 6      2903.881          39.625    20403317.560    83548174.109 6      2262.764          39.187
G27  20769481.800   109144370.262 8      2567.951          48.875    20769481.100   109144370.270 7      2567.951          42.250    20769485.900    85047570.342 7      2001.001          42.250    20769486.180    85047575.346 8      2001.001          51.375
G10  22830136.460   119973176.810 7      4315.626          46.000    22830135.600   119973176.820 7      4315.626          42.875    22830143.740    93485625.770 7      3362.825          42.875    22830143.820    93485629.771 7      3362.825          44.500
R09  19877896.140   106146856.572 7       110.537          47.875    19877895.420   106146856.576 7       110.537          47.125    19877903.700    82558695.060 8        85.974          51.750    19877903.920    82558703.054 8        85.974          52.500
> 2024 05 08 11 23 13.0000000  0 10
R21  21090313.400   112858530.412 7      4479.494          44.812    21090314.140   112858530.432 7      4479.494          45.187    21090324.260    87778900.986 8      3484.051          48.000    21090324.400    87778899.985 7      3484.051          47.187
G23  23008995.340   120913090.801 7      2706.019          44.562    23008994.760   120913090.812 5      2706.019          32.562    23009001.520    94218012.397 5      2108.586          32.500    23009001.840    94218016.394 7      2108.586          47.250
G31  23392397.600   122927886.695 7      -898.490          43.437    23392396.800   122927886.689 6      -898.490          40.687    23392402.860    95787992.113 6      -700.122          40.437    23392403.880    95787994.118 7      -700.122          43.875
R10  19309199.100   102928916.189 7      3549.928          45.687    19309198.200   102928916.193 7      3549.928          44.500
G26  21031402.940   110520773.553 7       841.711          47.875    21031402.000   110520773.556 7       841.711          47.375    21031408.500    86120100.415 7       655.879          47.125    21031408.840    86120104.416 8       655.879          48.687
G21  22688317.840   119227914.238 7      5646.361          43.250    22688315.520   119227914.246 4      5646.361          29.875    22688322.980    92904891.582 5      4399.762          30.125
G16  20402764.300   107217248.099 7      2903.515          46.437    20402762.720   107217248.109 6      2903.515          39.437    20402765.120    83545911.434 6      2262.479          39.312
G27  20768993.160   109141802.334 8      2567.825          49.812    20768992.540   109141802.342 6      2567.825          41.562    20768997.240    85045569.363 6      2000.902          41.562    20768997.720    85045574.365 8      2000.902          51.937
G10  22829314.940   119968861.183 7      4315.418          45.312    22829314.360   119968861.188 7      4315.418          42.937    22829322.460    93482262.942 7      3362.663          42.750    22829322.500    93482266.951 7      3362.663          44.187
R09  19877875.380   106146746.278 7       109.930          47.812    19877874.880   106146746.287 8       109.930          48.312    19877883.060    82558609.278 8        85.501          50.937    19877883.160    82558617.272 8        85.501          51.750
> 2024 05 08 11 23 14.0000000  0 10
R21  21089475.940   112854051.175 7      4478.773          44.562    21089476.860   112854051.198 7      4478.773          45.187    21089487.180    87775417.139 8      3483.490          48.562    21089487.180    87775416.141 7      3483.490          47.937
G23  23008480.460   120910385.070 7      2705.292          44.625    23008479.920   120910385.078 5      2705.292          32.562    23008486.660    94215904.038 5      2108.020          32.437    23008487.360    94215908.036 7      2108.020          47.437
G31  23392568.680   122928785.340 7      -898.768          44.187    23392567.940   122928785.334 6      -898.768          40.750    23392574.020    95788692.344 6      -700.339          40.312    23392575.180    95788694.349 7      -700.339          44.125
R10  19308533.400   102925366.712 7      3549.003          45.562    19308532.140   102925366.712 7      3549.003          44.875
G26  21031242.620   110519932.170 8       841.035          48.125    21031241.940   110519932.172 7       841.035          47.187    21031248.500    86119444.789 7       655.352          46.937    21031248.880    86119448.790 8       655.352          48.750
G21  22687243.240   119222267.923 7      5646.010          43.062    22687241.000   119222267.931 4      5646.010          29.875    22687248.340    92900491.858 5      4399.488          30.125
G16  20402211.760   107214344.854 7      2902.974          47.375    20402210.300   107214344.859 6      2902.974          39.500    20402212.640    83543649.164 6      2262.058          39.500
G27  20768504.680   109139234.724 8      2567.389          49.125    20768503.980   109139234.737 6      2567.389          41.812    20768508.580    85043568.630 6      2000.563          41.687    20768509.320    85043573.634 8      2000.563          51.687
G10  22828493.860   119964546.008 7      4314.995          45.312    22828493.240   119964546.013 7      4314.995          43.062    22828501.340    93478900.472 7      3362.334          43.125    22828501.520    93478904.481 7      3362.334          44.562
R09  19877854.980   106146636.828 8       108.998          48.625    19877854.160   106146636.837 8       108.998          48.312    19877862.460    82558524.148 8        84.776          51.500    19877862.740    82558532.144 8        84.776          52.125
> 2024 05 08 11 23 15.0000000  0 10
R21  21088639.180   112849572.460 7      4478.509          45.562    21088640.360   112849572.480 7      4478.509          44.875    21088650.220    87771933.694 8      3483.284          48.125    21088649.960    87771932.695 7      3483.284          47.875
G23  23007965.960   120907679.923 7      2704.842          44.250    23007965.180   120907679.930 5      2704.842          32.562    23007971.860    94213796.128 5      2107.669          32.437    23007972.400    94213800.123 7      2107.669          47.562
G31  23392739.700   122929684.096 7      -898.736          43.500    23392738.960   122929684.093 6      -898.736          40.250    23392745.120    95789392.663 6      -700.314          40.125    23392746.340    95789394.676 7      -700.314          44.250
R10  19307867.620   102921818.017 7      3548.283          45.187    19307866.360   102921818.034 7      3548.283          44.875
G26  21031082.620   110519091.214 7       840.795          47.375    21031081.940   110519091.217 7       840.795          47.750    21031088.480    86118789.497 7       655.165          47.500    21031089.040    86118793.500 8       655.165          48.875
G21  22686168.940   119216622.034 7      5645.654          43.250    22686166.580   119216622.039 4      5645.654          29.875    22686173.980    92896092.466 5      4399.211          30.125
G16  20401659.200   107211442.033 7      2902.630          47.187    20401657.880   107211442.038 6      2902.630          39.500    20401660.200    83541387.223 6      2261.790          39.375
G27  20768015.920   109136667.329 8      2567.324          49.062    20768015.240   109136667.336 7      2567.324          42.375    20768020.020    85041568.056 7      2000.512          42.312    20768020.700    85041573.060 8      2000.512          52.250
G10  22827672.860   119960231.222 7      4314.630          44.750    22827672.180   119960231.232 7      4314.630          43.375    22827680.240    93475538.307 7      3362.050          43.375    22827680.600    93475542.308 7      3362.050          44.375
R09  19877834.480   106146528.088 8       108.449          48.562    19877833.820   106146528.095 7       108.449          47.750    19877842.160    82558439.565 8        84.349          52.125    19877842.220    82558447.562 8        84.349          53.312
> 2024 05 08 11 23 16.0000000  0 10
R21  21087802.400   112845094.365 7      4477.788          45.437    21087803.560   112845094.380 7      4477.788          45.187    21087813.360    87768450.732 8      3482.724          48.312    21087813.060    87768449.731 7      3482.724          47.812
G23  23007451.120   120904975.408 7      2704.160          44.125    23007450.660   120904975.418 5      2704.160          32.562    23007457.240    94211688.718 5      2107.138          32.500    23007457.460    94211692.715 7      2107.138          47.062
G31  23392911.080   122930583.006 7      -898.897          44.312    23392909.980   122930583.003 6      -898.897          40.312    23392916.260    95790093.102 6      -700.439          40.375    23392917.560    95790095.117 7      -700.439          44.437
R10  19307202.160   102918270.187 7      3547.370          45.875    19307200.940   102918270.201 7      3547.370          44.625
G26  21030922.780   110518250.755 7       840.198          47.125    21030921.920   110518250.763 7       840.198          47.375    21030928.520    86118134.594 7       654.700          47.437    21030928.740    86118138.597 8       654.700          48.937
G21  22685094.600   119210976.576 7      5645.170          43.437    22685092.260   119210976.583 4      5645.170          29.875    22685099.780    92891693.412 4      4398.834          29.875
G16  20401106.780   107208539.688 7      2902.123          46.875    20401105.540   107208539.692 6      2902.123          39.000    20401107.940    83539125.653 6      2261.394          38.875
G27  20767527.360   109134100.205 8      2566.973          48.750    20767526.800   109134100.215 7      2566.973          42.312    20767531.500    85039567.702 6      2000.238          41.500    20767532.020    85039572.710 8      2000.238          51.750
G10  22826851.840   119955916.841 7      4314.165          45.500    22826851.140   119955916.848 7      4314.165          43.375    22826859.300    93472176.454 7      3361.687          43.375    22826859.320    93472180.446 7      3361.687          44.625
R09  19877814.500   106146420.091 8       107.584          48.937    19877813.620   106146420.099 8       107.584          48.437    19877821.960    82558355.566 8        83.676          52.125    19877822.160    82558363.566 8        83.676          52.937
> 2024 05 08 11 23 17.0000000  0 10
R21  21086965.740   112840616.801 7      4477.309          45.687    21086967.120   112840616.805 7      4477.309          44.750    21086976.620    87764968.173 8      3482.352          48.250    21086976.620    87764967.168 7      3482.352          47.750
G23  23006936.640   120902271.485 7      2703.610          44.000    23006936.020   120902271.495 5      2703.610          32.375    23006942.560    94209581.763 5      2106.709          32.500    23006942.780    94209585.758 7      2106.709          47.062
G31  23393082.000   122931482.046 7      -899.163          44.187    23393081.080   122931482.056 6      -899.163          40.500    23393087.400    95790793.648 6      -700.646          40.375    23393088.980    95790795.665 7      -700.646          44.562
R10  19306536.780   102914723.137 7      3546.604          45.625    19306535.220   102914723.151 7      3546.604          44.687
G26  21030762.960   110517410.754 7       839.769          47.375    21030762.060   110517410.759 7       839.769          47.875    21030768.560    86117480.039 7       654.365          47.562    21030768.860    86117484.042 8       654.365          49.062
G21  22684020.360   119205331.530 7      5644.817          42.375    22684017.960   119205331.535 4      5644.817          29.875    22684025.500    92887294.675 4      4398.559          29.875
G16  20400554.720   107205637.776 7      2901.697          47.312    20400553.320   107205637.783 6      2901.697          39.812    20400555.680    83536864.423 6      2261.062          39.312
G27  20767038.940   109131533.299 8      2566.804          48.625    20767038.320   109131533.306 7      2566.804          42.312    20767043.040    85037567.513 7      2000.107          42.250    20767043.640    85037572.519 8      2000.107          52.062
G10  22826030.900   119951602.830 7      4313.836          44.937    22826030.240   119951602.837 7      4313.836          43.000    22826038.300    93468814.889 7      3361.430          43.187    22826038.960    93468818.879 7      3361.430          44.812
R09  19877794.240   106146312.824 8       106.894          48.062    19877793.440   106146312.828 8       106.894          48.125    19877801.760    82558272.129 8        83.140          52.500    19877801.860    82558280.131 8        83.140          52.750
> 2024 05 08 11 23 18.0000000  0 10
R21  21086129.180   112836139.800 7      4476.770          46.312    21086130.160   112836139.807 7      4476.770          45.250    21086140.180    87761486.059 8      3481.932          48.562    21086139.800    87761485.059 8      3481.932          48.125
G23  23006422.120   120899568.158 7      2703.087          44.687    23006421.660   120899568.168 5      2703.087          32.375    23006428.200    94207475.277 5      2106.301          32.500    23006428.320    94207479.278 7      2106.301          46.687
G31  23393253.160   122932381.206 7      -899.136          43.875    23393252.240   122932381.205 6      -899.136          40.875    23393258.500    95791494.274 6      -700.626          40.687    23393259.980    95791496.285 7      -700.626          44.812
R10  19305871.380   102911176.884 7      3545.938          45.687    19305870.040   102911176.893 7      3545.938          44.875
G26  21030602.980   110516571.204 7       839.332          47.937    21030602.340   110516571.214 7       839.332          47.625    21030608.920    86116825.847 7       654.025          47.187    21030609.300    86116829.848 8       654.025          49.000
G21  22682946.200   119199686.897 7      5644.537          42.375    22682943.900   119199686.902 4      5644.537          29.875    22682951.460    92882896.263 4      4398.341          29.875
G16  20400002.600   107202736.300 7      2901.370          47.125    20400001.240   107202736.307 6      2901.370          39.687    20400003.500    83534603.530 6      2260.808          39.312
G27  20766550.580   109128966.637 8      2566.685          49.500    20766549.880   109128966.644 6      2566.685          41.875    20766554.540    85035567.515 6      2000.015          41.937    20766555.280    85035572.523 8      2000.015          51.812
G10  22825210.180   119947289.213 7      4313.474          46.312    22825209.220   119947289.220 7      4313.474          43.250    22825217.440    93465453.631 7      3361.149          43.125    22825218.380    93465457.630 7      3361.149          44.687
R09  19877773.960   106146206.311 8       106.236          48.375    19877773.520   106146206.312 7       106.236          47.625    19877781.840    82558189.279 8        82.628          52.125    19877781.780    82558197.279 8        82.628          52.437
> 2024 05 08 11 23 19.0000000  0 10
R21  21085292.580   112831663.338 7      4476.161          45.500    21085293.800   112831663.353 7      4476.161          45.375    21085303.640    87758004.377 8      3481.458          48.625    21085303.280    87758003.382 8      3481.458          48.312
G23  23005907.900   120896865.404 7      2702.401          43.562    23005907.400   120896865.414 5      2702.401          32.375    23005913.880    94205369.237 5      2105.767          32.312    23005913.920    94205373.237 7      2105.767          46.625
G31  23393424.220   122933280.434 7      -899.205          44.437    23393423.440   122933280.437 6      -899.205          40.937    23393429.620    95792194.964 6      -700.679          40.750    23393430.860    95792196.972 7      -700.679          45.187
R10  19305206.160   102907631.388 7      3545.126          45.562    19305204.920   102907631.408 7      3545.126          44.875
G26  21030443.360   110515732.080 7       838.946          47.750    21030442.680   110515732.082 7       838.946          47.375    21030449.200    86116171.982 7       653.724          47.437    21030449.420    86116175.983 8       653.724          48.937
G21  22681871.760   119194042.652 7      5644.152          42.875    22681869.820   119194042.655 4      5644.152          29.937    22681877.240    92878498.153 4      4398.041          29.875
G16  20399450.800   107199835.242 7      2900.951          47.125    20399449.220   107199835.249 6      2900.951          39.187    20399451.660    83532342.964 6      2260.482          39.062
G27  20766062.160   109126400.175 8      2566.441          49.437    20766061.560   109126400.177 7      2566.441          42.312    20766066.160    85033567.672 7      1999.824          42.250    20766067.080    85033572.685 8      1999.824          51.750
G10  22824389.420   119942975.930 7      4313.185          45.937    22824388.620   119942975.932 7      4313.185          43.125    22824396.600    93462092.629 7      3360.923          43.187    22824396.800    93462096.632 7      3360.923          44.625
R09  19877754.360   106146100.508 8       105.432          48.500    19877753.700   106146100.512 8       105.432          48.187    19877762.000    82558106.986 8        82.003          52.437    19877762.020    82558114.984 8        82.003          52.812
> 2024 05 08 11 23 20.0000000  0 10
R21  21084456.000   112827187.413 7      4475.674          45.750    21084457.060   112827187.428 7      4475.674          45.875    21084467.360    87754523.108 8      3481.080          48.625    21084467.120    87754522.110 8      3481.080          48.375
G23  23005393.560   120894163.188 7      2701.998          43.812    23005393.280   120894163.198 5      2701.998          32.375    23005399.620    94203263.614 5      2105.453          32.312    23005399.680    94203267.613 7      2105.453          47.062
G31  23393595.300   122934179.768 7      -899.408          43.500    23393594.780   122934179.770 6      -899.408          40.500    23393600.900    95792895.731 6      -700.837          40.875    23393602.420    95792897.748 7      -700.837          44.937
R10  19304541.180   102904086.668 7      3544.273          45.812    19304539.800   102904086.679 7      3544.273          44.375
G26  21030283.880   110514893.392 7       838.396          47.687    21030283.080   110514893.397 7       838.396          47.750    21030289.660    86115518.459 7       653.296          47.437    21030289.840    86115522.458 8       653.296          48.875
G21  22680797.660   119188398.797 6      5643.642          41.500    22680795.980   119188398.804 4      5643.642          29.937    22680803.260    92874100.348 4      4397.643          29.937
G16  20398898.620   107196934.596 7      2900.451          47.500    20398897.220   107196934.601 6      2900.451          39.937    20398899.540    83530082.718 6      2260.092          39.375
G27  20765574.000   109123833.925 8      2566.117          49.000    20765573.120   109123833.928 7      2566.117          42.000    20765577.900    85031567.998 6      1999.572          41.375    20765578.800    85031573.008 8      1999.572          52.437
G10  22823568.760   119938663.012 7      4312.658          46.062    22823567.820   119938663.016 7      4312.658          42.687    22823575.880    93458731.918 7      3360.513          43.000    22823576.360    93458735.921 7      3360.513          44.312
R09  19877734.780   106145995.375 7       104.767          47.750    19877733.900   106145995.384 8       104.767          48.000    19877742.320    82558025.216 8        81.486          52.500    19877742.460    82558033.214 8        81.486          53.250
> 2024 05 08 11 23 21.0000000  0 10
R21  21083619.640   112822712.134 7      4475.131          45.250    21083620.280   112822712.151 7      4475.131          44.937    21083631.260    87751042.335 8      3480.657          48.062    21083630.760    87751041.337 7      3480.657          47.812
G23  23004879.600   120891461.619 7      2701.546          43.375    23004878.980   120891461.629 5      2701.546          32.500    23004885.480    94201158.495 5      2105.101          32.437    23004885.820    94201162.492 7      2105.101          46.812
G31  23393766.560   122935079.259 7      -899.385          43.812    23393765.820   122935079.264 6      -899.385          41.125    23393772.000    95793596.629 6      -700.819          40.750    23393773.020    95793598.638 7      -700.819          45.250
R10  19303876.440   102900542.780 7      3543.567          45.750    19303875.220   102900542.788 7      3543.567          44.875
G26  21030124.160   110514055.177 7       838.195          47.500    21030123.660   110514055.179 7       838.195          47.125    21030130.180    86114865.294 7       653.139          46.750    21030130.540    86114869.293 8       653.139          48.625
G21  22679723.860   119182755.393 7      5643.418          42.875    22679722.140   119182755.398 4      5643.418          29.937    22679729.400    92869702.892 4      4397.468          29.937
G16  20398346.800   107194034.418 7      2900.156          47.187    20398345.220   107194034.428 6      2900.156          39.062    20398347.560    83527822.843 6      2259.862          39.125
G27  20765085.580   109121267.928 8      2566.044          48.000    20765084.720   109121267.936 6      2566.044          41.500    20765089.780    85029568.523 6      1999.515          41.187    20765090.540    85029573.532 8      1999.515          52.375
G10  22822748.160   119934350.488 7      4312.562          45.375    22822747.260   119934350.490 7      4312.562          42.937    22822755.380    93455371.507 7      3360.438          43.062    22822755.740    93455375.512 7      3360.438          44.500
R09  19877715.140   106145891.006 7       104.171          47.312    19877714.160   106145891.015 7       104.171          47.750    19877722.760    82557944.038 8        81.022          52.000    19877722.920    82557952.029 8        81.022          52.625
> 2024 05 08 11 23 22.0000000  0 10
R21  21082783.580   112818237.295 7      4474.440          45.562    21082783.840   112818237.305 7      4474.440          44.937    21082795.260    87747561.903 8      3480.120          48.687    21082794.560    87747560.909 7      3480.120          47.812
G23  23004365.520   120888760.565 7      2700.653          43.750    23004365.060   120888760.578 5      2700.653          32.500    23004371.620    94199053.772 5      2104.405          32.437    23004372.160    94199057.771 7      2104.405          46.812
G31  23393937.500   122935978.772 7      -899.645          44.437    23393937.020   122935978.771 6      -899.645          40.625    23393943.440    95794297.531 6      -701.022          40.437    23393944.120    95794299.540 7      -701.022          45.125
R10  19303211.820   102896999.544 7      3542.781          45.250    19303210.220   102896999.544 7      3542.781          44.562
G26  21029964.820   110513217.338 8       837.485          48.312    21029964.160   110513217.343 7       837.485          47.312    21029970.780    86114212.432 7       652.585          47.000    21029971.180    86114216.433 8       652.585          49.125
G21  22678650.140   119177112.297 7      5642.716          42.812    22678648.300   119177112.299 4      5642.716          29.937    22678655.640    92865305.679 4      4396.921          29.937
G16  20397795.000   107191134.577 7      2899.613          47.000    20397793.380   107191134.584 6      2899.613          39.625    20397795.720    83525563.221 6      2259.439          39.125
G27  20764597.340   109118702.065 8      2565.696          48.687    20764596.340   109118702.073 6      2565.696          41.687    20764601.520    85027569.148 6      1999.244          41.500    20764602.340    85027574.160 8      1999.244          51.312
G10  22821927.220   119930038.258 7      4311.967          45.187    22821926.620   119930038.263 7      4311.967          42.812    22821934.680    93452011.333 7      3359.974          42.937    22821935.200    93452015.329 7      3359.974          44.000
R09  19877695.720   106145787.240 8       103.301          48.437    19877695.060   106145787.257 8       103.301          48.000    19877703.400    82557863.329 8        80.345          51.500    19877703.680    82557871.329 8        80.345          51.812
> 2024 05 08 11 23 23.0000000  0 10
R21  21081947.340   112813763.048 7      4474.052          45.312    21081947.740   112813763.050 7      4474.052          44.437    21081959.120    87744081.936 8      3479.818          48.000    21081958.340    87744080.937 7      3479.818          47.687
G23  23003851.600   120886060.139 7      2700.183          43.375    23003851.280   120886060.147 5      2700.183          32.875    23003857.680    94196949.535 5      2104.039          32.437    23003858.020    94196953.542 7      2104.039          46.812
G31  23394108.800   122936878.447 7      -899.638          43.500    23394108.300   122936878.446 6      -899.638          41.000    23394114.520    95794998.565 6      -701.016          40.750    23394115.860    95795000.567 7      -701.016          45.000
R10  19302547.140   102893457.198 7      3541.993          45.375    19302546.040   102893457.196 7      3541.993          44.812
G26  21029805.520   110512380.006 7       837.023          47.875    21029804.880   110512380.008 7       837.023          47.187    21029811.380    86113559.960 7       652.226          46.875    21029811.760    86113563.961 8       652.226          48.812
G21  22677576.400   119171469.663 7      5642.415          42.750    22677574.580   119171469.671 5      5642.415          30.125    22677581.880    92860908.827 4      4396.687          29.937
G16  20397243.200   107188235.234 7      2899.167          46.875    20397241.700   107188235.247 6      2899.167          39.875    20397243.940    83523303.995 6      2259.091          39.562
G27  20764109.320   109116136.497 8      2565.483          49.000    20764108.280   109116136.504 6      2565.483          41.750    20764113.280    85025570.001 6      1999.077          41.625    20764114.040    85025575.009 8      1999.077          51.375
G10  22821106.920   119925726.462 7      4311.584          44.312    22821106.220   119925726.464 7      4311.584          42.812    22821114.180    93448651.494 7      3359.676          42.875    22821114.440    93448655.497 7      3359.676          43.875
R09  19877676.420   106145684.318 7       102.595          47.562    19877675.720   106145684.325 7       102.595          47.437    19877684.020    82557783.270 8        79.796          50.500    19877684.040    82557791.268 8        79.796          50.687
> 2024 05 08 11 23 24.0000000  0 10
R21  21081111.520   112809289.358 7      4473.470          45.625    21081111.360   112809289.354 7      4473.470          44.937    21081122.940    87740602.401 8      3479.365          48.437    21081122.360    87740601.402 8      3479.365          48.562
G23  23003337.860   120883360.320 7      2699.591          43.625    23003337.420   120883360.327 5      2699.591          32.875    23003343.800    94194845.780 5      2103.578          32.625    23003343.960    94194849.787 7      2103.578          47.312
G31  23394280.000   122937778.274 7      -899.780          43.125    23394279.520   122937778.277 6      -899.780          40.750    23394285.640    95795699.721 6      -701.127          40.375    23394287.060    95795701.719 7      -701.127          44.812
R10  19301882.900   102889915.647 7      3541.152          45.437    19301881.600   102889915.653 7      3541.152          44.625
G26  21029646.180   110511543.115 7       836.736          47.125    21029645.580   110511543.120 7       836.736          47.625    21029651.980    86112907.841 7       652.002          47.625    21029652.660    86112911.840 8       652.002          48.687
G21  22676502.680   119165827.455 7      5642.134          42.875    22676500.900   119165827.463 5      5642.134          30.125    22676508.200    92856512.306 5      4396.468          30.125
G16  20396691.540   107185336.352 7      2898.717          46.312    20396690.180   107185336.362 6      2898.717          39.375    20396692.460    83521045.119 6      2258.741          39.062
G27  20763621.100   109113571.167 8      2565.272          49.750    20763620.040   109113571.177 7      2565.272          42.000    20763624.980    85023571.047 6      1998.913          41.562    20763625.820    85023576.055 8      1998.913          51.812
G10  22820286.560   119921415.042 7      4311.289          44.500    22820285.580   119921415.047 7      4311.289          42.625    22820293.640    93445291.952 7      3359.446          42.625    22820293.640    93445295.959 7      3359.446          44.250
R09  19877657.040   106145582.104 7       101.912          47.187    19877656.600   106145582.105 8       101.912          48.000    19877664.820    82557703.766 8        79.265          51.875    19877665.040    82557711.768 8        79.265          52.250
> 2024 05 08 11 23 25.0000000  0 10
R21  21080275.120   112804816.181 7      4472.926          46.000    21080275.500   112804816.182 7      4472.926          44.250    21080287.120    87737123.269 8      3478.942          48.687    21080286.400    87737122.273 8      3478.942          48.812
G23  23002824.080   120880661.053 7      2699.124          44.687    23002823.660   120880661.063 5      2699.124          32.625    23002830.080    94192742.461 5      2103.213          32.625    23002830.620    94192746.472 7      2103.213          47.187
G31  23394451.400   122938678.189 7      -899.907          44.250    23394450.860   122938678.196 6      -899.907          40.812    23394456.940    95796400.949 6      -701.226          40.562    23394458.320    95796402.937 7      -701.226          45.187
R10  19301218.480   102886374.847 7      3540.488          46.062    19301217.300   102886374.851 7      3540.488          44.437
G26  21029487.120   110510706.679 7       836.342          47.562    21029486.460   110510706.676 7       836.342          47.312    21029492.800    86112256.063 7       651.695          47.500    21029493.380    86112260.061 8       651.695          48.875
G21  22675428.740   119160185.636 7      5641.762          43.125    22675427.300   119160185.643 5      5641.762          30.125    22675434.580    92852116.085 5      4396.178          30.125
G16  20396140.220   107182437.866 7      2898.286          46.812    20396138.580   107182437.876 6      2898.286          39.937    20396140.780    83518786.563 6      2258.405          39.625
G27  20763132.900   109111006.032 8      2565.160          49.687    20763131.980   109111006.042 7      2565.160          42.062    20763136.900    85021572.242 6      1998.826          41.750    20763137.780    85021577.246 8      1998.826          52.375
G10  22819466.100   119917103.987 7      4310.970          44.812    22819465.320   119917103.989 7      4310.970          42.187    22819473.420    93441932.690 7      3359.197          42.500    22819473.500    93441936.689 7      3359.197          44.125
R09  19877637.960   106145480.581 7       101.276          47.625    19877637.500   106145480.576 7       101.276          47.937    19877645.700    82557624.793 8        78.771          52.125    19877646.100    82557632.795 8        78.771          52.750
> 2024 05 08 11 23 26.0000000  0 10
R21  21079439.360   112800343.601 7      4472.251          43.375    21079439.780   112800343.608 7      4472.251          44.625    21079451.160    87733644.600 8      3478.417          48.812    21079450.760    87733643.601 8      3478.417          48.000
G23  23002310.780   120877962.390 7      2698.409          44.062    23002310.080   120877962.402 5      2698.409          32.625    23002316.580    94190639.607 5      2102.656          32.375    23002317.240    94190643.606 7      2102.656          47.625
G31  23394622.620   122939578.200 7      -900.053          44.500    23394622.200   122939578.202 6      -900.053          41.000    23394628.140    95797102.242 6      -701.340          40.812    23394629.540    95797104.234 7      -701.340          44.875
R10  19300554.440   102882834.826 7      3539.544          45.312    19300553.440   102882834.848 7      3539.544          44.687
G26  21029328.220   110509870.676 7       835.722          47.250    21029327.300   110509870.681 7       835.722          47.125    21029333.780    86111604.632 7       651.212          47.562    21029333.940    86111608.637 8       651.212          48.750
G21  22674355.360   119154544.227 7      5641.179          42.562    22674353.620   119154544.231 5      5641.179          30.500    22674361.140    92847720.184 5      4395.724          30.125
G16  20395588.640   107179539.795 7      2897.845          46.750    20395587.180   107179539.805 6      2897.845          39.687    20395589.360    83516528.322 6      2258.061          39.437
G27  20762644.840   109108441.138 8      2564.778          49.062    20762643.920   109108441.146 6      2564.778          41.812    20762648.780    85019573.616 6      1998.529          41.562    20762649.320    85019578.622 8      1998.529          52.437
G10  22818645.680   119912793.294 7      4310.486          45.500    22818645.020   119912793.297 7      4310.486          42.875    22818652.960    93438573.707 7      3358.820          42.875    22818653.420    93438577.708 7      3358.820          44.375
R09  19877619.060   106145379.747 8       100.451          48.187    19877618.300   106145379.750 7       100.451          47.937    19877626.840    82557546.370 8        78.128          51.812    19877627.200    82557554.370 8        78.128          53.187
> 2024 05 08 11 23 27.0000000  0 10
R21  21078603.560   112795871.770 7      4471.270          44.750    21078604.420   112795871.777 7      4471.270          44.500    21078615.460    87730166.511 8      3477.654          48.500    21078615.100    87730165.513 8      3477.654          48.375
G23  23001797.260   120875264.460 7      2697.376          44.375    23001796.700   120875264.467 5      2697.376          32.625    23001803.220    94188537.322 5      2101.851          32.375    23001803.880    94188541.319 7      2101.851          47.687
G31  23394793.760   122940478.485 7      -900.588          44.812    23394793.720   122940478.485 6      -900.588          40.687    23394799.520    95797803.746 6      -701.757          40.500    23394800.920    95797805.743 7      -701.757          44.562
R10  19299890.260   102879295.730 7      3538.480          45.312    19299889.380   102879295.741 7      3538.480          44.437
G26  21029169.240   110509035.268 8       834.934          48.187    21029168.260   110509035.265 7       834.934          47.812    21029174.820    86110953.660 7       650.598          47.187    21029175.100    86110957.661 8       650.598          48.937
G21  22673282.380   119148903.385 7      5640.261          42.375    22673280.080   119148903.387 5      5640.261          30.500    22673287.840    92843324.731 5      4395.009          30.562
G16  20395037.220   107176642.308 7      2897.033          46.687    20395035.760   107176642.316 6      2897.033          40.187    20395038.080    83514270.540 6      2257.428          39.687
G27  20762156.720   109105876.605 8      2564.157          48.625    20762155.820   109105876.612 6      2564.157          41.312    20762160.760    85017575.278 6      1998.044          41.125    20762161.560    85017580.286 8      1998.044          52.250
G10  22817825.780   119908483.112 7      4309.793          45.875    22817824.860   119908483.114 7      4309.793          42.750    22817832.700    93435215.129 7      3358.281          42.750    22817833.560    93435219.134 7      3358.281          44.375
R09  19877600.320   106145279.793 7        99.354          47.875    19877599.860   106145279.794 8        99.354          48.125    19877608.200    82557468.625 8        77.275          51.812    19877608.500    82557476.625 8        77.275          53.125
> 2024 05 08 11 23 28.0000000  0 10
R21  21077768.080   112791400.273 7      4471.340          46.062    21077768.840   112791400.283 7      4471.340          44.937    21077779.760    87726688.683 8      3477.709          48.937    21077779.340    87726687.684 8      3477.709          48.312
G23  23001283.960   120872566.913 7      2697.404          44.500    23001283.400   120872566.918 5      2697.404          32.625    23001289.920    94186435.336 5      2101.873          32.687    23001290.400    94186439.328 7      2101.873          47.437
G31  23394965.260   122941378.675 7      -900.114          44.750    23394964.960   122941378.675 6      -900.114          41.062    23394970.840    95798505.185 6      -701.388          40.812    23394971.960    95798507.186 7      -701.388          44.437
R10  19299226.440   102875757.235 7      3538.269          45.875    19299225.620   102875757.233 7      3538.269          45.000
G26  21029010.160   110508200.111 7       835.009          47.437    21029009.440   110508200.121 7       835.009          47.562    21029015.880    86110302.891 7       650.657          47.625    21029016.020    86110306.894 8       650.657          48.750
G21  22672208.860   119143262.732 7      5640.471          42.562    22672206.620   119143262.734 5      5640.471          30.500    22672214.400    92838929.421 5      4395.172          30.562
G16  20394486.040   107173745.065 7      2897.110          46.937    20394484.280   107173745.073 6      2897.110          39.500    20394486.720    83512012.946 6      2257.488          39.000
G27  20761668.640   109103312.103 8      2564.457          48.937    20761667.840   109103312.105 6      2564.457          41.500    20761672.780    85015576.963 6      1998.278          41.125    20761673.500    85015581.967 8      1998.278          52.625
G10  22817005.700   119904173.116 7      4309.958          45.875    22817004.760   119904173.120 7      4309.958          42.750    22817012.680    93431856.694 7      3358.409          42.500    22817013.320    93431860.695 7      3358.409          44.625
R09  19877581.680   106145180.377 8        99.109          48.062    19877581.040   106145180.381 7        99.109          47.750    19877589.640    82557391.297 8        77.085          52.062    19877589.940    82557399.295 8        77.085          53.375
> 2024 05 08 11 23 29.0000000  0 10
R21  21076932.880   112786929.181 7      4470.568          45.812    21076933.520   112786929.188 7      4470.568          44.750    21076944.400    87723211.162 8      3477.108          48.437    21076944.000    87723210.160 8      3477.108          48.250
G23  23000770.820   120869869.835 7      2696.514          44.125    23000770.040   120869869.840 5      2696.514          32.625    23000776.840    94184333.718 5      2101.180          32.687    23000777.280    94184337.719 7      2101.180          47.125
G31  23395136.580   122942278.868 7      -900.480          44.250    23395136.360   122942278.868 6      -900.480          40.812    23395142.020    95799206.626 6      -701.672          40.562    23395143.240    95799208.624 7      -701.672          44.687
R10  19298562.760   102872219.392 7      3537.110          45.500    19298561.860   102872219.400 7      3537.110          44.312
G26  21028851.260   110507365.286 8       834.285          48.000    21028850.700   110507365.293 7       834.285          47.625    21028857.000    86109652.375 7       650.092          47.625    21028857.360    86109656.376 8       650.092          48.937
G21  22671135.460   119137622.377 7      5639.838          42.625    22671133.400   119137622.384 5      5639.838          30.500    22671141.080    92834534.347 5      4394.679          30.562
G16  20393934.760   107170848.137 7      2896.373          47.375    20393933.020   107170848.142 6      2896.373          39.375    20393935.380    83509755.595 6      2256.914          39.125
G27  20761180.660   109100747.701 8      2563.948          49.062    20761179.780   109100747.708 6      2563.948          41.750    20761184.820    85013578.729 6      1997.882          41.500    20761185.780    85013583.740 8      1997.882          52.125
G10  22816185.360   119899863.398 7      4309.211          45.812    22816184.580   119899863.403 7      4309.211          42.875    22816192.580    93428498.475 7      3357.827          43.062    22816193.460    93428502.474 7      3357.827          44.437
R09  19877563.280   106145081.577 7        98.137          46.812    19877562.740   106145081.576 7        98.137          47.812    19877571.100    82557314.445 8        76.329          51.812    19877571.560    82557322.440 8        76.329          53.312
> 2024 05 08 11 23 30.0000000  0 10
R21  21076097.660   112782458.822 7      4470.008          45.812    21076097.720   112782458.834 7      4470.008          44.750    21076109.040    87719734.220 8      3476.673          48.500    21076108.600    87719733.213 8      3476.673          48.562
G23  23000257.560   120867173.529 7      2695.992          44.062    23000257.000   120867173.539 5      2695.992          32.812    23000263.840    94182232.698 5      2100.773          32.687    23000263.940    94182236.701 7      2100.773          47.062
G31  23395307.980   122943179.355 7      -900.559          44.187    23395307.820   122943179.363 6      -900.559          41.000    23395313.360    95799908.300 6      -701.735          40.687    23395314.820    95799910.301 7      -701.735          44.812
R10  19297899.480   102868682.499 7      3536.480          45.375    19297898.360   102868682.505 7      3536.480          44.625
G26  21028692.580   110506531.088 7       833.901          46.937    21028691.900   110506531.091 7       833.901          47.312    21028698.320    86109002.347 7       649.793          47.500    21028699.000    86109006.346 8       649.793          48.937
G21  22670062.140   119131982.609 7      5639.539          42.125    22670060.160   119131982.614 5      5639.539          30.375    22670067.860    92830139.727 5      4394.446          30.562
G16  20393383.400   107167951.791 7      2896.120          46.187    20393381.840   107167951.798 6      2896.120          39.625    20393384.180    83507498.702 6      2256.717          39.312
G27  20760692.720   109098183.690 8      2563.900          48.437    20760691.800   109098183.700 6      2563.900          41.500    20760696.860    85011580.801 6      1997.844          41.312    20760697.680    85011585.809 8      1997.844          51.750
G10  22815365.500   119895554.172 7      4309.106          45.000    22815364.520   119895554.179 7      4309.106          42.625    22815372.560    93425140.638 7      3357.745          42.812    22815373.060    93425144.637 7      3357.745          44.125
R09  19877544.880   106144983.654 7        97.585          47.312    19877544.420   106144983.649 7        97.585          47.875    19877552.900    82557238.277 8        75.899          52.312    19877553.100    82557246.271 8        75.899          52.875
> 2024 05 08 11 23 31.0000000  0 10
R21  21075262.100   112777988.912 7      4469.682          46.187    21075262.820   112777988.927 7      4469.682          45.125    21075273.940    87716257.620 8      3476.419          48.750    21075273.100    87716256.617 8      3476.419          48.500
G23  22999744.440   120864477.708 7      2695.517          44.062    22999744.060   120864477.719 5      2695.517          32.812    22999750.820    94180132.061 5      2100.403          32.687    22999751.080    94180136.066 7      2100.403          47.000
G31  23395479.300   122944079.840 7      -900.414          44.937    23395479.340   122944079.847 6      -900.414          41.250    23395484.780    95800609.966 6      -701.621          41.125    23395486.140    95800611.962 7      -701.621          44.562
R10  19297235.760   102865146.289 7      3535.868          45.312    19297235.060   102865146.300 7      3535.868          44.625
G26  21028534.080   110505697.230 7       833.761          47.500    21028533.280   110505697.229 7       833.761          47.437    21028539.540    86108352.579 7       649.684          47.625    21028540.240    86108356.580 8       649.684          49.187
G21  22668989.100   119126343.131 7      5639.301          42.375    22668987.020   119126343.134 5      5639.301          30.375    22668994.680    92825745.329 5      4394.260          30.625
G16  20392832.380   107165055.788 7      2895.870          47.125    20392830.760   107165055.795 6      2895.870          39.125    20392832.960    83505242.080 6      2256.522          39.062
G27  20760204.980   109095619.827 8      2563.805          48.500    20760203.960   109095619.831 6      2563.805          41.625    20760208.800    85009582.983 6      1997.770          41.250    20760209.440    85009587.987 8      1997.770          51.937
G10  22814545.580   119891245.258 7      4308.863          45.125    22814544.600   119891245.260 7      4308.863          43.125    22814552.620    93421783.043 7      3357.555          43.125    22814552.840    93421787.042 7      3357.555          44.312
R09  19877526.700   106144886.344 8        97.069          48.312    19877526.320   106144886.339 7        97.069          47.937    19877534.500    82557162.592 8        75.498          52.312    19877535.020    82557170.586 8        75.498          53.125
> 2024 05 08 11 23 32.0000000  0 10
R21  21074426.960   112773519.687 7      4468.678          45.687    21074427.580   112773519.696 7      4468.678          45.375    21074438.580    87712781.554 8      3475.638          48.437    21074438.200    87712780.555 8      3475.638          48.000
G23  22999231.800   120861782.535 7      2694.773          44.000    22999231.120   120861782.540 5      2694.773          32.875    22999238.060    94178031.928 5      2099.823          32.687    22999238.080    94178035.935 7      2099.823          46.937
G31  23395650.760   122944980.553 7      -901.047          44.875    23395650.580   122944980.563 6      -901.047          40.562    23395656.020    95801311.812 6      -702.114          40.375    23395657.280    95801313.809 7      -702.114          44.875
R10  19296572.740   102861610.993 7      3534.617          45.812    19296571.520   102861610.999 7      3534.617          44.562
G26  21028375.560   110504863.910 7       832.931          47.062    21028374.620   110504863.915 7       832.931          47.437    21028380.960    86107703.239 7       649.037          47.062    21028381.500    86107707.242 8       649.037          48.687
G21  22667916.160   119120704.166 7      5638.401          42.250    22667914.160   119120704.168 5      5638.401          30.375    22667921.380    92821351.333 5      4393.559          30.625
G16  20392281.300   107162160.326 7      2894.965          47.312    20392279.740   107162160.336 6      2894.965          39.437    20392282.080    83502985.872 6      2255.817          39.187
G27  20759717.240   109093056.263 8      2563.198          48.062    20759716.060   109093056.267 7      2563.198          42.187    20759721.080    85007585.403 6      1997.297          41.750    20759721.520    85007590.409 8      1997.297          51.625
G10  22813725.640   119886936.820 7      4308.052          45.000    22813724.780   119886936.819 7      4308.052          43.125    22813732.820    93418425.813 7      3356.924          43.250    22813733.220    93418429.816 7      3356.924          44.312
R09  19877508.680   106144789.864 8        95.913          48.375    19877508.220   106144789.865 7        95.913          47.687    19877516.420    82557087.548 8        74.599          51.562    19877516.780    82557095.546 8        74.599          52.000
> 2024 05 08 11 23 33.0000000  0 10
R21  21073591.920   112769050.885 7      4468.650          45.187    21073592.280   112769050.897 7      4468.650          45.125    21073603.320    87709305.827 7      3475.616          47.187    21073603.140    87709304.828 7      3475.616          47.500
G23  22998719.040   120859087.913 7      2694.476          43.312    22998718.440   120859087.920 5      2694.476          32.875    22998725.320    94175932.218 5      2099.592          32.750    22998725.540    94175936.221 7      2099.592          46.125
G31  23395822.200   122945881.279 7      -900.688          44.687    23395821.880   122945881.286 6      -900.688          40.812    23395827.500    95802013.660 6      -701.834          40.312    23395829.020    95802015.663 7      -701.834          44.562
R10  19295909.860   102858076.372 7      3534.433          45.375    19295908.440   102858076.367 7      3534.433          44.500
G26  21028217.120   110504030.961 7       832.912          47.937    21028216.100   110504030.963 7       832.912          46.750    21028222.460    86107054.185 7       649.023          46.312    21028223.300    86107058.188 8       649.023          48.000
G21  22666843.440   119115065.492 7      5638.564          42.437    22666841.060   119115065.494 5      5638.564          30.687    22666848.300    92816957.570 5      4393.686          30.625
G16  20391730.240   107159265.191 7      2895.016          47.062    20391728.880   107159265.201 6      2895.016          39.312    20391731.280    83500729.923 6      2255.857          38.812
G27  20759229.320   109090492.835 8      2563.494          48.250    20759228.280   109090492.837 6      2563.494          41.000    20759233.180    85005587.921 6      1997.528          41.062    20759233.500    85005592.927 8      1997.528          50.750
G10  22812905.720   119882628.639 7      4308.153          44.812    22812904.980   119882628.642 7      4308.153          42.375    22812912.980    93415068.799 7      3357.002          42.312    22812913.500    93415072.808 7      3357.002          44.437
R09  19877490.880   106144694.031 7        95.646          47.687    19877490.380   106144694.037 7        95.646          47.625    19877498.480    82557013.011 8        74.392          50.000    19877498.800    82557021.013 8        74.392          50.437
> 2024 05 08 11 23 34.0000000  0 10
R21  21072756.860   112764582.556 7      4468.103          44.875    21072757.200   112764582.563 7      4468.103          45.187    21072768.160    87705830.450 8      3475.191          48.687    21072767.900    87705829.453 7      3475.191          47.812
G23  22998206.460   120856393.764 7      2693.805          44.687    22998205.520   120856393.769 5      2693.805          32.750    22998212.520    94173832.884 5      2099.068          32.750    22998212.900    94173836.882 7      2099.068          46.812
G31  23395993.440   122946782.026 7      -900.883          45.062    23395993.360   122946782.034 6      -900.883          41.000    23395999.080    95802715.527 6      -701.987          40.812    23396000.300    95802717.523 7      -701.987          44.687
R10  19295246.640   102854542.459 7      3533.468          46.000    19295245.880   102854542.471 7      3533.468          44.437
G26  21028058.580   110503198.366 8       832.376          48.125    21028057.580   110503198.373 7       832.376          47.500    21028063.980    86106405.408 7       648.605          47.312    21028064.740    86106409.409 8       648.605          49.187
G21  22665770.440   119109427.156 7      5638.014          43.000    22665768.140   119109427.159 5      5638.014          30.687    22665775.280    92812564.066 5      4393.258          30.625
G16  20391179.440   107156370.386 7      2894.567          46.562    20391178.080   107156370.396 6      2894.567          39.875    20391180.500    83498474.227 6      2255.507          39.562
G27  20758741.460   109087929.539 8      2563.146          48.375    20758740.540   109087929.544 7      2563.146          42.125    20758745.400    85003590.550 6      1997.256          41.500    20758745.620    85003595.554 8      1997.256          51.375
G10  22812086.000   119878320.743 7      4307.677          45.500    22812085.300   119878320.742 7      4307.677          43.125    22812093.240    93411711.996 7      3356.632          43.000    22812093.580    93411716.008 7      3356.632          44.250
R09  19877473.040   106144598.801 7        94.823          47.375    19877472.420   106144598.813 8        94.823          48.125    19877480.600    82556938.943 8        73.751          51.875    19877481.020    82556946.946 8        73.751          52.500
> 2024 05 08 11 23 35.0000000  0 10
R21  21071921.800   112760114.934 7      4467.200          44.500    21071921.220   112760114.943 7      4467.200          44.250    21071933.120    87702355.639 8      3474.489          48.687    21071932.840    87702354.644 7      3474.489          47.937
G23  22997693.880   120853700.338 7      2693.075          44.625    22997693.000   120853700.345 5      2693.075          32.750    22997699.940    94171734.114 5      2098.500          32.375    22997700.200    94171738.121 7      2098.500          46.562
G31  23396164.820   122947683.020 7      -901.076          44.125    23396164.800   122947683.025 6      -901.076          41.437    23396170.440    95803417.586 6      -702.137          41.062    23396171.700    95803419.587 7      -702.137          44.625
R10  19294584.020   102851009.514 7      3532.422          45.875    19294582.960   102851009.525 7      3532.422          45.125
G26  21027900.220   110502366.368 7       831.726          47.750    21027899.500   110502366.375 7       831.726          47.312    21027905.780    86105757.096 7       648.099          47.500    21027906.520    86105761.097 8       648.099          49.000
G21  22664697.080   119103789.360 7      5637.461          42.750    22664695.460   119103789.367 5      5637.461          30.687    22664702.220    92808170.984 5      4392.827          30.500
G16  20390628.660   107153476.178 7      2893.896          46.437    20390627.240   107153476.188 6      2893.896          39.937    20390629.660    83496218.997 6      2254.984          39.750
G27  20758253.940   109085366.627 7      2562.783          47.875    20758252.880   109085366.634 6      2562.783          41.562    20758257.920    85001593.477 6      1996.974          41.312    20758257.940    85001598.485 8      1996.974          51.062
G10  22811266.360   119874013.382 7      4307.039          46.187    22811265.500   119874013.387 7      4307.039          42.687    22811273.600    93408355.620 7      3356.135          42.937    22811274.080    93408359.627 7      3356.135          44.437
R09  19877455.500   106144504.450 8        93.796          48.187    19877454.940   106144504.459 7        93.796          47.437    19877462.980    82556865.557 8        72.952          51.875    19877463.720    82556873.557 8        72.952          52.500
> 2024 05 08 11 23 36.0000000  0 10
R21  21071087.240   112755647.897 7      4466.653          44.750    21071086.060   112755647.907 7      4466.653          44.500    21071098.360    87698881.286 8      3474.063          48.312    21071097.920    87698880.287 7      3474.063          47.875
G23  22997181.420   120851007.547 7      2692.418          44.000    22997180.560   120851007.560 5      2692.418          32.812    22997187.660    94169635.835 5      2097.988          32.375    22997187.820    94169639.845 7      2097.988          47.250
G31  23396336.380   122948584.164 7      -901.253          44.125    23396336.200   122948584.172 6      -901.253          40.750    23396341.920    95804119.766 6      -702.275          40.687    23396343.280    95804121.760 7      -702.275          45.187
R10  19293921.280   102847477.374 7      3531.760          45.562    19293920.120   102847477.380 7      3531.760          44.687
G26  21027741.980   110501534.848 7       831.209          47.875    21027741.140   110501534.858 7       831.209          47.375    21027747.440    86105109.158 7       647.695          47.375    21027748.000    86105113.161 8       647.695          48.375
G21  22663624.500   119098152.010 7      5637.019          43.437    22663622.580   119098152.018 5      5637.019          30.687    22663629.540    92803778.246 5      4392.483          30.500
G16  20390078.020   107150582.411 7      2893.554          46.250    20390076.640   107150582.419 6      2893.554          39.687    20390079.100    83493964.114 6      2254.718          39.750
G27  20757766.180   109082803.967 7      2562.547          47.250    20757765.240   109082803.972 6      2562.547          41.250    20757770.160    84999596.599 6      1996.790          41.000    20757770.200    84999601.599 8      1996.790          51.312
G10  22810446.620   119869706.402 7      4306.780          44.750    22810445.960   119869706.407 7      4306.780          42.812    22810453.960    93404999.529 7      3355.932          43.000    22810453.980    93405003.530 7      3355.932          44.000
R09  19877437.960   106144410.843 7        93.173          47.312    19877437.280   106144410.844 8        93.173          48.500    19877445.500    82556792.744 8        72.468          52.000    19877445.860    82556800.739 8        72.468          52.937
> 2024 05 08 11 23 37.0000000  0 10
R21  21070252.740   112751181.378 7      4466.190          44.750    21070251.420   112751181.379 7      4466.190          45.125    21070263.800    87695407.320 8      3473.704          48.625    21070263.180    87695406.323 8      3473.704          48.000
G23  22996668.920   120848315.285 7      2691.906          43.812    22996668.080   120848315.292 5      2691.906          32.812    22996675.200    94167537.967 5      2097.589          33.000    22996675.760    94167541.978 7      2097.589          47.437
G31  23396507.860   122949485.364 7      -901.292          44.562    23396507.720   122949485.368 6      -901.292          40.750    23396513.340    95804821.989 6      -702.306          40.500    23396514.960    95804823.987 7      -702.306          45.000
R10  19293258.820   102843946.002 7      3530.945          45.687    19293257.800   102843946.002 7      3530.945          44.375
G26  21027583.700   110500703.727 7       830.813          47.625    21027583.040   110500703.734 7       830.813          47.375    21027589.340    86104461.526 7       647.387          47.312    21027590.140    86104465.527 8       647.387          48.812
G21  22662551.840   119092515.002 7      5636.734          43.500    22662549.840   119092515.009 5      5636.734          30.125    22662556.840    92799385.778 5      4392.260          30.500
G16  20389527.380   107147689.046 7      2893.105          45.937    20389526.100   107147689.054 6      2893.105          39.312    20389528.400    83491709.544 6      2254.368          39.312
G27  20757278.520   109080241.483 7      2562.334          47.812    20757277.500   109080241.488 7      2562.334          42.000    20757282.500    84997599.856 6      1996.624          41.625    20757282.880    84997604.858 8      1996.624          51.812
G10  22809627.040   119865399.766 7      4306.373          46.375    22809626.440   119865399.771 7      4306.373          42.687    22809634.440    93401643.716 7      3355.616          42.812    22809635.020    93401647.716 7      3355.616          44.000
R09  19877420.340   106144317.963 8        92.418          48.812    19877420.040   106144317.958 8        92.418          48.250    19877428.000    82556720.489 8        71.880          52.000    19877428.220    82556728.480 8        71.880          52.687
> 2024 05 08 11 23 38.0000000  0 10
R21  21069418.260   112746715.508 7      4465.608          45.437    21069416.600   112746715.507 7      4465.608          45.125    21069429.380    87691933.863 8      3473.250          48.500    21069428.680    87691932.867 7      3473.250          47.937
G23  22996156.940   120845623.718 7      2691.229          44.625    22996155.840   120845623.726 5      2691.229          32.937    22996163.000    94165440.646 5      2097.061          33.000    22996163.620    94165444.649 7      2097.061          47.937
G31  23396679.640   122950386.773 7      -901.414          44.750    23396679.160   122950386.778 6      -901.414          41.125    23396684.900    95805524.376 6      -702.401          41.000    23396686.280    95805526.372 7      -702.401          44.500
R10  19292596.500   102840415.501 7      3530.125          46.000    19292595.600   102840415.498 7      3530.125          44.812
G26  21027425.660   110499873.150 8       830.296          48.250    21027424.980   110499873.152 7       830.296          47.937    21027431.200    86103814.317 7       646.984          47.625    21027432.180    86103818.318 8       646.984          48.875
G21  22661479.240   119086878.509 7      5636.341          44.062    22661477.220   119086878.516 5      5636.341          30.125    22661484.200    92794993.711 5      4391.954          30.125
G16  20388977.000   107144796.210 7      2892.629          46.000    20388975.540   107144796.215 6      2892.629          39.812    20388977.980    83489455.384 6      2253.996          39.375
G27  20756790.820   109077679.311 8      2562.083          48.375    20756789.920   109077679.314 6      2562.083          41.562    20756794.980    84995603.357 6      1996.429          41.000    20756795.420    84995608.361 8      1996.429          51.687
G10  22808807.700   119861093.591 7      4305.980          45.437    22808807.040   119861093.593 7      4305.980          42.875    22808814.940    93398288.254 7      3355.309          42.750    22808815.400    93398292.253 7      3355.309          44.187
R09  19877403.220   106144225.859 8        91.682          49.812    19877402.680   106144225.858 8        91.682          48.500    19877410.880    82556648.851 8        71.308          52.125    19877410.960    82556656.845 8        71.308          52.437
> 2024 05 08 11 23 39.0000000  0 10
R21  21068583.620   112742250.195 7      4464.926          45.812    21068582.300   112742250.199 7      4464.926          45.125    21068595.200    87688460.852 8      3472.720          49.125    21068594.540    87688459.860 8      3472.720          48.875
G23  22995644.720   120842932.730 7      2690.670          44.312    22995643.780   120842932.738 5      2690.670          32.937    22995651.020    94163343.773 5      2096.626          33.000    22995651.820    94163347.769 7      2096.626          47.437
G31  23396851.260   122951288.306 7      -901.659          44.312    23396850.840   122951288.316 6      -901.659          40.937    23396856.540    95806226.860 6      -702.592          40.812    23396857.700    95806228.861 7      -702.592          44.312
R10  19291934.340   102836885.781 7      3529.213          46.125    19291933.640   102836885.784 7      3529.213          45.125
G26  21027267.800   110499043.017 8       829.830          48.750    21027267.000   110499043.025 7       829.830          47.812    21027273.320    86103167.460 7       646.621          47.375    21027273.800    86103171.463 8       646.621          48.062
G21  22660406.440   119081242.433 7      5635.829          43.750    22660404.700   119081242.438 5      5635.829          30.125    22660411.760    92790601.968 5      4391.555          30.125
G16  20388426.500   107141903.794 7      2892.149          46.187    20388425.020   107141903.799 6      2892.149          39.687    20388427.520    83487201.553 6      2253.622          39.250
G27  20756303.300   109075117.387 7      2561.751          47.562    20756302.320   109075117.389 6      2561.751          41.250    20756307.460    84993607.052 6      1996.169          41.250    20756308.260    84993612.050 8      1996.169          52.000
G10  22807988.400   119856787.809 7      4305.516          45.437    22807987.600   119856787.809 7      4305.516          42.375    22807995.660    93394933.099 7      3354.948          42.437    22807995.940    93394937.096 7      3354.948          44.687
R09  19877386.160   106144134.477 8        90.946          49.750    19877385.560   106144134.481 8        90.946          48.812    19877393.760    82556577.778 8        70.736          51.812    19877393.880    82556585.771 8        70.736          52.250
> 2024 05 08 11 23 40.0000000  0 10
R21  21067749.140   112737785.518 7      4464.523          45.625    21067748.640   112737785.520 7      4464.523          45.625    21067760.880    87684988.326 8      3472.407          48.687    21067760.160    87684987.336 8      3472.407          49.062
G23  22995132.760   120840242.415 7      2690.195          43.125    22995131.800   120840242.423 5      2690.195          33.000    22995139.080    94161247.423 5      2096.256          33.000    22995139.520    94161251.416 7      2096.256          47.375
G31  23397022.600   122952190.015 7      -901.576          44.625    23397022.340   122952190.022 6      -901.576          40.875    23397028.240    95806929.479 6      -702.527          40.875    23397029.360    95806931.481 7      -702.527          44.625
R10  19291272.220   102833356.913 7      3528.648          45.687    19291271.400   102833356.914 7      3528.648          44.937
G26  21027109.860   110498213.421 7       829.478          47.625    21027109.060   110498213.428 7       829.478          47.937    21027115.500    86102521.019 7       646.346          47.687    21027115.800    86102525.024 8       646.346          49.125
G21  22659334.100   119075606.841 7      5635.544          43.500    22659332.100   119075606.849 5      5635.544          30.375    22659339.260    92786210.604 5      4391.333          30.125
G16  20387876.360   107139011.887 7      2891.856          46.562    20387874.780   107139011.895 6      2891.856          40.062    20387877.120    83484948.119 6      2253.394          39.375
G27  20755815.840   109072555.746 7      2561.663          47.625    20755814.900   109072555.749 6      2561.663          41.812    20755819.920    84991610.967 6      1996.101          41.125    20755820.940    84991615.967 8      1996.101          52.250
G10  22807169.080   119852482.461 7      4305.269          45.125    22807168.380   119852482.458 7      4305.269          42.562    22807176.220    93391578.281 7      3354.755          42.625    22807176.820    93391582.282 7      3354.755          44.625
R09  19877369.180   106144043.871 8        90.353          48.875    19877368.580   106144043.880 8        90.353          49.062    19877376.800    82556507.307 8        70.274          52.187    19877376.880    82556515.302 8        70.274          52.437
> 2024 05 08 11 23 41.0000000  0 10
R21  21066915.120   112733321.372 7      4463.997          44.812    21066914.040   112733321.373 7      4463.997          44.562    21066926.580    87681516.212 8      3471.998          49.062    21066925.960    87681515.220 8      3471.998          48.500
G23  22994621.200   120837552.644 7      2689.700          42.937    22994620.000   120837552.646 5      2689.700          33.000    22994627.240    94159151.493 5      2095.870          33.000    22994627.800    94159155.480 7      2095.870          46.937
G31  23397194.020   122953091.823 7      -901.786          44.312    23397194.000   122953091.828 6      -901.786          41.062    23397199.680    95807632.178 6      -702.690          40.937    23397200.400    95807634.177 7      -702.690          44.250
R10  19290610.460   102829828.792 7      3527.931          46.000    19290609.480   102829828.801 7      3527.931          44.812
G26  21026951.960   110497384.229 8       829.124          48.375    21026951.420   110497384.226 7       829.124          47.000    21026957.720    86101874.885 7       646.070          47.500    21026957.880    86101878.886 8       646.070          48.625
G21  22658261.960   119069971.614 7      5635.230          43.250    22658259.720   119069971.622 5      5635.230          30.375    22658266.900    92781819.525 5      4391.088          30.125
G16  20387326.100   107136120.377 7      2891.473          46.000    20387324.540   107136120.382 6      2891.473          39.437    20387326.820    83482694.993 6      2253.096          39.375
G27  20755328.500   109069994.285 8      2561.564          48.125    20755327.480   109069994.287 6      2561.564          41.750    20755332.580    84989615.020 6      1996.024          41.437    20755333.440    84989620.018 8      1996.024          51.625
G10  22806349.940   119848177.447 7      4304.948          45.375    22806349.180   119848177.444 7      4304.948          43.062    22806357.140    93388223.726 7      3354.505          43.000    22806357.720    93388227.733 7      3354.505          44.375
R09  19877352.040   106143953.949 8        89.772          48.250    19877351.820   106143953.953 8        89.772          48.125    19877360.000    82556437.359 8        69.823          52.500    19877359.980    82556445.355 8        69.823          52.562
> 2024 05 08 11 23 42.0000000  0 10
R21  21066080.900   112728857.685 7      4463.474          45.437    21066079.980   112728857.681 7      4463.474          44.500    21066092.420    87678044.456 8      3471.591          48.437    21066092.040    87678043.468 8      3471.591          48.562
G23  22994109.600   120834863.384 7      2689.025          44.062    22994108.160   120834863.392 5      2689.025          33.000    22994115.520    94157055.969 5      2095.345          32.687    22994115.800    94157059.973 7      2095.345          46.687
G31  23397365.880   122953993.637 7      -901.831          44.562    23397365.700   122953993.642 6      -901.831          40.875    23397371.420    95808334.880 6      -702.725          41.000    23397372.440    95808336.883 7      -702.725          44.375
R10  19289948.340   102826301.402 7      3527.081          46.000    19289948.000   102826301.418 7      3527.081          44.750
G26  21026794.280   110496555.410 8       828.603          48.125    21026793.740   110496555.412 7       828.603          47.937    21026799.980    86101229.052 7       645.665          47.500    21026800.500    86101233.051 8       645.665          48.437
G21  22657189.880   119064336.721 7      5634.677          43.437    22657187.560   119064336.724 5      5634.677          30.375    22657194.640    92777428.705 5      4390.657          30.437
G16  20386775.960   107133229.225 7      2891.008          47.000    20386774.280   107133229.233 6      2891.008          39.625    20386776.780    83480442.143 6      2252.734          39.187
G27  20754840.860   109067432.996 7      2561.206          47.937    20754840.040   109067433.001 6      2561.206          41.250    20754845.060    84987619.213 6      1995.745          40.937    20754845.940    84987624.211 8      1995.745          51.750
G10  22805530.900   119843872.734 7      4304.533          44.875    22805530.000   119843872.734 7      4304.533          42.562    22805538.080    93384869.409 7      3354.182          43.062    22805538.260    93384873.418 7      3354.182          44.312
R09  19877335.220   106143864.692 8        89.004          48.000    19877335.260   106143864.696 8        89.004          48.187    19877343.220    82556367.933 8        69.225          51.562    19877343.240    82556375.928 8        69.225          51.937
> 2024 05 08 11 23 43.0000000  0 10
R21  21065247.080   112724394.529 7      4463.004          45.125    21065246.560   112724394.535 7      4463.004          44.687    21065258.200    87674573.116 7      3471.225          47.812    21065258.040    87674572.128 7      3471.225          47.375
G23  22993597.680   120832174.709 7      2688.407          43.000    22993596.500   120832174.719 5      2688.407          32.937    22993603.980    94154960.896 5      2094.862          32.687    22993603.800    94154964.908 7      2094.862          46.500
G31  23397537.520   122954895.557 7      -901.823          44.125    23397537.260   122954895.567 6      -901.823          40.437    23397542.980    95809037.664 6      -702.719          40.312    23397543.840    95809039.675 7      -702.719          44.125
R10  19289286.560   102822774.798 7      3526.260          45.687    19289286.080   102822774.814 7      3526.260          44.750
G26  21026636.680   110495727.030 7       828.184          47.625    21026636.100   110495727.032 7       828.184          46.437    21026642.300    86100583.557 7       645.339          46.750    21026642.360    86100587.554 8       645.339          48.062
G21  22656117.980   119058702.220 7      5634.380          43.000    22656115.380   119058702.222 5      5634.380          30.375    22656122.500    92773038.190 5      4390.426          30.437
G16  20386225.920   107130338.485 7      2890.629          46.562    20386224.240   107130338.495 6      2890.629          39.750    20386226.620    83478189.625 6      2252.438          39.312
G27  20754353.640   109064871.891 7      2561.134          47.625    20754352.740   109064871.894 6      2561.134          41.375    20754357.740    84985623.545 6      1995.689          40.562    20754358.580    84985628.541 8      1995.689          51.312
G10  22804711.560   119839568.379 7      4304.261          46.187    22804711.040   119839568.382 7      4304.261          42.625    22804718.840    93381515.374 7      3353.970          42.875    22804718.940    93381519.377 7      3353.970          44.125
R09  19877318.940   106143776.137 8        88.402          48.937    19877318.600   106143776.138 7        88.402          47.812    19877326.560    82556299.050 8        68.757          49.812    19877326.760    82556307.048 8        68.757          50.562
