     3.05           OBSERVATION DATA    MIXED               RINEX VERSION / TYPE
TPS2RIN 1.0.29.3920 TPS-USER            20240511 191323 UTC PGM / RUN BY / DATE
Win64 build Feb 23, 2024 (c) Topcon Positioning Systems     COMMENT
SRC: 20240508_GUI12.tps                                     COMMENT
OPT: -S -v 3.05                                             COMMENT
Observer            Agency                                  OBSERVER / AGENCY
O0M3X53SBGM         TPS HIPER_SR        4.8 HSR Jul,08,2022 REC # / TYPE / VERS
FW: 4.8 HSR Jul,08,2022 p3                                  COMMENT
SN: HiPer SR 1212-12575                                     COMMENT
000                 TPSHIPER_SR     NONE                    ANT # / TYPE
        1.8000        0.0000        0.0000                  ANTENNA: DELTA H/E/N
GUI12                                                       MARKER NAME
  5388716.9452 -1585354.9732  3012156.0204                  APPROX POSITION XYZ
  2024     5     8    12     4   24.0000000     GPS         TIME OF FIRST OBS
  2024     5     8    12    21   31.0000000     GPS         TIME OF LAST OBS
     1.000                                                  INTERVAL
  1028 EPOCHS                                               COMMENT
G   16 C1C L1C D1C S1C C1W L1W D1W S1W C2W L2W D2W S2W C2X  SYS / # / OBS TYPES
       L2X D2X S2X                                          SYS / # / OBS TYPES
R   16 C1C L1C D1C S1C C1P L1P D1P S1P C2P L2P D2P S2P C2C  SYS / # / OBS TYPES
       L2C D2C S2C                                          SYS / # / OBS TYPES
    15                                                      # OF SATELLITES
   G02  1028  1028  1028  1028  1028  1028  1028  1028  1028PRN / # OF OBS
        1028  1028  1028     0     0     0     0            PRN / # OF OBS
   G07   654   654   654   654   654   654   654   654   654PRN / # OF OBS
         654   654   654   650   650   650   650            PRN / # OF OBS
   G08  1028  1028  1028  1028  1028  1028  1028  1028  1028PRN / # OF OBS
        1028  1028  1028  1028  1028  1028  1028            PRN / # OF OBS
   G10  1028  1028  1028  1028  1028  1028  1028  1028  1028PRN / # OF OBS
        1028  1028  1028  1028  1028  1028  1028            PRN / # OF OBS
   G16  1028  1028  1028  1028  1028  1028  1028  1028  1028PRN / # OF OBS
        1028  1028  1028     0     0     0     0            PRN / # OF OBS
   G21  1028  1028  1028  1028  1028  1028  1028  1028  1028PRN / # OF OBS
        1028  1028  1028     0     0     0     0            PRN / # OF OBS
   G23  1028  1028  1028  1028  1028  1028  1028  1028  1028PRN / # OF OBS
        1028  1028  1028  1028  1028  1028  1028            PRN / # OF OBS
   G26  1028  1028  1028  1028  1028  1028  1028  1028  1028PRN / # OF OBS
        1028  1028  1028  1028  1028  1028  1028            PRN / # OF OBS
   G27  1028  1028  1028  1028  1028  1028  1028  1028  1028PRN / # OF OBS
        1028  1028  1028  1028  1028  1028  1028            PRN / # OF OBS
   G31   893   893   893   893   893   893   893   893   893PRN / # OF OBS
         893   893   893   893   893   893   893            PRN / # OF OBS
   R09  1028  1028  1028  1028  1028  1028  1028  1028  1028PRN / # OF OBS
        1028  1028  1028  1028  1028  1028  1028            PRN / # OF OBS
   R10  1028  1028  1028  1028  1028  1028  1028  1028     0PRN / # OF OBS
           0     0     0     0     0     0     0            PRN / # OF OBS
   R11  1028  1028  1028  1028  1028  1028  1028  1028  1028PRN / # OF OBS
        1028  1028  1028  1028  1028  1028  1028            PRN / # OF OBS
   R21  1028  1028  1028  1028  1028  1028  1028  1028  1028PRN / # OF OBS
        1028  1028  1028  1028  1028  1028  1028            PRN / # OF OBS
   R22   361   361   361   361   350   350   350   350   350PRN / # OF OBS
         350   350   350   348   348   348   348            PRN / # OF OBS
G L1C                                                       SYS / PHASE SHIFT
G L1W -0.25000                                              SYS / PHASE SHIFT
G L2W  0.00000                                              SYS / PHASE SHIFT
G L2X  0.25000                                              SYS / PHASE SHIFT
R L1C                                                       SYS / PHASE SHIFT
R L1P -0.25000                                              SYS / PHASE SHIFT
R L2P -0.25000                                              SYS / PHASE SHIFT
R L2C                                                       SYS / PHASE SHIFT
  5 R09 -2 R10 -7 R11  0 R21  4 R22 -3                      GLONASS SLOT / FRQ #
                                                            GLONASS COD/PHS/BIS
    18    18  1929     7GPS                                 LEAP SECONDS
                                                            END OF HEADER
> 2024 05 08 12 04 24.0000000  0 13
G08  21625753.780   113644103.422 7      3662.525          45.312    21625752.760   113644103.424 5      3662.525          33.875    21625759.180    88553868.965 5      2853.915          34.062    21625761.040    88553878.963 7      2853.915          46.875
R09  21373550.780   114133569.247 7     -1307.924          44.812    21373551.880   114133569.243 7     -1307.924          43.687    21373564.240    88770599.065 7     -1017.274          46.000    21373564.220    88770601.057 7     -1017.274          47.375
G16  20488325.840   107666879.745 7      1780.565          46.562    20488324.260   107666879.753 6      1780.565          37.125    20488327.640    83896271.545 6      1387.453          37.312
G02  23193646.360   121883437.402 7      5024.449          44.937    23193643.640   121883437.402 4      5024.449          27.750    23193649.720    94974114.959 4      3915.155          28.125
R11  21013472.140   112289627.003 8      5619.963          49.250    21013471.920   112289627.006 8      5619.963          48.125    21013480.720    87336405.156 8      4371.083          48.375    21013480.100    87336405.156 8      4371.083          48.750
G10  22238934.740   116866392.095 7      3192.659          46.625    22238933.080   116866392.097 7      3192.659          43.562    22238942.000    91064762.285 7      2487.786          43.812    22238941.380    91064745.289 7      2487.786          45.312
G27  20863795.180   109639984.550 8      2134.957          48.500    20863794.500   109639984.554 7      2134.957          46.312    20863799.580    85433772.701 7      1663.603          46.625    20863800.500    85433775.701 7      1663.603          46.500
R21  20511947.720   109763565.554 7      3227.887          46.562    20511948.120   109763565.569 7      3227.887          46.562    20511958.920    85371712.312 7      2510.578          47.312    20511958.580    85371714.308 7      2510.578          46.875
G31  25010036.220   131428621.405 7      -816.257          42.187    25010035.560   131428621.420 5      -816.257          32.687    25010049.740   102411969.083 5      -636.045          32.500    25010051.820   102411981.059 6      -636.045          38.812
R10  19323615.260   103005749.153 7      1505.709          45.000    19323614.860   103005749.157 7      1505.709          44.125
G23  23269856.520   122283922.394 7      1266.089          45.500    23269856.260   122283922.396 4      1266.089          27.750    23269862.040    95286198.041 4       986.563          27.687    23269863.220    95286206.038 6       986.563          41.250
G21  21476061.900   112857467.782 7      4533.517          45.812    21476059.860   112857467.790 5      4533.517          32.125    21476064.940    87940894.260 5      3532.611          32.437
G26  22064324.640   115948806.463 7      -127.264          44.812    22064323.400   115948806.466 6      -127.264          40.812    22064332.420    90349753.534 6       -99.167          40.875    22064333.220    90349755.533 7       -99.167          44.437
> 2024 05 08 12 04 25.0000000  0 13
G08  21625056.820   113640441.001 7      3662.433          45.437    21625055.800   113640441.001 5      3662.433          34.062    21625062.280    88551015.131 5      2853.844          34.062    21625064.260    88551025.132 7      2853.844          46.750
R09  21373795.880   114134877.507 7     -1308.319          44.500    21373796.920   114134877.513 7     -1308.319          43.875    21373809.040    88771616.594 7     -1017.582          46.750    21373809.240    88771618.584 7     -1017.582          47.312
G16  20487987.120   107665099.508 7      1780.075          45.625    20487985.520   107665099.510 6      1780.075          37.250    20487988.820    83894884.345 6      1387.071          36.937
G02  23192690.500   121878413.249 7      5024.101          44.437    23192687.660   121878413.249 4      5024.101          27.750    23192693.660    94970200.041 4      3914.884          28.250
R11  21012420.480   112284007.376 8      5619.522          48.375    21012420.140   112284007.383 8      5619.522          48.000    21012428.960    87332034.343 8      4370.739          48.000    21012428.780    87332034.348 8      4370.739          48.875
G10  22238327.140   116863199.779 7      3192.134          46.875    22238325.640   116863199.782 7      3192.134          43.750    22238334.520    91062274.768 7      2487.377          43.812    22238334.020    91062257.770 7      2487.377          45.437
G27  20863388.960   109637849.681 8      2134.868          48.312    20863388.260   109637849.683 7      2134.868          46.062    20863393.260    85432109.165 7      1663.534          46.625    20863394.040    85432112.165 7      1663.534          46.437
R21  20511345.040   109760337.979 7      3227.356          45.750    20511345.180   109760337.997 7      3227.356          46.937    20511355.900    85369201.980 7      2510.166          46.812    20511355.440    85369203.978 7      2510.166          46.812
G31  25010191.720   131429437.573 7      -816.003          42.187    25010190.940   131429437.591 5      -816.003          32.687    25010205.260   102412605.047 5      -635.847          32.500    25010206.700   102412617.043 6      -635.847          38.812
R10  19323332.820   103004243.853 7      1504.958          44.812    19323332.360   103004243.856 7      1504.958          43.687
G23  23269615.520   122282656.627 7      1265.560          45.125    23269615.380   122282656.629 4      1265.560          27.750    23269621.240    95285211.729 4       986.150          27.687    23269622.320    95285219.730 6       986.150          41.625
G21  21475199.420   112852934.555 7      4532.994          45.437    21475197.120   112852934.562 5      4532.994          32.125    21475202.260    87937361.877 5      3532.203          32.437
G26  22064348.860   115948933.906 7      -127.510          44.875    22064347.580   115948933.911 6      -127.510          41.000    22064356.660    90349852.836 6       -99.359          41.250    22064357.320    90349854.831 7       -99.359          44.562
> 2024 05 08 12 04 26.0000000  0 13
G08  21624359.760   113636778.722 7      3662.118          45.250    21624358.900   113636778.722 5      3662.118          34.062    21624365.480    88548161.411 5      2853.598          34.062    21624367.280    88548171.407 7      2853.598          46.812
R09  21374040.980   114136186.218 7     -1308.940          44.687    21374041.840   114136186.219 7     -1308.940          44.250    21374054.220    88772634.463 7     -1018.064          45.750    21374054.320    88772636.460 7     -1018.064          47.125
G16  20487648.580   107663319.782 7      1779.374          45.312    20487646.740   107663319.787 6      1779.374          37.062    20487650.300    83893497.543 6      1386.526          37.000
G02  23191734.520   121873389.480 7      5023.494          44.500    23191731.660   121873389.485 4      5023.494          28.187    23191737.640    94966285.422 4      3914.411          28.250
R11  21011369.260   112278388.343 8      5618.684          49.125    21011368.840   112278388.349 7      5618.684          47.875    21011377.480    87327663.978 8      4370.087          48.500    21011377.240    87327663.983 8      4370.087          48.437
G10  22237719.800   116860008.042 7      3191.411          47.312    22237718.340   116860008.047 7      3191.411          43.375    22237727.200    91059787.702 7      2486.814          43.875    22237726.760    91059770.702 7      2486.814          45.062
G27  20862982.760   109635714.988 8      2134.587          48.750    20862982.040   109635714.991 7      2134.587          46.312    20862987.060    85430445.770 7      1663.314          46.750    20862987.740    85430448.766 7      1663.314          46.312
R21  20510742.080   109757110.880 7      3226.751          47.125    20510742.360   109757110.895 7      3226.751          47.625    20510752.920    85366692.011 7      2509.695          46.812    20510752.320    85366694.011 7      2509.695          46.437
G31  25010346.880   131430253.645 7      -816.157          42.187    25010346.180   131430253.663 5      -816.157          33.062    25010360.460   102413240.934 5      -635.966          33.312    25010361.940   102413252.922 6      -635.966          38.812
R10  19323050.600   103002739.424 7      1503.932          44.812    19323050.200   103002739.428 7      1503.932          44.125
G23  23269374.780   122281391.477 7      1264.743          45.750    23269374.580   122281391.479 4      1264.743          27.750    23269380.640    95284225.898 4       985.514          27.687    23269381.580    95284233.897 6       985.514          41.625
G21  21474337.020   112848401.832 7      4532.396          46.250    21474334.560   112848401.837 5      4532.396          32.375    21474339.840    87933829.887 5      3531.737          32.437
G26  22064373.100   115949061.721 7      -128.025          44.562    22064371.900   115949061.726 6      -128.025          40.375    22064381.000    90349952.423 6       -99.760          40.312    22064381.480    90349954.425 7       -99.760          44.562
> 2024 05 08 12 04 27.0000000  0 13
G08  21623662.920   113633116.724 7      3661.573          44.687    21623661.980   113633116.724 5      3661.573          34.125    21623668.720    88545307.906 5      2853.174          34.062    21623670.460    88545317.908 7      2853.174          46.875
R09  21374286.460   114137495.530 7     -1309.796          43.937    21374287.280   114137495.531 7     -1309.796          43.937    21374299.300    88773652.807 7     -1018.730          45.625    21374299.400    88773654.803 7     -1018.730          47.375
G16  20487309.780   107661540.695 7      1778.557          45.812    20487308.180   107661540.703 6      1778.557          37.187    20487311.780    83892111.244 6      1385.888          37.250
G02  23190778.620   121868366.212 7      5022.768          44.562    23190775.660   121868366.215 4      5022.768          28.187    23190781.700    94962371.192 4      3913.845          28.250
R11  21010317.940   112272769.980 8      5617.778          49.312    21010317.340   112272769.981 8      5617.778          48.437    21010326.140    87323294.140 7      4369.383          47.625    21010325.860    87323294.145 8      4369.383          48.562
G10  22237112.420   116856817.005 7      3190.469          46.875    22237111.200   116856817.008 7      3190.469          44.062    22237119.920    91057301.182 7      2486.080          44.687    22237119.460    91057284.180 7      2486.080          45.500
G27  20862576.740   109633580.621 8      2133.978          48.937    20862575.860   109633580.624 7      2133.978          46.187    20862580.860    85428782.625 7      1662.840          46.750    20862581.520    85428785.627 7      1662.840          46.500
R21  20510138.820   109753884.424 7      3225.915          47.437    20510139.260   109753884.436 7      3225.915          47.250    20510149.900    85364182.540 7      2509.045          46.687    20510149.220    85364184.536 7      2509.045          46.625
G31  25010502.300   131431069.716 7      -816.343          42.312    25010501.540   131431069.734 5      -816.343          33.062    25010515.900   102413876.825 5      -636.112          33.312    25010517.180   102413888.823 6      -636.112          39.187
R10  19322768.800   103001236.016 7      1502.548          45.062    19322768.120   103001236.014 7      1502.548          44.125
G23  23269133.880   122280127.031 7      1263.911          45.562    23269133.820   122280127.028 4      1263.911          27.750    23269139.980    95283240.611 4       984.866          27.937    23269141.100    95283248.613 6       984.866          41.625
G21  21473474.460   112843869.763 7      4531.543          45.625    21473472.020   112843869.771 5      4531.543          32.375    21473477.440    87930298.409 5      3531.073          32.437
G26  22064397.640   115949190.049 7      -128.758          44.875    22064396.360   115949190.060 6      -128.758          40.625    22064405.380    90350052.416 6      -100.331          41.125    22064405.940    90350054.415 7      -100.331          44.187
> 2024 05 08 12 04 28.0000000  0 13
G08  21622966.080   113629455.063 7      3661.494          45.562    21622965.120   113629455.063 5      3661.494          33.750    21622971.820    88542454.663 5      2853.112          33.687    21622973.720    88542464.659 7      2853.112          47.062
R09  21374531.880   114138805.511 7     -1310.288          44.187    21374532.540   114138805.520 7     -1310.288          43.812    21374544.720    88774671.677 7     -1019.113          46.437    21374544.760    88774673.672 7     -1019.113          46.875
G16  20486971.640   107659762.320 7      1778.191          45.937    20486969.800   107659762.328 6      1778.191          37.687    20486973.360    83890725.495 6      1385.603          37.500
G02  23189823.000   121863343.502 7      5022.471          44.875    23189819.920   121863343.504 4      5022.471          28.187    23189825.920    94958457.400 4      3913.614          28.250
R11  21009266.620   112267152.376 8      5617.309          49.562    21009266.340   112267152.374 7      5617.309          47.750    21009274.680    87318924.893 8      4369.018          48.500    21009274.440    87318924.893 8      4369.018          48.312
G10  22236505.460   116853626.731 7      3189.862          46.750    22236503.920   116853626.736 7      3189.862          43.437    22236512.680    91054815.254 7      2485.606          43.687    22236512.440    91054798.254 7      2485.606          45.500
G27  20862170.560   109631446.638 8      2133.777          48.625    20862169.860   109631446.641 7      2133.777          46.125    20862174.840    85427119.783 7      1662.683          46.687    20862175.440    85427122.781 7      1662.683          46.875
R21  20509536.020   109750658.655 8      3225.515          48.250    20509536.700   109750658.673 7      3225.515          47.500    20509546.940    85361673.605 7      2508.734          47.437    20509546.440    85361675.607 7      2508.734          46.937
G31  25010657.440   131431885.862 7      -816.112          42.500    25010656.960   131431885.875 5      -816.112          32.875    25010671.300   102414512.769 5      -635.932          33.000    25010671.700   102414524.761 6      -635.932          39.187
R10  19322486.980   102999733.632 7      1501.872          45.187    19322486.180   102999733.641 7      1501.872          43.625
G23  23268893.680   122278863.408 7      1263.224          45.750    23268893.500   122278863.405 4      1263.224          28.000    23268899.580    95282255.968 4       984.330          27.937    23268900.500    95282263.963 6       984.330          41.625
G21  21472612.000   112839338.433 7      4530.945          45.875    21472609.720   112839338.440 5      4530.945          32.062    21472615.280    87926767.502 5      3530.607          32.437
G26  22064422.180   115949318.945 7      -129.100          44.812    22064421.000   115949318.958 6      -129.100          41.625    22064430.020    90350152.850 7      -100.597          42.062    22064430.780    90350154.849 7      -100.597          44.062
> 2024 05 08 12 04 29.0000000  0 13
G08  21622269.400   113625793.585 7      3661.524          45.750    21622268.360   113625793.585 5      3661.524          33.750    21622275.060    88539601.564 5      2853.136          33.687    21622276.920    88539611.564 7      2853.136          47.062
R09  21374777.220   114140115.987 7     -1310.618          44.312    21374777.780   114140115.993 7     -1310.618          43.750    21374790.180    88775690.924 7     -1019.369          45.812    21374790.320    88775692.916 7     -1019.369          47.062
G16  20486633.180   107657984.539 7      1777.691          45.687    20486631.640   107657984.544 6      1777.691          37.375    20486635.120    83889340.209 6      1385.214          37.312
G02  23188866.940   121858321.228 7      5022.133          44.812    23188864.340   121858321.228 4      5022.133          28.187    23188870.320    94954543.943 4      3913.350          28.250
R11  21008215.480   112261535.397 8      5616.746          48.875    21008214.860   112261535.406 8      5616.746          48.250    21008223.640    87314556.142 8      4368.580          48.437    21008223.340    87314556.144 8      4368.580          48.812
G10  22235898.600   116850437.067 7      3189.463          47.000    22235896.980   116850437.071 7      3189.463          43.500    22235905.780    91052329.801 7      2485.296          43.812    22235905.080    91052312.801 7      2485.296          45.312
G27  20861764.580   109629312.884 8      2133.702          48.812    20861763.800   109629312.889 7      2133.702          45.875    20861768.740    85425457.115 7      1662.625          46.500    20861769.500    85425460.119 7      1662.625          46.687
R21  20508933.480   109747433.392 8      3225.123          48.812    20508934.020   109747433.407 7      3225.123          46.750    20508944.300    85359165.067 7      2508.429          46.812    20508943.660    85359167.065 7      2508.429          46.625
G31  25010812.580   131432701.953 6      -816.013          41.937    25010812.340   131432701.961 5      -816.013          32.875    25010826.560   102415148.665 5      -635.854          33.000    25010827.280   102415160.657 6      -635.854          39.187
R10  19322205.220   102998232.191 7      1501.042          44.687    19322204.640   102998232.208 7      1501.042          43.750
G23  23268653.600   122277600.410 7      1262.793          45.562    23268653.100   122277600.410 4      1262.793          28.000    23268659.200    95281271.818 4       983.994          27.937    23268660.360    95281279.815 7       983.994          42.062
G21  21471749.760   112834807.665 7      4530.548          45.812    21471747.420   112834807.670 5      4530.548          32.062    21471753.020    87923237.034 5      3530.297          32.437
G26  22064446.820   115949448.277 7      -129.515          45.000    22064445.540   115949448.287 6      -129.515          41.250    22064454.700    90350253.620 6      -100.921          40.812    22064455.460    90350255.616 7      -100.921          44.375
> 2024 05 08 12 04 30.0000000  0 13
G08  21621572.540   113622132.174 7      3661.359          46.062    21621571.620   113622132.173 5      3661.359          33.937    21621578.300    88536748.516 5      2853.007          33.875    21621580.300    88536758.520 7      2853.007          47.250
R09  21375022.720   114141426.823 7     -1311.022          44.062    21375023.240   114141426.824 7     -1311.022          43.625    21375035.420    88776710.446 7     -1019.683          46.125    21375035.680    88776712.445 7     -1019.683          47.500
G16  20486294.860   107656207.170 7      1777.158          45.062    20486293.340   107656207.175 6      1777.158          37.500    20486296.880    83887955.247 6      1384.799          37.312
G02  23187911.500   121853299.227 7      5021.830          44.937    23187908.740   121853299.229 4      5021.830          28.625    23187914.820    94950630.696 4      3913.114          28.625
R11  21007164.400   112255918.891 8      5616.168          49.062    21007163.780   112255918.895 7      5616.168          47.875    21007172.500    87310187.746 8      4368.131          48.937    21007172.280    87310187.747 8      4368.131          49.187
G10  22235291.660   116847247.888 7      3188.878          47.062    22235290.180   116847247.893 7      3188.878          43.875    22235298.800    91049844.729 7      2484.840          44.187    22235298.660    91049827.729 7      2484.840          45.187
G27  20861358.540   109627179.213 8      2133.545          48.750    20861357.740   109627179.221 7      2133.545          46.250    20861362.680    85423794.515 7      1662.503          47.000    20861363.260    85423797.519 7      1662.503          46.875
R21  20508330.560   109744208.485 7      3224.654          47.625    20508331.260   109744208.508 7      3224.654          47.437    20508341.580    85356656.812 7      2508.064          47.562    20508341.040    85356658.810 7      2508.064          47.625
G31  25010967.840   131433517.811 6      -815.819          41.187    25010967.620   131433517.818 5      -815.819          33.062    25010981.800   102415784.388 5      -635.703          33.500    25010983.060   102415796.380 6      -635.703          39.375
R10  19321923.740   102996731.542 7      1500.163          44.750    19321923.200   102996731.550 7      1500.163          43.750
G23  23268413.520   122276337.938 7      1262.150          45.750    23268413.040   122276337.940 4      1262.150          28.000    23268418.860    95280288.071 4       983.493          27.937    23268420.060    95280296.066 7       983.493          42.062
G21  21470887.460   112830277.325 7      4530.088          45.500    21470885.380   112830277.330 5      4530.088          32.750    21470890.920    87919706.901 5      3529.939          32.687
G26  22064471.280   115949577.868 7      -129.800          44.875    22064470.140   115949577.876 6      -129.800          41.625    22064479.420    90350354.594 6      -101.143          41.687    22064480.320    90350356.597 7      -101.143          44.625
> 2024 05 08 12 04 31.0000000  0 13
G08  21620875.660   113618470.938 7      3661.296          46.187    21620874.900   113618470.937 5      3661.296          33.937    21620881.620    88533895.607 5      2852.958          34.500    21620883.640    88533905.611 7      2852.958          47.750
R09  21375268.400   114142738.132 7     -1311.334          44.187    21375268.740   114142738.141 7     -1311.334          44.000    21375281.180    88777730.347 7     -1019.927          47.250    21375281.300    88777732.341 7     -1019.927          47.437
G16  20485956.660   107654430.364 7      1776.665          45.375    20485955.140   107654430.372 6      1776.665          38.375    20485958.840    83886570.720 6      1384.414          38.062
G02  23186955.960   121848277.649 7      5021.508          44.500    23186953.220   121848277.654 4      5021.508          28.625    23186959.260    94946717.784 4      3912.863          28.625
R11  21006113.300   112250302.954 8      5615.815          49.125    21006112.940   112250302.958 8      5615.815          48.437    21006121.520    87305819.795 8      4367.856          49.250    21006121.520    87305819.794 8      4367.856          49.687
G10  22234684.840   116844059.288 7      3188.533          47.125    22234683.400   116844059.292 7      3188.533          44.625    22234692.100    91047360.107 7      2484.571          44.875    22234691.640    91047343.112 7      2484.571          45.687
G27  20860952.560   109625045.777 8      2133.439          48.125    20860951.760   109625045.781 7      2133.439          47.062    20860956.740    85422132.095 7      1662.420          47.437    20860957.820    85422135.090 7      1662.420          47.000
R21  20507728.220   109740984.124 7      3224.273          47.687    20507729.000   109740984.141 7      3224.273          47.500    20507739.140    85354148.973 8      2507.768          48.000    20507738.600    85354150.969 8      2507.768          48.125
G31  25011123.040   131434333.576 7      -815.636          42.437    25011122.780   131434333.591 5      -815.636          33.062    25011137.040   102416420.039 5      -635.561          33.500    25011138.600   102416432.031 6      -635.561          39.375
R10  19321642.740   102995231.772 7      1499.520          44.875    19321641.800   102995231.775 7      1499.520          43.687
G23  23268173.260   122275076.093 7      1261.640          45.375    23268172.800   122275076.096 4      1261.640          28.000    23268178.660    95279304.820 4       983.096          27.937    23268180.220    95279312.813 7       983.096          42.437
G21  21470025.540   112825747.550 7      4529.667          45.562    21470023.380   112825747.557 5      4529.667          32.750    21470028.820    87916177.208 5      3529.611          32.687
G26  22064496.120   115949707.867 7      -129.997          44.125    22064494.800   115949707.878 6      -129.997          41.625    22064504.040    90350455.886 6      -101.296          41.625    22064505.340    90350457.883 7      -101.296          45.000
> 2024 05 08 12 04 32.0000000  0 13
G08  21620179.100   113614809.752 7      3661.245          45.687    21620178.240   113614809.749 5      3661.245          34.562    21620185.140    88531042.733 5      2852.918          34.500    21620186.920    88531052.737 8      2852.918          48.312
R09  21375513.960   114144049.849 7     -1311.787          43.937    21375514.220   114144049.856 7     -1311.787          44.000    21375526.840    88778750.555 7     -1020.279          47.062    21375526.900    88778752.553 8     -1020.279          48.937
G16  20485618.840   107652653.973 7      1776.210          45.562    20485617.180   107652653.975 6      1776.210          38.687    20485620.740    83885186.513 6      1384.059          38.250
G02  23186000.240   121843256.339 7      5021.281          45.312    23185997.780   121843256.344 4      5021.281          28.625    23186003.660    94942805.077 4      3912.687          28.625
R11  21005062.460   112244687.466 8      5615.372          48.687    21005062.060   112244687.470 8      5615.372          48.000    21005070.640    87301452.196 8      4367.512          49.750    21005070.640    87301452.190 8      4367.512          50.375
G10  22234078.080   116840871.207 7      3187.891          47.000    22234076.740   116840871.212 7      3187.891          44.812    22234085.380    91044875.889 7      2484.071          45.000    22234084.860    91044858.887 7      2484.071          46.250
G27  20860546.700   109622912.413 8      2133.415          48.375    20860545.800   109622912.418 7      2133.415          47.500    20860550.720    85420469.734 7      1662.402          47.750    20860551.500    85420472.735 7      1662.402          47.875
R21  20507125.700   109737760.171 8      3223.851          48.375    20507126.500   109737760.197 7      3223.851          47.500    20507136.600    85351641.461 8      2507.440          48.375    20507136.100    85351643.459 8      2507.440          48.437
G31  25011278.180   131435149.110 7      -815.255          42.187    25011278.020   131435149.128 5      -815.255          33.625    25011292.320   102417055.510 5      -635.264          33.875    25011293.380   102417067.496 6      -635.264          39.375
R10  19321361.440   102993732.818 7      1498.703          45.000    19321360.460   102993732.818 7      1498.703          43.750
G23  23267933.220   122273814.756 7      1261.123          45.312    23267932.820   122273814.756 4      1261.123          28.625    23267938.840    95278321.956 4       982.693          28.625    23267940.300    95278329.951 7       982.693          42.937
G21  21469163.820   112821218.190 7      4529.320          46.187    21469161.460   112821218.192 5      4529.320          33.500    21469166.820    87912647.839 5      3529.340          33.437
G26  22064520.880   115949838.177 7      -130.357          44.125    22064519.660   115949838.181 7      -130.357          42.187    22064528.840    90350557.416 7      -101.577          42.312    22064529.800    90350559.408 7      -101.577          45.250
> 2024 05 08 12 04 33.0000000  0 13
G08  21619482.620   113611148.708 7      3660.978          45.937    21619481.540   113611148.705 5      3660.978          35.125    21619488.400    88528189.973 5      2852.710          34.937    21619490.280    88528199.975 8      2852.710          48.437
R09  21375759.840   114145361.983 7     -1312.354          44.250    21375760.100   114145361.987 7     -1312.354          43.625    21375772.640    88779771.087 8     -1020.720          48.250    21375772.820    88779773.083 8     -1020.720          49.500
G16  20485280.700   107650878.097 7      1775.582          45.750    20485279.320   107650878.104 6      1775.582          39.000    20485282.820    83883802.715 6      1383.570          38.875
G02  23185044.700   121838235.429 7      5020.732          45.062    23185042.300   121838235.431 4      5020.732          28.625    23185048.200    94938892.683 4      3912.259          28.625
R11  21004011.620   112239072.553 8      5614.627          49.000    21004011.240   112239072.559 8      5614.627          48.312    21004020.060    87297085.041 8      4366.932          50.437    21004019.860    87297085.041 8      4366.932          50.375
G10  22233471.480   116837683.687 7      3187.159          47.187    22233470.180   116837683.694 7      3187.159          45.125    22233478.780    91042392.106 7      2483.500          45.187    22233478.400    91042375.105 7      2483.500          46.250
G27  20860140.580   109620779.253 8      2133.093          48.000    20860139.800   109620779.257 7      2133.093          47.562    20860144.820    85418807.526 8      1662.151          48.000    20860145.540    85418810.528 8      1662.151          48.312
R21  20506523.480   109734536.739 7      3223.230          47.000    20506524.160   109734536.761 7      3223.230          47.187    20506534.100    85349134.343 8      2506.956          49.500    20506533.880    85349136.343 8      2506.956          49.250
G31  25011433.140   131435964.568 6      -815.352          41.187    25011433.040   131435964.584 5      -815.352          33.625    25011447.320   102417690.916 5      -635.339          33.875    25011448.140   102417702.906 6      -635.339          40.062
R10  19321080.580   102992234.746 7      1497.644          44.750    19321079.540   102992234.738 7      1497.644          43.750
G23  23267693.440   122272554.015 7      1260.445          45.312    23267692.760   122272554.018 4      1260.445          28.625    23267699.060    95277339.560 4       982.165          28.625    23267700.700    95277347.549 7       982.165          42.937
G21  21468301.800   112816689.398 7      4528.510          45.937    21468299.700   112816689.398 5      4528.510          33.500    21468305.180    87909118.910 5      3528.709          33.437
G26  22064545.660   115949968.851 7      -130.925          44.500    22064544.420   115949968.856 7      -130.925          42.375    22064553.680    90350659.230 7      -102.019          42.312    22064554.520    90350661.226 7      -102.019          45.562
> 2024 05 08 12 04 34.0000000  0 13
G08  21618786.080   113607487.990 7      3660.654          46.000    21618785.000   113607487.987 5      3660.654          35.750    21618791.800    88525337.468 5      2852.458          35.250    21618793.760    88525347.468 8      2852.458          49.187
R09  21376005.460   114146674.750 7     -1312.963          44.000    21376006.000   114146674.745 7     -1312.963          43.625    21376018.400    88780792.115 8     -1021.193          48.437    21376018.420    88780794.107 8     -1021.193          49.500
G16  20484943.020   107649102.917 7      1774.990          46.000    20484941.420   107649102.927 6      1774.990          39.375    20484944.940    83882419.458 6      1383.109          39.125
G02  23184089.360   121833215.046 7      5020.284          45.000    23184086.940   121833215.049 4      5020.284          29.937    23184092.780    94934980.701 5      3911.910          30.125
R11  21002961.180   112233458.353 8      5614.012          49.062    21002960.720   112233458.357 8      5614.012          48.062    21002969.360    87292718.455 8      4366.454          50.437    21002969.080    87292718.456 8      4366.454          51.375
G10  22232865.200   116834496.889 7      3186.623          47.250    22232863.720   116834496.888 7      3186.623          45.750    22232872.420    91039908.885 7      2483.083          45.812    22232871.740    91039891.884 7      2483.083          47.062
G27  20859734.760   109618646.444 8      2132.805          48.000    20859733.940   109618646.446 7      2132.805          47.500    20859738.940    85417145.598 7      1661.926          47.812    20859739.420    85417148.599 8      1661.926          48.062
R21  20505921.160   109731313.956 7      3222.679          47.000    20505921.640   109731313.976 7      3222.679          47.250    20505931.840    85346627.736 8      2506.528          49.500    20505931.600    85346629.732 8      2506.528          48.875
G31  25011588.400   131436780.060 6      -815.500          41.937    25011588.160   131436780.078 5      -815.500          34.312    25011602.520   102418326.352 5      -635.455          34.812    25011603.460   102418338.350 6      -635.455          40.062
R10  19320799.940   102990737.700 7      1496.716          44.437    19320798.820   102990737.698 7      1496.716          43.937
G23  23267453.520   122271294.047 7      1259.703          45.750    23267452.940   122271294.049 4      1259.703          28.625    23267459.300    95276357.767 4       981.586          28.625    23267460.200    95276365.768 7       981.586          43.562
G21  21467440.240   112812161.273 7      4527.884          46.000    21467438.120   112812161.278 5      4527.884          34.312    21467443.560    87905590.507 5      3528.221          34.187
G26  22064570.760   115950100.048 7      -131.284          43.875    22064569.480   115950100.053 7      -131.284          42.250    22064578.760    90350761.459 7      -102.299          42.187    22064579.460    90350763.462 7      -102.299          45.875
> 2024 05 08 12 04 35.0000000  0 13
G08  21618089.580   113603827.456 7      3660.508          46.437    21618088.380   113603827.453 5      3660.508          35.750    21618095.260    88522485.106 5      2852.344          35.250    21618097.020    88522495.101 8      2852.344          49.187
R09  21376251.880   114147987.986 7     -1313.336          44.000    21376252.080   114147987.987 7     -1313.336          43.937    21376264.420    88781813.508 8     -1021.483          48.687    21376264.500    88781815.505 8     -1021.483          49.750
G16  20484605.260   107647328.294 7      1774.499          44.875    20484603.760   107647328.299 6      1774.499          38.875    20484607.320    83881036.631 6      1382.726          38.312
G02  23183134.040   121828195.087 7      5019.880          43.500    23183131.660   121828195.092 4      5019.880          29.937    23183137.460    94931069.053 5      3911.595          30.125
R11  21001910.780   112227844.778 8      5613.372          48.625    21001910.160   112227844.782 8      5613.372          48.250    21001918.860    87288352.331 8      4365.956          50.875    21001918.500    87288352.330 8      4365.956          51.437
G10  22232258.800   116831310.716 7      3185.972          46.812    22232257.380   116831310.724 7      3185.972          45.937    22232265.960    91037426.153 7      2482.575          45.875    22232265.760    91037409.158 7      2482.575          46.812
G27  20859328.760   109616513.864 8      2132.646          48.562    20859328.080   109616513.866 8      2132.646          48.125    20859333.120    85415483.845 8      1661.802          48.000    20859333.820    85415486.844 8      1661.802          48.500
R21  20505319.080   109728091.655 8      3222.207          48.562    20505319.940   109728091.677 7      3222.207          47.562    20505329.780    85344121.497 8      2506.161          49.250    20505329.360    85344123.496 8      2506.161          49.687
G31  25011744.000   131437595.474 7      -815.323          42.000    25011743.360   131437595.489 5      -815.323          35.125    25011757.660   102418961.731 5      -635.316          34.812    25011758.580   102418973.717 6      -635.316          40.812
R10  19320518.960   102989241.587 7      1495.775          44.562    19320518.000   102989241.590 7      1495.775          43.937
G23  23267214.080   122270034.717 7      1259.135          45.000    23267213.220   122270034.725 4      1259.135          28.625    23267219.600    95275376.471 4       981.144          28.625    23267220.740    95275384.472 7       981.144          43.687
G21  21466578.600   112807633.711 7      4527.437          45.937    21466576.560   112807633.716 5      4527.437          34.312    21466581.940    87902062.539 5      3527.873          35.000
G26  22064595.800   115950231.687 7      -131.750          44.562    22064594.540   115950231.692 7      -131.750          42.687    22064603.760    90350864.029 7      -102.662          42.875    22064604.580    90350866.025 7      -102.662          46.187
> 2024 05 08 12 04 36.0000000  0 13
G08  21617393.000   113600167.211 7      3660.025          45.437    21617392.000   113600167.208 6      3660.025          36.062    21617398.860    88519632.966 5      2851.968          35.625    21617400.680    88519642.964 8      2851.968          49.250
R09  21376497.900   114149301.869 7     -1314.244          43.562    21376497.760   114149301.872 7     -1314.244          43.562    21376510.520    88782835.409 8     -1022.190          49.125    21376510.500    88782837.407 8     -1022.190          49.937
G16  20484267.700   107645554.344 7      1773.592          45.250    20484266.240   107645554.351 6      1773.592          38.812    20484269.740    83879654.332 6      1382.019          38.312
G02  23182179.040   121823175.669 7      5019.148          44.625    23182176.500   121823175.676 4      5019.148          29.937    23182182.240    94927157.822 5      3911.024          30.125
R11  21000860.240   112222231.898 8      5612.516          49.187    21000859.940   112222231.907 8      5612.516          48.312    21000868.360    87283986.762 8      4365.290          50.812    21000868.320    87283986.762 8      4365.290          51.500
G10  22231652.780   116828125.276 7      3184.939          46.437    22231651.300   116828125.284 7      3184.939          45.437    22231659.820    91034943.999 7      2481.770          45.187    22231659.420    91034926.999 7      2481.770          47.187
G27  20858923.080   109614381.633 8      2132.017          48.437    20858922.380   109614381.638 8      2132.017          48.312    20858927.340    85413822.368 8      1661.312          48.312    20858928.260    85413825.370 8      1661.312          48.687
R21  20504716.860   109724869.958 7      3221.404          46.812    20504717.980   109724869.978 7      3221.404          47.125    20504727.780    85341615.738 8      2505.537          49.375    20504727.140    85341617.732 8      2505.537          49.625
G31  25011898.900   131438410.892 6      -815.445          41.312    25011898.480   131438410.905 5      -815.445          35.125    25011912.900   102419597.108 5      -635.412          35.000    25011913.760   102419609.100 6      -635.412          40.812
R10  19320238.300   102987746.492 7      1494.524          44.375    19320237.640   102987746.503 7      1494.524          43.437
G23  23266974.480   122268776.141 7      1258.244          44.125    23266973.780   122268776.144 4      1258.244          29.812    23266980.080    95274395.760 4       980.450          29.687    23266981.180    95274403.760 7       980.450          43.687
G21  21465717.260   112803106.850 7      4526.472          46.375    21465715.080   112803106.855 5      4526.472          34.625    21465720.340    87898535.116 5      3527.121          35.000
G26  22064620.960   115950363.827 7      -132.416          44.312    22064619.740   115950363.835 7      -132.416          42.687    22064628.960    90350966.989 7      -103.182          42.375    22064629.720    90350968.987 7      -103.182          46.125
> 2024 05 08 12 04 37.0000000  0 13
G08  21616696.440   113596507.254 7      3659.872          46.375    21616695.600   113596507.249 5      3659.872          35.562    21616702.400    88516781.053 5      2851.848          35.437    21616704.400    88516791.050 8      2851.848          49.562
R09  21376744.220   114150616.341 7     -1314.773          44.062    21376744.200   114150616.342 7     -1314.773          43.625    21376756.600    88783857.762 8     -1022.601          48.500    21376756.600    88783859.758 8     -1022.601          49.375
G16  20483930.340   107643781.066 7      1772.968          46.312    20483928.760   107643781.074 6      1772.968          39.000    20483932.320    83878272.558 6      1381.534          38.312
G02  23181224.080   121818156.758 7      5018.680          44.437    23181221.260   121818156.765 5      5018.680          30.750    23181227.060    94923246.984 5      3910.660          30.937
R11  20999810.100   112216619.739 8      5611.900          48.937    20999809.840   112216619.745 8      5611.900          48.000    20999818.100    87279621.749 8      4364.811          50.875    20999818.000    87279621.748 8      4364.811          51.500
G10  22231046.720   116824940.525 7      3184.401          46.062    22231045.260   116824940.533 7      3184.401          45.500    22231053.720    91032462.376 7      2481.351          45.625    22231053.560    91032445.379 7      2481.351          47.062
G27  20858517.380   109612249.728 8      2131.746          48.125    20858516.700   109612249.736 8      2131.746          48.125    20858521.660    85412161.144 8      1661.101          48.062    20858522.480    85412164.144 8      1661.101          48.500
R21  20504114.980   109721648.917 7      3220.749          46.625    20504115.880   109721648.935 7      3220.749          47.062    20504125.800    85339110.484 8      2505.027          49.687    20504125.080    85339112.482 8      2505.027          49.500
G31  25012054.160   131439226.345 6      -815.319          41.250    25012053.620   131439226.361 5      -815.319          35.125    25012068.200   102420232.513 5      -635.314          35.437    25012069.020   102420244.507 6      -635.314          41.187
R10  19319958.200   102986252.436 7      1493.509          44.437    19319957.100   102986252.442 7      1493.509          43.812
G23  23266735.200   122267518.328 7      1257.433          45.062    23266734.480   122267518.327 4      1257.433          29.812    23266740.760    95273415.646 4       979.818          29.687    23266742.100    95273423.647 7       979.818          44.187
G21  21464856.040   112798580.656 7      4525.851          45.562    21464853.800   112798580.661 5      4525.851          34.625    21464859.060    87895008.214 5      3526.637          34.625
G26  22064646.260   115950496.509 7      -132.894          44.687    22064644.900   115950496.514 7      -132.894          42.562    22064654.160    90351070.369 7      -103.554          42.437    22064654.780    90351072.366 7      -103.554          46.500
> 2024 05 08 12 04 38.0000000  0 13
G08  21616000.180   113592847.527 7      3659.534          46.125    21615999.140   113592847.524 5      3659.534          35.687    21616005.960    88513929.317 5      2851.585          35.437    21616008.220    88513939.321 8      2851.585          50.062
R09  21376990.280   114151931.302 7     -1315.223          43.812    21376990.080   114151931.298 7     -1315.223          43.437    21377002.860    88784880.495 8     -1022.951          48.500    21377002.800    88784882.493 8     -1022.951          49.687
G16  20483592.940   107642008.380 7      1772.256          46.937    20483591.440   107642008.387 6      1772.256          39.375    20483594.960    83876891.240 6      1380.979          39.000
G02  23180268.920   121813138.309 7      5018.112          44.187    23180266.300   121813138.320 5      5018.112          30.750    23180272.100    94919336.513 5      3910.217          30.937
R11  20998760.180   112211008.211 8      5611.143          49.125    20998759.600   112211008.215 8      5611.143          48.375    20998768.160    87275257.229 8      4364.222          51.000    20998767.760    87275257.226 8      4364.222          51.312
G10  22230440.920   116821756.431 7      3183.706          46.875    22230439.260   116821756.441 7      3183.706          45.625    22230447.860    91029981.264 7      2480.810          45.437    22230447.300    91029964.266 7      2480.810          46.937
G27  20858111.800   109610118.068 8      2131.482          48.687    20858110.920   109610118.078 8      2131.482          48.312    20858116.060    85410500.108 8      1660.895          48.000    20858116.820    85410503.111 8      1660.895          48.500
R21  20503513.000   109718428.465 7      3220.076          46.687    20503513.780   109718428.480 7      3220.076          47.625    20503523.880    85336605.685 8      2504.504          49.625    20503523.600    85336607.683 8      2504.504          49.500
G31  25012209.180   131440041.774 6      -815.492          41.312    25012208.700   131440041.790 5      -815.492          35.187    25012223.400   102420867.900 5      -635.448          35.437    25012223.760   102420879.890 6      -635.448          41.187
R10  19319678.080   102984759.322 7      1492.559          44.687    19319677.180   102984759.325 7      1492.559          43.875
G23  23266495.740   122266261.163 7      1256.765          44.937    23266495.200   122266261.162 4      1256.765          29.812    23266501.440    95272436.037 4       979.297          29.687    23266502.860    95272444.038 7       979.297          43.937
G21  21463994.820   112794055.046 7      4525.160          45.562    21463992.720   112794055.048 5      4525.160          34.625    21463997.880    87891481.765 5      3526.099          34.625
G26  22064671.400   115950629.640 7      -133.466          44.625    22064670.260   115950629.640 7      -133.466          43.062    22064679.520    90351174.097 7      -103.999          42.625    22064680.320    90351176.094 7      -103.999          46.062
> 2024 05 08 12 04 39.0000000  0 13
G08  21615303.740   113589187.949 7      3659.623          45.062    21615302.800   113589187.946 5      3659.623          35.687    21615309.640    88511077.700 5      2851.654          35.562    21615311.820    88511087.706 8      2851.654          49.500
R09  21377236.640   114153246.776 7     -1315.686          43.000    21377236.620   114153246.791 7     -1315.686          43.312    21377249.200    88785903.643 8     -1023.311          48.937    21377249.240    88785905.642 8     -1023.311          49.625
G16  20483255.680   107640236.216 7      1771.966          46.000    20483254.300   107640236.219 6      1771.966          38.937    20483257.840    83875510.331 6      1380.753          38.500
G02  23179314.000   121808120.245 7      5017.951          44.500    23179311.360   121808120.255 5      5017.951          30.750    23179317.240    94915426.335 5      3910.091          30.937
R11  20997710.080   112205397.268 8      5610.706          48.750    20997709.680   112205397.277 8      5610.706          48.062    20997718.000    87270893.167 8      4363.882          51.187    20997717.780    87270893.167 8      4363.882          51.187
G10  22229835.200   116818572.954 7      3183.165          46.250    22229833.460   116818572.959 7      3183.165          45.375    22229842.040    91027500.631 7      2480.389          45.437    22229841.420    91027483.635 7      2480.389          47.000
G27  20857706.020   109607986.647 8      2131.346          48.000    20857705.460   109607986.649 8      2131.346          48.000    20857710.340    85408839.258 8      1660.789          48.250    20857711.100    85408842.262 8      1660.789          48.625
R21  20502911.360   109715208.547 7      3219.700          47.312    20502912.340   109715208.568 7      3219.700          46.937    20502922.320    85334101.309 8      2504.211          49.750    20502922.080    85334103.309 8      2504.211          49.687
G31  25012364.400   131440857.085 6      -815.214          41.125    25012363.960   131440857.098 5      -815.214          35.187    25012378.460   102421503.191 5      -635.232          35.062    25012379.480   102421515.187 6      -635.232          41.187
R10  19319398.100   102983267.103 7      1491.833          44.500    19319397.020   102983267.106 7      1491.833          43.875
G23  23266256.560   122265004.634 7      1256.263          44.625    23266256.240   122265004.634 5      1256.263          30.125    23266262.420    95271456.923 4       978.906          29.687    23266264.200    95271464.923 7       978.906          44.062
G21  21463133.800   112789529.987 7      4524.833          45.687    21463131.480   112789529.992 5      4524.833          34.625    21463136.820    87887955.749 5      3525.844          34.750
G26  22064696.660   115950763.150 7      -133.665          44.187    22064695.640   115950763.154 7      -133.665          43.375    22064704.820    90351278.127 7      -104.154          43.000    22064705.720    90351280.129 7      -104.154          46.312
> 2024 05 08 12 04 40.0000000  0 13
G08  21614607.460   113585528.437 7      3659.449          45.812    21614606.480   113585528.434 5      3659.449          35.687    21614613.220    88508226.134 5      2851.519          35.562    21614615.280    88508236.142 8      2851.519          49.687
R09  21377482.840   114154562.587 7     -1316.085          43.500    21377483.060   114154562.601 7     -1316.085          43.312    21377495.440    88786927.043 8     -1023.622          48.687    21377495.660    88786929.042 8     -1023.622          49.750
G16  20482918.620   107638464.468 7      1771.527          45.812    20482917.160   107638464.473 6      1771.527          38.937    20482920.620    83874129.748 6      1380.410          38.625
G02  23178359.180   121803102.445 7      5017.644          45.062    23178356.420   121803102.455 5      5017.644          30.875    23178362.440    94911516.367 5      3909.852          31.000
R11  20996660.240   112199786.781 8      5610.205          48.750    20996659.840   112199786.785 8      5610.205          48.375    20996668.100    87266529.459 8      4363.493          51.250    20996667.800    87266529.458 8      4363.493          51.687
G10  22229229.640   116815389.911 7      3182.739          47.312    22229227.740   116815389.916 7      3182.739          45.687    22229236.280    91025020.339 7      2480.056          45.625    22229235.500    91025003.342 7      2480.056          47.187
G27  20857300.600   109605855.272 8      2131.280          48.437    20857299.820   109605855.275 8      2131.280          48.500    20857304.860    85407178.447 8      1660.737          48.562    20857305.560    85407181.449 8      1660.737          48.937
R21  20502309.940   109711988.989 7      3219.306          46.312    20502310.680   109711989.014 7      3219.306          47.375    20502320.560    85331597.212 8      2503.905          49.687    20502320.260    85331599.210 8      2503.905          49.500
G31  25012519.680   131441672.152 6      -814.981          41.500    25012519.000   131441672.167 5      -814.981          34.812    25012533.620   102422138.299 5      -635.050          35.062    25012534.880   102422150.287 6      -635.050          41.187
R10  19319118.080   102981775.643 7      1491.055          44.875    19319117.640   102981775.646 7      1491.055          43.500
G23  23266017.420   122263748.588 7      1255.768          44.750    23266017.060   122263748.588 5      1255.768          30.125    23266023.420    95270478.187 5       978.520          30.125    23266024.680    95270486.188 7       978.520          44.000
G21  21462272.660   112785005.352 7      4524.369          46.000    21462270.500   112785005.354 5      4524.369          34.437    21462275.800    87884430.061 5      3525.482          34.750
G26  22064722.280   115950896.937 7      -134.006          44.437    22064721.220   115950896.937 7      -134.006          42.937    22064730.480    90351382.367 7      -104.421          42.500    22064731.040    90351384.371 7      -104.421          46.062
> 2024 05 08 12 04 41.0000000  0 13
G08  21613911.100   113581869.314 7      3659.103          45.562    21613910.040   113581869.313 5      3659.103          35.500    21613916.840    88505374.873 5      2851.249          35.375    21613918.720    88505384.873 8      2851.249          49.125
R09  21377729.360   114155879.105 7     -1316.773          43.375    21377729.500   114155879.119 7     -1316.773          43.625    21377742.200    88787950.985 8     -1024.157          48.500    21377742.180    88787952.983 8     -1024.157          49.687
G16  20482581.600   107636693.500 7      1770.854          46.125    20482580.200   107636693.505 6      1770.854          39.500    20482583.540    83872749.771 6      1379.886          38.812
G02  23177404.400   121798085.295 7      5017.091          44.187    23177401.700   121798085.307 5      5017.091          30.875    23177407.760    94907606.908 5      3909.422          31.000
R11  20995610.280   112194177.150 8      5609.331          48.687    20995610.120   112194177.157 8      5609.331          48.187    20995618.340    87262166.415 8      4362.813          50.812    20995618.200    87262166.414 8      4362.813          51.062
G10  22228624.020   116812207.708 7      3181.949          46.812    22228622.240   116812207.716 7      3181.949          45.812    22228630.780    91022540.703 7      2479.441          45.750    22228630.100    91022523.705 7      2479.441          47.562
G27  20856895.180   109603724.350 8      2130.885          48.250    20856894.260   109603724.355 7      2130.885          47.937    20856899.360    85405517.990 7      1660.430          47.937    20856899.880    85405520.990 8      1660.430          48.250
R21  20501708.100   109708770.158 7      3218.664          47.500    20501708.920   109708770.178 7      3218.664          46.937    20501719.180    85329093.673 8      2503.405          49.750    20501718.580    85329095.669 8      2503.405          49.437
G31  25012675.320   131442487.392 6      -815.223          40.812    25012674.080   131442487.410 5      -815.223          34.812    25012688.760   102422773.539 5      -635.239          34.750    25012689.920   102422785.539 6      -635.239          41.062
R10  19318838.620   102980285.319 7      1489.916          44.562    19318838.040   102980285.328 7      1489.916          43.312
G23  23265778.820   122262493.400 7      1255.061          44.375    23265778.240   122262493.397 5      1255.061          30.125    23265784.560    95269500.115 5       977.970          30.125    23265786.040    95269508.113 7       977.970          44.000
G21  21461411.660   112780481.510 7      4523.675          45.937    21461409.700   112780481.507 5      4523.675          34.437    21461414.900    87880904.988 5      3524.941          34.687
G26  22064747.840   115951031.359 7      -134.629          44.250    22064746.720   115951031.364 7      -134.629          42.500    22064756.120    90351487.111 7      -104.906          42.437    22064756.560    90351489.111 7      -104.906          45.937
> 2024 05 08 12 04 42.0000000  0 13
G08  21613214.600   113578210.285 7      3659.129          45.812    21613213.740   113578210.282 6      3659.129          36.000    21613220.620    88502523.684 5      2851.269          35.687    21613222.520    88502533.686 8      2851.269          49.125
R09  21377976.040   114157196.018 7     -1316.893          43.750    21377976.080   114157196.029 7     -1316.893          43.312    21377988.700    88788975.236 8     -1024.250          48.937    21377988.560    88788977.234 8     -1024.250          49.812
G16  20482244.740   107634923.013 7      1770.427          46.375    20482243.240   107634923.018 6      1770.427          39.187    20482246.640    83871370.166 6      1379.554          38.625
G02  23176449.780   121793068.465 7      5016.901          44.187    23176446.860   121793068.477 5      5016.901          30.875    23176453.080    94903697.698 5      3909.274          31.000
R11  20994560.640   112188567.997 8      5609.022          48.562    20994560.400   112188568.004 7      5609.022          47.875    20994568.600    87257803.738 8      4362.572          50.750    20994568.540    87257803.737 8      4362.572          51.437
G10  22228018.520   116809026.005 7      3181.616          46.937    22228016.860   116809026.013 7      3181.616          45.437    22228025.300    91020061.458 7      2479.181          45.500    22228024.700    91020044.458 7      2479.181          47.250
G27  20856489.800   109601593.565 7      2130.843          47.812    20856488.800   109601593.572 8      2130.843          48.312    20856493.800    85403857.636 8      1660.397          48.500    20856494.640    85403860.639 8      1660.397          48.562
R21  20501106.640   109705551.725 7      3218.381          47.000    20501107.500   109705551.743 7      3218.381          47.562    20501117.680    85326590.448 8      2503.185          49.625    20501117.300    85326592.446 8      2503.185          49.250
G31  25012830.400   131443302.432 6      -814.833          40.312    25012829.160   131443302.458 5      -814.833          34.687    25012843.820   102423408.629 5      -634.935          34.750    25012845.440   102423420.625 6      -634.935          41.062
R10  19318559.020   102978795.819 7      1489.335          45.187    19318558.800   102978795.822 7      1489.335          43.937
G23  23265540.100   122261238.776 7      1254.519          44.562    23265539.640   122261238.775 5      1254.519          30.125    23265545.740    95268522.488 5       977.547          30.125    23265547.280    95268530.490 7       977.547          43.875
G21  21460551.100   112775958.117 7      4523.376          46.937    21460548.960   112775958.114 5      4523.376          34.312    21460554.140    87877380.270 5      3524.709          34.812
G26  22064773.800   115951166.085 7      -134.695          44.875    22064772.340   115951166.084 7      -134.695          42.875    22064781.760    90351592.082 7      -104.957          42.625    22064782.140    90351594.082 7      -104.957          46.250
> 2024 05 08 12 04 43.0000000  0 13
G08  21612518.440   113574551.354 7      3658.847          45.875    21612517.520   113574551.351 6      3658.847          36.000    21612524.460    88499672.571 6      2851.050          36.062    21612526.340    88499682.571 8      2851.050          49.250
R09  21378223.260   114158513.382 7     -1317.653          43.750    21378222.880   114158513.391 7     -1317.653          43.312    21378235.360    88789999.842 8     -1024.841          48.750    21378235.380    88790001.839 8     -1024.841          50.062
G16  20481908.000   107633152.983 7      1769.729          45.687    20481906.300   107633152.990 6      1769.729          39.812    20481909.780    83869990.924 6      1379.010          39.187
G02  23175495.020   121788051.995 7      5016.189          43.875    23175492.300   121788052.005 5      5016.189          30.687    23175498.520    94899788.764 5      3908.719          31.000
R11  20993511.140   112182959.365 8      5608.279          48.562    20993510.960   112182959.369 8      5608.279          48.062    20993519.060    87253441.469 8      4361.995          51.062    20993518.820    87253441.468 8      4361.995          51.375
G10  22227412.980   116805844.859 7      3180.801          46.937    22227411.400   116805844.866 7      3180.801          45.937    22227420.000    91017582.640 7      2478.546          45.875    22227419.500    91017565.643 7      2478.546          47.000
G27  20856084.280   109599462.919 8      2130.500          48.062    20856083.380   109599462.926 7      2130.500          47.750    20856088.420    85402197.392 8      1660.130          48.000    20856089.240    85402200.396 8      1660.130          48.562
R21  20500505.300   109702333.748 7      3217.635          47.500    20500506.040   109702333.763 7      3217.635          46.500    20500516.340    85324087.572 8      2502.605          50.000    20500515.940    85324089.572 8      2502.605          49.812
G31  25012985.120   131444117.312 6      -814.830          40.625    25012984.380   131444117.335 5      -814.830          34.187    25012998.920   102424043.590 5      -634.932          34.187    25013000.180   102424055.582 6      -634.932          41.250
R10  19318279.640   102977307.168 7      1488.144          45.000    19318279.300   102977307.172 7      1488.144          43.937
G23  23265301.520   122259984.701 7      1253.723          45.812    23265300.940   122259984.698 5      1253.723          30.000    23265307.160    95267545.285 5       976.927          30.125    23265308.520    95267553.285 7       976.927          43.875
G21  21459690.420   112771435.229 7      4522.529          47.125    21459688.300   112771435.234 5      4522.529          35.250    21459693.540    87873855.948 5      3524.048          34.812
G26  22064799.400   115951301.152 7      -135.289          44.687    22064797.960   115951301.157 7      -135.289          43.062    22064807.480    90351697.327 7      -105.420          42.812    22064808.140    90351699.325 7      -105.420          46.750
> 2024 05 08 12 04 44.0000000  0 13
G08  21611822.000   113570892.590 7      3658.584          46.000    21611821.240   113570892.587 6      3658.584          36.250    21611828.280    88496821.584 5      2850.845          35.750    21611829.860    88496831.586 8      2850.845          49.500
R09  21378469.480   114159831.203 7     -1318.231          43.937    21378469.100   114159831.209 7     -1318.231          43.625    21378482.260    88791024.799 8     -1025.291          48.562    21378482.300    88791026.798 8     -1025.291          49.625
G16  20481571.420   107631383.507 7      1768.988          45.937    20481569.580   107631383.512 6      1768.988          39.375    20481573.120    83868612.110 6      1378.432          39.062
G02  23174540.500   121783035.903 7      5015.611          44.937    23174537.740   121783035.916 5      5015.611          30.687    23174544.100    94895880.121 5      3908.268          30.875
R11  20992461.980   112177351.305 8      5607.624          49.312    20992461.500   112177351.306 8      5607.624          48.437    20992469.580    87249079.640 8      4361.485          51.375    20992469.120    87249079.637 8      4361.485          51.250
G10  22226807.660   116802664.291 7      3180.083          47.125    22226806.160   116802664.301 7      3180.083          45.750    22226814.720    91015104.278 7      2477.987          46.000    22226814.200    91015087.280 7      2477.987          47.187
G27  20855678.820   109597332.480 8      2130.163          48.125    20855677.900   109597332.485 8      2130.163          48.125    20855683.080    85400537.306 8      1659.867          48.250    20855683.800    85400540.307 8      1659.867          48.062
R21  20499903.740   109699116.290 7      3216.959          45.937    20499904.700   109699116.310 7      3216.959          47.000    20499914.940    85321585.111 8      2502.079          48.750    20499914.580    85321587.109 8      2502.079          49.375
G31  25013139.640   131444932.118 6      -815.037          40.625    25013139.400   131444932.139 5      -815.037          34.187    25013153.960   102424678.492 5      -635.094          34.312    25013155.260   102424690.490 6      -635.094          41.250
R10  19318000.800   102975819.406 7      1487.093          44.750    19318000.180   102975819.404 7      1487.093          43.562
G23  23265063.060   122258731.244 7      1252.977          45.312    23265062.440   122258731.243 5      1252.977          30.000    23265068.700    95266568.565 4       976.346          29.875    23265070.260    95266576.565 7       976.346          43.625
G21  21458829.560   112766912.880 7      4521.891          46.625    21458827.700   112766912.882 5      4521.891          35.250    21458832.960    87870332.039 5      3523.551          34.937
G26  22064825.140   115951436.619 7      -135.861          44.625    22064823.800   115951436.624 7      -135.861          43.250    22064833.320    90351802.880 7      -105.865          43.125    22064833.900    90351804.880 7      -105.865          46.687
> 2024 05 08 12 04 45.0000000  0 13
G08  21611125.800   113567234.092 7      3658.343          45.750    21611125.120   113567234.092 5      3658.343          35.625    21611132.080    88493970.809 5      2850.657          35.750    21611133.880    88493980.815 8      2850.657          49.250
R09  21378716.700   114161149.611 7     -1318.770          43.625    21378716.140   114161149.625 7     -1318.770          43.687    21378729.280    88792050.218 8     -1025.710          48.875    21378729.020    88792052.216 8     -1025.710          49.562
G16  20481234.800   107629614.665 7      1768.381          45.500    20481233.040   107629614.670 6      1768.381          39.000    20481236.540    83867233.791 6      1377.959          38.562
G02  23173586.180   121778020.292 7      5015.232          44.437    23173583.460   121778020.302 5      5015.232          30.687    23173589.660    94891971.857 5      3907.973          30.875
R11  20991412.540   112171743.948 8      5606.882          49.562    20991412.200   112171743.951 7      5606.882          47.937    20991420.180    87244718.371 8      4360.908          51.187    20991420.140    87244718.371 8      4360.908          51.125
G10  22226202.560   116799484.416 7      3179.525          47.812    22226201.080   116799484.424 7      3179.525          45.562    22226209.480    91012626.455 7      2477.552          45.812    22226208.920    91012609.456 7      2477.552          47.000
G27  20855273.340   109595202.354 8      2129.901          48.312    20855272.560   109595202.356 8      2129.901          48.062    20855277.660    85398877.465 8      1659.663          48.250    20855278.540    85398880.467 8      1659.663          48.500
R21  20499303.040   109695899.457 7      3216.427          45.937    20499303.600   109695899.480 7      3216.427          47.062    20499313.860    85319083.134 8      2501.665          49.750    20499313.160    85319085.130 8      2501.665          49.812
G31  25013294.720   131445746.917 6      -815.030          40.937    25013294.500   131445746.927 5      -815.030          34.312    25013309.060   102425313.382 5      -635.089          34.312    25013310.260   102425325.374 6      -635.089          41.312
R10  19317721.440   102974332.648 7      1486.131          45.125    19317721.640   102974332.648 7      1486.131          43.875
G23  23264824.600   122257478.506 7      1252.305          45.312    23264823.900   122257478.506 5      1252.305          30.000    23264830.280    95265592.404 4       975.822          29.875    23264831.480    95265600.401 7       975.822          44.000
G21  21457969.520   112762391.176 7      4521.336          46.312    21457967.340   112762391.179 5      4521.336          34.687    21457972.520    87866808.632 5      3523.119          34.687
G26  22064851.080   115951572.567 7      -136.223          45.062    22064849.620   115951572.572 7      -136.223          43.375    22064859.140    90351908.807 7      -106.147          42.875    22064859.820    90351910.811 7      -106.147          46.062
> 2024 05 08 12 04 46.0000000  0 13
G08  21610429.660   113563575.576 7      3658.641          46.062    21610428.960   113563575.576 5      3658.641          35.625    21610435.900    88491120.017 5      2850.889          35.750    21610437.520    88491130.025 8      2850.889          49.312
R09  21378963.040   114162468.313 7     -1318.684          43.750    21378962.920   114162468.322 7     -1318.684          43.437    21378976.200    88793075.858 8     -1025.643          48.625    21378976.060    88793077.857 8     -1025.643          50.187
G16  20480898.120   107627846.157 7      1768.433          46.375    20480896.460   107627846.159 6      1768.433          39.375    20480899.840    83865855.724 6      1378.000          39.125
G02  23172632.100   121773004.902 7      5015.312          45.000    23172629.000   121773004.910 5      5015.312          31.062    23172635.160    94888063.767 5      3908.036          30.875
R11  20990362.920   112166136.946 8      5606.923          49.375    20990362.740   112166136.952 8      5606.923          48.562    20990370.980    87240357.369 8      4360.940          50.437    20990370.740    87240357.372 8      4360.940          51.375
G10  22225597.500   116796304.941 7      3179.358          47.125    22225596.100   116796304.946 7      3179.358          45.125    22225604.480    91010148.942 7      2477.421          45.312    22225603.860    91010131.945 7      2477.421          47.375
G27  20854868.280   109593072.236 7      2130.187          47.937    20854867.220   109593072.238 7      2130.187          47.937    20854872.260    85397217.629 8      1659.886          48.187    20854872.880    85397220.629 8      1659.886          48.937
R21  20498701.360   109692682.917 7      3216.470          46.625    20498702.380   109692682.940 7      3216.470          47.000    20498712.760    85316581.383 8      2501.699          49.750    20498712.300    85316583.379 8      2501.699          49.500
G31  25013449.620   131446561.384 6      -814.269          41.562    25013449.380   131446561.394 5      -814.269          34.250    25013464.040   102425948.015 5      -634.495          34.687    25013465.140   102425960.011 6      -634.495          41.312
R10  19317442.740   102972846.599 7      1485.738          45.500    19317442.740   102972846.605 7      1485.738          44.187
G23  23264586.540   122256226.194 7      1252.161          45.187    23264585.600   122256226.199 4      1252.161          29.625    23264592.040    95264616.579 4       975.710          29.875    23264593.680    95264624.586 7       975.710          44.000
G21  21457109.180   112757869.825 7      4521.284          46.750    21457106.920   112757869.825 5      4521.284          34.937    21457112.240    87863285.504 5      3523.078          34.687
G26  22064876.740   115951708.735 7      -136.195          45.062    22064875.560   115951708.738 7      -136.195          43.187    22064885.180    90352014.900 7      -106.126          42.812    22064885.820    90352016.898 7      -106.126          46.312
> 2024 05 08 12 04 47.0000000  0 13
G08  21609733.560   113559917.359 7      3658.281          46.062    21609732.840   113559917.359 6      3658.281          36.187    21609739.740    88488269.460 6      2850.608          36.187    21609741.360    88488279.468 8      2850.608          49.937
R09  21379210.260   114163787.610 7     -1319.423          44.000    21379210.120   114163787.616 7     -1319.423          43.437    21379223.220    88794101.964 8     -1026.218          48.562    21379223.140    88794103.964 8     -1026.218          49.812
G16  20480561.640   107626078.339 7      1767.665          45.937    20480560.160   107626078.341 6      1767.665          39.875    20480563.420    83864478.206 6      1377.401          39.562
G02  23171677.700   121767990.037 7      5014.777          45.187    23171674.560   121767990.045 5      5014.777          31.062    23171680.880    94884156.084 5      3907.618          31.125
R11  20989314.000   112160530.670 8      5606.120          49.250    20989313.740   112160530.674 8      5606.120          48.562    20989321.860    87235996.941 8      4360.316          51.000    20989321.660    87235996.942 8      4360.316          51.312
G10  22224992.440   116793126.202 7      3178.491          46.812    22224991.120   116793126.209 7      3178.491          45.937    22224999.560    91007672.007 7      2476.746          46.062    22224998.840    91007655.005 7      2476.746          47.125
G27  20854462.980   109590942.457 8      2129.802          48.000    20854461.860   109590942.461 8      2129.802          48.000    20854466.940    85395558.065 8      1659.586          48.375    20854467.600    85395561.064 8      1659.586          48.812
R21  20498100.820   109689467.002 7      3215.761          47.187    20498101.600   109689467.025 7      3215.761          47.312    20498111.620    85314080.120 8      2501.148          50.125    20498111.400    85314082.114 8      2501.148          49.687
G31  25013604.820   131447375.912 6      -814.308          41.250    25013604.320   131447375.919 5      -814.308          34.250    25013618.920   102426582.698 5      -634.525          34.687    25013620.300   102426594.692 6      -634.525          41.312
R10  19317164.300   102971361.611 7      1484.644          45.375    19317164.060   102971361.617 7      1484.644          43.812
G23  23264348.100   122254974.650 7      1251.348          44.875    23264347.460   122254974.655 4      1251.348          29.625    23264353.840    95263641.347 4       975.077          29.875    23264355.180    95263649.345 7       975.077          44.125
G21  21456248.860   112753349.171 7      4520.491          46.750    21456246.760   112753349.173 5      4520.491          35.312    21456251.840    87859762.917 5      3522.460          35.125
G26  22064902.560   115951845.424 7      -136.778          45.000    22064901.640   115951845.426 7      -136.778          43.625    22064911.160    90352121.404 7      -106.580          43.312    22064911.660    90352123.413 7      -106.580          46.375
> 2024 05 08 12 04 48.0000000  0 13
G08  21609037.440   113556259.227 7      3657.837          45.875    21609036.720   113556259.226 6      3657.837          36.750    21609043.560    88485418.972 6      2850.262          36.500    21609045.340    88485428.977 8      2850.262          49.687
R09  21379457.140   114165107.252 7     -1320.134          43.687    21379457.140   114165107.261 7     -1320.134          43.125    21379470.400    88795128.343 8     -1026.771          49.125    21379470.440    88795130.342 8     -1026.771          49.937
G16  20480225.340   107624310.973 7      1766.843          45.500    20480223.800   107624310.976 6      1766.843          40.125    20480227.160    83863101.038 6      1376.761          39.312
G02  23170723.300   121762975.486 7      5014.159          45.187    23170720.400   121762975.498 5      5014.159          31.062    23170726.760    94880248.648 5      3907.137          31.125
R11  20988264.820   112154924.908 8      5605.202          49.750    20988264.560   112154924.912 8      5605.202          48.562    20988272.660    87231636.903 8      4359.602          50.625    20988272.560    87231636.904 8      4359.602          51.812
G10  22224387.800   116789947.938 8      3177.813          48.000    22224386.440   116789947.943 7      3177.813          45.687    22224394.760    91005195.437 7      2476.218          45.812    22224394.160    91005178.438 7      2476.218          47.000
G27  20854057.880   109588812.801 7      2129.387          47.500    20854056.540   109588812.806 8      2129.387          48.250    20854061.820    85393898.593 8      1659.263          48.812    20854062.480    85393901.590 8      1659.263          48.937
R21  20497500.000   109686251.500 7      3215.032          46.812    20497500.460   109686251.517 7      3215.032          47.000    20497510.800    85311579.172 8      2500.580          50.062    20497510.440    85311581.168 8      2500.580          49.625
G31  25013759.900   131448190.248 6      -814.506          40.375    25013759.440   131448190.256 5      -814.506          34.875    25013774.020   102427217.235 5      -634.680          34.562    25013775.160   102427229.235 6      -634.680          41.312
R10  19316885.900   102969877.425 7      1483.490          45.375    19316885.560   102969877.428 7      1483.490          44.187
G23  23264110.020   122253723.641 7      1250.442          44.062    23264109.360   122253723.641 4      1250.442          29.625    23264115.920    95262666.535 5       974.371          30.062    23264117.140    95262674.535 7       974.371          44.062
G21  21455388.620   112748828.968 7      4519.660          46.437    21455386.760   112748828.970 5      4519.660          35.312    21455391.600    87856240.686 5      3521.813          35.437
G26  22064928.640   115951982.420 7      -137.406          44.125    22064927.720   115951982.422 7      -137.406          43.312    22064937.260    90352228.152 7      -107.070          43.187    22064937.940    90352230.155 7      -107.070          46.437
> 2024 05 08 12 04 49.0000000  0 13
G08  21608341.320   113552601.260 7      3658.075          45.812    21608340.560   113552601.262 6      3658.075          36.500    21608347.480    88482568.610 5      2850.448          35.937    21608349.120    88482578.613 8      2850.448          49.375
R09  21379704.300   114166427.409 7     -1320.184          43.750    21379704.180   114166427.412 7     -1320.184          43.375    21379717.540    88796155.120 8     -1026.810          48.562    21379717.500    88796157.120 8     -1026.810          49.687
G16  20479889.140   107622544.154 7      1766.728          45.312    20479887.520   107622544.156 6      1766.728          39.375    20479890.840    83861724.292 6      1376.671          39.312
G02  23169769.000   121757961.359 7      5014.086          45.000    23169766.220   121757961.372 5      5014.086          30.812    23169772.580    94876341.540 5      3907.080          31.125
R11  20987215.840   112149319.744 8      5605.044          48.562    20987215.700   112149319.748 8      5605.044          48.125    20987223.920    87227277.332 8      4359.478          51.250    20987223.520    87227277.334 8      4359.478          51.625
G10  22223783.160   116786770.312 7      3177.461          47.500    22223781.700   116786770.317 7      3177.461          45.875    22223790.140    91002719.364 7      2475.943          45.937    22223789.300    91002702.362 7      2475.943          47.000
G27  20853652.700   109586683.384 7      2129.418          47.250    20853651.260   109586683.389 8      2129.418          48.062    20853656.540    85392239.305 8      1659.287          48.562    20853657.360    85392242.303 8      1659.287          48.625
R21  20496899.020   109683036.554 7      3214.814          45.562    20496899.560   109683036.563 7      3214.814          46.687    20496910.120    85309078.654 8      2500.411          49.937    20496909.560    85309080.648 8      2500.411          49.250
G31  25013915.040   131449004.492 6      -814.040          41.187    25013914.260   131449004.502 5      -814.040          35.062    25013928.980   102427851.701 5      -634.317          34.812    25013930.360   102427863.701 6      -634.317          41.375
R10  19316607.780   102968394.150 7      1482.960          45.250    19316607.580   102968394.164 7      1482.960          44.562
G23  23263872.200   122252473.240 7      1250.287          43.875    23263871.460   122252473.242 5      1250.287          30.187    23263878.000    95261692.197 5       974.249          30.062    23263879.300    95261700.202 7       974.249          43.937
G21  21454528.560   112744309.335 7      4519.466          46.437    21454526.760   112744309.335 5      4519.466          35.437    21454531.560    87852718.896 5      3521.662          35.437
G26  22064954.720   115952119.832 7      -137.386          45.000    22064953.840   115952119.829 7      -137.386          43.500    22064963.520    90352335.212 7      -107.054          43.437    22064964.440    90352337.214 7      -107.054          46.187
> 2024 05 08 12 04 50.0000000  0 13
G08  21607645.240   113548943.463 7      3657.706          46.250    21607644.580   113548943.463 6      3657.706          36.000    21607651.420    88479718.377 5      2850.160          35.625    21607653.340    88479728.383 8      2850.160          49.187
R09  21379951.900   114167748.102 7     -1320.975          43.375    21379951.220   114167748.103 7     -1320.975          43.125    21379964.920    88797182.311 8     -1027.425          48.937    21379964.840    88797184.310 8     -1027.425          49.437
G16  20479553.160   107620777.876 7      1765.960          44.812    20479551.500   107620777.881 6      1765.960          40.062    20479554.820    83860347.974 6      1376.073          39.500
G02  23168815.120   121752947.625 7      5013.420          44.937    23168812.180   121752947.635 5      5013.420          30.812    23168818.600    94872434.736 5      3906.561          31.125
R11  20986167.060   112143715.138 8      5604.300          49.312    20986166.700   112143715.150 8      5604.300          48.375    20986175.020    87222918.200 8      4358.900          50.875    20986174.720    87222918.199 8      4358.900          51.375
G10  22223178.660   116783593.265 7      3176.676          47.625    22223177.120   116783593.273 7      3176.676          45.875    22223185.560    91000243.746 7      2475.332          46.062    22223184.780    91000226.745 7      2475.332          46.937
G27  20853247.460   109584554.141 7      2129.165          47.937    20853246.120   109584554.149 8      2129.165          48.375    20853251.400    85390580.157 8      1659.089          48.437    20853252.140    85390583.156 8      1659.089          48.875
R21  20496298.940   109679822.087 7      3214.132          47.187    20496298.820   109679822.096 7      3214.132          47.062    20496309.220    85306578.513 8      2499.881          50.000    20496309.120    85306580.509 8      2499.881          49.250
G31  25014069.940   131449818.631 6      -814.100          41.125    25014069.100   131449818.647 5      -814.100          35.062    25014083.860   102428486.087 5      -634.364          34.812    25014085.540   102428498.081 6      -634.364          41.375
R10  19316329.900   102966911.761 7      1481.880          45.062    19316329.460   102966911.777 7      1481.880          44.375
G23  23263634.500   122251223.495 7      1249.347          44.937    23263633.600   122251223.500 5      1249.347          30.187    23263640.160    95260718.372 5       973.517          30.062    23263641.580    95260726.367 7       973.517          44.062
G21  21453668.660   112739790.238 7      4518.696          46.375    21453666.780   112739790.241 5      4518.696          35.312    21453671.620    87849197.528 5      3521.062          35.437
G26  22064981.180   115952257.642 7      -138.095          45.312    22064980.200   115952257.647 7      -138.095          43.187    22064989.660    90352442.597 7      -107.606          43.125    22064990.400    90352444.599 7      -107.606          46.500
> 2024 05 08 12 04 51.0000000  0 13
G08  21606949.340   113545286.153 7      3657.320          45.937    21606948.620   113545286.153 6      3657.320          36.187    21606955.580    88476868.527 6      2849.860          36.437    21606957.180    88476878.532 8      2849.860          49.750
R09  21380199.740   114169069.565 7     -1321.639          43.687    21380198.440   114169069.569 7     -1321.639          42.875    21380212.620    88798210.105 8     -1027.941          48.812    21380212.500    88798212.104 8     -1027.941          50.312
G16  20479217.220   107619012.447 7      1765.230          45.562    20479215.520   107619012.455 6      1765.230          39.687    20479218.920    83858972.317 6      1375.504          39.562
G02  23167860.960   121747934.581 7      5012.876          44.687    23167858.340   121747934.591 5      5012.876          30.812    23167864.540    94868528.476 5      3906.137          31.000
R11  20985118.220   112138111.452 8      5603.444          49.437    20985118.260   112138111.461 8      5603.444          48.312    20985126.320    87218559.780 8      4358.234          51.562    20985126.200    87218559.780 8      4358.234          51.562
G10  22222574.040   116780417.116 7      3175.961          46.812    22222572.760   116780417.126 7      3175.961          45.875    22222581.020    90997768.827 7      2474.775          46.062    22222580.360    90997751.830 7      2474.775          47.375
G27  20852842.380   109582425.442 7      2128.685          47.937    20852841.000   109582425.447 8      2128.685          48.687    20852846.340    85388921.430 8      1658.715          49.000    20852847.120    85388924.428 8      1658.715          49.187
R21  20495698.320   109676608.430 7      3213.422          47.812    20495698.140   109676608.440 7      3213.422          47.187    20495708.760    85304079.000 8      2499.329          49.812    20495708.400    85304081.002 8      2499.329          49.562
G31  25014225.140   131450632.991 6      -814.143          41.187    25014224.080   131450633.001 5      -814.143          34.625    25014238.820   102429120.638 5      -634.397          34.750    25014239.900   102429132.636 6      -634.397          41.312
R10  19316052.000   102965430.587 7      1480.750          45.375    19316051.460   102965430.601 7      1480.750          44.250
G23  23263396.740   122249974.660 7      1248.567          45.312    23263395.940   122249974.662 5      1248.567          30.187    23263402.360    95259745.249 5       972.909          30.187    23263403.800    95259753.248 7       972.909          43.937
G21  21452808.620   112735272.004 7      4518.021          46.500    21452806.960   112735272.003 5      4518.021          35.437    21452811.740    87845676.821 5      3520.536          35.625
G26  22065007.620   115952396.144 7      -138.651          44.687    22065006.440   115952396.146 7      -138.651          43.875    22065015.940    90352550.514 7      -108.040          43.437    22065016.380    90352552.519 7      -108.040          46.500
> 2024 05 08 12 04 52.0000000  0 13
G08  21606253.400   113541628.906 7      3657.029          45.375    21606252.600   113541628.905 6      3657.029          36.437    21606259.580    88474018.726 6      2849.633          36.437    21606261.020    88474028.729 8      2849.633          49.625
R09  21380447.260   114170391.375 7     -1322.230          43.062    21380446.220   114170391.376 7     -1322.230          43.500    21380459.860    88799238.167 8     -1028.401          48.937    21380459.840    88799240.163 8     -1028.401          49.937
G16  20478881.200   107617247.491 7      1764.487          45.625    20478879.740   107617247.496 6      1764.487          39.812    20478883.080    83857597.024 6      1374.925          39.437
G02  23166906.800   121742921.873 7      5012.311          44.812    23166904.420   121742921.884 5      5012.311          30.812    23166910.500    94864622.475 5      3905.697          31.000
R11  20984069.720   112132508.241 8      5602.810          49.687    20984069.700   112132508.250 8      5602.810          48.625    20984077.760    87214201.729 8      4357.741          51.062    20984077.640    87214201.729 8      4357.741          51.875
G10  22221969.880   116777241.483 7      3175.258          47.375    22221968.380   116777241.485 7      3175.258          46.250    22221976.860    90995294.306 7      2474.227          46.062    22221976.060    90995277.304 7      2474.227          47.062
G27  20852437.240   109580296.866 8      2128.247          48.062    20852436.040   109580296.871 8      2128.247          48.562    20852441.260    85387262.799 8      1658.374          48.750    20852441.900    85387265.795 8      1658.374          49.062
R21  20495097.760   109673395.186 7      3212.790          46.375    20495097.540   109673395.196 7      3212.790          47.250    20495108.260    85301579.812 8      2498.837          50.062    20495108.100    85301581.812 8      2498.837          49.750
G31  25014379.920   131451447.164 6      -814.210          39.687    25014379.040   131451447.177 5      -814.210          35.000    25014393.780   102429755.049 5      -634.450          34.937    25014394.820   102429767.045 6      -634.450          41.312
R10  19315774.400   102963950.196 7      1479.789          45.937    19315773.680   102963950.199 7      1479.789          44.375
G23  23263159.140   122248726.358 7      1247.855          44.750    23263158.420   122248726.360 5      1247.855          30.187    23263164.940    95258772.544 5       972.354          30.187    23263166.160    95258780.552 7       972.354          43.937
G21  21451948.960   112730754.237 7      4517.294          46.562    21451947.240   112730754.234 5      4517.294          35.625    21451952.100    87842156.483 5      3519.969          35.812
G26  22065034.000   115952534.969 7      -139.212          45.437    22065032.900   115952534.963 7      -139.212          43.500    22065042.420    90352658.679 7      -108.477          43.187    22065042.940    90352660.678 7      -108.477          46.187
> 2024 05 08 12 04 53.0000000  0 13
G08  21605557.440   113537971.892 7      3656.961          45.625    21605556.840   113537971.895 6      3656.961          36.375    21605563.440    88471169.109 6      2849.580          36.250    21605565.200    88471179.113 8      2849.580          49.562
R09  21380695.160   114171713.724 7     -1322.626          43.062    21380693.800   114171713.730 7     -1322.626          43.500    21380707.600    88800266.654 8     -1028.709          48.937    21380707.420    88800268.653 8     -1028.709          49.937
G16  20478545.480   107615483.108 7      1764.137          45.437    20478543.840   107615483.112 6      1764.137          39.562    20478547.400    83856222.178 6      1374.652          38.937
G02  23165953.020   121737909.594 7      5012.084          45.437    23165950.500   121737909.604 5      5012.084          31.187    23165956.620    94860716.807 5      3905.520          31.000
R11  20983021.300   112126905.690 8      5602.272          49.750    20983021.120   112126905.700 8      5602.272          48.937    20983029.320    87209844.187 8      4357.323          51.000    20983029.200    87209844.186 8      4357.323          51.562
G10  22221365.640   116774066.487 7      3174.759          46.812    22221364.260   116774066.492 7      3174.759          45.937    22221372.580    90992820.285 7      2473.838          46.437    22221372.020    90992803.282 7      2473.838          47.187
G27  20852032.080   109578168.527 7      2128.205          47.937    20852030.960   109578168.534 8      2128.205          48.312    20852036.280    85385604.351 8      1658.341          48.687    20852037.140    85385607.351 8      1658.341          48.812
R21  20494497.280   109670182.520 7      3212.456          47.062    20494497.200   109670182.524 7      3212.456          47.375    20494507.860    85299081.070 8      2498.577          50.125    20494507.500    85299083.068 8      2498.577          50.000
G31  25014535.360   131452261.324 6      -814.251          40.437    25014534.100   131452261.334 5      -814.251          35.000    25014548.840   102430389.451 5      -634.481          34.937    25014549.900   102430401.441 6      -634.481          41.000
R10  19315496.720   102962470.749 7      1478.946          45.375    19315496.200   102962470.758 7      1478.946          44.187
G23  23262921.560   122247478.725 7      1247.401          45.250    23262921.080   122247478.728 5      1247.401          30.062    23262927.600    95257800.365 5       972.001          30.187    23262928.360    95257808.371 7       972.001          44.062
G21  21451089.180   112726237.053 7      4516.915          46.562    21451087.600   112726237.052 5      4516.915          35.625    21451092.300    87838636.604 5      3519.674          35.812
G26  22065060.480   115952674.217 7      -139.417          44.812    22065059.320   115952674.216 7      -139.417          43.250    22065068.880    90352767.180 7      -108.637          43.437    22065069.400    90352769.185 7      -108.637          46.187
> 2024 05 08 12 04 54.0000000  0 13
G08  21604861.620   113534315.021 7      3656.879          45.812    21604860.960   113534315.026 6      3656.879          36.375    21604867.700    88468319.599 6      2849.516          36.125    21604869.340    88468329.603 8      2849.516          49.375
R09  21380942.820   114173036.540 7     -1323.012          43.000    21380941.600   114173036.552 7     -1323.012          43.000    21380955.260    88801295.501 8     -1029.009          48.687    21380955.360    88801297.498 8     -1029.009          49.500
G16  20478209.700   107613719.244 7      1763.715          44.875    20478208.140   107613719.252 6      1763.715          39.625    20478211.600    83854847.739 6      1374.323          39.187
G02  23164999.580   121732897.709 7      5011.734          45.500    23164996.820   121732897.717 5      5011.734          31.187    23165003.020    94856811.442 5      3905.247          31.187
R11  20981972.940   112121303.695 8      5601.785          49.875    20981972.860   112121303.702 8      5601.785          48.750    20981981.040    87205487.078 8      4356.944          51.312    20981980.780    87205487.078 8      4356.944          51.750
G10  22220761.560   116770892.073 7      3174.224          46.750    22220760.160   116770892.078 7      3174.224          45.562    22220768.620    90990346.718 7      2473.421          45.875    22220767.900    90990329.720 7      2473.421          47.187
G27  20851627.280   109576040.382 8      2128.094          48.312    20851625.980   109576040.387 8      2128.094          48.562    20851631.380    85383946.059 8      1658.255          48.875    20851632.100    85383949.058 8      1658.255          48.875
R21  20493897.280   109666970.354 7      3212.030          46.562    20493896.840   109666970.363 7      3212.030          47.437    20493907.440    85296582.723 8      2498.245          50.250    20493907.240    85296584.721 8      2498.245          49.250
G31  25014689.740   131453075.300 6      -813.867          41.250    25014688.960   131453075.310 5      -813.867          34.937    25014703.620   102431023.702 5      -634.182          34.937    25014704.420   102431035.702 6      -634.182          41.000
R10  19315218.940   102960992.144 7      1478.244          45.437    19315218.840   102960992.164 7      1478.244          44.375
G23  23262684.100   122246231.703 7      1246.836          44.937    23262683.700   122246231.702 5      1246.836          30.062    23262690.260    95256828.657 5       971.560          30.187    23262691.380    95256836.665 7       971.560          43.750
G21  21450230.020   112721720.410 7      4516.477          46.937    21450228.180   112721720.410 5      4516.477          35.437    21450232.900    87835117.142 5      3519.333          35.875
G26  22065087.080   115952813.848 7      -139.745          44.687    22065086.040   115952813.856 7      -139.745          43.187    22065095.500    90352875.982 7      -108.892          43.187    22065095.960    90352877.986 7      -108.892          46.062
> 2024 05 08 12 04 55.0000000  0 13
G08  21604165.540   113530658.202 7      3656.821          45.437    21604165.060   113530658.204 6      3656.821          36.187    21604171.840    88465470.131 5      2849.471          35.812    21604173.700    88465480.131 8      2849.471          49.312
R09  21381190.520   114174359.674 7     -1323.183          43.250    21381189.360   114174359.678 7     -1323.183          43.312    21381203.200    88802324.585 8     -1029.142          49.187    21381203.020    88802326.581 8     -1029.142          50.312
G16  20477874.180   107611955.817 7      1763.328          45.812    20477872.600   107611955.822 6      1763.328          39.812    20477876.100    83853473.636 6      1374.022          39.500
G02  23164045.960   121727886.077 7      5011.612          45.250    23164043.120   121727886.081 5      5011.612          31.187    23164049.400    94852906.278 5      3905.152          31.187
R11  20980924.560   112115702.163 8      5601.356          50.000    20980924.640   112115702.172 8      5601.356          49.000    20980932.800    87201130.332 8      4356.610          50.937    20980932.600    87201130.333 8      4356.610          51.625
G10  22220157.660   116767718.126 7      3173.737          47.187    22220156.120   116767718.139 7      3173.737          46.062    22220164.540    90987873.516 7      2473.042          45.937    22220163.940    90987856.519 7      2473.042          47.250
G27  20851222.120   109573912.313 8      2128.076          48.750    20851221.000   109573912.324 8      2128.076          48.625    20851226.240    85382287.825 8      1658.241          48.875    20851227.180    85382290.821 8      1658.241          48.937
R21  20493296.940   109663758.562 7      3211.687          47.312    20493296.500   109663758.577 7      3211.687          47.562    20493307.460    85294084.669 8      2497.978          50.500    20493307.080    85294086.669 8      2497.978          49.812
G31  25014844.780   131453889.069 6      -813.528          41.187    25014843.860   131453889.081 5      -813.528          34.812    25014858.580   102431657.799 5      -633.918          34.937    25014859.400   102431669.793 6      -633.918          41.187
R10  19314941.880   102959514.350 7      1477.506          45.437    19314941.500   102959514.364 7      1477.506          43.937
G23  23262447.060   122244985.182 7      1246.326          45.125    23262446.440   122244985.182 5      1246.326          30.062    23262453.040    95255857.340 5       971.163          30.250    23262454.260    95255865.350 7       971.163          44.062
G21  21449370.680   112717204.180 7      4516.139          47.312    21449368.720   112717204.180 5      4516.139          35.625    21449373.520    87831598.002 5      3519.069          35.750
G26  22065113.860   115952953.748 7      -139.876          44.312    22065112.720   115952953.747 7      -139.876          43.437    22065122.100    90352984.984 7      -108.995          43.375    22065122.560    90352986.985 7      -108.995          46.500
> 2024 05 08 12 04 56.0000000  0 13
G08  21603469.760   113527001.467 7      3656.586          45.375    21603469.140   113527001.464 5      3656.586          35.937    21603475.920    88462620.728 5      2849.288          35.812    21603477.760    88462630.725 8      2849.288          49.812
R09  21381437.480   114175683.225 7     -1323.843          43.250    21381437.360   114175683.242 7     -1323.843          43.437    21381450.760    88803354.013 8     -1029.656          49.125    21381450.880    88803356.009 8     -1029.656          50.000
G16  20477538.500   107610192.853 7      1762.691          46.937    20477537.080   107610192.858 6      1762.691          39.375    20477540.440    83852099.895 6      1373.526          39.250
G02  23163092.440   121722874.804 7      5010.991          45.750    23163089.600   121722874.811 5      5010.991          31.000    23163095.800    94849001.398 5      3904.668          31.187
R11  20979876.260   112110101.137 8      5600.771          49.250    20979876.460   112110101.149 8      5600.771          48.125    20979884.520    87196773.983 8      4356.155          51.437    20979884.320    87196773.982 8      4356.155          51.750
G10  22219553.940   116764544.702 7      3173.063          47.125    22219552.320   116764544.710 7      3173.063          45.687    22219560.780    90985400.719 7      2472.517          46.000    22219559.960    90985383.719 7      2472.517          46.937
G27  20850817.240   109571784.395 8      2127.775          48.500    20850815.960   109571784.402 8      2127.775          48.500    20850821.360    85380629.703 8      1658.007          48.625    20850822.240    85380632.700 8      1658.007          48.875
R21  20492697.040   109660547.194 7      3211.107          47.250    20492696.820   109660547.211 7      3211.107          47.437    20492707.240    85291586.942 8      2497.528          50.000    20492706.920    85291588.942 8      2497.528          50.125
G31  25014999.480   131454702.703 6      -813.723          40.687    25014998.600   131454702.713 5      -813.723          34.812    25015013.460   102432291.785 5      -634.070          34.937    25015014.380   102432303.784 6      -634.070          41.187
R10  19314664.960   102958037.376 7      1476.513          45.500    19314664.320   102958037.382 7      1476.513          44.250
G23  23262209.920   122243739.203 7      1245.691          44.937    23262209.360   122243739.205 5      1245.691          30.125    23262215.920    95254886.447 5       970.668          30.250    23262217.420    95254894.451 7       970.668          44.187
G21  21448511.420   112712688.452 7      4515.382          46.937    21448509.480   112712688.452 5      4515.382          35.937    21448514.220    87828079.255 5      3518.480          35.937
G26  22065140.780   115953093.992 7      -140.481          43.812    22065139.300   115953093.994 7      -140.481          43.687    22065148.800    90353094.259 7      -109.465          43.375    22065149.480    90353096.259 7      -109.465          45.750
> 2024 05 08 12 04 57.0000000  0 13
G08  21602773.860   113523345.000 7      3656.136          45.562    21602773.220   113523345.005 6      3656.136          36.187    21602780.020    88459771.541 5      2848.937          35.750    21602782.100    88459781.541 8      2848.937          49.500
R09  21381685.620   114177007.328 7     -1324.538          42.625    21381685.140   114177007.340 7     -1324.538          43.187    21381698.840    88804383.850 8     -1030.196          49.187    21381698.760    88804385.847 8     -1030.196          50.187
G16  20477203.180   107608430.519 7      1761.942          45.937    20477201.720   107608430.521 6      1761.942          39.625    20477205.160    83850726.648 6      1372.942          39.000
G02  23162139.020   121717864.001 7      5010.489          45.125    23162135.980   121717864.012 5      5010.489          31.000    23162142.100    94845096.881 5      3904.277          31.125
R11  20978828.360   112104500.812 8      5599.936          49.937    20978828.700   112104500.821 8      5599.936          48.875    20978836.480    87192418.179 8      4355.506          51.000    20978836.420    87192418.178 8      4355.506          52.187
G10  22218950.020   116761371.959 7      3172.339          47.000    22218948.660   116761371.964 7      3172.339          46.000    22218956.940    90982928.449 7      2471.952          46.250    22218956.300    90982911.447 7      2471.952          46.750
G27  20850412.300   109569656.773 8      2127.412          48.312    20850411.180   109569656.783 8      2127.412          48.312    20850416.540    85378971.815 8      1657.724          48.625    20850417.400    85378974.813 8      1657.724          48.750
R21  20492096.580   109657336.400 7      3210.457          45.937    20492096.620   109657336.415 7      3210.457          47.187    20492107.220    85289089.658 8      2497.022          50.187    20492106.900    85289091.656 8      2497.022          49.812
G31  25015154.160   131455516.272 6      -813.663          40.000    25015153.440   131455516.282 5      -813.663          34.562    25015168.200   102432925.725 5      -634.023          34.812    25015168.980   102432937.733 6      -634.023          41.125
R10  19314387.960   102956561.394 7      1475.371          45.250    19314387.740   102956561.408 7      1475.371          44.437
G23  23261973.000   122242493.943 7      1244.841          44.687    23261972.180   122242493.943 5      1244.841          30.125    23261978.920    95253916.113 5       970.006          30.250    23261979.840    95253924.113 7       970.006          44.125
G21  21447651.920   112708173.336 7      4514.753          46.937    21447650.280   112708173.338 5      4514.753          35.500    21447655.000    87824560.987 5      3517.990          35.937
G26  22065167.480   115953234.714 7      -141.071          44.750    22065166.160   115953234.716 7      -141.071          43.250    22065175.620    90353203.906 7      -109.926          43.125    22065176.300    90353205.909 7      -109.926          46.062
> 2024 05 08 12 04 58.0000000  0 13
G08  21602078.100   113519688.794 7      3656.131          45.375    21602077.620   113519688.793 5      3656.131          35.812    21602084.280    88456922.545 5      2848.933          35.750    21602086.240    88456932.542 8      2848.933          49.625
R09  21381933.520   114178331.995 7     -1324.875          43.125    21381933.080   114178331.998 7     -1324.875          43.187    21381946.880    88805414.132 8     -1030.459          48.937    21381946.940    88805416.133 8     -1030.459          49.562
G16  20476867.900   107606668.823 7      1761.454          46.062    20476866.600   107606668.828 6      1761.454          39.625    20476870.000    83849353.898 6      1372.561          39.437
G02  23161185.660   121712853.693 7      5010.149          44.812    23161182.520   121712853.706 5      5010.149          31.000    23161188.660    94841192.748 5      3904.012          31.125
R11  20977780.600   112098901.134 8      5599.499          48.875    20977780.760   112098901.140 8      5599.499          48.750    20977788.780    87188062.871 8      4355.166          51.312    20977788.540    87188062.870 8      4355.166          51.687
G10  22218346.420   116758199.901 7      3171.815          47.187    22218345.040   116758199.906 7      3171.815          45.937    22218353.360    90980456.716 7      2471.544          45.875    22218352.460    90980439.716 7      2471.544          47.250
G27  20850007.540   109567529.461 7      2127.266          47.000    20850006.300   109567529.465 8      2127.266          48.187    20850011.740    85377314.166 8      1657.610          48.437    20850012.500    85377317.165 8      1657.610          49.000
R21  20491496.940   109654126.214 7      3209.983          45.937    20491496.840   109654126.226 7      3209.983          47.125    20491507.380    85286592.849 8      2496.653          49.937    20491507.220    85286594.845 8      2496.653          50.000
G31  25015309.460   131456329.862 6      -813.410          40.125    25015308.100   131456329.872 5      -813.410          34.562    25015322.860   102433559.679 5      -633.826          34.812    25015323.620   102433571.677 6      -633.826          41.125
R10  19314111.660   102955086.419 7      1474.588          45.125    19314111.100   102955086.422 7      1474.588          44.437
G23  23261736.020   122241249.391 7      1244.337          44.625    23261735.360   122241249.393 5      1244.337          30.125    23261742.120    95252946.334 5       969.613          30.250    23261743.020    95252954.335 7       969.613          43.875
G21  21446792.900   112703658.882 7      4514.233          46.625    21446791.220   112703658.884 5      4514.233          35.500    21446795.960    87821043.233 5      3517.584          35.562
G26  22065194.240   115953375.924 7      -141.370          45.250    22065193.080   115953375.921 7      -141.370          42.937    22065202.540    90353313.932 7      -110.158          42.875    22065202.760    90353315.933 7      -110.158          46.125
> 2024 05 08 12 04 59.0000000  0 13
G08  21601382.260   113516032.669 7      3656.170          45.312    21601381.780   113516032.671 6      3656.170          36.062    21601388.620    88454073.618 5      2848.963          35.375    21601390.460    88454083.622 8      2848.963          49.375
R09  21382181.820   114179657.107 7     -1325.263          43.125    21382181.160   114179657.116 7     -1325.263          42.687    21382195.000    88806444.765 8     -1030.760          48.812    21382195.140    88806446.761 8     -1030.760          49.875
G16  20476532.800   107604907.596 7      1761.163          46.687    20476531.340   107604907.600 6      1761.163          39.500    20476534.780    83847981.513 6      1372.335          39.062
G02  23160232.100   121707843.726 7      5009.922          45.000    23160229.160   121707843.734 5      5009.922          30.937    23160235.180    94837288.882 5      3903.835          31.125
R11  20976732.640   112093301.987 8      5599.038          49.437    20976732.940   112093301.991 8      5599.038          48.250    20976740.840    87183707.975 8      4354.807          51.062    20976740.980    87183707.976 8      4354.807          52.250
G10  22217742.760   116755028.382 7      3171.372          47.812    22217741.480   116755028.387 7      3171.372          45.937    22217749.820    90977985.406 7      2471.199          46.187    22217749.040    90977968.407 7      2471.199          46.750
G27  20849602.760   109565402.298 8      2127.179          48.125    20849601.480   109565402.303 8      2127.179          48.625    20849606.940    85375656.633 8      1657.542          48.875    20849607.620    85375659.632 8      1657.542          48.562
R21  20490897.220   109650916.499 7      3209.668          47.250    20490896.940   109650916.511 7      3209.668          46.937    20490907.520    85284096.401 8      2496.408          49.812    20490907.440    85284098.402 8      2496.408          49.937
G31  25015463.900   131457143.323 6      -813.376          40.187    25015463.080   131457143.330 5      -813.376          34.875    25015477.920   102434193.530 5      -633.800          35.062    25015479.060   102434205.524 6      -633.800          41.125
R10  19313835.080   102953612.284 7      1473.812          45.250    19313834.560   102953612.290 7      1473.812          44.312
G23  23261499.440   122240005.408 7      1243.846          45.125    23261498.880   122240005.408 5      1243.846          30.062    23261505.540    95251976.995 5       969.231          30.125    23261506.620    95251984.996 7       969.231          43.750
G21  21445934.040   112699144.904 7      4513.864          47.187    21445932.260   112699144.909 5      4513.864          35.562    21445936.900    87817525.849 5      3517.297          35.875
G26  22065221.380   115953517.469 7      -141.534          44.875    22065220.020   115953517.466 7      -141.534          43.062    22065229.620    90353424.220 7      -110.286          43.000    22065229.700    90353426.221 7      -110.286          45.937
> 2024 05 08 12 05  0.0000000  0 13
G08  21600686.560   113512376.696 7      3655.795          45.437    21600685.920   113512376.701 6      3655.795          36.062    21600692.900    88451224.814 5      2848.672          35.625    21600694.700    88451234.818 8      2848.672          49.687
R09  21382430.320   114180982.625 7     -1325.730          42.750    21382429.380   114180982.632 7     -1325.730          42.562    21382443.220    88807475.711 8     -1031.123          48.437    21382443.360    88807477.707 8     -1031.123          49.375
G16  20476197.900   107603146.885 7      1760.382          46.750    20476196.300   107603146.890 6      1760.382          39.437    20476199.880    83846609.529 6      1371.726          39.312
G02  23159278.680   121702834.117 7      5009.359          45.625    23159275.900   121702834.127 5      5009.359          30.937    23159281.920    94833385.296 5      3903.396          31.125
R11  20975685.140   112087703.377 8      5598.292          49.625    20975685.280   112087703.386 8      5598.292          48.312    20975693.060    87179353.507 8      4354.227          50.750    20975693.180    87179353.508 8      4354.227          51.937
G10  22217139.220   116751857.425 8      3170.545          48.062    22217138.120   116751857.433 7      3170.545          45.875    22217146.400    90975514.535 7      2470.555          45.500    22217145.780    90975497.533 7      2470.555          47.062
G27  20849198.100   109563275.297 8      2126.823          48.500    20849196.720   109563275.299 8      2126.823          48.437    20849202.260    85373999.231 8      1657.265          48.437    20849202.820    85374002.230 8      1657.265          49.062
R21  20490297.320   109647707.279 7      3208.947          46.500    20490297.320   109647707.291 7      3208.947          47.062    20490307.700    85281600.345 8      2495.848          50.312    20490307.740    85281602.346 8      2495.848          49.687
G31  25015619.060   131457956.595 6      -813.367          40.875    25015617.640   131457956.608 5      -813.367          34.812    25015632.720   102434827.243 5      -633.793          34.750    25015633.720   102434839.249 6      -633.793          41.125
R10  19313558.360   102952138.986 7      1472.764          45.437    19313558.160   102952139.000 7      1472.764          44.125
G23  23261262.800   122238762.006 7      1243.027          45.000    23261262.260   122238762.003 5      1243.027          30.062    23261268.820    95251008.110 5       968.592          30.125    23261269.980    95251016.114 7       968.592          43.750
G21  21445075.080   112694631.443 7      4513.118          46.000    21445073.440   112694631.451 5      4513.118          35.625    21445078.000    87814008.871 5      3516.715          35.812
G26  22065248.300   115953659.376 7      -142.245          44.687    22065247.080   115953659.378 7      -142.245          43.250    22065256.480    90353534.791 7      -110.840          43.187    22065256.740    90353536.790 7      -110.840          46.062
> 2024 05 08 12 05  1.0000000  0 13
G08  21599990.920   113508720.975 7      3655.763          45.500    21599990.300   113508720.980 5      3655.763          35.875    21599997.260    88448376.199 5      2848.647          35.437    21599999.160    88448386.202 8      2848.647          50.187
R09  21382678.700   114182308.742 7     -1326.218          42.250    21382677.760   114182308.746 7     -1326.218          42.500    21382691.600    88808507.118 8     -1031.503          48.812    21382691.640    88808509.115 8     -1031.503          49.625
G16  20475862.960   107601386.809 7      1759.866          46.187    20475861.380   107601386.813 6      1759.866          39.500    20475864.800    83845238.040 6      1371.324          39.000
G02  23158325.200   121697825.025 7      5008.958          45.500    23158322.720   121697825.032 5      5008.958          30.937    23158328.780    94829482.110 5      3903.084          31.125
R11  20974637.380   112082105.459 8      5597.671          49.312    20974637.580   112082105.468 8      5597.671          48.250    20974645.480    87174999.573 8      4353.744          51.187    20974645.460    87174999.572 8      4353.744          51.187
G10  22216535.980   116748687.149 7      3170.056          47.125    22216534.800   116748687.154 7      3170.056          45.750    22216543.080    90973044.190 7      2470.174          46.250    22216542.860    90973027.188 7      2470.174          47.062
G27  20848793.280   109561148.584 8      2126.798          48.500    20848791.940   109561148.586 8      2126.798          48.750    20848797.500    85372342.050 8      1657.246          49.250    20848798.360    85372345.049 8      1657.246          49.375
R21  20489697.620   109644498.658 7      3208.492          46.875    20489697.760   109644498.673 7      3208.492          47.562    20489708.040    85279104.749 8      2495.494          49.812    20489707.960    85279106.747 8      2495.494          49.375
G31  25015773.480   131458769.883 6      -813.220          41.000    25015772.200   131458769.893 5      -813.220          34.812    25015787.560   102435460.961 5      -633.678          34.750    25015788.740   102435472.961 6      -633.678          41.125
R10  19313282.280   102950666.711 7      1471.880          45.500    19313281.920   102950666.717 7      1471.880          44.062
G23  23261026.140   122237519.327 7      1242.409          44.812    23261025.700   122237519.324 5      1242.409          30.062    23261032.160    95250039.787 5       968.111          30.125    23261033.500    95250047.790 7       968.111          43.687
G21  21444216.200   112690118.637 7      4512.639          46.937    21444214.520   112690118.642 5      4512.639          35.437    21444219.240    87810492.400 5      3516.342          35.812
G26  22065275.480   115953801.763 7      -142.506          45.437    22065274.200   115953801.763 7      -142.506          43.187    22065283.640    90353645.734 7      -111.044          43.000    22065283.840    90353647.733 7      -111.044          46.187
> 2024 05 08 12 05  2.0000000  0 13
G08  21599295.240   113505065.349 7      3655.741          45.125    21599294.520   113505065.349 5      3655.741          35.625    21599301.640    88445527.657 5      2848.629          35.562    21599303.420    88445537.661 8      2848.629          49.250
R09  21382926.960   114183635.275 7     -1326.673          42.812    21382926.640   114183635.273 7     -1326.673          42.500    21382940.180    88809538.849 8     -1031.857          48.562    21382940.120    88809540.846 8     -1031.857          49.625
G16  20475528.200   107599627.173 7      1759.550          46.750    20475526.480   107599627.178 6      1759.550          40.312    20475529.980    83843866.894 6      1371.078          39.500
G02  23157372.280   121692816.216 7      5008.788          44.625    23157369.640   121692816.224 5      5008.788          31.062    23157375.560    94825579.147 5      3902.952          31.125
R11  20973590.220   112076508.014 8      5597.289          49.312    20973590.040   112076508.029 8      5597.289          48.000    20973598.040    87170646.011 8      4353.447          51.000    20973597.740    87170646.008 8      4353.447          52.250
G10  22215932.680   116745517.362 7      3169.703          46.750    22215931.560   116745517.369 7      3169.703          46.062    22215939.920    90970574.228 7      2469.899          46.312    22215939.560    90970557.228 7      2469.899          46.875
G27  20848388.920   109559022.005 8      2126.709          48.187    20848387.340   109559022.010 8      2126.709          48.125    20848392.900    85370684.975 8      1657.176          48.375    20848393.580    85370687.975 8      1657.176          49.250
R21  20489097.820   109641290.420 7      3208.196          47.187    20489098.340   109641290.432 7      3208.196          47.812    20489108.580    85276609.453 8      2495.264          49.750    20489108.340    85276611.451 8      2495.264          49.687
G31  25015928.400   131459582.955 6      -812.861          41.062    25015926.980   131459582.973 5      -812.861          35.125    25015942.220   102436094.515 5      -633.398          34.875    25015942.800   102436106.518 6      -633.398          41.125
R10  19313006.160   102949195.215 7      1471.317          45.437    19313006.140   102949195.218 7      1471.317          44.437
G23  23260789.900   122236277.152 7      1242.106          44.000    23260789.240   122236277.152 5      1242.106          30.062    23260795.860    95249071.856 5       967.875          30.125    23260797.020    95249079.868 7       967.875          43.687
G21  21443357.680   112685606.285 7      4512.228          47.000    21443355.860   112685606.290 5      4512.228          35.937    21443360.720    87806976.282 5      3516.022          35.937
G26  22065302.640   115953944.453 7      -142.730          44.750    22065301.320   115953944.458 7      -142.730          43.562    22065310.740    90353756.917 7      -111.218          43.562    22065311.200    90353758.918 7      -111.218          45.937
> 2024 05 08 12 05  3.0000000  0 13
G08  21598600.080   113501409.933 7      3655.311          45.000    21598598.920   113501409.933 5      3655.311          35.750    21598606.140    88442679.283 5      2848.294          35.562    21598607.920    88442689.289 8      2848.294          49.625
R09  21383175.720   114184962.256 7     -1327.207          42.875    21383174.520   114184962.265 7     -1327.207          42.687    21383188.380    88810570.942 8     -1032.272          48.687    21383188.660    88810572.940 8     -1032.272          49.437
G16  20475193.520   107597868.137 7      1758.812          45.812    20475191.760   107597868.144 6      1758.812          39.250    20475195.160    83842496.216 6      1370.503          38.812
G02  23156419.320   121687807.871 7      5008.086          45.500    23156416.600   121687807.876 5      5008.086          31.062    23156422.560    94821676.544 5      3902.405          31.125
R11  20972542.720   112070911.224 8      5596.514          49.875    20972542.780   112070911.230 8      5596.514          48.687    20972550.620    87166292.942 8      4352.844          51.000    20972550.420    87166292.940 8      4352.844          52.062
G10  22215329.920   116742348.239 7      3168.871          46.375    22215328.500   116742348.246 7      3168.871          45.875    22215336.800    90968104.783 7      2469.250          46.250    22215336.260    90968087.778 7      2469.250          47.375
G27  20847984.220   109556895.697 7      2126.224          47.812    20847982.740   109556895.699 8      2126.224          48.625    20847988.220    85369028.112 8      1656.798          48.500    20847989.120    85369031.111 8      1656.798          49.375
R21  20488498.500   109638082.735 7      3207.477          46.562    20488498.980   109638082.745 7      3207.477          46.875    20488508.940    85274114.587 8      2494.704          49.437    20488509.000    85274116.587 8      2494.704          49.750
G31  25016082.820   131460395.990 6      -812.877          40.562    25016081.760   131460396.006 5      -812.877          34.125    25016096.720   102436728.037 5      -633.410          34.875    25016097.420   102436740.037 6      -633.410          41.125
R10  19312730.400   102947724.686 7      1470.094          45.250    19312730.140   102947724.697 7      1470.094          44.375
G23  23260553.620   122235035.684 7      1241.135          44.125    23260552.920   122235035.687 4      1241.135          29.875    23260559.680    95248104.481 5       967.118          30.000    23260561.100    95248112.478 7       967.118          43.937
G21  21442499.040   112681094.517 7      4511.602          47.187    21442497.460   112681094.519 5      4511.602          35.937    21442502.200    87803460.618 5      3515.534          35.625
G26  22065329.800   115954087.595 7      -143.298          44.625    22065328.660   115954087.592 7      -143.298          43.000    22065337.960    90353868.446 7      -111.661          42.875    22065338.140    90353870.449 7      -111.661          46.125
> 2024 05 08 12 05  4.0000000  0 13
G08  21597904.260   113497754.609 7      3655.274          44.500    21597903.340   113497754.609 5      3655.274          35.750    21597910.580    88439830.979 5      2848.265          35.562    21597912.260    88439840.982 8      2848.265          49.062
R09  21383424.440   114186289.686 7     -1327.778          42.875    21383423.360   114186289.698 7     -1327.778          43.187    21383436.960    88811603.377 8     -1032.716          48.687    21383437.380    88811605.376 8     -1032.716          49.750
G16  20474858.920   107596109.576 7      1758.382          45.812    20474857.100   107596109.583 6      1758.382          39.750    20474860.540    83841125.907 6      1370.168          39.187
G02  23155466.420   121682799.853 7      5007.844          45.687    23155463.480   121682799.861 5      5007.844          31.062    23155469.660    94817774.195 5      3902.216          31.312
R11  20971495.420   112065314.954 8      5596.017          48.562    20971495.500   112065314.964 8      5596.017          48.500    20971503.400    87161940.290 8      4352.458          50.937    20971503.280    87161940.288 8      4352.458          52.250
G10  22214726.980   116739179.642 7      3168.395          46.750    22214725.560   116739179.647 7      3168.395          45.875    22214733.880    90965635.745 7      2468.879          46.000    22214733.100    90965618.747 7      2468.879          47.625
G27  20847579.520   109554769.499 7      2126.209          47.562    20847578.080   109554769.501 8      2126.209          48.187    20847583.600    85367371.332 8      1656.786          48.312    20847584.260    85367374.332 8      1656.786          49.187
R21  20487899.080   109634875.498 7      3207.007          46.375    20487899.440   109634875.518 7      3207.007          47.125    20487909.540    85271620.078 8      2494.339          49.812    20487909.600    85271622.076 8      2494.339          49.687
G31  25016237.500   131461208.873 6      -812.798          40.250    25016236.360   131461208.883 5      -812.798          34.125    25016251.500   102437361.438 5      -633.349          34.250    25016252.520   102437373.438 6      -633.349          41.125
R10  19312454.860   102946254.961 7      1469.378          44.937    19312454.760   102946254.981 7      1469.378          44.312
G23  23260317.480   122233794.742 7      1240.726          45.000    23260316.860   122233794.739 4      1240.726          29.875    23260323.500    95247137.510 5       966.800          30.000    23260324.860    95247145.516 7       966.800          43.812
G21  21441640.700   112676583.253 7      4511.052          46.437    21441638.980   112676583.260 5      4511.052          35.625    21441643.660    87799945.350 6      3515.105          36.062
G26  22065357.140   115954231.068 7      -143.656          44.562    22065355.900   115954231.073 7      -143.656          43.187    22065365.320    90353980.241 7      -111.940          43.062    22065365.380    90353982.242 7      -111.940          45.750
> 2024 05 08 12 05  5.0000000  0 13
G08  21597208.920   113494099.575 7      3654.825          44.250    21597207.880   113494099.577 5      3654.825          35.687    21597214.940    88436982.904 5      2847.916          35.500    21597216.720    88436992.909 8      2847.916          49.375
R09  21383672.960   114187617.653 7     -1328.250          43.250    21383671.820   114187617.657 7     -1328.250          42.937    21383685.920    88812636.221 8     -1033.083          48.750    21383686.040    88812638.220 8     -1033.083          49.437
G16  20474524.440   107594351.682 7      1757.549          46.187    20474522.560   107594351.687 6      1757.549          39.812    20474525.960    83839756.116 6      1369.518          39.562
G02  23154513.560   121677792.367 7      5007.185          44.437    23154510.620   121677792.372 5      5007.185          31.125    23154516.580    94813872.259 5      3901.703          31.312
R11  20970448.360   112059719.415 8      5595.141          49.062    20970448.200   112059719.418 8      5595.141          48.562    20970456.340    87157588.205 8      4351.776          51.187    20970456.160    87157588.206 8      4351.776          51.437
G10  22214124.240   116736011.767 7      3167.517          46.625    22214122.700   116736011.777 7      3167.517          45.875    22214131.160    90963167.275 7      2468.195          45.937    22214130.280    90963150.271 7      2468.195          46.687
G27  20847174.780   109552643.658 7      2125.628          47.187    20847173.540   109552643.663 8      2125.628          48.187    20847179.040    85365714.833 8      1656.333          48.250    20847180.120    85365717.835 8      1656.333          48.750
R21  20487300.120   109631668.900 7      3206.220          47.187    20487300.440   109631668.917 7      3206.220          47.125    20487310.440    85269126.057 8      2493.726          49.562    20487310.520    85269128.055 8      2493.726          49.625
G31  25016392.340   131462021.754 6      -812.890          40.437    25016391.080   131462021.766 5      -812.890          34.437    25016406.220   102437994.843 5      -633.421          34.250    25016407.780   102438006.850 6      -633.421          41.000
R10  19312179.460   102944786.311 7      1468.034          45.562    19312178.900   102944786.325 7      1468.034          44.312
G23  23260081.580   122232554.564 7      1239.799          43.812    23260080.720   122232554.561 4      1239.799          29.875    23260087.540    95246171.134 5       966.077          30.000    23260088.600    95246179.144 7       966.077          43.750
G21  21440782.340   112672072.640 7      4510.254          47.062    21440780.560   112672072.645 5      4510.254          35.812    21440785.400    87796430.591 6      3514.483          36.062
G26  22065384.340   115954375.064 7      -144.360          44.750    22065383.240   115954375.064 7      -144.360          43.062    22065392.820    90354092.440 7      -112.488          42.687    22065392.840    90354094.438 7      -112.488          46.125
> 2024 05 08 12 05  6.0000000  0 13
G08  21596513.160   113490444.705 7      3655.011          44.500    21596512.240   113490444.705 5      3655.011          35.687    21596519.440    88434134.951 5      2848.061          35.125    21596520.960    88434144.955 8      2848.061          49.625
R09  21383921.620   114188946.111 7     -1328.561          42.687    21383920.820   114188946.123 7     -1328.561          42.937    21383934.600    88813669.460 8     -1033.325          48.687    21383934.900    88813671.457 8     -1033.325          49.437
G16  20474190.040   107592594.330 7      1757.322          45.562    20474188.260   107592594.332 6      1757.322          39.187    20474191.640    83838386.748 6      1369.342          38.812
G02  23153560.600   121672785.267 7      5007.037          45.750    23153557.860   121672785.272 5      5007.037          31.125    23153563.860    94809970.625 5      3901.588          31.312
R11  20969401.160   112054124.425 8      5594.859          49.312    20969401.280   112054124.437 8      5594.859          48.250    20969409.260    87153236.557 8      4351.557          50.937    20969409.120    87153236.558 8      4351.557          51.687
G10  22213521.320   116732844.473 7      3167.254          46.062    22213519.960   116732844.481 7      3167.254          45.687    22213528.380    90960699.252 7      2467.990          46.062    22213527.500    90960682.252 7      2467.990          46.937
G27  20846770.320   109550518.015 7      2125.706          47.250    20846769.000   109550518.020 8      2125.706          48.375    20846774.620    85364058.487 8      1656.394          48.250    20846775.380    85364061.487 8      1656.394          49.250
R21  20486700.760   109628462.770 7      3206.074          45.625    20486701.420   109628462.785 7      3206.074          47.750    20486711.220    85266632.394 8      2493.613          49.687    20486711.040    85266634.396 8      2493.613          49.812
G31  25016547.280   131462834.539 6      -812.509          39.812    25016545.780   131462834.555 5      -812.509          34.437    25016560.880   102438628.171 5      -633.124          34.312    25016562.180   102438640.185 6      -633.124          41.000
R10  19311903.640   102943318.533 7      1467.453          45.437    19311903.600   102943318.547 7      1467.453          44.000
G23  23259845.720   122231314.996 7      1239.454          43.937    23259844.940   122231314.993 4      1239.454          29.812    23259851.680    95245205.235 5       965.808          30.000    23259852.460    95245213.240 7       965.808          43.937
G21  21439924.240   112667562.598 7      4509.950          46.312    21439922.440   112667562.603 5      4509.950          35.312    21439927.080    87792916.276 5      3514.247          35.625
G26  22065411.660   115954519.436 7      -144.387          43.937    22065410.860   115954519.438 7      -144.387          43.062    22065420.280    90354204.931 7      -112.509          42.875    22065420.580    90354206.927 7      -112.509          46.000
> 2024 05 08 12 05  7.0000000  0 13
G08  21595817.740   113486790.159 7      3654.470          44.625    21595816.740   113486790.156 5      3654.470          35.562    21595823.920    88431287.251 5      2847.639          35.250    21595825.600    88431297.257 8      2847.639          49.312
R09  21384170.540   114190275.164 7     -1329.293          42.687    21384169.700   114190275.184 7     -1329.293          42.750    21384183.440    88814703.160 8     -1033.894          48.812    21384183.640    88814705.159 8     -1033.894          49.562
G16  20473855.460   107590837.659 7      1756.397          45.687    20473853.860   107590837.663 6      1756.397          39.750    20473857.340    83837017.915 6      1368.621          39.437
G02  23152608.040   121667778.705 7      5006.408          45.125    23152605.260   121667778.710 5      5006.408          31.250    23152611.040    94806069.410 5      3901.097          31.500
R11  20968354.460   112048530.173 8      5593.953          48.750    20968354.360   112048530.188 8      5593.953          48.187    20968362.280    87148885.470 8      4350.852          50.812    20968362.040    87148885.469 8      4350.852          51.437
G10  22212918.940   116729677.931 7      3166.312          47.000    22212917.340   116729677.936 7      3166.312          45.812    22212925.820    90958231.816 7      2467.256          46.062    22212924.960    90958214.812 7      2467.256          47.187
G27  20846365.880   109548392.697 8      2125.317          48.187    20846364.560   109548392.705 8      2125.317          48.312    20846370.220    85362402.398 8      1656.091          48.562    20846370.860    85362405.397 8      1656.091          49.125
R21  20486101.840   109625257.258 7      3205.336          47.062    20486102.180   109625257.275 7      3205.336          47.375    20486112.100    85264139.226 8      2493.039          49.812    20486111.900    85264141.227 8      2493.039          49.625
G31  25016701.540   131463647.383 6      -812.724          40.625    25016700.360   131463647.396 5      -812.724          34.437    25016715.600   102439261.543 5      -633.291          34.187    25016716.760   102439273.553 6      -633.291          40.937
R10  19311628.520   102941851.773 7      1466.391          45.500    19311628.140   102941851.781 7      1466.391          43.937
G23  23259609.880   122230076.181 7      1238.574          44.750    23259609.120   122230076.181 4      1238.574          29.812    23259615.960    95244239.927 4       965.123          29.812    23259616.940    95244247.935 7       965.123          43.750
G21  21439065.780   112663053.228 7      4509.093          47.125    21439064.300   112663053.233 6      4509.093          36.062    21439069.160    87789402.482 5      3513.579          35.875
G26  22065439.300   115954664.354 7      -145.043          44.812    22065438.480   115954664.351 7      -145.043          43.062    22065447.860    90354317.844 7      -113.020          42.875    22065448.240    90354319.840 7      -113.020          45.937
> 2024 05 08 12 05  8.0000000  0 13
G08  21595122.340   113483135.794 7      3654.400          44.000    21595121.440   113483135.791 5      3654.400          35.687    21595128.500    88428439.698 5      2847.585          35.250    21595130.280    88428449.700 8      2847.585          49.000
R09  21384419.800   114191604.752 7     -1329.705          42.687    21384418.700   114191604.769 7     -1329.705          42.625    21384432.560    88815737.267 8     -1034.215          48.687    21384432.700    88815739.263 8     -1034.215          49.562
G16  20473521.460   107589081.562 7      1755.965          45.062    20473519.860   107589081.570 6      1755.965          39.625    20473523.120    83835649.525 6      1368.284          38.875
G02  23151655.320   121662772.587 7      5006.032          44.812    23151652.700   121662772.592 5      5006.032          31.250    23151658.320    94802168.543 5      3900.804          31.500
R11  20967307.500   112042936.535 8      5593.533          48.875    20967307.460   112042936.542 7      5593.533          47.812    20967315.680    87144534.865 8      4350.526          51.625    20967315.180    87144534.862 8      4350.526          51.812
G10  22212316.480   116726512.014 7      3165.732          46.250    22212315.020   116726512.016 7      3165.732          45.687    22212323.440    90955764.868 7      2466.804          46.000    22212322.700    90955747.866 7      2466.804          47.125
G27  20845961.520   109546267.653 8      2125.142          48.125    20845960.240   109546267.658 8      2125.142          48.062    20845965.880    85360746.513 8      1655.955          48.062    20845966.460    85360749.515 8      1655.955          49.437
R21  20485502.840   109622052.313 7      3204.921          46.687    20485503.520   109622052.328 7      3204.921          47.375    20485513.040    85261646.486 8      2492.716          49.750    20485513.180    85261648.488 8      2492.716          49.562
G31  25016856.500   131464460.143 6      -812.590          40.187    25016855.020   131464460.150 5      -812.590          34.437    25016870.320   102439894.848 5      -633.187          34.187    25016870.660   102439906.850 6      -633.187          40.937
R10  19311353.700   102940385.969 7      1465.492          45.187    19311353.420   102940385.983 7      1465.492          44.062
G23  23259374.260   122228838.035 7      1238.015          44.625    23259373.420   122228838.029 4      1238.015          29.812    23259380.300    95243275.137 4       964.687          29.812    23259381.480    95243283.143 7       964.687          43.937
G21  21438207.920   112658544.445 7      4508.653          47.500    21438206.360   112658544.450 6      4508.653          36.125    21438211.200    87785889.142 6      3513.236          36.125
G26  22065467.240   115954809.706 7      -145.409          44.875    22065466.140   115954809.705 7      -145.409          43.062    22065475.500    90354431.101 7      -113.306          42.875    22065475.640    90354433.099 7      -113.306          46.000
> 2024 05 08 12 05  9.0000000  0 13
G08  21594426.940   113479481.469 7      3654.179          44.875    21594425.760   113479481.466 5      3654.179          35.187    21594432.960    88425592.174 5      2847.412          35.187    21594434.660    88425602.178 8      2847.412          49.187
R09  21384668.760   114192934.697 7     -1330.204          43.000    21384667.580   114192934.703 7     -1330.204          42.625    21384681.340    88816771.648 8     -1034.603          48.187    21384681.700    88816773.647 8     -1034.603          49.250
G16  20473187.260   107587325.871 7      1755.340          46.562    20473185.660   107587325.876 6      1755.340          39.500    20473189.020    83834281.453 6      1367.797          39.000
G02  23150702.840   121657766.719 7      5005.623          45.187    23150700.100   121657766.730 5      5005.623          31.250    23150705.780    94798267.871 5      3900.486          31.500
R11  20966260.680   112037343.366 8      5592.806          50.437    20966260.780   112037343.369 8      5592.806          49.562    20966268.920    87140184.616 8      4349.960          51.000    20966268.780    87140184.614 8      4349.960          51.000
G10  22211714.180   116723346.551 7      3165.108          47.687    22211712.600   116723346.553 7      3165.108          45.562    22211721.000    90953298.275 7      2466.318          45.375    22211720.400    90953281.272 7      2466.318          46.812
G27  20845557.120   109544142.674 8      2124.854          48.250    20845555.920   109544142.679 8      2124.854          48.000    20845561.500    85359090.685 8      1655.730          48.125    20845562.000    85359093.689 8      1655.730          48.812
R21  20484903.800   109618847.751 8      3204.220          49.312    20484904.600   109618847.769 8      3204.220          48.687    20484914.260    85259154.055 8      2492.171          50.000    20484914.280    85259156.055 8      2492.171          49.625
G31  25017010.960   131465272.681 6      -812.584          40.375    25017009.600   131465272.692 5      -812.584          34.250    25017025.040   102440527.981 5      -633.183          34.125    25017026.000   102440539.981 6      -633.183          41.000
R10  19311078.620   102938920.928 7      1464.520          45.437    19311078.620   102938920.937 7      1464.520          43.812
G23  23259138.640   122227600.369 7      1237.312          44.937    23259137.880   122227600.366 4      1237.312          29.812    23259144.840    95242310.722 4       964.139          29.812    23259145.460    95242318.728 7       964.139          43.875
G21  21437349.780   112654036.068 7      4508.002          47.250    21437348.500   112654036.076 6      4508.002          36.000    21437353.180    87782376.123 6      3512.729          36.187
G26  22065494.840   115954955.307 7      -145.853          45.000    22065493.880   115954955.312 7      -145.853          42.875    22065503.120    90354544.554 7      -113.652          42.750    22065503.280    90354546.553 7      -113.652          45.875
> 2024 05 08 12 05 10.0000000  0 13
G08  21593731.440   113475827.359 7      3653.880          45.312    21593730.440   113475827.361 5      3653.880          35.187    21593737.720    88422744.822 5      2847.179          35.375    21593739.520    88422754.826 8      2847.179          49.000
R09  21384918.200   114194265.157 7     -1330.733          44.500    21384917.580   114194265.150 7     -1330.733          43.750    21384930.680    88817806.432 8     -1035.014          48.625    21384930.760    88817808.426 8     -1035.014          49.625
G16  20472853.220   107585570.773 7      1754.764          45.812    20472851.580   107585570.775 6      1754.764          39.500    20472855.060    83832913.841 6      1367.349          38.812
G02  23149750.280   121652761.311 7      5005.181          45.250    23149747.720   121652761.321 5      5005.181          31.125    23149753.340    94794367.559 5      3900.141          31.375
R11  20965214.280   112031750.818 8      5592.209          50.812    20965214.380   112031750.822 8      5592.209          49.750    20965222.320    87135834.865 8      4349.496          51.562    20965222.220    87135834.863 8      4349.496          51.625
G10  22211111.880   116720181.714 7      3164.587          47.625    22211110.400   116720181.716 7      3164.587          46.187    22211118.900    90950832.168 7      2465.912          46.312    22211118.320    90950815.163 7      2465.912          47.250
G27  20845152.840   109542017.956 8      2124.499          48.750    20845151.540   109542017.960 8      2124.499          48.375    20845157.240    85357435.061 8      1655.454          48.375    20845157.760    85357438.062 8      1655.454          49.125
R21  20484305.040   109615643.735 8      3203.738          49.937    20484306.000   109615643.758 8      3203.738          48.937    20484315.480    85256662.046 8      2491.796          49.875    20484315.460    85256664.051 8      2491.796          49.437
G31  25017165.800   131466085.144 6      -812.584          40.687    25017164.220   131466085.154 5      -812.584          34.562    25017179.720   102441161.058 5      -633.182          34.125    25017180.840   102441173.071 6      -633.182          41.000
R10  19310804.020   102937456.820 7      1463.631          45.437    19310803.800   102937456.831 7      1463.631          44.187
G23  23258903.380   122226363.370 7      1236.671          44.562    23258902.540   122226363.367 4      1236.671          29.625    23258909.580    95241346.829 4       963.640          29.812    23258910.620    95241354.829 7       963.640          44.125
G21  21436492.240   112649528.299 7      4507.394          47.062    21436490.680   112649528.299 6      4507.394          36.000    21436495.360    87778863.578 6      3512.255          36.187
G26  22065522.540   115955101.357 7      -146.288          44.812    22065521.620   115955101.357 7      -146.288          43.562    22065531.060    90354658.348 7      -113.990          42.875    22065531.220    90354660.346 7      -113.990          45.812
> 2024 05 08 12 05 11.0000000  0 13
G08  21593035.940   113472173.438 7      3654.026          45.250    21593034.940   113472173.441 5      3654.026          35.687    21593042.420    88419897.609 5      2847.293          35.437    21593044.320    88419907.613 8      2847.293          49.250
R09  21385167.360   114195596.093 7     -1331.008          44.187    21385166.540   114195596.097 7     -1331.008          43.937    21385179.760    88818841.598 8     -1035.228          48.937    21385180.500    88818843.592 8     -1035.228          49.375
G16  20472519.500   107583816.245 7      1754.401          46.375    20472517.760   107583816.245 6      1754.401          39.187    20472521.180    83831546.674 6      1367.066          38.625
G02  23148797.740   121647756.339 7      5004.954          45.812    23148795.380   121647756.349 5      5004.954          31.125    23148800.940    94790467.583 5      3899.965          31.375
R11  20964167.460   112026158.883 8      5591.821          51.000    20964167.940   112026158.889 8      5591.821          49.812    20964175.980    87131485.584 8      4349.194          51.125    20964175.760    87131485.582 8      4349.194          51.500
G10  22210509.720   116717017.526 7      3164.056          47.875    22210508.220   116717017.528 7      3164.056          46.375    22210516.680    90948366.569 7      2465.498          46.000    22210515.940    90948349.568 7      2465.498          47.062
G27  20844748.480   109539893.471 8      2124.439          48.750    20844747.260   109539893.476 8      2124.439          49.500    20844753.000    85355779.618 8      1655.407          48.937    20844753.560    85355782.620 8      1655.407          49.187
R21  20483706.620   109612440.297 8      3203.332          48.500    20483707.260   109612440.312 8      3203.332          48.750    20483716.720    85254170.481 8      2491.480          49.187    20483717.040    85254172.483 8      2491.480          49.250
G31  25017320.640   131466897.523 6      -812.125          40.687    25017318.740   131466897.533 5      -812.125          34.562    25017334.200   102441794.068 5      -632.825          34.437    25017335.640   102441806.079 6      -632.825          41.187
R10  19310529.300   102935993.658 7      1462.868          45.312    19310529.460   102935993.669 7      1462.868          44.437
G23  23258668.280   122225127.023 7      1236.270          44.625    23258667.340   122225127.023 4      1236.270          29.625    23258674.200    95240383.440 4       963.327          29.750    23258675.140    95240391.439 7       963.327          43.937
G21  21435634.640   112645021.092 7      4507.094          47.500    21435632.980   112645021.094 6      4507.094          36.000    21435637.700    87775351.470 6      3512.021          36.125
G26  22065550.660   115955247.828 7      -146.444          45.125    22065549.500   115955247.825 7      -146.444          42.875    22065558.860    90354772.473 7      -114.112          42.875    22065559.000    90354774.473 7      -114.112          45.812
> 2024 05 08 12 05 12.0000000  0 13
G08  21592340.760   113468519.652 7      3653.754          45.000    21592339.640   113468519.649 5      3653.754          35.375    21592347.020    88417050.500 5      2847.081          35.437    21592348.740    88417060.504 8      2847.081          49.625
R09  21385416.700   114196927.493 7     -1331.650          43.062    21385416.220   114196927.502 7     -1331.650          42.937    21385429.420    88819877.123 8     -1035.728          48.562    21385429.520    88819879.118 8     -1035.728          49.812
G16  20472185.620   107582062.199 7      1753.803          45.812    20472184.100   107582062.204 6      1753.803          39.375    20472187.480    83830179.886 6      1366.600          38.687
G02  23147845.420   121642751.709 7      5004.473          44.687    23147843.020   121642751.716 5      5004.473          31.125    23147848.720    94786567.875 5      3899.590          31.375
R11  20963121.560   112020567.484 8      5591.079          49.312    20963121.460   112020567.493 7      5591.079          47.937    20963129.600    87127136.722 8      4348.617          51.562    20963129.360    87127136.719 8      4348.617          51.687
G10  22209907.720   116713853.879 7      3163.331          47.187    22209906.240   116713853.878 7      3163.331          46.312    22209914.740    90945901.390 7      2464.933          46.250    22209913.940    90945884.388 7      2464.933          47.187
G27  20844344.480   109537769.133 7      2124.214          46.812    20844342.920   109537769.141 8      2124.214          48.500    20844348.680    85354124.292 8      1655.232          48.250    20844349.360    85354127.292 8      1655.232          49.250
R21  20483107.760   109609237.276 8      3202.763          48.000    20483108.820   109609237.296 7      3202.763          47.750    20483118.180    85251679.243 8      2491.038          49.937    20483118.180    85251681.243 8      2491.038          49.750
G31  25017475.200   131467709.786 6      -812.190          40.562    25017473.200   131467709.793 5      -812.190          34.500    25017488.740   102442426.990 5      -632.876          34.437    25017489.780   102442438.984 6      -632.876          41.187
R10  19310255.260   102934531.332 7      1461.882          44.875    19310255.000   102934531.338 7      1461.882          44.000
G23  23258432.980   122223891.260 7      1235.462          44.062    23258432.120   122223891.257 4      1235.462          29.625    23258438.960    95239420.505 4       962.698          29.750    23258439.920    95239428.509 7       962.698          44.000
G21  21434777.240   112640514.397 7      4506.424          45.937    21434775.460   112640514.397 5      4506.424          35.812    21434780.240    87771839.760 6      3511.499          36.000
G26  22065578.560   115955394.646 7      -146.909          45.125    22065577.440   115955394.643 7      -146.909          42.500    22065586.880    90354886.870 7      -114.474          42.750    22065586.960    90354888.862 7      -114.474          45.625
> 2024 05 08 12 05 13.0000000  0 13
G08  21591645.660   113464866.070 7      3653.204          45.062    21591644.480   113464866.069 5      3653.204          34.937    21591651.620    88414203.557 5      2846.652          35.062    21591653.620    88414213.563 8      2846.652          49.250
R09  21385666.440   114198259.382 7     -1332.359          42.500    21385665.620   114198259.394 7     -1332.359          42.750    21385678.700    88820913.026 8     -1036.279          48.437    21385678.740    88820915.023 8     -1036.279          49.375
G16  20471851.760   107580308.740 7      1753.042          45.687    20471850.300   107580308.740 6      1753.042          39.312    20471853.700    83828813.553 6      1366.007          38.812
G02  23146893.160   121637747.517 7      5003.772          45.625    23146890.740   121637747.522 5      5003.772          31.812    23146896.420    94782668.509 5      3899.043          31.875
R11  20962075.360   112014976.716 8      5590.256          49.625    20962075.500   112014976.720 8      5590.256          48.000    20962083.340    87122788.349 8      4347.977          51.000    20962083.080    87122788.348 8      4347.977          51.250
G10  22209305.740   116710690.860 7      3162.455          47.000    22209304.300   116710690.859 7      3162.455          45.562    22209312.820    90943436.704 7      2464.251          46.125    22209311.960    90943419.696 7      2464.251          47.437
G27  20843939.980   109535645.027 7      2123.864          47.187    20843938.860   109535645.037 8      2123.864          48.000    20843944.580    85352469.144 8      1654.959          48.125    20843945.140    85352472.152 8      1654.959          48.937
R21  20482509.660   109606034.788 7      3202.038          46.562    20482510.520   109606034.805 7      3202.038          46.812    20482519.700    85249188.421 8      2490.474          49.312    20482519.820    85249190.423 8      2490.474          49.250
G31  25017629.800   131468521.954 6      -812.306          39.937    25017627.840   131468521.959 5      -812.306          34.000    25017643.240   102443059.838 5      -632.966          34.375    25017644.240   102443071.843 6      -632.966          40.875
R10  19309980.840   102933069.919 7      1460.773          45.187    19309980.760   102933069.927 7      1460.773          44.250
G23  23258198.180   122222656.134 7      1234.639          43.375    23258197.240   122222656.131 4      1234.639          29.562    23258204.040    95238458.070 4       962.056          29.750    23258204.640    95238466.074 7       962.056          44.000
G21  21433919.600   112636008.280 7      4505.595          47.625    21433917.840   112636008.280 5      4505.595          35.875    21433922.820    87768328.502 5      3510.853          35.937
G26  22065606.720   115955541.908 7      -147.688          45.125    22065605.460   115955541.905 7      -147.688          43.187    22065614.820    90355001.616 7      -115.081          43.000    22065614.940    90355003.614 7      -115.081          45.812
> 2024 05 08 12 05 14.0000000  0 13
G08  21590950.600   113461212.722 7      3652.972          44.562    21590949.280   113461212.724 5      3652.972          34.937    21590956.420    88411356.797 5      2846.471          34.625    21590958.440    88411366.801 8      2846.471          49.250
R09  21385915.840   114199591.832 7     -1332.932          42.500    21385915.300   114199591.833 7     -1332.932          42.750    21385928.060    88821949.357 8     -1036.725          48.812    21385928.380    88821951.352 8     -1036.725          49.125
G16  20471518.480   107578555.894 7      1752.414          46.187    20471516.720   107578555.899 6      1752.414          38.875    20471520.180    83827447.701 6      1365.517          38.312
G02  23145941.000   121632743.799 7      5003.337          45.187    23145938.560   121632743.806 5      5003.337          31.812    23145944.200    94778769.513 5      3898.704          31.875
R11  20961028.960   112009386.608 8      5589.559          49.437    20961029.380   112009386.620 8      5589.559          48.625    20961037.180    87118440.502 8      4347.435          50.937    20961037.100    87118440.503 8      4347.435          51.937
G10  22208703.960   116707528.492 7      3161.871          46.562    22208702.640   116707528.497 7      3161.871          45.562    22208711.100    90940972.526 7      2463.795          45.812    22208710.380    90940955.518 7      2463.795          47.375
G27  20843535.900   109533521.238 7      2123.473          47.937    20843534.640   109533521.246 8      2123.473          48.125    20843540.380    85350814.242 8      1654.655          48.312    20843541.060    85350817.246 8      1654.655          49.437
R21  20481911.120   109602832.883 7      3201.393          46.625    20481911.960   109602832.900 7      3201.393          47.375    20481921.240    85246698.050 8      2489.972          49.500    20481921.480    85246700.054 8      2489.972          49.437
G31  25017784.120   131469334.104 6      -812.277          39.875    25017782.460   131469334.109 5      -812.277          34.000    25017797.840   102443692.668 5      -632.943          34.375    25017798.780   102443704.677 6      -632.943          40.875
R10  19309706.780   102931609.494 7      1459.739          45.062    19309706.940   102931609.502 7      1459.739          43.750
G23  23257963.160   122221421.719 7      1233.942          43.500    23257962.400   122221421.718 4      1233.942          29.562    23257969.020    95237496.188 4       961.513          29.750    23257969.760    95237504.193 7       961.513          43.750
G21  21433062.060   112631502.802 7      4504.888          47.000    21433060.420   112631502.807 5      4504.888          35.875    21433065.440    87764817.742 6      3510.302          36.250
G26  22065634.540   115955689.622 7      -148.166          45.625    22065633.520   115955689.627 7      -148.166          42.937    22065642.900    90355116.713 7      -115.454          42.625    22065642.980    90355118.712 7      -115.454          45.687
> 2024 05 08 12 05 15.0000000  0 13
G08  21590255.400   113457559.581 7      3652.961          43.937    21590254.200   113457559.584 5      3652.961          34.875    21590261.220    88408510.194 5      2846.463          34.625    21590263.400    88408520.202 8      2846.463          48.875
R09  21386165.320   114200924.778 7     -1333.190          42.375    21386164.420   114200924.774 7     -1333.190          42.750    21386177.740    88822986.075 8     -1036.926          48.500    21386178.040    88822988.071 8     -1036.926          49.687
G16  20471185.060   107576803.645 7      1751.996          46.062    20471183.340   107576803.650 6      1751.996          39.062    20471186.680    83826082.310 6      1365.192          38.625
G02  23144989.020   121627740.532 7      5003.021          44.687    23144986.540   121627740.542 5      5003.021          31.687    23144992.020    94774870.866 5      3898.458          31.875
R11  20959983.200   112003797.133 8      5589.171          49.312    20959983.460   112003797.140 7      5589.171          47.937    20959991.200    87114093.127 8      4347.133          51.062    20959990.920    87114093.125 8      4347.133          51.125
G10  22208102.400   116704366.797 7      3161.329          47.250    22208101.000   116704366.805 7      3161.329          45.375    22208109.380    90938508.871 7      2463.373          45.500    22208108.740    90938491.868 7      2463.373          47.500
G27  20843131.900   109531397.694 7      2123.410          47.750    20843130.660   109531397.697 8      2123.410          48.000    20843136.280    85349159.530 7      1654.605          47.687    20843137.080    85349162.532 8      1654.605          49.000
R21  20481312.840   109599631.534 7      3201.023          46.812    20481313.820   109599631.557 7      3201.023          47.125    20481322.880    85244208.114 8      2489.685          49.187    20481323.260    85244210.116 8      2489.685          49.437
G31  25017938.300   131470146.191 6      -811.979          39.562    25017936.860   131470146.206 5      -811.979          33.625    25017952.400   102444325.459 5      -632.711          33.625    25017953.580   102444337.469 6      -632.711          40.875
R10  19309432.760   102930149.991 7      1458.995          45.312    19309432.980   102930150.007 7      1458.995          44.000
G23  23257728.240   122220187.984 7      1233.315          43.562    23257727.620   122220187.986 4      1233.315          29.562    23257734.300    95236534.836 4       961.024          29.500    23257735.160    95236542.841 7       961.024          43.562
G21  21432204.940   112626997.902 7      4504.572          47.187    21432203.280   112626997.907 6      4504.572          36.437    21432208.140    87761307.432 6      3510.056          36.250
G26  22065662.820   115955837.790 7      -148.451          44.750    22065661.740   115955837.790 7      -148.451          42.750    22065671.200    90355232.165 7      -115.676          42.437    22065671.360    90355234.153 7      -115.676          45.437
> 2024 05 08 12 05 16.0000000  0 13
G08  21589560.180   113453906.775 7      3652.796          44.312    21589559.020   113453906.777 5      3652.796          34.812    21589566.080    88405663.851 5      2846.334          34.500    21589568.200    88405673.859 8      2846.334          49.687
R09  21386415.000   114202258.386 7     -1333.746          43.375    21386414.620   114202258.374 7     -1333.746          43.062    21386427.460    88824023.307 8     -1037.358          48.750    21386427.720    88824025.301 8     -1037.358          49.500
G16  20470851.520   107575052.107 7      1751.362          45.812    20470849.960   107575052.110 6      1751.362          39.250    20470853.360    83824717.472 6      1364.698          39.000
G02  23144036.800   121622737.833 7      5002.563          45.625    23144034.500   121622737.846 5      5002.563          31.687    23144040.080    94770972.663 5      3898.101          31.875
R11  20958937.360   111998208.409 8      5588.533          49.312    20958937.620   111998208.416 8      5588.533          48.312    20958945.360    87109746.337 8      4346.637          51.000    20958945.240    87109746.336 8      4346.637          51.937
G10  22207501.000   116701205.846 7      3160.691          47.375    22207499.440   116701205.854 7      3160.691          45.625    22207507.880    90936045.793 7      2462.876          45.375    22207507.080    90936028.793 7      2462.876          47.250
G27  20842727.800   109529274.521 7      2123.186          47.687    20842726.560   109529274.526 8      2123.186          48.500    20842732.240    85347505.107 7      1654.430          47.937    20842732.800    85347508.107 8      1654.430          49.437
R21  20480714.320   109596430.895 7      3200.429          47.312    20480715.600   109596430.915 7      3200.429          47.437    20480724.720    85241718.730 8      2489.223          49.562    20480724.860    85241720.732 8      2489.223          49.250
G31  25018092.860   131470958.388 6      -811.996          39.812    25018091.520   131470958.398 5      -811.996          33.625    25018107.140   102444958.328 5      -632.724          33.625    25018107.980   102444970.318 6      -632.724          40.562
R10  19309159.140   102928691.565 7      1458.108          44.750    19309159.200   102928691.581 7      1458.108          43.750
G23  23257493.560   122218955.013 7      1232.756          44.000    23257492.860   122218955.018 4      1232.756          29.562    23257499.820    95235574.077 4       960.589          29.500    23257500.780    95235582.081 7       960.589          44.000
G21  21431347.860   112622493.730 7      4503.984          47.437    21431346.120   112622493.737 5      4503.984          35.875    21431351.060    87757797.690 6      3509.598          36.000
G26  22065691.320   115955986.505 7      -148.761          44.812    22065690.120   115955986.505 7      -148.761          42.875    22065699.480    90355348.036 7      -115.917          42.750    22065699.420    90355350.027 7      -115.917          45.500
> 2024 05 08 12 05 17.0000000  0 13
G08  21588865.140   113450254.118 7      3652.504          43.687    21588863.960   113450254.117 5      3652.504          34.812    21588871.100    88402817.627 5      2846.107          34.875    21588872.840    88402827.629 8      2846.107          48.562
R09  21386665.120   114203592.374 7     -1334.160          43.500    21386664.560   114203592.380 7     -1334.160          42.937    21386677.160    88825060.853 8     -1037.680          49.062    21386677.640    88825062.849 8     -1037.680          48.937
G16  20470518.400   107573301.064 7      1750.668          45.437    20470516.780   107573301.069 6      1750.668          39.187    20470520.060    83823353.022 6      1364.157          38.687
G02  23143085.020   121617735.507 7      5001.965          46.187    23143082.500   121617735.514 5      5001.965          31.687    23143088.080    94767074.747 5      3897.635          31.875
R11  20957891.840   111992620.225 8      5587.796          49.125    20957891.780   111992620.231 8      5587.796          48.125    20957899.580    87105399.982 8      4346.064          51.437    20957899.340    87105399.978 8      4346.064          51.500
G10  22206899.740   116698045.471 7      3159.918          46.500    22206898.060   116698045.476 7      3159.918          45.687    22206906.380    90933583.162 7      2462.273          45.500    22206905.840    90933566.159 7      2462.273          47.250
G27  20842323.840   109527151.515 7      2122.850          47.312    20842322.620   109527151.523 8      2122.850          48.250    20842328.280    85345850.819 8      1654.169          48.250    20842328.740    85345853.817 8      1654.169          49.250
R21  20480116.560   109593230.713 7      3199.861          47.312    20480117.560   109593230.736 7      3199.861          47.437    20480126.660    85239229.700 8      2488.781          49.437    20480127.060    85239231.702 8      2488.781          49.250
G31  25018247.700   131471770.404 6      -811.984          40.062    25018246.160   131471770.412 5      -811.984          33.625    25018261.600   102445591.053 5      -632.715          33.562    25018262.360   102445603.061 6      -632.715          40.562
R10  19308885.480   102927234.021 7      1456.971          45.000    19308885.880   102927234.046 7      1456.971          44.000
G23  23257258.980   122217722.647 7      1231.872          43.937    23257258.380   122217722.654 4      1231.872          29.187    23257265.380    95234613.792 4       959.900          29.500    23257265.980    95234621.802 7       959.900          43.875
G21  21430490.840   112617990.062 7      4503.323          46.687    21430489.100   112617990.067 6      4503.323          36.062    21430493.980    87754288.344 6      3509.083          36.000
G26  22065719.700   115956135.593 7      -149.375          44.937    22065718.540   115956135.587 7      -149.375          42.875    22065727.860    90355464.201 7      -116.396          42.500    22065727.700    90355466.193 7      -116.396          45.500
> 2024 05 08 12 05 18.0000000  0 13
G08  21588170.160   113446601.803 7      3652.287          44.875    21588168.980   113446601.805 5      3652.287          34.875    21588176.120    88399971.669 5      2845.938          34.875    21588177.660    88399981.667 8      2845.938          49.000
R09  21386915.100   114204927.037 7     -1334.524          42.312    21386914.420   114204927.043 7     -1334.524          42.937    21386927.340    88826098.909 8     -1037.963          48.250    21386927.580    88826100.904 8     -1037.963          49.437
G16  20470185.320   107571550.748 7      1750.192          46.437    20470183.700   107571550.750 6      1750.192          39.500    20470186.980    83821989.136 6      1363.786          39.187
G02  23142133.540   121612733.735 7      5001.698          45.687    23142130.560   121612733.743 5      5001.698          31.875    23142136.520    94763177.264 5      3897.427          31.875
R11  20956845.980   111987032.815 8      5587.181          49.312    20956846.120   111987032.827 7      5587.181          47.937    20956854.000    87101054.225 8      4345.585          50.937    20956853.840    87101054.224 8      4345.585          51.687
G10  22206298.360   116694885.860 7      3159.387          46.500    22206296.800   116694885.862 7      3159.387          45.875    22206305.220    90931121.128 7      2461.860          45.750    22206304.760    90931104.122 7      2461.860          47.437
G27  20841919.860   109525028.894 7      2122.686          47.812    20841918.760   109525028.898 8      2122.686          48.125    20841924.440    85344196.824 8      1654.041          48.187    20841924.880    85344199.822 8      1654.041          49.312
R21  20479518.880   109590031.205 7      3199.482          47.750    20479519.520   109590031.217 7      3199.482          47.187    20479528.740    85236741.185 8      2488.486          49.187    20479529.080    85236743.185 8      2488.486          48.937
G31  25018402.160   131472582.512 6      -811.901          40.312    25018400.500   131472582.522 5      -811.901          33.625    25018416.180   102446223.852 5      -632.650          33.562    25018416.700   102446235.854 6      -632.650          40.437
R10  19308612.640   102925777.554 7      1456.230          44.562    19308612.840   102925777.568 7      1456.230          44.000
G23  23257024.780   122216491.058 7      1231.385          44.562    23257024.040   122216491.063 4      1231.385          29.187    23257031.040    95233654.110 4       959.521          29.500    23257031.340    95233662.114 7       959.521          43.562
G21  21429634.100   112613487.135 7      4502.805          47.312    21429632.140   112613487.137 6      4502.805          36.062    21429637.200    87750779.568 6      3508.679          36.062
G26  22065748.300   115956285.233 7      -149.662          45.562    22065747.100   115956285.232 7      -149.662          42.937    22065756.320    90355580.799 7      -116.620          42.375    22065756.360    90355582.791 7      -116.620          45.687
> 2024 05 08 12 05 19.0000000  0 13
G08  21587475.240   113442949.579 7      3652.177          44.812    21587474.080   113442949.576 5      3652.177          34.937    21587481.100    88397125.777 5      2845.852          34.500    21587482.700    88397135.774 8      2845.852          49.062
R09  21387164.680   114206262.122 7     -1335.286          42.937    21387164.640   114206262.144 7     -1335.286          42.875    21387177.380    88827137.307 8     -1038.556          49.000    21387177.420    88827139.301 8     -1038.556          49.062
G16  20469852.480   107569800.908 7      1749.574          45.750    20469850.760   107569800.916 6      1749.574          38.750    20469854.120    83820625.624 6      1363.304          38.437
G02  23141181.720   121607732.308 7      5001.269          45.812    23141178.900   121607732.315 5      5001.269          31.875    23141184.720    94759280.054 5      3897.093          32.062
R11  20955800.140   111981445.948 8      5586.685          49.375    20955801.000   111981445.960 8      5586.685          48.937    20955808.420    87096708.876 8      4345.200          51.375    20955808.480    87096708.872 8      4345.200          51.437
G10  22205697.240   116691726.763 7      3158.902          46.687    22205695.740   116691726.768 7      3158.902          46.062    22205704.140    90928659.494 7      2461.482          45.875    22205703.520    90928642.495 7      2461.482          47.375
G27  20841516.100   109522906.437 7      2122.421          47.375    20841514.820   109522906.440 8      2122.421          48.687    20841520.460    85342542.958 8      1653.834          48.500    20841521.080    85342545.958 8      1653.834          49.437
R21  20478921.220   109586832.131 7      3198.944          47.625    20478921.580   109586832.145 7      3198.944          47.562    20478930.880    85234253.020 8      2488.068          49.375    20478931.000    85234255.023 8      2488.068          49.250
G31  25018556.760   131473394.468 6      -811.836          40.187    25018555.020   131473394.478 5      -811.836          33.812    25018570.600   102446856.535 5      -632.600          33.875    25018571.120   102446868.529 6      -632.600          40.437
R10  19308339.660   102924321.940 7      1455.275          44.875    19308339.620   102924321.949 7      1455.275          43.812
G23  23256790.420   122215260.043 7      1230.782          44.500    23256789.740   122215260.045 4      1230.782          29.187    23256796.860    95232694.877 4       959.051          29.187    23256797.340    95232702.877 7       959.051          43.750
G21  21428777.480   112608984.707 7      4502.234          47.250    21428775.300   112608984.709 6      4502.234          36.062    21428780.500    87747271.181 6      3508.234          36.375
G26  22065776.760   115956435.233 7      -150.154          45.187    22065775.680   115956435.235 7      -150.154          43.000    22065784.820    90355697.680 7      -117.003          42.625    22065785.000    90355699.670 7      -117.003          45.750
> 2024 05 08 12 05 20.0000000  0 13
G08  21586780.200   113439297.377 7      3651.976          44.812    21586779.060   113439297.371 5      3651.976          34.937    21586785.980    88394279.907 5      2845.696          34.625    21586787.880    88394289.908 8      2845.696          49.000
R09  21387414.600   114207597.530 7     -1335.788          42.000    21387414.600   114207597.544 7     -1335.788          42.937    21387427.320    88828175.943 8     -1038.946          48.562    21387427.620    88828177.937 8     -1038.946          49.125
G16  20469519.480   107568051.467 7      1749.013          45.875    20469517.860   107568051.472 6      1749.013          39.062    20469521.120    83819262.419 6      1362.867          38.687
G02  23140230.040   121602731.148 7      5000.792          44.875    23140227.200   121602731.156 5      5000.792          31.875    23140233.060    94755383.049 5      3896.721          32.062
R11  20954754.960   111975859.520 8      5585.956          48.750    20954755.600   111975859.531 8      5585.956          48.312    20954763.040    87092363.878 8      4344.632          50.812    20954763.120    87092363.874 8      4344.632          51.187
G10  22205096.000   116688568.130 7      3158.221          46.562    22205094.640   116688568.132 7      3158.221          45.250    22205103.040    90926198.223 7      2460.952          45.562    22205102.280    90926181.220 7      2460.952          46.875
G27  20841112.240   109520784.020 7      2122.183          47.750    20841111.020   109520784.025 7      2122.183          47.562    20841116.580    85340889.129 7      1653.649          47.750    20841117.000    85340892.126 8      1653.649          49.000
R21  20478323.060   109583633.417 7      3198.300          46.937    20478323.760   109583633.435 7      3198.300          47.625    20478332.980    85231765.139 8      2487.567          49.250    20478333.220    85231767.141 8      2487.567          48.687
G31  25018710.920   131474206.145 6      -811.731          40.437    25018709.540   131474206.155 5      -811.731          33.812    25018724.940   102447488.998 5      -632.518          33.687    25018725.420   102447501.000 6      -632.518          40.312
R10  19308066.720   102922867.067 7      1454.298          44.875    19308066.540   102922867.081 7      1454.298          43.625
G23  23256556.420   122214029.492 7      1230.102          43.562    23256555.560   122214029.494 4      1230.102          29.187    23256562.660    95231736.003 4       958.521          29.187    23256562.940    95231744.012 7       958.521          43.750
G21  21427920.740   112604482.681 7      4501.660          46.687    21427918.540   112604482.684 6      4501.660          36.062    21427923.800    87743763.113 6      3507.787          36.375
G26  22065805.440   115956585.458 7      -150.549          45.437    22065804.220   115956585.463 7      -150.549          43.125    22065813.420    90355814.735 7      -117.311          43.062    22065813.660    90355816.729 7      -117.311          45.625
> 2024 05 08 12 05 21.0000000  0 13
G08  21586085.160   113435645.553 7      3651.714          44.375    21586083.960   113435645.552 5      3651.714          34.875    21586091.040    88391434.332 5      2845.492          34.625    21586093.160    88391444.333 8      2845.492          49.250
R09  21387665.180   114208933.602 7     -1336.220          43.625    21387665.300   114208933.614 7     -1336.220          43.000    21387677.500    88829215.092 8     -1039.282          48.875    21387677.820    88829217.084 8     -1039.282          48.937
G16  20469186.760   107566302.757 7      1748.479          44.687    20469185.040   107566302.759 6      1748.479          39.250    20469188.400    83817899.786 6      1362.451          38.937
G02  23139278.480   121597730.564 7      5000.443          45.250    23139275.600   121597730.569 5      5000.443          31.750    23139281.580    94751486.494 5      3896.449          32.062
R11  20953709.680   111970273.879 8      5585.293          50.312    20953710.100   111970273.891 8      5585.293          48.125    20953717.720    87088019.493 8      4344.116          51.000    20953717.700    87088019.489 8      4344.116          51.375
G10  22204495.120   116685410.290 7      3157.602          46.500    22204493.700   116685410.295 7      3157.602          45.687    22204502.180    90923737.573 7      2460.469          46.000    22204501.560    90923720.571 7      2460.469          46.937
G27  20840708.280   109518662.006 7      2122.029          47.750    20840707.260   109518662.008 7      2122.029          47.687    20840712.780    85339235.609 7      1653.529          47.750    20840713.300    85339238.608 8      1653.529          49.125
R21  20477725.340   109580435.416 7      3197.754          45.875    20477726.180   109580435.431 7      3197.754          47.375    20477735.420    85229277.802 8      2487.142          49.125    20477735.800    85229279.804 8      2487.142          49.000
G31  25018865.680   131475017.935 6      -811.628          40.187    25018864.060   131475017.942 5      -811.628          33.687    25018879.560   102448121.549 5      -632.438          33.687    25018879.560   102448133.547 6      -632.438          40.312
R10  19307794.600   102921413.292 7      1453.436          44.625    19307794.060   102921413.308 7      1453.436          43.812
G23  23256322.440   122212799.782 7      1229.323          44.375    23256321.540   122212799.784 4      1229.323          29.312    23256328.460    95230777.785 4       957.914          29.187    23256328.980    95230785.795 7       957.914          43.687
G21  21427064.160   112599981.418 7      4500.969          46.500    21427061.900   112599981.423 5      4500.969          35.687    21427067.300    87740255.637 6      3507.248          36.125
G26  22065833.840   115956736.288 7      -150.980          45.187    22065832.960   115956736.290 7      -150.980          42.812    22065842.160    90355932.252 7      -117.647          42.937    22065842.360    90355934.245 7      -117.647          45.750
> 2024 05 08 12 05 22.0000000  0 13
G08  21585390.360   113431993.855 7      3651.712          43.875    21585389.160   113431993.855 5      3651.712          34.562    21585396.160    88388588.857 5      2845.490          34.625    21585398.240    88388598.863 8      2845.490          48.937
R09  21387915.300   114210270.140 7     -1336.581          43.250    21387915.440   114210270.149 7     -1336.581          43.000    21387927.780    88830254.610 8     -1039.563          48.187    21387927.980    88830256.605 8     -1039.563          49.062
G16  20468853.940   107564554.572 7      1747.999          45.687    20468852.340   107564554.585 6      1747.999          39.375    20468855.740    83816537.572 6      1362.078          39.000
G02  23138326.960   121592730.380 7      5000.103          45.437    23138324.000   121592730.387 5      5000.103          31.750    23138330.060    94747590.250 5      3896.184          32.000
R11  20952664.440   111964688.807 8      5584.850          49.250    20952665.000   111964688.814 8      5584.850          48.375    20952672.600    87083675.548 8      4343.772          50.750    20952672.580    87083675.549 8      4343.772          51.750
G10  22203894.280   116682253.038 7      3156.989          46.562    22203892.840   116682253.046 7      3156.989          45.312    22203901.400    90921277.379 7      2459.992          45.437    22203900.560    90921260.379 7      2459.992          47.250
G27  20840304.580   109516540.209 8      2121.713          48.687    20840303.460   109516540.216 7      2121.713          47.937    20840309.020    85337582.265 8      1653.283          48.187    20840309.600    85337585.262 8      1653.283          48.875
R21  20477127.880   109577237.910 7      3197.380          47.625    20477128.400   109577237.925 7      3197.380          47.750    20477137.800    85226790.857 8      2486.851          48.875    20477138.380    85226792.855 8      2486.851          48.500
G31  25019020.300   131475829.625 6      -811.657          40.000    25019018.660   131475829.632 5      -811.657          33.687    25019033.940   102448754.025 5      -632.460          33.687    25019034.040   102448766.041 6      -632.460          40.312
R10  19307522.180   102919960.442 7      1452.448          45.125    19307521.400   102919960.450 7      1452.448          43.562
G23  23256088.640   122211570.635 7      1228.960          43.500    23256087.500   122211570.639 4      1228.960          29.312    23256094.540    95229820.006 4       957.631          29.187    23256095.240    95229828.020 7       957.631          43.625
G21  21426207.540   112595480.666 7      4500.542          46.812    21426205.540   112595480.674 5      4500.542          35.625    21426210.860    87736748.560 5      3506.916          35.812
G26  22065862.740   115956887.483 7      -151.274          45.000    22065861.680   115956887.486 7      -151.274          42.750    22065870.980    90356050.063 7      -117.876          43.000    22065871.040    90356052.057 7      -117.876          45.437
> 2024 05 08 12 05 23.0000000  0 13
G08  21584695.540   113428342.296 7      3651.507          44.562    21584694.320   113428342.299 5      3651.507          34.562    21584701.280    88385743.484 5      2845.330          34.062    21584703.200    88385753.490 8      2845.330          48.750
R09  21388165.480   114211607.133 7     -1337.340          43.000    21388165.820   114211607.142 7     -1337.340          43.250    21388178.340    88831294.480 8     -1040.154          48.000    21388178.520    88831296.474 8     -1040.154          48.687
G16  20468521.200   107562806.903 7      1747.346          46.000    20468519.960   107562806.910 6      1747.346          39.062    20468523.160    83815175.747 6      1361.569          38.625
G02  23137375.260   121587730.568 7      4999.461          45.437    23137372.420   121587730.575 5      4999.461          31.937    23137378.680    94743694.295 5      3895.684          32.000
R11  20951619.400   111959104.294 8      5584.164          49.312    20951619.700   111959104.301 8      5584.164          48.187    20951627.340    87079332.042 8      4343.238          50.937    20951627.480    87079332.036 8      4343.238          51.250
G10  22203293.740   116679096.325 7      3156.339          46.000    22203292.180   116679096.330 7      3156.339          45.812    22203300.600    90918817.598 7      2459.485          45.812    22203299.900    90918800.597 7      2459.485          47.125
G27  20839900.840   109514418.570 8      2121.439          48.312    20839899.840   109514418.572 8      2121.439          48.500    20839905.320    85335929.033 8      1653.070          48.437    20839905.940    85335932.031 8      1653.070          49.187
R21  20476530.260   109574040.874 7      3196.778          47.375    20476530.960   109574040.881 7      3196.778          47.187    20476540.320    85224304.268 8      2486.383          49.125    20476540.580    85224306.266 8      2486.383          48.625
G31  25019174.200   131476641.149 6      -811.480          40.625    25019173.100   131476641.157 5      -811.480          33.687    25019188.340   102449386.371 5      -632.322          33.687    25019188.820   102449398.372 6      -632.322          40.000
R10  19307249.540   102918508.426 7      1451.514          44.875    19307249.120   102918508.429 7      1451.514          43.562
G23  23255854.640   122210342.091 7      1228.264          43.562    23255853.620   122210342.096 4      1228.264          29.312    23255860.560    95228862.697 4       957.089          29.125    23255861.360    95228870.701 7       957.089          43.687
G21  21425350.920   112590980.430 7      4499.904          47.437    21425349.180   112590980.432 6      4499.904          36.062    21425354.500    87733241.884 5      3506.418          35.937
G26  22065891.660   115957039.052 7      -151.844          45.375    22065890.460   115957039.051 7      -151.844          43.125    22065899.860    90356168.160 7      -118.320          43.000    22065899.960    90356170.154 7      -118.320          45.625
> 2024 05 08 12 05 24.0000000  0 13
G08  21584000.620   113424691.027 7      3651.188          43.875    21583999.640   113424691.021 5      3651.188          34.500    21584006.480    88382898.337 5      2845.081          34.062    21584008.700    88382908.349 8      2845.081          49.000
R09  21388416.120   114212944.691 7     -1337.777          43.250    21388416.640   114212944.692 7     -1337.777          42.687    21388428.700    88832334.786 8     -1040.493          48.187    21388429.080    88832336.782 8     -1040.493          49.062
G16  20468188.700   107561059.877 7      1746.808          46.000    20468187.440   107561059.887 6      1746.808          39.000    20468190.820    83813814.426 6      1361.149          38.687
G02  23136423.740   121582731.235 7      4999.127          45.812    23136421.140   121582731.242 5      4999.127          31.937    23136427.420    94739798.709 5      3895.424          32.000
R11  20950574.700   111953520.478 8      5583.498          49.937    20950574.940   111953520.487 8      5583.498          48.875    20950582.660    87074989.078 8      4342.721          50.875    20950582.420    87074989.075 8      4342.721          51.187
G10  22202693.080   116675940.332 7      3155.662          46.500    22202691.680   116675940.337 7      3155.662          45.750    22202700.160    90916358.389 7      2458.958          45.812    22202699.600    90916341.388 7      2458.958          47.125
G27  20839497.300   109512297.227 8      2121.304          48.125    20839496.180   109512297.230 7      2121.304          47.687    20839501.660    85334276.043 7      1652.964          47.937    20839501.880    85334279.039 8      1652.964          49.062
R21  20475933.320   109570844.449 8      3196.199          48.250    20475933.460   109570844.466 7      3196.199          46.937    20475943.120    85221818.169 8      2485.933          48.937    20475943.540    85221820.165 8      2485.933          48.375
G31  25019328.560   131477452.692 6      -811.407          40.062    25019327.500   131477452.702 5      -811.407          33.687    25019342.880   102450018.732 5      -632.265          33.687    25019343.240   102450030.733 6      -632.265          40.000
R10  19306977.460   102917057.399 7      1450.674          44.812    19306976.760   102917057.404 7      1450.674          43.687
G23  23255621.200   122209114.271 7      1227.642          44.062    23255619.920   122209114.270 4      1227.642          29.312    23255627.160    95227905.956 4       956.604          29.125    23255628.080    95227913.960 7       956.604          43.687
G21  21424495.080   112586480.851 8      4499.318          48.250    21424493.000   112586480.855 6      4499.318          36.062    21424498.240    87729735.723 6      3505.962          36.250
G26  22065920.340   115957191.101 7      -152.194          45.062    22065919.480   115957191.103 7      -152.194          42.687    22065928.760    90356286.635 7      -118.593          42.500    22065929.000    90356288.626 7      -118.593          45.437
> 2024 05 08 12 05 25.0000000  0 13
G08  21583305.820   113421039.896 7      3650.892          44.125    21583304.680   113421039.899 5      3650.892          34.562    21583311.760    88380053.305 5      2844.851          34.500    21583313.880    88380063.323 8      2844.851          48.937
R09  21388666.560   114214282.739 7     -1338.502          42.937    21388666.880   114214282.735 7     -1338.502          43.375    21388679.460    88833375.475 8     -1041.057          48.125    21388679.660    88833377.472 8     -1041.057          49.250
G16  20467856.220   107559313.394 7      1746.021          46.000    20467854.980   107559313.399 6      1746.021          38.812    20467858.480    83812453.523 6      1360.536          38.750
G02  23135472.560   121577732.316 7      4998.481          45.250    23135470.000   121577732.327 5      4998.481          31.937    23135476.220    94735903.456 5      3894.920          32.125
R11  20949529.680   111947937.250 8      5582.746          49.812    20949530.400   111947937.257 8      5582.746          48.250    20949537.720    87070646.568 8      4342.136          50.875    20949537.640    87070646.566 8      4342.136          51.437
G10  22202092.600   116672784.912 7      3154.844          47.000    22202091.180   116672784.917 7      3154.844          46.000    22202099.700    90913899.622 7      2458.320          46.312    22202098.940    90913882.621 7      2458.320          47.062
G27  20839093.580   109510176.103 8      2120.847          48.000    20839092.500   109510176.108 8      2120.847          48.562    20839098.120    85332623.217 8      1652.608          48.750    20839098.620    85332626.219 8      1652.608          49.312
R21  20475335.820   109567648.513 7      3195.503          47.312    20475336.160   109567648.533 7      3195.503          47.500    20475345.680    85219332.446 8      2485.392          48.500    20475346.060    85219334.444 8      2485.392          48.500
G31  25019483.020   131478264.114 6      -811.464          39.562    25019481.860   131478264.125 5      -811.464          33.187    25019497.360   102450650.999 5      -632.309          33.062    25019497.860   102450662.999 6      -632.309          40.000
R10  19306705.140   102915607.288 7      1449.488          44.937    19306704.600   102915607.294 7      1449.488          43.687
G23  23255387.660   122207887.078 7      1226.725          43.500    23255386.320   122207887.078 4      1226.725          29.125    23255393.540    95226949.704 4       955.890          29.125    23255394.460    95226957.714 7       955.890          44.000
G21  21423638.780   112581981.807 7      4498.605          47.562    21423636.820   112581981.809 6      4498.605          36.062    21423642.160    87726229.974 6      3505.406          36.250
G26  22065949.140   115957343.571 7      -152.935          45.437    22065948.500   115957343.573 7      -152.935          42.187    22065957.800    90356405.439 7      -119.170          42.250    22065957.900    90356407.429 7      -119.170          45.875
> 2024 05 08 12 05 26.0000000  0 13
G08  21582611.080   113417388.989 7      3650.824          44.562    21582609.960   113417388.992 5      3650.824          34.562    21582617.080    88377208.448 5      2844.798          34.500    21582618.780    88377218.454 8      2844.798          48.937
R09  21388917.380   114215621.266 7     -1338.741          43.250    21388917.780   114215621.267 7     -1338.741          43.062    21388930.040    88834416.543 8     -1041.243          48.375    21388930.320    88834418.538 8     -1041.243          49.250
G16  20467524.180   107557567.477 7      1745.597          45.687    20467522.960   107557567.485 6      1745.597          39.375    20467526.200    83811093.072 6      1360.206          39.062
G02  23134521.460   121572733.813 7      4998.214          44.937    23134518.840   121572733.826 5      4998.214          31.750    23134524.980    94732008.525 5      3894.712          32.125
R11  20948485.200   111942354.655 8      5582.231          49.250    20948485.400   111942354.665 8      5582.231          48.187    20948493.020    87066304.560 8      4341.735          51.000    20948492.800    87066304.556 8      4341.735          51.062
G10  22201492.300   116669630.128 7      3154.438          46.312    22201490.860   116669630.130 7      3154.438          45.687    22201499.260    90911441.347 7      2458.004          46.000    22201498.520    90911424.345 7      2458.004          47.187
G27  20838690.080   109508055.213 7      2120.830          47.812    20838688.940   109508055.218 8      2120.830          48.562    20838694.520    85330970.574 8      1652.595          48.812    20838695.140    85330973.573 8      1652.595          48.937
R21  20474738.620   109564453.118 8      3195.104          48.125    20474739.060   109564453.135 7      3195.104          47.062    20474748.620    85216847.138 8      2485.081          48.812    20474748.960    85216849.136 8      2485.081          48.062
G31  25019637.840   131479075.497 6      -811.423          39.625    25019636.180   131479075.507 5      -811.423          33.187    25019651.640   102451283.239 5      -632.277          33.062    25019652.580   102451295.221 6      -632.277          39.937
R10  19306433.740   102914158.100 7      1448.661          45.000    19306432.680   102914158.095 7      1448.661          44.000
G23  23255154.180   122206660.542 7      1226.226          43.875    23255152.920   122206660.544 4      1226.226          29.125    23255160.280    95225993.962 4       955.501          29.125    23255161.320    95226001.968 7       955.501          44.000
G21  21422782.560   112577483.355 7      4498.206          46.687    21422780.840   112577483.357 5      4498.206          35.937    21422786.100    87722724.689 6      3505.096          36.000
G26  22065978.360   115957496.440 7      -153.101          45.062    22065977.600   115957496.437 7      -153.101          43.062    22065986.900    90356524.543 7      -119.300          42.875    22065987.060    90356526.538 7      -119.300          45.437
> 2024 05 08 12 05 27.0000000  0 13
G08  21581916.300   113413738.414 7      3650.593          44.125    21581915.340   113413738.416 5      3650.593          34.687    21581922.420    88374363.842 5      2844.618          34.500    21581923.960    88374373.850 8      2844.618          48.500
R09  21389168.300   114216960.457 7     -1339.368          44.000    21389168.860   114216960.461 7     -1339.368          43.062    21389180.800    88835458.124 8     -1041.731          48.625    21389181.080    88835460.118 8     -1041.731          48.750
G16  20467192.520   107555822.267 7      1745.067          45.437    20467190.700   107555822.274 6      1745.067          39.000    20467194.020    83809733.166 6      1359.793          38.687
G02  23133570.340   121567735.902 7      4997.728          45.687    23133567.880   121567735.912 5      4997.728          31.750    23133573.880    94728114.050 5      3894.334          32.187
R11  20947440.680   111936772.825 8      5581.551          49.187    20947440.940   111936772.834 8      5581.551          48.812    20947448.500    87061963.134 8      4341.206          51.000    20947448.300    87061963.132 8      4341.206          51.000
G10  22200891.960   116666476.116 7      3153.679          47.000    22200890.700   116666476.118 7      3153.679          45.687    22200899.160    90908983.675 7      2457.412          45.750    22200898.280    90908966.678 7      2457.412          47.187
G27  20838286.380   109505934.720 8      2120.467          48.562    20838285.400   109505934.719 8      2120.467          49.000    20838290.960    85329318.237 8      1652.312          48.625    20838291.620    85329321.237 8      1652.312          49.375
R21  20474141.780   109561258.370 7      3194.533          47.062    20474142.140   109561258.387 7      3194.533          47.375    20474151.620    85214362.332 8      2484.637          48.937    20474151.880    85214364.330 8      2484.637          48.562
G31  25019792.140   131479886.961 6      -811.693          40.187    25019790.660   131479886.966 5      -811.693          33.312    25019806.020   102451915.535 5      -632.488          33.437    25019807.300   102451927.533 6      -632.488          39.937
R10  19306161.800   102912709.943 7      1447.697          44.687    19306160.900   102912709.947 7      1447.697          43.250
G23  23254920.860   122205434.792 7      1225.493          43.937    23254919.680   122205434.797 4      1225.493          29.125    23254927.020    95225038.828 4       954.930          29.187    23254928.060    95225046.833 7       954.930          44.000
G21  21421926.600   112572985.630 7      4497.443          47.750    21421924.860   112572985.638 5      4497.443          35.937    21421930.100    87719219.975 6      3504.501          36.250
G26  22066007.520   115957649.892 7      -153.673          44.875    22066006.840   115957649.894 7      -153.673          43.312    22066016.080    90356644.116 7      -119.745          43.437    22066016.360    90356646.111 7      -119.745          45.812
> 2024 05 08 12 05 28.0000000  0 13
G08  21581221.740   113410087.872 7      3650.624          44.687    21581220.480   113410087.874 5      3650.624          34.687    21581227.600    88371519.264 5      2844.642          34.187    21581229.300    88371529.269 8      2844.642          48.625
R09  21389419.020   114218299.977 7     -1339.612          43.062    21389419.500   114218299.988 7     -1339.612          42.875    21389431.660    88836499.966 8     -1041.920          48.062    21389431.860    88836501.963 8     -1041.920          49.000
G16  20466860.500   107554077.479 7      1744.692          44.562    20466858.840   107554077.490 6      1744.692          39.000    20466861.920    83808373.591 6      1359.500          38.500
G02  23132619.500   121562738.237 7      4997.622          45.562    23132616.820   121562738.242 5      4997.622          31.750    23132622.860    94724219.766 5      3894.251          32.187
R11  20946396.080   111931191.435 8      5581.230          48.437    20946396.400   111931191.444 7      5581.230          47.937    20946404.020    87057622.059 8      4340.956          51.125    20946403.760    87057622.058 8      4340.956          51.125
G10  22200291.860   116663322.561 7      3153.383          47.062    22200290.540   116663322.566 7      3153.383          45.812    22200298.980    90906526.364 7      2457.182          46.125    22200298.340    90906509.366 7      2457.182          47.375
G27  20837882.940   109503814.297 8      2120.437          48.437    20837881.940   109503814.299 7      2120.437          47.875    20837887.440    85327665.962 8      1652.288          48.312    20837888.120    85327668.959 8      1652.288          49.375
R21  20473544.940   109558064.015 8      3194.170          48.062    20473545.020   109558064.025 7      3194.170          47.250    20473554.740    85211877.828 8      2484.354          49.000    20473554.780    85211879.830 7      2484.354          47.687
G31  25019946.420   131480698.137 6      -811.029          39.937    25019945.100   131480698.139 5      -811.029          33.312    25019960.520   102452547.603 5      -631.970          33.437    25019961.240   102452559.597 6      -631.970          40.000
R10  19305890.140   102911262.541 7      1447.082          45.125    19305889.560   102911262.550 7      1447.082          43.750
G23  23254687.620   122204209.533 7      1225.029          43.875    23254686.700   122204209.541 4      1225.029          29.125    23254693.940    95224084.079 4       954.568          29.187    23254694.960    95224092.086 7       954.568          43.812
G21  21421070.860   112568488.305 7      4497.220          47.250    21421068.980   112568488.308 6      4497.220          36.125    21421074.320    87715715.564 6      3504.327          36.125
G26  22066036.820   115957803.596 7      -153.873          45.625    22066035.880   115957803.599 7      -153.873          43.062    22066045.320    90356763.880 7      -119.901          42.562    22066045.580    90356765.876 7      -119.901          45.625
> 2024 05 08 12 05 29.0000000  0 13
G08  21580526.840   113406437.608 7      3650.233          44.062    21580525.820   113406437.603 5      3650.233          34.562    21580532.980    88368674.896 5      2844.337          34.187    21580534.680    88368684.904 8      2844.337          48.562
R09  21389670.260   114219640.068 7     -1340.272          43.000    21389670.420   114219640.077 7     -1340.272          43.125    21389682.700    88837542.245 7     -1042.433          47.937    21389682.940    88837544.239 8     -1042.433          49.062
G16  20466528.680   107552333.333 7      1743.923          45.687    20466526.900   107552333.343 6      1743.923          39.000    20466530.180    83807014.516 6      1358.901          38.625
G02  23131668.400   121557741.087 7      4996.918          45.687    23131666.060   121557741.092 5      4996.918          31.750    23131672.040    94720325.889 5      3893.702          32.187
R11  20945351.740   111925610.732 8      5580.462          49.437    20945352.080   111925610.733 8      5580.462          48.437    20945359.660    87053281.510 8      4340.359          51.312    20945359.340    87053281.509 8      4340.359          51.687
G10  22199691.760   116660169.708 7      3152.523          47.437    22199690.680   116660169.715 7      3152.523          45.750    22199699.020    90904069.601 7      2456.512          46.000    22199698.460    90904052.602 7      2456.512          47.562
G27  20837479.520   109501694.163 8      2120.087          48.250    20837478.480   109501694.168 8      2120.087          48.250    20837484.100    85326013.914 8      1652.016          48.375    20837484.840    85326016.911 8      1652.016          49.187
R21  20472948.080   109554870.260 7      3193.562          47.562    20472948.180   109554870.269 7      3193.562          47.437    20472957.880    85209393.798 8      2483.881          48.437    20472958.080    85209395.800 8      2483.881          48.437
G31  25020100.540   131481509.327 6      -811.062          40.500    25020099.420   131481509.330 5      -811.062          33.750    25020114.840   102453179.685 5      -631.996          33.625    25020115.940   102453191.677 6      -631.996          40.000
R10  19305618.820   102909816.149 7      1445.864          44.562    19305617.760   102909816.157 7      1445.864          43.562
G23  23254454.420   122202984.994 7      1224.249          43.875    23254453.440   122202984.997 4      1224.249          28.875    23254460.780    95223129.890 4       953.960          29.187    23254461.500    95223137.896 7       953.960          43.750
G21  21420215.160   112563991.643 7      4496.439          47.562    21420213.280   112563991.647 5      4496.439          35.750    21420218.580    87712211.675 6      3503.719          36.125
G26  22066066.280   115957957.777 7      -154.310          45.625    22066065.360   115957957.781 7      -154.310          43.000    22066074.540    90356884.018 7      -120.242          42.750    22066074.940    90356886.009 7      -120.242          45.875
> 2024 05 08 12 05 30.0000000  0 13
G08  21579832.340   113402787.534 7      3649.931          43.437    21579831.160   113402787.531 5      3649.931          34.375    21579838.280    88365830.687 5      2844.102          34.250    21579839.940    88365840.697 8      2844.102          48.750
R09  21389921.380   114220980.666 7     -1340.911          43.812    21389921.440   114220980.678 7     -1340.911          43.312    21389933.800    88838584.922 7     -1042.931          47.875    21389934.040    88838586.918 8     -1042.931          49.187
G16  20466196.880   107550589.775 7      1743.238          44.937    20466195.080   107550589.783 6      1743.238          38.937    20466198.480    83805655.896 6      1358.368          38.687
G02  23130717.400   121552744.368 7      4996.463          45.000    23130715.080   121552744.373 5      4996.463          31.750    23130721.160    94716432.346 5      3893.348          32.125
R11  20944307.580   111920030.643 8      5579.678          49.187    20944307.860   111920030.647 8      5579.678          48.437    20944315.340    87048941.445 8      4339.750          50.750    20944315.060    87048941.444 8      4339.750          51.375
G10  22199091.900   116657017.499 7      3151.755          47.062    22199090.700   116657017.501 7      3151.755          45.812    22199099.280    90901613.332 7      2455.913          45.812    22199098.500    90901596.333 7      2455.913          46.562
G27  20837076.220   109499574.316 8      2119.627          48.312    20837075.120   109499574.319 8      2119.627          48.062    20837080.680    85324362.081 8      1651.657          48.125    20837081.240    85324365.078 8      1651.657          49.687
R21  20472351.280   109551677.072 8      3192.758          48.187    20472351.660   109551677.084 7      3192.758          46.812    20472361.100    85206910.210 8      2483.256          48.500    20472361.340    85206912.214 7      2483.256          47.562
G31  25020255.000   131482320.482 6      -811.253          40.500    25020253.960   131482320.484 5      -811.253          33.750    25020269.020   102453811.745 5      -632.145          33.625    25020270.160   102453823.735 6      -632.145          40.000
R10  19305347.440   102908370.687 7      1444.917          44.062    19305347.220   102908370.693 7      1444.917          43.437
G23  23254221.460   122201761.120 7      1223.490          44.000    23254220.680   122201761.122 4      1223.490          28.875    23254227.720    95222176.226 4       953.369          29.187    23254228.360    95222184.224 7       953.369          44.000
G21  21419359.480   112559495.568 7      4495.744          47.062    21419357.700   112559495.573 5      4495.744          35.687    21419363.040    87708708.240 6      3503.177          36.125
G26  22066095.640   115958112.427 7      -154.847          45.187    22066094.820   115958112.429 7      -154.847          42.562    22066104.160    90357004.515 7      -120.660          42.625    22066103.940    90357006.507 7      -120.660          45.562
> 2024 05 08 12 05 31.0000000  0 13
G08  21579138.380   113399137.847 7      3649.394          43.812    21579136.840   113399137.846 5      3649.394          34.375    21579143.780    88362986.776 5      2843.684          33.937    21579145.620    88362996.782 8      2843.684          48.750
R09  21390172.380   114222321.908 7     -1341.549          43.250    21390173.100   114222321.903 7     -1341.549          43.312    21390185.000    88839628.087 7     -1043.427          47.937    21390185.140    88839630.080 8     -1043.427          48.812
G16  20465865.120   107548846.956 7      1742.381          45.312    20465863.360   107548846.961 6      1742.381          38.937    20465866.740    83804297.853 6      1357.699          38.812
G02  23129766.720   121547748.253 7      4995.702          44.375    23129764.240   121547748.258 5      4995.702          32.062    23129770.600    94712539.272 5      3892.755          32.125
R11  20943263.660   111914451.362 8      5578.756          49.125    20943263.760   111914451.365 7      5578.756          47.875    20943271.260    87044601.998 8      4339.033          51.000    20943271.120    87044601.994 8      4339.033          51.437
G10  22198492.300   116653866.077 7      3150.898          46.750    22198490.940   116653866.077 7      3150.898          45.250    22198499.620    90899157.675 7      2455.245          45.750    22198498.540    90899140.676 7      2455.245          47.437
G27  20836672.820   109497454.847 7      2119.150          47.750    20836671.860   109497454.847 8      2119.150          48.625    20836677.360    85322710.544 8      1651.286          49.125    20836677.640    85322713.542 8      1651.286          49.375
R21  20471754.720   109548484.553 7      3192.049          45.312    20471754.920   109548484.560 7      3192.049          46.437    20471764.600    85204427.137 8      2482.705          49.250    20471764.780    85204429.137 8      2482.705          48.062
G31  25020409.320   131483131.699 6      -811.340          40.562    25020408.240   131483131.698 5      -811.340          33.625    25020423.540   102454443.846 5      -632.213          33.750    25020424.040   102454455.832 6      -632.213          40.062
R10  19305076.440   102906926.326 7      1443.677          44.250    19305075.840   102906926.329 7      1443.677          43.437
G23  23253988.800   122200538.055 7      1222.555          43.062    23253987.840   122200538.060 4      1222.555          28.875    23253995.020    95221223.187 4       952.640          29.187    23253995.840    95221231.194 7       952.640          43.812
G21  21418503.920   112555000.243 7      4494.848          46.437    21418502.320   112555000.250 5      4494.848          35.687    21418507.580    87705205.393 5      3502.479          35.625
G26  22066125.320   115958267.669 7      -155.652          44.312    22066124.400   115958267.674 7      -155.652          42.687    22066133.700    90357125.476 7      -121.287          42.500    22066134.120    90357127.475 7      -121.287          45.750
> 2024 05 08 12 05 32.0000000  0 13
G08  21578443.700   113395488.332 7      3649.494          43.312    21578442.280   113395488.329 5      3649.494          34.312    21578449.340    88360143.001 5      2843.761          33.937    21578451.480    88360153.011 8      2843.761          49.687
R09  21390423.740   114223663.657 7     -1341.891          44.062    21390424.160   114223663.660 7     -1341.891          43.562    21390436.280    88840671.657 8     -1043.693          48.312    21390436.420    88840673.652 8     -1043.693          49.187
G16  20465533.320   107547104.688 7      1742.105          45.875    20465531.800   107547104.699 6      1742.105          38.750    20465535.220    83802940.246 6      1357.485          38.750
G02  23128815.880   121542752.551 7      4995.665          44.625    23128813.560   121542752.556 5      4995.665          32.062    23128819.960    94708646.519 5      3892.726          32.125
R11  20942219.420   111908872.686 8      5578.464          49.375    20942219.680   111908872.696 8      5578.464          48.687    20942227.280    87040263.033 8      4338.805          51.000    20942227.140    87040263.031 8      4338.805          51.062
G10  22197892.860   116650715.247 7      3150.681          46.312    22197891.420   116650715.250 7      3150.681          45.687    22197900.080    90896702.487 7      2455.076          46.062    22197898.960    90896685.490 7      2455.076          47.125
G27  20836269.480   109495335.599 8      2119.287          48.750    20836268.640   109495335.602 8      2119.287          48.062    20836274.040    85321059.182 8      1651.393          48.250    20836274.700    85321062.178 8      1651.393          49.187
R21  20471158.380   109545292.598 8      3191.762          48.000    20471158.200   109545292.602 7      3191.762          47.250    20471168.140    85201944.506 8      2482.481          49.312    20471168.320    85201946.506 8      2482.481          48.500
G31  25020563.760   131483942.819 6      -810.954          40.000    25020562.640   131483942.821 5      -810.954          33.625    25020577.880   102455075.880 5      -631.912          33.750    25020578.700   102455087.890 6      -631.912          40.062
R10  19304805.720   102905482.881 7      1443.088          44.312    19304805.420   102905482.874 7      1443.088          43.125
G23  23253756.480   122199315.642 7      1222.166          44.312    23253755.300   122199315.644 4      1222.166          28.875    23253762.420    95220270.657 4       952.337          29.000    23253763.540    95220278.657 7       952.337          43.812
G21  21417648.820   112550505.485 7      4494.600          46.437    21417647.120   112550505.490 5      4494.600          35.375    21417652.180    87701702.986 5      3502.286          35.875
G26  22066155.100   115958423.294 7      -155.650          45.375    22066154.020   115958423.299 7      -155.650          42.687    22066163.300    90357246.739 7      -121.286          42.687    22066163.680    90357248.731 7      -121.286          45.562
> 2024 05 08 12 05 33.0000000  0 13
G08  21577749.220   113391838.910 7      3649.205          44.062    21577747.860   113391838.907 5      3649.205          34.687    21577754.920    88357299.297 5      2843.537          34.375    21577756.940    88357309.311 8      2843.537          49.375
R09  21390674.920   114225005.812 7     -1342.566          43.625    21390675.480   114225005.818 7     -1342.566          43.437    21390687.640    88841715.545 8     -1044.218          49.000    21390687.940    88841717.542 8     -1044.218          49.125
G16  20465201.980   107545362.899 7      1741.415          46.000    20465200.380   107545362.909 6      1741.415          38.937    20465203.800    83801583.001 6      1356.947          38.750
G02  23127865.640   121537757.188 7      4995.033          45.375    23127862.800   121537757.196 5      4995.033          32.062    23127869.340    94704754.034 5      3892.234          31.875
R11  20941175.520   111903294.543 8      5577.673          49.500    20941175.900   111903294.549 8      5577.673          48.437    20941183.480    87035924.479 8      4338.190          51.000    20941183.320    87035924.477 8      4338.190          51.312
G10  22197293.460   116647564.980 7      3149.822          46.375    22197291.920   116647564.977 7      3149.822          45.750    22197300.580    90894247.731 7      2454.407          45.875    22197299.560    90894230.732 7      2454.407          46.875
G27  20835866.460   109493216.512 8      2118.818          48.000    20835865.380   109493216.511 8      2118.818          48.625    20835870.720    85319407.943 8      1651.027          48.687    20835871.520    85319410.939 8      1651.027          49.562
R21  20470561.800   109542101.061 8      3191.088          48.000    20470561.880   109542101.068 7      3191.088          46.937    20470571.720    85199462.203 8      2481.957          49.000    20470571.940    85199464.203 8      2481.957          48.500
G31  25020718.100   131484753.779 6      -810.966          39.875    25020716.940   131484753.783 5      -810.966          33.500    25020732.180   102455707.788 5      -631.922          33.437    25020732.620   102455719.792 6      -631.922          40.000
R10  19304535.260   102904040.247 7      1442.053          44.687    19304534.260   102904040.242 7      1442.053          43.687
G23  23253523.920   122198093.765 7      1221.451          44.187    23253522.760   122198093.770 4      1221.451          29.125    23253529.820    95219318.543 4       951.780          29.000    23253530.620    95219326.544 7       951.780          43.687
G21  21416793.700   112546011.208 7      4493.824          46.687    21416791.840   112546011.210 5      4493.824          35.687    21416796.980    87698200.952 6      3501.681          36.375
G26  22066184.640   115958579.276 7      -156.327          45.437    22066183.580   115958579.276 7      -156.327          42.750    22066192.900    90357368.273 7      -121.813          42.500    22066193.340    90357370.270 7      -121.813          45.750
> 2024 05 08 12 05 34.0000000  0 13
G08  21577054.840   113388189.905 7      3648.965          43.375    21577053.560   113388189.905 5      3648.965          34.687    21577060.500    88354455.921 5      2843.349          34.375    21577062.660    88354465.937 8      2843.349          48.812
R09  21390926.220   114226348.680 7     -1342.983          43.437    21390926.920   114226348.686 7     -1342.983          43.062    21390939.060    88842759.986 8     -1044.542          48.312    21390939.260    88842761.980 8     -1044.542          49.125
G16  20464870.640   107543621.882 7      1740.928          46.187    20464869.100   107543621.890 6      1740.928          39.187    20464872.500    83800226.364 6      1356.568          39.000
G02  23126915.040   121532762.453 7      4994.705          45.250    23126912.260   121532762.466 5      4994.705          31.500    23126918.900    94700862.039 5      3891.978          31.875
R11  20940131.960   111897717.214 8      5577.188          48.937    20940132.120   111897717.224 8      5577.188          48.000    20940139.660    87031586.563 8      4337.813          51.125    20940139.580    87031586.561 8      4337.813          51.375
G10  22196694.300   116644415.519 7      3149.325          47.125    22196692.580   116644415.521 7      3149.325          45.750    22196701.260    90891793.612 7      2454.019          46.000    22196700.340    90891776.614 7      2454.019          47.187
G27  20835463.260   109491097.844 8      2118.716          48.500    20835462.200   109491097.849 8      2118.716          48.687    20835467.740    85317757.035 8      1650.948          48.687    20835468.280    85317760.033 8      1650.948          49.437
R21  20469965.220   109538910.238 7      3190.781          47.875    20469965.540   109538910.248 7      3190.781          47.125    20469975.560    85196980.448 8      2481.719          49.437    20469975.580    85196982.450 8      2481.719          48.875
G31  25020872.540   131485564.875 6      -810.870          39.375    25020871.300   131485564.885 5      -810.870          33.500    25020886.460   102456339.803 5      -631.847          33.437    25020887.440   102456351.805 6      -631.847          40.000
R10  19304264.820   102902598.732 7      1441.273          44.562    19304263.680   102902598.733 7      1441.273          43.312
G23  23253291.580   122196872.755 7      1220.851          42.812    23253290.300   122196872.762 4      1220.851          29.125    23253297.460    95218367.106 4       951.313          29.000    23253298.380    95218375.102 7       951.313          43.687
G21  21415938.580   112541517.695 7      4493.411          46.687    21415936.700   112541517.697 5      4493.411          35.937    21415941.860    87694699.516 6      3501.359          36.375
G26  22066214.520   115958735.856 7      -156.564          44.437    22066213.440   115958735.855 7      -156.564          42.875    22066222.660    90357490.277 7      -121.998          42.937    22066222.880    90357492.267 7      -121.998          45.875
> 2024 05 08 12 05 35.0000000  0 13
G08  21576360.600   113384541.011 7      3648.412          43.000    21576358.920   113384541.013 5      3648.412          34.500    21576366.040    88351612.629 5      2842.919          34.125    21576367.960    88351622.643 8      2842.919          49.000
R09  21391177.720   114227691.945 7     -1343.781          44.062    21391178.520   114227691.946 7     -1343.781          43.312    21391190.620    88843804.735 8     -1045.163          48.000    21391190.740    88843806.730 8     -1045.163          49.125
G16  20464539.660   107541881.378 7      1739.867          45.625    20464537.960   107541881.385 6      1739.867          39.562    20464541.240    83798870.123 6      1355.741          38.937
G02  23125964.780   121527768.091 7      4993.876          43.875    23125962.000   121527768.098 5      4993.876          31.500    23125968.600    94696970.332 5      3891.332          31.875
R11  20939088.120   111892140.436 8      5576.158          49.187    20939088.580   111892140.440 8      5576.158          48.625    20939096.040    87027249.068 8      4337.012          51.250    20939095.920    87027249.067 8      4337.012          51.562
G10  22196094.980   116641266.610 7      3148.365          47.000    22196093.340   116641266.615 7      3148.365          45.875    22196101.960    90889339.923 7      2453.271          46.125    22196101.300    90889322.925 7      2453.271          46.937
G27  20835059.960   109488979.350 8      2118.096          48.562    20835059.100   109488979.358 8      2118.096          48.750    20835064.580    85316106.265 8      1650.464          48.937    20835064.980    85316109.260 8      1650.464          49.375
R21  20469368.920   109535719.881 7      3189.864          47.562    20469369.220   109535719.888 7      3189.864          46.875    20469379.460    85194499.063 8      2481.005          49.000    20469379.280    85194501.063 8      2481.005          48.250
G31  25021026.600   131486375.829 6      -811.167          40.875    25021025.700   131486375.839 5      -811.167          33.375    25021040.860   102456971.705 5      -632.078          33.312    25021041.580   102456983.705 6      -632.078          40.000
R10  19303994.860   102901158.078 7      1439.973          44.500    19303993.880   102901158.084 7      1439.973          43.625
G23  23253059.500   122195652.310 7      1219.942          43.500    23253057.940   122195652.312 4      1219.942          29.125    23253065.160    95217416.106 4       950.604          29.000    23253066.480    95217424.099 7       950.604          43.437
G21  21415083.640   112537024.705 7      4492.425          46.937    21415081.700   112537024.710 6      4492.425          36.000    21415086.900    87691198.485 6      3500.591          36.062
G26  22066244.460   115958892.789 7      -157.389          44.562    22066243.200   115958892.794 7      -157.389          42.937    22066252.520    90357612.563 7      -122.641          42.500    22066252.980    90357614.557 7      -122.641          45.750
> 2024 05 08 12 05 36.0000000  0 13
G08  21575666.220   113380892.379 7      3648.724          43.500    21575664.720   113380892.381 5      3648.724          34.500    21575671.740    88348769.537 5      2843.162          34.187    21575673.720    88348779.553 8      2843.162          49.000
R09  21391429.500   114229035.737 7     -1343.679          44.312    21391430.180   114229035.748 7     -1343.679          43.812    21391442.380    88844849.896 8     -1045.084          48.562    21391442.360    88844851.891 8     -1045.084          49.187
G16  20464208.720   107540141.498 7      1739.759          45.937    20464206.740   107540141.506 6      1739.759          39.500    20464210.200    83797514.373 6      1355.656          38.687
G02  23125014.440   121522774.210 7      4993.814          44.625    23125011.680   121522774.220 5      4993.814          31.500    23125018.340    94693079.000 5      3891.284          31.687
R11  20938044.920   111886564.355 8      5575.973          49.062    20938045.060   111886564.354 7      5575.973          47.875    20938052.540    87022912.119 8      4336.868          50.750    20938052.300    87022912.119 8      4336.868          51.750
G10  22195495.880   116638118.431 7      3148.021          45.812    22195494.340   116638118.430 7      3148.021          45.750    22195502.840    90886886.792 7      2453.003          45.625    22195501.840    90886869.791 7      2453.003          46.562
G27  20834656.960   109486861.156 7      2118.281          47.250    20834656.020   109486861.161 8      2118.281          48.937    20834661.540    85314455.722 8      1650.608          48.812    20834661.980    85314458.719 8      1650.608          49.187
R21  20468773.180   109532530.131 7      3189.622          46.375    20468773.040   109532530.144 7      3189.622          46.812    20468783.360    85192018.149 8      2480.817          49.375    20468783.560    85192020.149 8      2480.817          48.750
G31  25021181.100   131487186.773 6      -810.703          40.750    25021179.940   131487186.781 5      -810.703          33.375    25021195.120   102457603.597 5      -631.717          33.312    25021195.060   102457615.606 6      -631.717          40.062
R10  19303724.540   102899718.416 7      1439.401          44.875    19303723.840   102899718.425 7      1439.401          43.625
G23  23252827.360   122194432.603 7      1219.501          43.250    23252825.880   122194432.605 4      1219.501          29.125    23252832.900    95216465.687 4       950.260          29.250    23252834.220    95216473.695 7       950.260          43.562
G21  21414228.820   112532532.365 7      4492.227          46.375    21414226.820   112532532.367 5      4492.227          35.937    21414231.980    87687697.962 6      3500.437          36.125
G26  22066274.380   115959050.238 7      -157.402          44.875    22066273.200   115959050.240 7      -157.402          42.875    22066282.620    90357735.238 7      -122.651          42.562    22066282.920    90357737.232 7      -122.651          46.062
> 2024 05 08 12 05 37.0000000  0 13
G08  21574971.880   113377244.066 7      3648.198          43.750    21574970.420   113377244.070 5      3648.198          34.375    21574977.360    88345926.698 5      2842.752          34.187    21574979.460    88345936.710 8      2842.752          48.750
R09  21391681.600   114230380.193 7     -1344.649          44.125    21391682.080   114230380.202 7     -1344.649          43.187    21391694.080    88845895.572 7     -1045.838          47.687    21391694.600    88845897.566 8     -1045.838          49.125
G16  20463877.540   107538402.305 7      1738.955          45.687    20463875.860   107538402.313 6      1738.955          39.000    20463879.260    83796159.157 6      1355.030          38.750
G02  23124064.120   121517780.880 7      4993.160          44.937    23124061.520   121517780.888 5      4993.160          31.562    23124068.260    94689188.098 5      3890.774          31.687
R11  20937001.580   111880988.996 8      5575.136          49.875    20937001.640   111880988.997 8      5575.136          48.500    20937009.120    87018575.732 8      4336.217          51.062    20937008.680    87018575.731 8      4336.217          51.187
G10  22194897.040   116634970.946 7      3147.198          46.937    22194895.420   116634970.951 7      3147.198          45.687    22194903.940    90884434.208 7      2452.362          45.750    22194902.780    90884417.213 7      2452.362          47.187
G27  20834253.820   109484743.327 8      2117.729          48.187    20834253.040   109484743.331 8      2117.729          48.625    20834258.520    85312805.465 8      1650.178          49.062    20834259.320    85312808.461 8      1650.178          49.500
R21  20468176.940   109529341.013 7      3188.903          47.437    20468177.380   109529341.028 7      3188.903          47.125    20468187.480    85189537.728 8      2480.258          49.375    20468187.520    85189539.724 8      2480.258          48.875
G31  25021335.400   131487997.767 6      -810.934          40.750    25021334.540   131487997.775 5      -810.934          33.875    25021349.440   102458235.533 5      -631.896          33.750    25021349.860   102458247.520 6      -631.896          40.062
R10  19303454.820   102898279.798 7      1438.226          44.750    19303453.680   102898279.802 7      1438.226          43.437
G23  23252595.380   122193213.650 7      1218.572          43.687    23252593.820   122193213.658 4      1218.572          29.375    23252601.060    95215515.856 4       949.537          29.250    23252601.900    95215523.851 7       949.537          43.250
G21  21413374.000   112528040.699 7      4491.387          46.875    21413372.100   112528040.704 6      4491.387          36.312    21413377.260    87684197.961 6      3499.782          36.500
G26  22066304.460   115959208.202 7      -158.099          44.750    22066303.400   115959208.207 7      -158.099          43.125    22066312.600    90357858.324 7      -123.194          42.812    22066313.200    90357860.323 7      -123.194          45.937
> 2024 05 08 12 05 38.0000000  0 13
G08  21574277.720   113373595.946 7      3648.088          44.812    21574276.240   113373595.951 5      3648.088          34.312    21574283.380    88343084.007 5      2842.666          34.187    21574284.780    88343094.017 8      2842.666          48.625
R09  21391933.800   114231725.162 7     -1345.062          43.562    21391934.240   114231725.174 7     -1345.062          43.187    21391946.000    88846941.649 8     -1046.159          48.250    21391945.960    88846943.641 8     -1046.159          48.937
G16  20463546.660   107536663.682 7      1738.559          45.500    20463544.960   107536663.689 6      1738.559          39.062    20463548.380    83794804.380 6      1354.721          38.625
G02  23123114.040   121512787.982 7      4992.816          45.625    23123111.180   121512787.992 5      4992.816          31.562    23123118.000    94685297.528 5      3890.506          31.687
R11  20935958.340   111875414.262 8      5574.608          49.625    20935958.340   111875414.268 8      5574.608          48.187    20935965.920    87014239.830 8      4335.806          51.125    20935965.860    87014239.828 8      4335.806          51.437
G10  22194297.920   116631824.115 7      3146.649          46.437    22194296.520   116631824.117 7      3146.649          45.812    22194305.040    90881982.130 7      2451.934          45.875    22194304.080    90881965.133 7      2451.934          47.062
G27  20833850.900   109482625.721 8      2117.676          48.562    20833850.100   109482625.726 8      2117.676          48.750    20833855.520    85311155.381 8      1650.137          48.875    20833856.240    85311158.376 8      1650.137          49.750
R21  20467581.120   109526152.467 7      3188.458          47.625    20467581.580   109526152.474 7      3188.458          46.625    20467591.560    85187057.743 8      2479.912          49.250    20467591.600    85187059.744 8      2479.912          48.812
G31  25021489.580   131488808.651 6      -810.627          40.312    25021488.840   131488808.653 5      -810.627          34.000    25021503.680   102458867.375 5      -631.657          33.750    25021504.520   102458879.374 6      -631.657          39.875
R10  19303185.080   102896842.098 7      1437.471          44.750    19303184.340   102896842.104 7      1437.471          43.437
G23  23252363.640   122191995.336 7      1218.139          44.062    23252362.140   122191995.341 4      1218.139          29.375    23252369.280    95214566.518 4       949.199          29.250    23252370.220    95214574.509 7       949.199          43.250
G21  21412519.280   112523549.620 7      4490.996          46.000    21412517.460   112523549.620 6      4490.996          36.000    21412522.640    87680698.421 6      3499.478          36.250
G26  22066334.740   115959366.589 7      -158.342          44.687    22066333.400   115959366.596 7      -158.342          43.125    22066342.800    90357981.737 7      -123.383          43.125    22066343.280    90357983.729 7      -123.383          46.062
> 2024 05 08 12 05 39.0000000  0 13
G08  21573583.440   113369947.867 7      3647.931          44.062    21573581.920   113369947.866 5      3647.931          34.312    21573589.200    88340241.348 5      2842.543          34.187    21573590.600    88340251.354 8      2842.543          48.375
R09  21392185.780   114233070.495 7     -1345.593          43.875    21392186.020   114233070.506 7     -1345.593          43.500    21392197.840    88847988.004 8     -1046.572          48.062    21392198.200    88847989.998 8     -1046.572          48.625
G16  20463215.840   107534925.482 7      1737.850          45.812    20463214.100   107534925.494 6      1737.850          39.500    20463217.620    83793449.940 6      1354.169          39.187
G02  23122163.940   121507795.338 7      4992.443          44.812    23122161.180   121507795.348 5      4992.443          32.437    23122168.060    94681407.160 5      3890.215          32.437
R11  20934915.220   111869839.976 8      5573.982          49.375    20934915.340   111869839.980 7      5573.982          47.875    20934922.720    87009904.279 8      4335.319          51.687    20934922.360    87009904.279 8      4335.319          51.312
G10  22193699.140   116628677.728 7      3146.055          47.187    22193697.760   116628677.736 7      3146.055          45.875    22193706.500    90879530.404 7      2451.471          46.000    22193705.280    90879513.409 7      2451.471          47.125
G27  20833448.140   109480508.215 8      2117.292          48.125    20833447.180   109480508.222 8      2117.292          48.625    20833452.560    85309505.376 8      1649.838          48.937    20833453.120    85309508.374 8      1649.838          49.875
R21  20466985.620   109522964.317 7      3187.821          47.750    20466985.620   109522964.319 7      3187.821          47.125    20466995.800    85184578.067 8      2479.417          49.187    20466995.540    85184580.065 8      2479.417          48.687
G31  25021644.160   131489619.363 6      -810.830          40.625    25021643.060   131489619.366 5      -810.830          34.000    25021658.000   102459499.085 5      -631.816          33.875    25021658.620   102459511.081 6      -631.816          39.875
R10  19302915.660   102895405.194 7      1436.445          44.937    19302914.240   102895405.194 7      1436.445          43.625
G23  23252132.040   122190777.518 7      1217.489          44.062    23252130.500   122190777.523 4      1217.489          29.375    23252137.600    95213617.565 4       948.692          29.250    23252138.360    95213625.565 7       948.692          43.562
G21  21411664.660   112519058.971 7      4490.294          46.437    21411662.980   112519058.971 6      4490.294          36.062    21411667.980    87677199.214 6      3498.930          36.437
G26  22066364.640   115959525.267 7      -158.949          44.750    22066363.700   115959525.274 7      -158.949          43.312    22066373.040    90358105.376 7      -123.856          43.187    22066373.480    90358107.372 7      -123.856          45.812
> 2024 05 08 12 05 40.0000000  0 13
G08  21572889.220   113366300.036 7      3647.909          43.812    21572887.760   113366300.033 5      3647.909          34.500    21572894.960    88337398.883 5      2842.526          34.187    21572896.580    88337408.891 8      2842.526          48.562
R09  21392437.600   114234416.358 7     -1345.921          43.562    21392438.220   114234416.370 7     -1345.921          43.250    21392449.900    88849034.776 8     -1046.827          48.000    21392450.180    88849036.772 8     -1046.827          49.125
G16  20462885.260   107533187.920 7      1737.400          46.625    20462883.600   107533187.930 6      1737.400          39.312    20462886.940    83792095.998 6      1353.819          39.062
G02  23121214.180   121502803.215 7      4992.094          44.875    23121211.300   121502803.225 5      4992.094          32.437    23121218.080    94677517.200 5      3889.943          32.437
R11  20933872.120   111864266.412 8      5573.452          49.375    20933872.300   111864266.416 8      5573.452          48.500    20933879.700    87005569.287 8      4334.907          50.937    20933879.600    87005569.285 8      4334.907          50.875
G10  22193100.360   116625532.056 7      3145.500          47.250    22193099.160   116625532.058 7      3145.500          45.812    22193107.880    90877079.229 7      2451.039          45.875    22193106.740    90877062.232 7      2451.039          47.187
G27  20833045.140   109478390.977 7      2117.364          47.687    20833044.240   109478390.982 8      2117.364          48.812    20833049.660    85307855.578 8      1649.894          49.250    20833049.980    85307858.578 8      1649.894          49.437
R21  20466389.820   109519776.732 7      3187.522          46.500    20466389.980   109519776.742 7      3187.522          47.187    20466400.100    85182098.842 8      2479.184          48.687    20466399.960    85182100.841 8      2479.184          48.187
G31  25021798.560   131490430.031 6      -810.566          40.750    25021797.120   131490430.028 5      -810.566          33.812    25021812.400   102460130.760 5      -631.610          33.875    25021812.820   102460142.754 6      -631.610          39.875
R10  19302646.300   102893969.289 7      1435.607          44.937    19302645.260   102893969.290 7      1435.607          43.250
G23  23251900.220   122189560.418 7      1216.921          43.250    23251898.960   122189560.423 4      1216.921          29.062    23251905.940    95212669.171 4       948.250          29.125    23251906.700    95212677.179 7       948.250          43.875
G21  21410810.360   112514568.954 7      4489.869          47.312    21410808.520   112514568.956 6      4489.869          36.375    21410813.540    87673700.505 6      3498.599          36.375
G26  22066394.920   115959684.397 7      -159.171          45.500    22066394.020   115959684.402 7      -159.171          43.125    22066403.380    90358229.367 7      -124.029          42.937    22066404.060    90358231.366 7      -124.029          45.937
> 2024 05 08 12 05 41.0000000  0 13
G08  21572194.780   113362652.304 7      3647.858          43.437    21572193.620   113362652.306 5      3647.858          34.500    21572200.740    88334556.499 5      2842.487          34.187    21572202.580    88334566.507 8      2842.487          49.187
R09  21392689.500   114235762.622 7     -1346.365          44.125    21392690.060   114235762.647 7     -1346.365          43.500    21392702.220    88850081.866 8     -1047.173          48.187    21392702.340    88850083.860 8     -1047.173          49.187
G16  20462554.780   107531450.829 7      1736.969          45.687    20462553.120   107531450.836 6      1736.969          39.625    20462556.520    83790742.414 6      1353.482          39.062
G02  23120264.320   121497811.414 7      4991.791          44.937    23120261.360   121497811.422 5      4991.791          32.750    23120268.180    94673627.488 5      3889.707          32.687
R11  20932829.280   111858693.351 8      5572.998          48.500    20932829.300   111858693.357 8      5572.998          48.812    20932836.760    87001234.681 8      4334.554          51.375    20932836.700    87001234.676 8      4334.554          51.375
G10  22192501.780   116622386.886 7      3145.093          46.937    22192500.660   116622386.888 7      3145.093          46.312    22192509.260    90874628.447 7      2450.722          46.250    22192508.460    90874611.454 7      2450.722          47.375
G27  20832642.280   109476273.907 7      2117.161          47.875    20832641.440   109476273.912 8      2117.161          48.625    20832646.880    85306205.909 8      1649.736          48.750    20832647.500    85306208.907 8      1649.736          50.000
R21  20465794.200   109516589.578 7      3187.162          47.437    20465794.560   109516589.590 7      3187.162          47.375    20465804.540    85179619.942 8      2478.904          49.625    20465804.440    85179621.940 8      2478.904          48.812
G31  25021952.720   131491240.484 6      -810.037          40.125    25021951.320   131491240.481 5      -810.037          33.812    25021966.620   102460762.272 5      -631.198          33.937    25021967.120   102460774.268 6      -631.198          39.875
R10  19302376.880   102892534.198 7      1434.886          44.812    19302375.800   102892534.209 7      1434.886          43.187
G23  23251668.400   122188343.856 7      1216.538          43.875    23251667.360   122188343.858 4      1216.538          29.062    23251674.340    95211721.199 4       947.952          29.125    23251675.760    95211729.200 7       947.952          43.375
G21  21409956.040   112510079.416 7      4489.466          47.125    21409954.140   112510079.419 6      4489.466          36.187    21409959.260    87670202.164 6      3498.285          36.375
G26  22066425.300   115959843.872 7      -159.446          44.750    22066424.280   115959843.879 7      -159.446          43.187    22066433.640    90358353.627 7      -124.243          43.000    22066434.300    90358355.620 7      -124.243          46.250
> 2024 05 08 12 05 42.0000000  0 13
G08  21571500.780   113359004.920 7      3647.229          44.187    21571499.600   113359004.922 5      3647.229          34.375    21571506.700    88331714.382 5      2841.997          34.187    21571508.520    88331724.390 8      2841.997          48.812
R09  21392941.840   114237109.513 7     -1347.153          44.000    21392942.560   114237109.530 7     -1347.153          43.562    21392954.360    88851129.428 7     -1047.785          47.937    21392954.600    88851131.422 8     -1047.785          48.937
G16  20462224.440   107529714.439 7      1735.980          45.375    20462222.640   107529714.449 6      1735.980          39.562    20462226.020    83789389.385 6      1352.712          39.312
G02  23119314.220   121492820.179 7      4990.932          45.312    23119311.620   121492820.187 5      4990.932          32.750    23119318.340    94669738.218 5      3889.038          32.687
R11  20931786.460   111853121.048 8      5571.935          48.937    20931786.400   111853121.057 7      5571.935          47.812    20931794.000    86996900.676 8      4333.727          51.437    20931793.980    86996900.673 8      4333.727          51.562
G10  22191903.560   116619242.498 7      3143.995          47.000    22191902.320   116619242.501 7      3143.995          45.875    22191910.840    90872178.277 7      2449.866          45.687    22191910.040    90872161.284 7      2449.866          47.062
G27  20832239.620   109474157.202 8      2116.540          48.375    20832238.620   109474157.207 8      2116.540          48.312    20832244.120    85304556.531 8      1649.252          49.250    20832244.480    85304559.529 8      1649.252          49.500
R21  20465198.880   109513403.103 7      3186.149          47.250    20465199.240   109513403.115 7      3186.149          46.875    20465209.280    85177141.579 8      2478.116          49.062    20465209.100    85177143.577 8      2478.116          49.187
G31  25022107.100   131492051.076 6      -810.670          40.500    25022105.780   131492051.073 5      -810.670          34.000    25022120.700   102461393.893 5      -631.691          33.937    25022121.220   102461405.889 6      -631.691          39.875
R10  19302107.940   102891100.197 7      1433.423          44.625    19302106.780   102891100.213 7      1433.423          43.562
G23  23251437.020   122187128.101 7      1215.396          43.375    23251436.020   122187128.106 4      1215.396          29.062    23251443.100    95210773.855 4       947.062          29.125    23251444.220    95210781.859 7       947.062          43.250
G21  21409102.020   112505590.599 7      4488.474          47.000    21409100.120   112505590.604 6      4488.474          36.187    21409105.120    87666704.387 6      3497.513          36.312
G26  22066455.720   115960003.911 7      -160.345          44.562    22066454.760   115960003.911 7      -160.345          42.500    22066464.160    90358478.323 7      -124.944          42.562    22066464.560    90358480.315 7      -124.944          45.812
> 2024 05 08 12 05 43.0000000  0 13
G08  21570806.520   113355357.784 7      3646.919          43.875    21570805.560   113355357.783 5      3646.919          34.687    21570812.600    88328872.458 5      2841.755          34.250    21570814.600    88328882.466 8      2841.755          48.812
R09  21393194.260   114238456.976 7     -1347.765          44.125    21393195.160   114238456.991 7     -1347.765          43.500    21393206.840    88852177.440 8     -1048.262          48.187    21393206.760    88852179.436 8     -1048.262          49.000
G16  20461894.020   107527978.677 7      1735.411          46.875    20461892.420   107527978.679 6      1735.411          38.750    20461895.780    83788036.837 6      1352.268          38.812
G02  23118364.580   121487829.427 7      4990.470          45.875    23118361.980   121487829.435 5      4990.470          32.750    23118368.600    94665849.326 5      3888.678          32.687
R11  20930743.640   111847549.418 8      5571.198          49.250    20930743.720   111847549.425 8      5571.198          49.000    20930751.380    86992567.184 8      4333.154          51.375    20930751.480    86992567.181 8      4333.154          51.687
G10  22191305.380   116616098.773 7      3143.405          46.687    22191304.040   116616098.773 7      3143.405          46.000    22191312.660    90869728.624 7      2449.406          46.000    22191311.960    90869711.624 7      2449.406          47.187
G27  20831836.840   109472040.787 8      2116.195          48.000    20831835.760   109472040.794 8      2116.195          48.750    20831841.420    85302907.376 8      1648.983          49.062    20831841.900    85302910.376 8      1648.983          49.750
R21  20464603.340   109510217.206 7      3185.530          47.687    20464603.720   109510217.223 7      3185.530          47.187    20464613.780    85174663.662 8      2477.634          49.125    20464613.620    85174665.657 8      2477.634          49.250
G31  25022260.980   131492861.594 6      -810.431          41.187    25022260.020   131492861.594 5      -810.431          34.000    25022275.000   102462025.456 5      -631.505          34.062    25022275.740   102462037.448 6      -631.505          40.187
R10  19301839.060   102889667.171 7      1432.450          44.500    19301838.180   102889667.174 7      1432.450          44.062
G23  23251206.020   122185913.037 7      1214.678          43.625    23251204.760   122185913.044 4      1214.678          29.062    23251211.780    95209827.054 4       946.503          29.125    23251212.980    95209835.060 7       946.503          43.500
G21  21408247.820   112501102.413 7      4487.823          46.750    21408245.920   112501102.418 6      4487.823          36.125    21408251.000    87663207.101 6      3497.005          36.187
G26  22066486.460   115960164.413 7      -160.827          45.312    22066485.360   115960164.415 7      -160.827          43.187    22066494.660    90358603.385 7      -125.320          43.437    22066495.440    90358605.382 7      -125.320          46.062
> 2024 05 08 12 05 44.0000000  0 13
G08  21570112.760   113351710.873 7      3646.668          43.937    21570111.500   113351710.870 5      3646.668          34.687    21570118.680    88326030.705 5      2841.559          34.250    21570120.500    88326040.719 8      2841.559          49.250
R09  21393446.900   114239804.930 7     -1348.218          43.687    21393447.360   114239804.945 7     -1348.218          43.687    21393459.220    88853225.834 8     -1048.614          48.125    21393459.340    88853227.828 8     -1048.614          49.000
G16  20461563.860   107526243.504 7      1734.862          46.687    20461562.320   107526243.511 6      1734.862          38.750    20461565.560    83786684.754 6      1351.840          38.562
G02  23117414.660   121482839.111 7      4990.125          44.937    23117412.280   121482839.122 5      4990.125          32.312    23117418.900    94661960.773 5      3888.409          32.562
R11  20929701.000   111841978.417 8      5570.707          49.062    20929701.020   111841978.421 8      5570.707          48.062    20929708.740    86988234.181 8      4332.772          51.437    20929708.680    86988234.171 8      4332.772          51.375
G10  22190707.200   116612955.705 7      3142.727          47.625    22190705.960   116612955.713 7      3142.727          45.562    22190714.480    90867279.484 7      2448.878          45.812    22190713.840    90867262.486 7      2448.878          47.125
G27  20831434.140   109469924.628 8      2116.028          48.625    20831433.140   109469924.633 8      2116.028          49.062    20831438.680    85301258.417 8      1648.853          49.375    20831439.480    85301261.415 8      1648.853          49.437
R21  20464008.160   109507031.884 8      3185.044          48.187    20464008.700   109507031.896 7      3185.044          47.187    20464018.600    85172186.183 8      2477.256          49.375    20464018.440    85172188.179 8      2477.256          48.812
G31  25022415.260   131493672.070 6      -810.449          41.187    25022414.320   131493672.070 5      -810.449          33.875    25022429.240   102462656.981 5      -631.519          34.062    25022430.500   102462668.980 6      -631.519          40.187
R10  19301570.240   102888235.065 7      1431.662          44.812    19301569.300   102888235.065 7      1431.662          44.062
G23  23250974.800   122184698.648 7      1214.038          44.062    23250973.600   122184698.656 4      1214.038          29.000    23250980.660    95208880.775 4       946.004          29.125    23250981.600    95208888.773 7       946.004          43.500
G21  21407393.820   112496614.828 7      4487.307          47.125    21407391.980   112496614.833 6      4487.307          36.437    21407397.040    87659710.281 6      3496.603          36.625
G26  22066516.900   115960325.372 7      -161.258          44.750    22066515.800   115960325.372 7      -161.258          43.250    22066525.280    90358728.796 7      -125.656          42.937    22066526.160    90358730.794 7      -125.656          46.000
> 2024 05 08 12 05 45.0000000  0 13
G08  21569418.880   113348063.994 7      3646.936          43.500    21569417.520   113348063.991 5      3646.936          34.250    21569424.700    88323188.984 5      2841.768          34.000    21569426.320    88323198.996 8      2841.768          48.937
R09  21393699.320   114241153.264 7     -1348.493          44.187    21393699.760   114241153.281 7     -1348.493          43.687    21393711.800    88854274.527 8     -1048.828          48.250    21393711.820    88854276.524 8     -1048.828          49.687
G16  20461233.620   107524508.772 7      1734.594          45.937    20461232.020   107524508.779 6      1734.594          39.062    20461235.380    83785333.013 6      1351.632          38.625
G02  23116465.300   121477849.130 7      4989.844          45.062    23116462.660   121477849.137 5      4989.844          32.312    23116469.280    94658072.475 5      3888.190          32.562
R11  20928658.560   111836407.936 8      5570.232          49.000    20928658.720   111836407.932 8      5570.232          48.312    20928666.380    86983901.579 8      4332.402          51.312    20928666.240    86983901.575 8      4332.402          52.062
G10  22190109.400   116609813.133 7      3142.340          46.750    22190107.940   116609813.141 7      3142.340          46.000    22190116.500    90864830.729 7      2448.577          45.750    22190116.020    90864813.733 7      2448.577          46.812
G27  20831031.500   109467808.583 7      2115.971          47.875    20831030.460   109467808.586 8      2115.971          48.937    20831036.000    85299609.549 8      1648.808          49.062    20831036.620    85299612.551 8      1648.808          49.937
R21  20463412.960   109503846.923 7      3184.773          46.250    20463413.380   109503846.946 7      3184.773          46.812    20463423.480    85169709.000 8      2477.046          49.250    20463423.320    85169710.998 8      2477.046          49.437
G31  25022569.900   131494482.342 6      -810.071          41.687    25022568.620   131494482.341 5      -810.071          33.875    25022583.520   102463288.351 5      -631.224          33.937    25022584.700   102463300.341 6      -631.224          40.187
R10  19301302.080   102886803.750 7      1430.909          44.437    19301300.760   102886803.761 7      1430.909          43.500
G23  23250743.780   122183484.801 7      1213.527          43.812    23250742.800   122183484.805 4      1213.527          29.000    23250749.780    95207934.916 4       945.605          29.000    23250750.660    95207942.915 7       945.605          43.562
G21  21406540.060   112492127.698 7      4486.967          46.875    21406538.220   112492127.703 6      4486.967          36.437    21406543.160    87656213.820 6      3496.338          36.312
G26  22066547.600   115960486.605 7      -161.378          45.062    22066546.560   115960486.607 7      -161.378          43.000    22066555.940    90358854.429 7      -125.749          42.937    22066556.580    90358856.426 7      -125.749          46.062
> 2024 05 08 12 05 46.0000000  0 13
G08  21568724.860   113344417.417 7      3646.383          44.312    21568723.560   113344417.417 5      3646.383          34.562    21568730.780    88320347.499 5      2841.338          33.937    21568732.580    88320357.511 8      2841.338          48.812
R09  21393952.380   114242502.184 7     -1349.223          44.312    21393952.340   114242502.199 7     -1349.223          43.687    21393964.160    88855323.671 8     -1049.396          48.562    21393964.700    88855325.665 8     -1049.396          49.500
G16  20460903.460   107522774.689 7      1733.766          46.375    20460902.080   107522774.696 6      1733.766          39.125    20460905.520    83783981.778 6      1350.986          39.062
G02  23115516.080   121472859.618 7      4989.208          45.312    23115513.120   121472859.625 5      4989.208          32.875    23115519.920    94654184.548 5      3887.695          32.875
R11  20927616.380   111830838.126 8      5569.421          49.250    20927616.140   111830838.125 8      5569.421          48.437    20927624.040    86979569.509 8      4331.772          51.437    20927624.080    86979569.507 8      4331.772          52.187
G10  22189511.620   116606671.261 7      3141.423          47.562    22189510.080   116606671.266 7      3141.423          46.062    22189518.680    90862382.518 7      2447.862          45.750    22189517.920    90862365.521 7      2447.862          46.750
G27  20830628.900   109465692.835 7      2115.525          47.437    20830627.860   109465692.840 8      2115.525          48.687    20830633.480    85297960.916 8      1648.461          49.375    20830633.980    85297963.916 8      1648.461          49.750
R21  20462818.020   109500662.544 7      3184.087          47.500    20462818.420   109500662.566 7      3184.087          47.062    20462828.420    85167232.262 8      2476.512          49.500    20462828.120    85167234.262 8      2476.512          48.937
G31  25022724.060   131495292.602 6      -810.214          40.875    25022722.840   131495292.602 5      -810.214          34.000    25022737.840   102463919.713 5      -631.336          33.937    25022738.960   102463931.705 6      -631.336          40.375
R10  19301033.840   102885373.432 7      1429.841          44.937    19301032.500   102885373.435 7      1429.841          43.312
G23  23250512.940   122182271.626 7      1212.816          44.000    23250511.880   122182271.631 4      1212.816          29.000    23250518.820    95206989.583 4       945.052          29.000    23250520.160    95206997.588 7       945.052          43.750
G21  21405686.440   112487641.211 7      4486.130          46.687    21405684.460   112487641.213 6      4486.130          36.500    21405689.360    87652717.857 6      3495.686          36.687
G26  22066578.540   115960648.344 7      -162.068          44.375    22066577.380   115960648.346 7      -162.068          43.125    22066586.780    90358980.452 7      -126.287          43.187    22066587.640    90358982.453 7      -126.287          46.125
> 2024 05 08 12 05 47.0000000  0 13
G08  21568031.100   113340771.072 7      3646.180          44.500    21568029.620   113340771.071 5      3646.180          34.562    21568036.860    88317506.191 5      2841.179          33.937    21568038.900    88317516.203 8      2841.179          49.062
R09  21394204.580   114243851.666 7     -1349.855          44.000    21394205.180   114243851.675 7     -1349.855          43.687    21394217.120    88856373.253 8     -1049.887          48.187    21394217.080    88856375.250 8     -1049.887          49.375
G16  20460573.800   107521041.247 7      1733.006          46.875    20460572.200   107521041.257 6      1733.006          38.937    20460575.660    83782631.044 6      1350.394          38.625
G02  23114566.540   121467870.613 7      4988.639          45.625    23114563.740   121467870.621 5      4988.639          32.875    23114570.700    94650297.014 5      3887.251          32.875
R11  20926574.280   111825269.022 8      5568.624          49.187    20926574.080   111825269.025 8      5568.624          48.687    20926581.900    86975237.989 8      4331.152          51.000    20926581.800    86975237.981 8      4331.152          51.812
G10  22188914.020   116603530.061 7      3140.808          46.250    22188912.240   116603530.066 7      3140.808          46.062    22188920.920    90859934.828 7      2447.383          46.375    22188920.460    90859917.830 7      2447.383          47.000
G27  20830226.180   109463577.386 8      2115.213          48.062    20830225.300   109463577.394 8      2115.213          48.937    20830230.880    85296312.515 8      1648.218          49.000    20830231.120    85296315.518 8      1648.218          49.375
R21  20462223.180   109497478.806 7      3183.248          45.187    20462223.440   109497478.823 7      3183.248          47.375    20462233.520    85164756.017 8      2475.860          49.125    20462233.160    85164758.013 8      2475.860          48.687
G31  25022878.220   131496102.863 6      -810.340          40.562    25022876.820   131496102.865 5      -810.340          34.000    25022892.060   102464551.077 5      -631.433          34.000    25022893.140   102464563.075 6      -631.433          40.375
R10  19300765.660   102883944.105 7      1428.754          45.312    19300764.420   102883944.114 7      1428.754          43.687
G23  23250282.040   122181059.192 7      1211.988          44.062    23250281.120   122181059.194 4      1211.988          29.000    23250287.920    95206044.829 4       944.406          29.000    23250289.000    95206052.828 7       944.406          43.750
G21  21404832.780   112483155.379 7      4485.383          47.500    21404830.820   112483155.384 6      4485.383          36.312    21404835.780    87649222.403 6      3495.103          36.250
G26  22066609.680   115960810.562 7      -162.601          44.812    22066608.160   115960810.569 7      -162.601          43.187    22066617.680    90359106.853 7      -126.702          43.062    22066618.520    90359108.846 7      -126.702          45.937
> 2024 05 08 12 05 48.0000000  0 13
G08  21567337.360   113337125.146 7      3645.828          44.562    21567335.800   113337125.154 5      3645.828          34.562    21567343.080    88314665.214 5      2840.905          34.375    21567344.920    88314675.224 8      2840.905          48.437
R09  21394457.420   114245201.852 7     -1350.442          44.187    21394457.920   114245201.861 7     -1350.442          43.812    21394469.920    88857423.385 8     -1050.344          48.375    21394470.120    88857425.384 8     -1050.344          49.250
G16  20460244.080   107519308.559 7      1732.457          46.625    20460242.660   107519308.567 6      1732.457          39.812    20460245.920    83781280.896 6      1349.967          39.187
G02  23113617.220   121462882.239 7      4988.140          44.687    23113614.540   121462882.247 5      4988.140          32.812    23113621.420    94646409.971 5      3886.862          32.875
R11  20925532.080   111819700.732 8      5567.967          49.250    20925532.080   111819700.733 8      5567.967          48.312    20925539.940    86970907.107 8      4330.641          51.250    20925539.820    86970907.104 8      4330.641          52.062
G10  22188316.180   116600389.709 7      3140.001          47.187    22188314.640   116600389.709 7      3140.001          45.500    22188323.280    90857487.803 7      2446.754          45.875    22188322.480    90857470.807 7      2446.754          47.125
G27  20829823.640   109461462.387 7      2114.849          47.562    20829822.840   109461462.397 8      2114.849          48.937    20829828.340    85294664.465 8      1647.934          49.312    20829828.920    85294667.463 8      1647.934          49.437
R21  20461628.300   109494295.796 7      3182.720          46.937    20461628.380   109494295.821 7      3182.720          46.937    20461638.820    85162280.351 8      2475.449          49.125    20461638.340    85162282.349 8      2475.449          48.875
G31  25023032.420   131496913.250 6      -810.374          40.562    25023031.060   131496913.258 5      -810.374          33.875    25023046.200   102465182.539 5      -631.460          34.125    25023047.500   102465194.529 6      -631.460          40.125
R10  19300497.540   102882515.936 7      1427.639          44.875    19300496.240   102882515.944 7      1427.639          43.812
G23  23250051.760   122179847.604 7      1211.241          43.562    23250050.680   122179847.606 4      1211.241          29.312    23250057.420    95205100.735 4       943.824          29.000    23250058.280    95205108.734 7       943.824          43.625
G21  21403979.240   112478670.293 7      4484.914          46.312    21403977.340   112478670.298 6      4484.914          36.562    21403982.340    87645727.533 6      3494.738          36.500
G26  22066640.300   115960973.402 7      -163.059          45.062    22066639.300   115960973.407 7      -163.059          42.812    22066648.580    90359233.734 7      -127.059          42.750    22066649.300    90359235.732 7      -127.059          45.812
> 2024 05 08 12 05 49.0000000  0 13
G08  21566643.420   113333479.513 7      3645.190          44.000    21566642.180   113333479.515 5      3645.190          34.562    21566649.340    88311824.461 5      2840.407          34.375    21566651.260    88311834.471 7      2840.407          47.812
R09  21394710.320   114246552.599 7     -1351.321          44.312    21394711.320   114246552.610 7     -1351.321          43.875    21394722.820    88858473.956 7     -1051.028          47.500    21394722.840    88858475.948 8     -1051.028          48.750
G16  20459914.580   107517576.555 7      1731.468          47.000    20459913.100   107517576.565 6      1731.468          38.875    20459916.440    83779931.280 6      1349.196          38.437
G02  23112668.200   121457894.391 7      4987.400          45.375    23112665.300   121457894.396 5      4987.400          32.812    23112672.340    94642523.340 5      3886.286          33.000
R11  20924489.880   111814133.169 8      5566.934          49.375    20924490.300   111814133.167 8      5566.934          48.000    20924498.020    86966576.783 8      4329.837          50.562    20924497.940    86966576.781 8      4329.837          51.000
G10  22187718.820   116597250.059 7      3139.075          47.187    22187717.340   116597250.059 7      3139.075          45.625    22187725.820    90855041.324 7      2446.032          45.562    22187724.920    90855024.329 7      2446.032          46.812
G27  20829421.480   109459347.700 7      2114.373          47.562    20829420.380   109459347.703 8      2114.373          48.687    20829425.980    85293016.653 8      1647.563          48.937    20829426.620    85293019.651 8      1647.563          48.687
R21  20461033.880   109491113.479 7      3181.771          46.187    20461033.960   109491113.499 7      3181.771          47.375    20461044.020    85159805.209 8      2474.710          48.687    20461043.520    85159807.207 8      2474.710          48.000
G31  25023186.240   131497723.671 6      -810.681          40.875    25023185.240   131497723.673 5      -810.681          33.812    25023200.400   102465814.026 5      -631.699          34.125    25023201.180   102465826.016 6      -631.699          40.125
R10  19300229.860   102881088.771 7      1426.462          44.875    19300228.360   102881088.777 7      1426.462          44.000
G23  23249821.260   122178636.736 7      1210.421          43.437    23249820.200   122178636.741 4      1210.421          29.312    23249826.940    95204157.203 4       943.185          29.187    23249828.120    95204165.205 7       943.185          43.250
G21  21403125.920   112474185.919 7      4483.876          47.437    21403124.100   112474185.924 6      4483.876          36.375    21403129.000    87642233.219 6      3493.930          36.500
G26  22066671.320   115961136.763 7      -163.855          44.500    22066670.260   115961136.770 7      -163.855          42.375    22066679.800    90359361.022 7      -127.680          42.437    22066680.360    90359363.022 7      -127.680          45.687
> 2024 05 08 12 05 50.0000000  0 13
G08  21565949.800   113329834.145 7      3645.204          44.312    21565948.520   113329834.144 5      3645.204          34.437    21565955.660    88308983.916 5      2840.419          34.312    21565957.260    88308993.928 7      2840.419          47.937
R09  21394963.380   114247903.938 7     -1351.703          44.250    21394964.320   114247903.939 7     -1351.703          44.250    21394976.240    88859524.975 7     -1051.325          47.625    21394975.900    88859526.972 8     -1051.325          48.125
G16  20459584.960   107515845.197 7      1731.004          46.250    20459583.620   107515845.204 6      1731.004          38.625    20459586.960    83778582.169 6      1348.834          38.375
G02  23111719.140   121452907.057 7      4987.022          44.875    23111716.340   121452907.062 5      4987.022          32.812    23111723.240    94638637.113 5      3885.991          33.000
R11  20923448.280   111808566.306 8      5566.478          48.375    20923448.460   111808566.310 8      5566.478          48.187    20923456.100    86962247.007 8      4329.483          50.187    20923455.820    86962247.005 8      4329.483          50.312
G10  22187121.360   116594111.124 7      3138.588          47.125    22187119.920   116594111.129 7      3138.588          44.437    22187128.620    90852595.403 7      2445.653          45.000    22187127.840    90852578.412 7      2445.653          46.375
G27  20829019.160   109457233.355 8      2114.143          48.937    20829018.080   109457233.363 7      2114.143          47.812    20829023.700    85291369.116 7      1647.384          47.812    20829024.380    85291372.115 8      1647.384          49.000
R21  20460438.980   109487931.777 7      3181.302          47.500    20460439.420   109487931.789 7      3181.302          46.875    20460449.560    85157330.548 8      2474.346          48.000    20460449.060    85157332.546 8      2474.346          48.062
G31  25023340.400   131498534.076 6      -810.499          40.750    25023339.520   131498534.076 5      -810.499          33.812    25023354.640   102466445.496 5      -631.558          34.125    25023355.140   102466457.494 6      -631.558          40.125
R10  19299962.620   102879662.638 7      1425.598          44.625    19299961.100   102879662.646 7      1425.598          44.000
G23  23249591.280   122177426.649 7      1209.692          44.000    23249589.800   122177426.653 4      1209.692          29.312    23249596.860    95203214.278 4       942.617          29.187    23249597.780    95203222.273 7       942.617          43.250
G21  21402272.600   112469702.212 7      4483.265          47.187    21402270.880   112469702.217 5      4483.265          35.812    21402275.780    87638739.422 5      3493.453          35.937
G26  22066702.560   115961300.628 7      -164.143          44.875    22066701.380   115961300.630 7      -164.143          42.000    22066710.920    90359488.703 7      -127.904          42.250    22066711.840    90359490.699 7      -127.904          45.250
> 2024 05 08 12 05 51.0000000  0 13
G08  21565256.300   113326188.997 7      3644.960          44.687    21565254.800   113326188.997 5      3644.960          34.375    21565261.920    88306143.542 5      2840.228          33.937    21565263.600    88306153.546 8      2840.228          48.375
R09  21395216.800   114249255.804 7     -1352.321          43.812    21395217.440   114249255.800 7     -1352.321          43.625    21395229.360    88860576.410 8     -1051.806          48.000    21395229.260    88860578.406 8     -1051.806          49.250
G16  20459255.820   107514114.427 7      1730.348          45.687    20459254.060   107514114.437 6      1730.348          39.000    20459257.640    83777233.516 6      1348.323          38.812
G02  23110770.280   121447920.150 7      4986.570          45.437    23110767.360   121447920.157 5      4986.570          32.250    23110774.320    94634751.217 5      3885.639          32.375
R11  20922406.740   111803000.114 8      5565.685          49.062    20922406.860   111803000.117 8      5565.685          48.687    20922414.480    86957917.742 8      4328.866          50.937    20922414.480    86957917.740 8      4328.866          51.312
G10  22186524.120   116590972.825 7      3137.906          47.750    22186522.660   116590972.827 7      3137.906          45.562    22186531.420    90850149.973 7      2445.121          46.000    22186530.740    90850132.977 7      2445.121          47.000
G27  20828616.700   109455119.257 7      2113.864          47.875    20828615.740   109455119.262 8      2113.864          48.812    20828621.380    85289721.762 8      1647.167          49.187    20828622.100    85289724.762 8      1647.167          49.187
R21  20459844.620   109484750.562 7      3180.864          47.937    20459844.820   109484750.580 7      3180.864          46.687    20459855.060    85154856.270 8      2474.006          49.125    20459854.680    85154858.272 8      2474.006          48.875
G31  25023494.920   131499344.429 6      -810.520          40.812    25023493.680   131499344.429 5      -810.520          33.875    25023508.820   102467076.928 5      -631.574          33.437    25023509.020   102467088.922 6      -631.574          39.625
R10  19299695.140   102878237.445 7      1424.558          44.750    19299693.540   102878237.451 7      1424.558          43.875
G23  23249360.840   122176217.197 7      1208.954          44.000    23249359.720   122176217.204 4      1208.954          29.312    23249366.680    95202271.846 4       942.042          29.187    23249367.480    95202279.854 7       942.042          43.187
G21  21401419.660   112465219.071 7      4482.695          47.625    21401417.760   112465219.073 6      4482.695          36.125    21401422.700    87635246.065 6      3493.009          36.125
G26  22066733.860   115961464.932 7      -164.695          44.250    22066732.720   115961464.937 7      -164.695          43.125    22066742.200    90359616.726 7      -128.333          42.875    22066742.520    90359618.722 7      -128.333          45.687
> 2024 05 08 12 05 52.0000000  0 13
G08  21564562.840   113322544.115 7      3644.721          43.562    21564561.400   113322544.117 5      3644.721          34.375    21564568.520    88303303.374 5      2840.042          33.937    21564570.040    88303313.376 8      2840.042          48.125
R09  21395470.060   114250608.220 7     -1352.711          44.000    21395470.760   114250608.229 7     -1352.711          43.875    21395482.400    88861628.284 7     -1052.108          47.937    21395482.380    88861630.279 8     -1052.108          48.875
G16  20458926.500   107512384.288 7      1729.769          46.062    20458924.920   107512384.296 6      1729.769          39.250    20458928.300    83775885.358 6      1347.872          38.750
G02  23109821.140   121442933.762 7      4986.139          44.750    23109818.580   121442933.767 5      4986.139          32.250    23109825.460    94630865.724 5      3885.303          32.375
R11  20921365.280   111797434.600 8      5565.126          49.625    20921365.400   111797434.604 8      5565.126          48.125    20921373.020    86953589.005 8      4328.431          50.562    20921373.120    86953589.005 8      4328.431          51.125
G10  22185927.080   116587835.248 7      3137.180          47.250    22185925.700   116587835.250 7      3137.180          45.750    22185934.280    90847705.112 7      2444.556          46.062    22185933.200    90847688.116 7      2444.556          46.875
G27  20828214.580   109453005.461 8      2113.576          48.375    20828213.520   109453005.469 8      2113.576          48.687    20828219.100    85288074.651 8      1646.942          48.937    20828219.560    85288077.648 8      1646.942          49.125
R21  20459250.260   109481569.950 7      3180.246          47.750    20459250.480   109481569.965 7      3180.246          46.812    20459260.940    85152382.460 8      2473.524          48.875    20459260.600    85152384.461 8      2473.524          49.000
G31  25023649.100   131500154.769 6      -810.384          40.437    25023647.900   131500154.766 5      -810.384          33.875    25023662.900   102467708.349 5      -631.468          33.437    25023663.420   102467720.345 6      -631.468          39.625
R10  19299428.020   102876813.247 7      1423.652          45.000    19299426.520   102876813.252 7      1423.652          43.875
G23  23249130.940   122175008.465 7      1208.337          43.312    23249129.680   122175008.470 4      1208.337          29.125    23249136.600    95201329.979 4       941.561          29.187    23249137.760    95201337.979 7       941.561          43.437
G21  21400566.500   112460736.578 7      4482.177          46.687    21400564.740   112460736.583 6      4482.177          36.375    21400569.700    87631753.213 6      3492.605          36.812
G26  22066765.380   115961629.727 7      -165.104          45.062    22066764.040   115961629.730 7      -165.104          42.875    22066773.640    90359745.129 7      -128.653          43.062    22066773.980    90359747.132 7      -128.653          45.437
> 2024 05 08 12 05 53.0000000  0 13
G08  21563868.900   113318899.314 7      3644.770          44.312    21563867.900   113318899.314 5      3644.770          34.187    21563875.040    88300463.269 5      2840.080          34.000    21563876.520    88300473.273 8      2840.080          48.625
R09  21395723.060   114251961.038 7     -1353.043          44.812    21395723.840   114251961.053 7     -1353.043          43.937    21395735.980    88862680.468 7     -1052.367          47.312    21395735.800    88862682.465 8     -1052.367          48.562
G16  20458597.440   107510654.617 7      1729.476          45.687    20458595.580   107510654.627 6      1729.476          38.500    20458599.240    83774537.560 6      1347.644          38.187
G02  23108872.240   121437947.690 7      4985.928          45.000    23108869.680   121437947.695 5      4985.928          32.250    23108876.640    94626980.473 5      3885.139          32.375
R11  20920323.820   111791869.610 8      5564.770          48.812    20920323.920   111791869.614 8      5564.770          48.062    20920331.620    86949260.677 8      4328.155          50.125    20920331.740    86949260.678 8      4328.155          50.625
G10  22185330.020   116584698.160 7      3136.860          47.000    22185328.640   116584698.168 7      3136.860          45.312    22185337.320    90845260.632 7      2444.306          45.500    22185336.280    90845243.636 7      2444.306          46.625
G27  20827812.320   109450891.796 8      2113.601          48.125    20827811.300   109450891.796 7      2113.601          47.687    20827816.980    85286427.633 8      1646.962          48.062    20827817.320    85286430.631 8      1646.962          48.875
R21  20458655.960   109478389.746 7      3179.956          45.062    20458656.160   109478389.764 7      3179.956          46.812    20458666.600    85149908.971 8      2473.299          48.562    20458666.140    85149910.971 8      2473.299          48.500
G31  25023803.260   131500964.932 6      -810.114          40.625    25023802.140   131500964.932 5      -810.114          33.625    25023817.080   102468339.639 5      -631.258          33.750    25023817.400   102468351.637 6      -631.258          39.625
R10  19299160.480   102875389.885 7      1422.923          44.562    19299159.560   102875389.888 7      1422.923          43.437
G23  23248901.000   122173800.267 7      1208.024          43.562    23248899.640   122173800.272 4      1208.024          29.125    23248906.800    95200388.522 4       941.317          28.937    23248907.760    95200396.527 7       941.317          43.250
G21  21399713.500   112456254.571 7      4481.804          47.250    21399711.840   112456254.576 5      4481.804          35.875    21399716.820    87628260.745 6      3492.314          36.375
G26  22066797.120   115961794.835 7      -165.292          44.562    22066795.520   115961794.838 7      -165.292          42.375    22066805.120    90359873.783 7      -128.799          42.562    22066805.620    90359875.777 7      -128.799          45.250
> 2024 05 08 12 05 54.0000000  0 13
G08  21563175.540   113315254.645 7      3644.517          44.750    21563174.240   113315254.647 5      3644.517          34.187    21563181.480    88297623.267 5      2839.883          34.000    21563183.280    88297633.275 8      2839.883          48.437
R09  21395976.840   114253314.266 7     -1353.628          44.187    21395977.100   114253314.280 7     -1353.628          44.125    21395989.240    88863732.968 7     -1052.821          47.562    21395989.240    88863734.964 8     -1052.821          48.000
G16  20458268.380   107508925.476 7      1728.781          46.312    20458266.680   107508925.484 6      1728.781          39.125    20458270.260    83773190.171 6      1347.102          38.500
G02  23107923.480   121432961.980 7      4985.452          44.812    23107920.860   121432961.985 5      4985.452          32.250    23107927.940    94623095.512 5      3884.768          32.375
R11  20919282.300   111786305.160 8      5564.074          48.750    20919282.560   111786305.164 8      5564.074          48.312    20919290.400    86944932.786 8      4327.613          50.750    20919290.420    86944932.789 8      4327.613          51.125
G10  22184732.980   116581561.661 7      3136.078          47.125    22184731.740   116581561.666 7      3136.078          45.625    22184740.540    90842816.604 7      2443.697          45.937    22184739.560    90842799.609 7      2443.697          46.562
G27  20827410.160   109448778.297 8      2113.294          48.187    20827409.080   109448778.302 8      2113.294          48.125    20827414.800    85284780.753 8      1646.723          48.437    20827415.000    85284783.754 8      1646.723          49.250
R21  20458061.800   109475210.052 7      3179.314          46.875    20458061.920   109475210.064 7      3179.314          47.125    20458072.260    85147435.873 8      2472.800          48.500    20458072.200    85147437.871 8      2472.800          48.500
G31  25023957.200   131501774.965 6      -810.108          40.937    25023956.240   131501774.964 5      -810.108          33.625    25023971.280   102468970.821 5      -631.253          33.750    25023972.060   102468982.817 6      -631.253          39.750
R10  19298893.820   102873967.382 7      1421.988          44.312    19298892.740   102873967.388 7      1421.988          43.875
G23  23248671.120   122172592.681 7      1207.269          44.000    23248669.840   122172592.683 4      1207.269          29.125    23248677.060    95199447.544 4       940.729          28.937    23248678.020    95199455.543 7       940.729          43.250
G21  21398860.860   112451773.090 7      4481.056          47.000    21398859.160   112451773.098 6      4481.056          36.062    21398863.960    87624768.682 6      3491.732          36.375
G26  22066828.480   115961960.295 7      -165.720          44.812    22066826.880   115961960.303 7      -165.720          42.750    22066836.560    90360002.709 7      -129.132          42.562    22066836.760    90360004.711 7      -129.132          45.375
> 2024 05 08 12 05 55.0000000  0 13
G08  21562481.920   113311610.281 7      3644.337          43.687    21562480.660   113311610.278 5      3644.337          34.437    21562487.860    88294783.503 5      2839.743          34.187    21562489.720    88294793.513 8      2839.743          48.812
R09  21396230.440   114254668.107 7     -1354.020          44.437    21396231.240   114254668.121 7     -1354.020          43.812    21396242.920    88864785.943 7     -1053.127          47.812    21396242.860    88864787.938 8     -1053.127          48.187
G16  20457939.380   107507196.977 7      1728.299          45.812    20457937.860   107507196.982 6      1728.299          39.312    20457941.240    83771843.289 6      1346.726          38.812
G02  23106974.960   121427976.804 7      4984.941          43.937    23106972.240   121427976.811 5      4984.941          32.312    23106979.200    94619210.966 5      3884.370          32.375
R11  20918241.200   111780741.428 8      5563.493          49.625    20918241.200   111780741.432 8      5563.493          48.312    20918249.120    86940605.441 8      4327.161          50.312    20918249.000    86940605.440 8      4327.161          51.000
G10  22184136.380   116578425.866 7      3135.522          47.125    22184134.980   116578425.870 7      3135.522          45.500    22184143.780    90840373.129 7      2443.264          46.000    22184142.960    90840356.134 7      2443.264          46.687
G27  20827007.940   109446665.148 8      2113.032          48.625    20827006.960   109446665.153 8      2113.032          48.437    20827012.700    85283134.143 8      1646.518          48.812    20827013.100    85283137.140 8      1646.518          49.375
R21  20457467.440   109472030.983 7      3178.826          46.062    20457467.860   109472031.006 7      3178.826          46.812    20457478.220    85144963.272 8      2472.420          48.812    20457478.040    85144965.270 8      2472.420          48.625
G31  25024111.820   131502584.986 6      -809.812          40.812    25024110.380   131502584.983 5      -809.812          33.500    25024125.580   102469601.994 5      -631.022          33.750    25024126.240   102469613.998 6      -631.022          39.750
R10  19298627.400   102872545.897 7      1421.113          45.000    19298626.040   102872545.902 7      1421.113          43.562
G23  23248441.640   122171385.817 7      1206.702          43.250    23248440.240   122171385.822 4      1206.702          29.125    23248447.500    95198507.126 4       940.287          28.937    23248448.420    95198515.134 7       940.287          43.375
G21  21398008.080   112447292.261 7      4480.534          47.125    21398006.440   112447292.268 6      4480.534          36.187    21398011.240    87621277.130 6      3491.325          36.500
G26  22066859.780   115962126.289 7      -166.095          45.000    22066858.500   115962126.294 7      -166.095          42.687    22066868.120    90360132.046 7      -129.425          42.875    22066868.120    90360134.046 7      -129.425          45.500
> 2024 05 08 12 05 56.0000000  0 13
G08  21561788.440   113307966.161 7      3643.939          43.750    21561787.240   113307966.160 5      3643.939          34.062    21561794.440    88291943.933 5      2839.433          33.937    21561796.380    88291953.947 8      2839.433          48.312
R09  21396483.720   114256022.493 7     -1354.659          44.500    21396484.600   114256022.516 7     -1354.659          44.312    21396496.640    88865839.348 8     -1053.624          48.062    21396496.360    88865841.343 8     -1053.624          48.687
G16  20457610.560   107505469.132 7      1727.398          46.062    20457609.080   107505469.137 6      1727.398          38.812    20457612.480    83770496.916 6      1346.024          38.687
G02  23106026.320   121422992.119 7      4984.300          45.187    23106023.680   121422992.129 5      4984.300          32.312    23106030.520    94615326.800 5      3883.870          32.375
R11  20917200.180   111775178.375 8      5562.655          49.437    20917200.200   111775178.379 8      5562.655          48.937    20917208.020    86936278.624 8      4326.509          50.687    20917207.900    86936278.625 8      4326.509          51.312
G10  22183539.780   116575290.761 7      3134.650          46.812    22183538.380   116575290.771 7      3134.650          45.750    22183547.040    90837930.195 7      2442.584          46.125    22183546.220    90837913.202 7      2442.584          46.875
G27  20826605.920   109444552.282 8      2112.597          48.500    20826604.800   109444552.284 8      2112.597          48.500    20826610.680    85281487.752 8      1646.179          48.875    20826610.940    85281490.751 8      1646.179          49.750
R21  20456873.720   109468852.486 7      3178.164          47.062    20456873.760   109468852.509 7      3178.164          47.250    20456884.260    85142491.108 8      2471.905          49.187    20456884.060    85142493.109 8      2471.905          48.625
G31  25024265.880   131503395.024 6      -810.117          40.437    25024264.620   131503395.023 5      -810.117          33.500    25024279.660   102470233.180 5      -631.260          33.750    25024280.260   102470245.166 6      -631.260          39.687
R10  19298360.360   102871125.395 7      1419.919          44.875    19298359.460   102871125.401 7      1419.919          43.562
G23  23248212.020   122170179.673 7      1205.706          43.812    23248210.720   122170179.678 4      1205.706          28.625    23248218.140    95197567.274 4       939.511          28.937    23248218.920    95197575.282 7       939.511          43.375
G21  21397155.560   112442812.064 7      4479.796          46.500    21397153.880   112442812.072 6      4479.796          36.250    21397158.620    87617786.070 6      3490.750          36.500
G26  22066891.280   115962292.750 7      -166.795          45.062    22066890.220   115962292.755 7      -166.795          42.812    22066899.820    90360261.754 7      -129.970          42.750    22066900.280    90360263.754 7      -129.970          45.562
> 2024 05 08 12 05 57.0000000  0 13
G08  21561095.000   113304322.379 7      3643.550          44.312    21561093.840   113304322.379 5      3643.550          34.062    21561101.080    88289104.627 5      2839.130          33.937    21561103.040    88289114.635 8      2839.130          48.187
R09  21396737.740   114257377.541 7     -1355.517          43.875    21396738.360   114257377.569 7     -1355.517          44.375    21396750.160    88866893.267 7     -1054.291          47.750    21396750.320    88866895.259 8     -1054.291          48.312
G16  20457281.780   107503741.965 7      1726.711          46.312    20457280.340   107503741.977 6      1726.711          38.937    20457283.780    83769151.071 6      1345.489          38.625
G02  23105078.040   121418007.970 7      4983.821          44.625    23105075.320   121418007.978 5      4983.821          32.312    23105082.100    94611443.049 5      3883.497          32.375
R11  20916159.460   111769616.089 8      5561.838          49.812    20916159.300   111769616.090 8      5561.838          48.500    20916167.040    86931952.404 8      4325.874          50.687    20916167.100    86931952.407 8      4325.874          50.750
G10  22182943.560   116572156.419 7      3133.913          46.625    22182942.020   116572156.421 7      3133.913          45.562    22182950.640    90835487.848 7      2442.010          45.625    22182950.120    90835470.853 7      2442.010          46.187
G27  20826203.820   109442439.784 8      2112.251          48.375    20826202.820   109442439.786 8      2112.251          48.375    20826208.680    85279841.649 8      1645.910          48.500    20826208.920    85279844.647 8      1645.910          48.500
R21  20456279.680   109465674.627 7      3177.501          46.812    20456279.980   109465674.645 7      3177.501          46.812    20456290.300    85140019.436 8      2471.390          48.625    20456290.160    85140021.436 8      2471.390          48.437
G31  25024419.740   131504205.093 6      -810.108          41.062    25024418.820   131504205.090 5      -810.108          33.375    25024433.860   102470864.390 5      -631.253          33.562    25024434.940   102470876.388 6      -631.253          39.687
R10  19298094.180   102869705.943 7      1418.817          44.500    19298093.120   102869705.949 7      1418.817          43.937
G23  23247982.520   122168974.308 7      1204.909          43.062    23247981.380   122168974.312 4      1204.909          28.625    23247988.920    95196628.026 4       938.890          28.937    23247989.440    95196636.029 7       938.890          43.937
G21  21396303.140   112438332.599 7      4479.027          47.312    21396301.500   112438332.603 6      4479.027          36.187    21396306.180    87614295.579 6      3490.151          36.375
G26  22066922.900   115962459.786 7      -167.385          44.500    22066921.940   115962459.789 7      -167.385          42.625    22066931.640    90360391.898 7      -130.430          42.562    22066932.180    90360393.892 7      -130.430          45.375
> 2024 05 08 12 05 58.0000000  0 13
G08  21560401.720   113300678.987 7      3643.324          44.562    21560400.660   113300678.989 5      3643.324          34.062    21560407.600    88286265.620 5      2838.954          33.875    21560409.800    88286275.630 8      2838.954          48.250
R09  21396991.460   114258733.289 7     -1356.018          44.000    21396992.520   114258733.306 7     -1356.018          44.375    21397004.260    88867947.718 7     -1054.681          47.375    21397003.880    88867949.713 7     -1054.681          47.625
G16  20456953.420   107502015.601 7      1726.074          46.187    20456951.800   107502015.611 6      1726.074          38.437    20456955.420    83767805.851 6      1344.993          38.187
G02  23104129.440   121413024.483 7      4983.285          44.187    23104126.940   121413024.494 5      4983.285          32.125    23104133.800    94607559.817 5      3883.079          32.375
R11  20915118.660   111764054.645 8      5561.139          49.000    20915118.340   111764054.646 7      5561.139          47.937    20915126.380    86927626.838 8      4325.330          49.937    20915126.360    86927626.839 8      4325.330          49.937
G10  22182347.300   116569022.910 7      3133.098          46.750    22182345.640   116569022.917 7      3133.098          44.750    22182354.400    90833046.155 7      2441.375          45.125    22182353.820    90833029.160 7      2441.375          46.250
G27  20825802.040   109440327.725 8      2111.972          48.000    20825800.960   109440327.732 7      2111.972          47.812    20825806.680    85278195.891 8      1645.692          48.062    20825807.240    85278198.893 8      1645.692          49.062
R21  20455686.160   109462497.493 7      3176.825          45.250    20455686.080   109462497.516 7      3176.825          46.375    20455696.680    85137548.337 7      2470.864          47.375    20455696.440    85137550.336 7      2470.864          47.812
G31  25024574.460   131505015.311 6      -810.159          41.062    25024573.080   131505015.314 5      -810.159          33.375    25024588.120   102471495.721 5      -631.293          33.562    25024588.760   102471507.723 6      -631.293          39.687
R10  19297827.980   102868287.611 7      1417.883          44.875    19297827.200   102868287.620 7      1417.883          44.000
G23  23247753.680   122167769.790 7      1204.201          43.687    23247752.120   122167769.798 4      1204.201          28.625    23247759.500    95195689.443 4       938.338          28.687    23247760.240    95195697.453 7       938.338          43.312
G21  21395450.680   112433853.913 7      4478.339          47.125    21395449.100   112433853.921 6      4478.339          36.187    21395454.020    87610805.693 6      3489.615          36.125
G26  22066955.100   115962627.422 7      -167.917          44.437    22066953.760   115962627.427 6      -167.917          41.812    22066963.620    90360522.519 6      -130.845          41.875    22066963.900    90360524.522 7      -130.845          44.875
