     3.05           OBSERVATION DATA    MIXED               RINEX VERSION / TYPE
TPS2RIN 1.0.29.3920 TPS-USER            20240511 191956 UTC PGM / RUN BY / DATE
Win64 build Feb 23, 2024 (c) Topcon Positioning Systems     COMMENT
SRC: 20240508_GUI14.tps                                     COMMENT
OPT: -S -v 3.05                                             COMMENT
Observer            Agency                                  OBSERVER / AGENCY
O0M3X53SBGM         TPS HIPER_SR        4.8 HSR Jul,08,2022 REC # / TYPE / VERS
FW: 4.8 HSR Jul,08,2022 p3                                  COMMENT
SN: HiPer SR 1212-12575                                     COMMENT
000                 TPSHIPER_SR     NONE                    ANT # / TYPE
        1.8000        0.0000        0.0000                  ANTENNA: DELTA H/E/N
GUI14                                                       MARKER NAME
  5388960.2470 -1589817.1101  3010296.4817                  APPROX POSITION XYZ
  2024     5     8    13    29   36.0000000     GPS         TIME OF FIRST OBS
  2024     5     8    13    44   36.0000000     GPS         TIME OF LAST OBS
     1.000                                                  INTERVAL
   901 EPOCHS                                               COMMENT
G   16 C1C L1C D1C S1C C1W L1W D1W S1W C2W L2W D2W S2W C2X  SYS / # / OBS TYPES
       L2X D2X S2X                                          SYS / # / OBS TYPES
R   16 C1C L1C D1C S1C C1P L1P D1P S1P C2P L2P D2P S2P C2C  SYS / # / OBS TYPES
       L2C D2C S2C                                          SYS / # / OBS TYPES
    16                                                      # OF SATELLITES
   G02   901   901   901   901   901   901   901   901   901PRN / # OF OBS
         901   901   901     0     0     0     0            PRN / # OF OBS
   G03   901   901   901   901   901   901   901   901   901PRN / # OF OBS
         901   901   901   901   901   901   901            PRN / # OF OBS
   G08   901   901   901   901   901   901   901   901   901PRN / # OF OBS
         901   901   901   901   901   901   901            PRN / # OF OBS
   G10   901   901   901   901   901   901   901   901   901PRN / # OF OBS
         901   901   901   901   901   901   901            PRN / # OF OBS
   G16   901   901   901   901   901   901   901   901   901PRN / # OF OBS
         901   901   901     0     0     0     0            PRN / # OF OBS
   G21   901   901   901   901   901   901   901   901   901PRN / # OF OBS
         901   901   901     0     0     0     0            PRN / # OF OBS
   G26   323   323   323   323   323   323   323   323   323PRN / # OF OBS
         323   323   323   323   323   323   323            PRN / # OF OBS
   G27   901   901   901   901   901   901   901   901   901PRN / # OF OBS
         901   901   901   901   901   901   901            PRN / # OF OBS
   G32   751   751   751   751   741   741   741   741   741PRN / # OF OBS
         741   741   741   733   733   733   733            PRN / # OF OBS
   R05   901   901   901   901   901   901   901   901   901PRN / # OF OBS
         901   901   901   901   901   901   901            PRN / # OF OBS
   R07   626   626   626   626   626   626   626   626   626PRN / # OF OBS
         626   626   626   626   626   626   626            PRN / # OF OBS
   R10   901   901   901   901   901   901   901   901     0PRN / # OF OBS
           0     0     0     0     0     0     0            PRN / # OF OBS
   R11   901   901   901   901   901   901   901   901   901PRN / # OF OBS
         901   901   901   901   901   901   901            PRN / # OF OBS
   R12   873   873   873   873   869   869   869   869   869PRN / # OF OBS
         869   869   869   868   868   868   868            PRN / # OF OBS
   R21   901   901   901   901   901   901   901   901   901PRN / # OF OBS
         901   901   901   901   901   901   901            PRN / # OF OBS
   R22   901   901   901   901   901   901   901   901   901PRN / # OF OBS
         901   901   901   901   901   901   901            PRN / # OF OBS
G L1C                                                       SYS / PHASE SHIFT
G L1W -0.25000                                              SYS / PHASE SHIFT
G L2W  0.00000                                              SYS / PHASE SHIFT
G L2X  0.25000                                              SYS / PHASE SHIFT
R L1C                                                       SYS / PHASE SHIFT
R L1P -0.25000                                              SYS / PHASE SHIFT
R L2P -0.25000                                              SYS / PHASE SHIFT
R L2C                                                       SYS / PHASE SHIFT
  7 R05  1 R07  5 R10 -7 R11  0 R12 -1 R21  4 R22 -3        GLONASS SLOT / FRQ #
                                                            GLONASS COD/PHS/BIS
    18    18  1929     7GPS                                 LEAP SECONDS
                                                            END OF HEADER
> 2024 05 08 13 29 36.0000000  0 13
R22  21985532.840   117360270.724 7      3748.252          42.000    21985533.780   117360270.736 6      3748.252          41.562    21985544.600    91280258.028 7      2915.307          44.687    21985544.200    91280257.022 7      2915.307          44.437
G10  23064683.760   121205736.220 7       263.918          45.750    23064682.240   121205736.225 7       263.918          44.625    23064692.240    94446058.234 7       205.650          44.562    23064692.360    94446061.234 7       205.650          46.625
R21  20758280.700   111081748.560 8      1732.299          49.062    20758281.120   111081748.575 8      1732.299          48.812    20758292.120    86396966.550 8      1347.343          49.625    20758291.400    86396965.547 8      1347.343          48.500
R05  22999756.060   122946880.152 7      2028.647          42.625    22999755.460   122946880.140 7      2028.647          42.125    22999771.300    95625408.609 7      1577.837          44.000    22999771.020    95625410.609 7      1577.837          44.562
R10  22116701.380   117894460.489 6     -1656.084          40.750    22116699.760   117894460.482 6     -1656.084          39.500
G02  21721579.220   114147670.885 7      3103.890          46.687    21721577.980   114147670.889 6      3103.890          38.187    21721581.780    88946245.021 6      2418.616          38.000
G27  21702538.780   114047601.664 7      1165.546          46.312    21702537.180   114047601.674 7      1165.546          47.062    21702545.960    88868293.593 7       908.218          47.062    21702544.780    88868290.592 8       908.218          48.750
G21  20771187.140   109153326.301 7      2128.048          47.875    20771185.560   109153326.306 6      2128.048          39.375    20771190.420    85054551.950 6      1658.219          39.375
G26  25293392.420   132917679.141 6     -1134.515          40.125    25293391.840   132917679.145 5     -1134.515          34.812    25293412.000   103572298.207 5      -884.037          35.000    25293413.020   103572296.207 6      -884.037          41.625
G03  24369506.320   128062620.447 7      6245.619          44.000    24369505.200   128062620.452 5      6245.619          32.062    24369526.560    99789106.972 5      4866.716          31.750    24369527.520    99789138.975 7      4866.716          46.000
G08  20881925.120   109735257.625 8      2865.168          48.625    20881924.840   109735257.628 8      2865.168          49.375    20881932.120    85508021.430 8      2232.598          50.125    20881931.800    85508019.432 8      2232.598          50.125
R11  19932537.960   106513441.535 8      1479.804          49.000    19932538.040   106513441.542 8      1479.804          48.062    19932546.820    82843822.544 8      1150.959          51.562    19932546.820    82843820.539 8      1150.959          52.250
G16  22438205.760   117913562.146 7      -569.090          46.000    22438204.860   117913562.153 6      -569.090          36.312    22438214.240    91880728.205 6      -443.447          36.062
> 2024 05 08 13 29 37.0000000  0 13
R22  21984830.680   117356522.448 6      3748.078          41.500    21984831.480   117356522.449 6      3748.078          41.187    21984842.600    91277342.700 7      2915.172          44.312    21984842.080    91277341.692 7      2915.172          44.562
G10  23064633.480   121205472.383 7       263.532          45.250    23064632.080   121205472.388 7       263.532          44.562    23064642.000    94445852.645 7       205.350          44.500    23064642.280    94445855.645 7       205.350          46.625
R21  20757956.860   111080016.205 7      1732.206          46.500    20757957.400   111080016.228 8      1732.206          48.750    20757968.420    86395619.167 8      1347.271          49.625    20757967.780    86395618.164 8      1347.271          48.250
R05  22999376.540   122944851.817 7      2027.849          42.625    22999375.820   122944851.816 7      2027.849          42.000    22999391.840    95623831.027 7      1577.216          43.812    22999391.580    95623833.026 7      1577.216          44.687
R10  22117012.160   117896116.637 6     -1656.405          40.875    22117010.660   117896116.634 6     -1656.405          39.500
G02  21720988.720   114144567.111 7      3103.546          46.375    21720987.260   114144567.118 6      3103.546          37.750    21720991.080    88943826.499 6      2418.347          38.000
G27  21702317.400   114046436.155 7      1165.366          46.500    21702315.380   114046436.163 7      1165.366          46.750    21702324.100    88867385.402 7       908.077          46.875    21702323.140    88867382.401 8       908.077          48.875
G21  20770782.180   109151198.306 7      2127.727          47.250    20770780.480   109151198.311 6      2127.727          39.125    20770785.360    85052893.774 6      1657.969          39.062
G26  25293608.400   132918813.356 6     -1134.420          40.750    25293607.600   132918813.361 5     -1134.420          35.250    25293628.040   103573182.011 5      -883.964          35.000    25293628.660   103573180.019 6      -883.964          41.812
G03  24368317.980   128056374.727 7      6245.545          44.187    24368316.520   128056374.726 5      6245.545          32.062    24368337.900    99784240.179 5      4866.658          31.750    24368338.720    99784272.178 7      4866.658          45.875
G08  20881380.080   109732392.493 8      2864.946          48.187    20881379.640   109732392.501 8      2864.946          48.812    20881386.920    85505788.862 8      2232.425          49.250    20881386.760    85505786.862 8      2232.425          50.750
R11  19932260.780   106511961.983 8      1479.040          49.062    19932261.080   106511961.992 7      1479.040          47.875    19932270.060    82842671.775 8      1150.364          51.625    19932269.760    82842669.770 8      1150.364          52.125
G16  22438314.140   117914131.303 7      -569.398          46.187    22438313.200   117914131.305 6      -569.398          36.312    22438322.560    91881171.687 6      -443.687          36.437
> 2024 05 08 13 29 38.0000000  0 13
R22  21984129.080   117352774.353 6      3747.964          41.500    21984129.500   117352774.351 6      3747.964          41.187    21984140.340    91274427.515 7      2915.083          44.625    21984139.780    91274426.509 7      2915.083          44.062
G10  23064583.380   121205208.985 7       263.126          45.875    23064581.940   121205208.987 7       263.126          44.312    23064591.920    94445647.396 7       205.034          44.437    23064592.160    94445650.393 7       205.034          46.875
R21  20757633.200   111078283.970 8      1732.082          48.750    20757633.840   111078283.987 8      1732.082          48.875    20757644.700    86394271.867 8      1347.175          49.625    20757644.200    86394270.864 8      1347.175          49.187
R05  22998997.080   122942824.239 7      2027.168          42.500    22998996.540   122942824.237 7      2027.168          42.000    22999012.300    95622254.020 7      1576.686          44.125    22999012.240    95622256.018 7      1576.686          44.687
R10  22117323.400   117897772.978 6     -1656.517          40.875    22117321.680   117897772.976 6     -1656.517          39.500
G02  21720398.120   114141463.624 7      3103.262          45.687    21720396.640   114141463.631 6      3103.262          38.125    21720400.440    88941408.195 6      2418.126          37.937
G27  21702095.180   114045270.846 7      1165.177          47.125    21702093.720   114045270.851 7      1165.177          47.250    21702102.400    88866477.358 7       907.930          47.062    21702101.380    88866474.359 8       907.930          48.750
G21  20770377.540   109149070.634 8      2127.448          48.187    20770375.560   109149070.642 6      2127.448          40.000    20770380.640    85051235.846 6      1657.752          39.937
G26  25293824.400   132919947.545 6     -1134.230          40.312    25293823.320   132919947.537 5     -1134.230          35.250    25293843.760   103574065.789 5      -883.816          34.750    25293844.380   103574063.797 6      -883.816          41.750
G03  24367129.280   128050128.986 7      6245.601          44.375    24367128.140   128050128.988 5      6245.601          32.062    24367149.400    99779373.370 5      4866.702          31.750    24367150.360    99779405.369 7      4866.702          45.687
G08  20880834.740   109729527.545 8      2864.763          48.625    20880834.480   109729527.550 8      2864.763          49.250    20880841.700    85503556.429 8      2232.283          49.562    20880841.500    85503554.435 8      2232.283          49.937
R11  19931984.060   106510483.329 8      1478.109          48.937    19931984.480   106510483.335 8      1478.109          48.625    19931993.320    82841521.706 8      1149.640          51.500    19931993.140    82841519.701 8      1149.640          52.125
G16  22438422.440   117914700.752 7      -569.636          47.312    22438421.400   117914700.754 6      -569.636          36.125    22438431.040    91881615.399 6      -443.872          36.500
> 2024 05 08 13 29 39.0000000  0 13
R22  21983426.960   117349026.455 6      3747.830          41.250    21983427.760   117349026.456 6      3747.830          41.687    21983437.940    91271512.488 7      2914.979          44.500    21983437.580    91271511.480 7      2914.979          44.250
G10  23064533.340   121204946.049 7       262.652          46.625    23064531.940   121204946.054 7       262.652          44.875    23064541.780    94445442.513 7       204.664          44.562    23064542.060    94445445.512 7       204.664          46.625
R21  20757309.600   111076551.826 8      1732.034          49.062    20757309.900   111076551.843 8      1732.034          48.750    20757321.120    86392924.646 8      1347.137          49.500    20757320.560    86392923.639 8      1347.137          48.625
R05  22998618.280   122940797.435 7      2026.413          43.375    22998617.900   122940797.428 6      2026.413          41.625    22998633.300    95620677.615 7      1576.099          43.812    22998633.040    95620679.615 7      1576.099          43.687
R10  22117633.400   117899429.584 6     -1656.854          40.875    22117632.340   117899429.582 6     -1656.854          39.687
G02  21719807.580   114138360.441 7      3102.937          45.937    21719806.180   114138360.451 6      3102.937          38.062    21719810.080    88938990.134 6      2417.873          38.062
G27  21701873.460   114044105.746 7      1164.991          46.750    21701871.880   114044105.751 7      1164.991          47.500    21701880.700    88865569.483 7       907.785          47.000    21701879.640    88865566.484 8       907.785          48.875
G21  20769972.800   109146943.314 7      2127.022          47.687    20769970.800   109146943.322 6      2127.022          39.750    20769975.720    85049578.194 6      1657.420          39.750
G26  25294039.780   132921081.742 6     -1134.290          40.437    25294039.100   132921081.739 5     -1134.290          34.625    25294059.500   103574949.585 5      -883.862          34.750    25294059.740   103574947.593 6      -883.862          41.750
G03  24365940.920   128043883.266 7      6245.636          44.312    24365939.700   128043883.268 5      6245.636          32.062    24365960.840    99774506.579 5      4866.729          32.062    24365961.660    99774538.584 7      4866.729          45.750
G08  20880289.600   109726662.805 8      2864.520          48.875    20880289.300   109726662.807 8      2864.520          49.562    20880296.520    85501324.165 8      2232.094          49.500    20880296.240    85501322.169 8      2232.094          50.375
R11  19931707.380   106509005.524 8      1477.302          49.187    19931708.000   106509005.536 8      1477.302          48.187    19931716.720    82840372.307 8      1149.012          51.875    19931716.740    82840370.304 8      1149.012          51.875
G16  22438530.820   117915270.534 7      -569.975          45.937    22438529.820   117915270.537 5      -569.975          35.875    22438539.360    91882059.376 5      -444.136          35.812
> 2024 05 08 13 29 40.0000000  0 13
R22  21982725.000   117345278.550 6      3747.794          41.625    21982725.860   117345278.572 6      3747.794          41.687    21982735.540    91268597.469 7      2914.951          44.437    21982735.620    91268596.463 7      2914.951          43.937
G10  23064483.380   121204683.352 7       262.513          46.437    23064481.940   121204683.355 7       262.513          44.375    23064491.860    94445237.808 7       204.555          44.187    23064491.940    94445240.814 7       204.555          46.687
R21  20756985.720   111074819.548 8      1732.321          48.500    20756986.340   111074819.563 8      1732.321          49.187    20756997.240    86391577.312 8      1347.360          49.500    20756996.820    86391576.310 8      1347.360          49.062
R05  22998239.540   122938771.201 7      2025.855          43.375    22998238.340   122938771.194 6      2025.855          41.625    22998254.260    95619101.659 7      1575.665          43.500    22998253.980    95619103.654 7      1575.665          43.625
R10  22117944.540   117901086.195 6     -1656.595          40.875    22117943.440   117901086.185 6     -1656.595          39.687
G02  21719217.260   114135257.356 7      3102.958          46.062    21719215.640   114135257.366 6      3102.958          38.125    21719219.580    88936572.146 6      2417.890          38.000
G27  21701651.640   114042940.629 7      1165.144          47.062    21701650.140   114042940.634 7      1165.144          47.312    21701658.940    88864661.599 7       907.905          47.187    21701657.920    88864658.600 8       907.905          48.625
G21  20769568.220   109144816.089 7      2127.043          46.812    20769565.920   109144816.097 6      2127.043          39.562    20769570.760    85047920.618 6      1657.436          39.562
G26  25294255.400   132922215.716 6     -1133.891          40.062    25294254.800   132922215.715 5     -1133.891          34.875    25294275.360   103575833.205 5      -883.551          34.562    25294275.620   103575831.211 6      -883.551          41.750
G03  24364752.460   128037637.341 7      6246.044          44.187    24364751.020   128037637.343 5      6246.044          32.062    24364772.380    99769639.629 5      4867.047          32.062    24364773.160    99769671.636 7      4867.047          45.625
G08  20879744.500   109723798.040 8      2864.735          49.125    20879744.180   109723798.043 8      2864.735          48.750    20879751.460    85499091.882 8      2232.261          49.000    20879751.180    85499089.881 8      2232.261          49.875
R11  19931431.300   106507528.361 8      1476.781          49.062    19931431.460   106507528.378 8      1476.781          48.000    19931440.460    82839223.404 8      1148.608          52.062    19931440.180    82839221.401 8      1148.608          51.937
G16  22438639.480   117915840.414 7      -569.960          46.187    22438638.340   117915840.416 6      -569.960          36.125    22438647.880    91882503.427 6      -444.125          36.000
> 2024 05 08 13 29 41.0000000  0 13
R22  21982022.980   117341530.738 6      3747.706          41.625    21982023.540   117341530.752 6      3747.706          41.687    21982033.600    91265682.496 7      2914.883          44.000    21982033.360    91265681.483 7      2914.883          44.000
G10  23064433.220   121204420.995 7       262.132          46.375    23064432.000   121204420.994 7       262.132          44.562    23064442.000    94445033.369 7       204.259          44.625    23064442.000    94445036.371 7       204.259          46.750
R21  20756662.340   111073087.254 8      1732.276          48.687    20756662.600   111073087.275 8      1732.276          48.750    20756673.540    86390229.979 8      1347.325          49.750    20756672.760    86390228.974 8      1347.325          48.875
R05  22997860.400   122936745.598 7      2025.189          43.187    22997859.280   122936745.591 7      2025.189          42.375    22997875.160    95617526.190 7      1575.147          43.875    22997875.240    95617528.184 7      1575.147          43.500
R10  22118256.260   117902742.947 6     -1656.840          41.062    22118253.900   117902742.948 6     -1656.840          39.687
G02  21718627.060   114132154.444 7      3102.734          47.375    21718625.140   114132154.449 6      3102.734          37.812    21718629.020    88934154.288 6      2417.715          38.125
G27  21701430.280   114041775.627 7      1164.917          46.375    21701428.480   114041775.632 7      1164.917          47.125    21701437.320    88863753.801 7       907.728          47.000    21701436.280    88863750.798 8       907.728          49.125
G21  20769163.540   109142689.082 8      2126.767          48.000    20769161.260   109142689.089 6      2126.767          39.812    20769166.020    85046263.210 6      1657.221          39.625
G26  25294471.520   132923349.563 6     -1133.938          40.125    25294470.580   132923349.557 5     -1133.938          34.875    25294491.120   103576716.722 5      -883.588          34.500    25294491.680   103576714.724 6      -883.588          41.750
G03  24363564.060   128031391.313 7      6246.056          43.750    24363562.520   128031391.316 5      6246.056          32.062    24363583.800    99764772.596 5      4867.057          32.312    24363584.740    99764804.602 7      4867.057          46.000
G08  20879199.200   109720933.347 8      2864.588          48.812    20879199.020   109720933.355 8      2864.588          49.375    20879206.280    85496859.651 8      2232.146          49.875    20879206.040    85496857.655 8      2232.146          50.062
R11  19931155.020   106506051.964 8      1476.002          48.562    19931155.080   106506051.976 8      1476.002          48.437    19931164.080    82838075.085 8      1148.002          51.875    19931163.820    82838073.086 8      1148.002          52.312
G16  22438747.860   117916410.488 7      -570.252          46.000    22438746.920   117916410.493 6      -570.252          36.062    22438756.360    91882947.631 5      -444.352          35.937
> 2024 05 08 13 29 42.0000000  0 13
R22  21981320.380   117337783.088 7      3747.746          42.375    21981321.500   117337783.084 6      3747.746          41.687    21981331.740    91262767.643 7      2914.913          44.062    21981331.480    91262766.628 7      2914.913          43.937
G10  23064383.460   121204159.055 7       261.743          45.937    23064382.040   121204159.060 7       261.743          44.875    23064392.140    94444829.260 7       203.956          44.562    23064392.160    94444832.258 7       203.956          47.000
R21  20756338.260   111071355.046 8      1732.305          48.812    20756338.860   111071355.064 8      1732.305          48.875    20756349.940    86388882.702 8      1347.348          50.187    20756349.460    86388881.701 8      1347.348          48.750
R05  22997480.860   122934720.748 7      2024.629          43.687    22997480.740   122934720.747 7      2024.629          42.187    22997496.320    95615951.303 7      1574.711          44.062    22997496.360    95615953.303 7      1574.711          44.062
R10  22118566.860   117904399.939 6     -1657.091          41.062    22118564.820   117904399.934 6     -1657.091          39.687
G02  21718036.580   114129051.808 7      3102.539          47.437    21718034.800   114129051.815 6      3102.539          37.937    21718038.640    88931736.654 6      2417.563          38.000
G27  21701208.560   114040610.796 7      1164.899          46.625    21701206.820   114040610.795 7      1164.899          47.312    21701215.700    88862846.132 7       907.713          47.312    21701214.760    88862843.129 8       907.713          48.875
G21  20768758.720   109140562.374 7      2126.613          47.125    20768756.540   109140562.382 6      2126.613          39.625    20768761.320    85044606.033 6      1657.101          39.562
G26  25294687.000   132924483.340 6     -1133.561          40.062    25294686.220   132924483.334 5     -1133.561          34.750    25294706.820   103577600.182 5      -883.295          34.500    25294708.000   103577598.188 6      -883.295          41.750
G03  24362375.160   128025145.273 7      6246.170          44.000    24362373.920   128025145.275 5      6246.170          32.437    24362395.060    99759905.556 5      4867.146          32.312    24362396.260    99759937.553 7      4867.146          45.625
G08  20878654.060   109718068.846 8      2864.436          48.937    20878653.980   109718068.848 8      2864.436          49.375    20878661.160    85494627.568 8      2232.028          49.437    20878660.960    85494625.568 8      2232.028          50.250
R11  19930878.820   106504576.404 8      1475.298          49.187    19930878.880   106504576.413 8      1475.298          48.625    19930888.040    82836927.423 8      1147.454          51.937    19930887.760    82836925.420 8      1147.454          52.375
G16  22438856.360   117916980.849 7      -570.403          46.312    22438855.480   117916980.848 6      -570.403          36.062    22438864.940    91883392.051 5      -444.470          35.937
> 2024 05 08 13 29 43.0000000  0 13
R22  21980618.600   117334035.749 7      3747.158          42.312    21980619.560   117334035.747 6      3747.158          41.625    21980629.860    91259853.045 7      2914.456          43.625    21980629.300    91259852.037 7      2914.456          44.125
G10  23064333.640   121203897.662 7       261.050          45.687    23064332.380   121203897.664 7       261.050          44.687    23064342.320    94444625.573 7       203.415          44.562    23064342.580    94444628.571 7       203.415          46.437
R21  20756014.600   111069623.039 8      1731.822          48.437    20756015.180   111069623.059 8      1731.822          48.375    20756026.240    86387535.585 8      1346.973          49.687    20756025.380    86387534.584 8      1346.973          48.375
R05  22997101.940   122932696.804 7      2023.436          43.687    22997101.840   122932696.800 7      2023.436          42.187    22997117.760    95614377.127 7      1573.784          43.562    22997117.280    95614379.121 7      1573.784          43.625
R10  22118877.880   117906057.243 6     -1657.600          40.812    22118875.620   117906057.249 6     -1657.600          39.687
G02  21717446.100   114125949.576 7      3101.926          47.875    21717444.460   114125949.587 6      3101.926          37.562    21717448.260    88929319.333 6      2417.085          37.687
G27  21700986.820   114039446.267 7      1164.364          45.625    21700985.320   114039446.269 7      1164.364          46.937    21700994.140    88861938.705 7       907.297          46.500    21700993.120    88861935.704 8       907.297          48.750
G21  20768354.020   109138436.095 7      2125.945          46.562    20768352.100   109138436.103 6      2125.945          39.750    20768356.700    85042949.192 6      1656.581          39.500
G26  25294902.400   132925617.234 6     -1133.972          40.750    25294902.000   132925617.234 5     -1133.972          34.687    25294922.740   103578483.743 5      -883.615          34.500    25294923.140   103578481.749 6      -883.615          41.750
G03  24361186.460   128018899.335 7      6245.870          43.687    24361185.380   128018899.334 5      6245.870          32.437    24361206.400    99755038.591 5      4866.912          32.312    24361207.540    99755070.592 7      4866.912          45.750
G08  20878109.160   109715204.618 8      2863.983          48.437    20878108.920   109715204.620 8      2863.983          49.437    20878116.140    85492395.702 8      2231.675          49.312    20878115.980    85492393.706 8      2231.675          49.875
R11  19930602.500   106503101.832 8      1474.043          48.937    19930602.660   106503101.836 8      1474.043          48.125    19930612.060    82835780.527 8      1146.478          51.687    19930611.960    82835778.523 8      1146.478          52.062
G16  22438964.880   117917551.624 7      -570.999          46.625    22438964.100   117917551.624 6      -570.999          36.250    22438973.720    91883836.797 6      -444.934          36.062
> 2024 05 08 13 29 44.0000000  0 13
R22  21979916.240   117330288.780 7      3747.007          42.312    21979917.700   117330288.794 6      3747.007          41.812    21979928.020    91256938.755 7      2914.339          43.750    21979927.280    91256937.736 7      2914.339          44.062
G10  23064284.220   121203636.904 7       260.710          45.562    23064282.720   121203636.912 7       260.710          43.812    23064292.700    94444422.385 7       203.150          44.062    23064292.900    94444425.383 7       203.150          46.375
R21  20755690.920   111067891.309 8      1731.873          48.187    20755691.360   111067891.330 8      1731.873          48.500    20755702.640    86386188.680 8      1347.012          48.562    20755701.900    86386187.682 8      1347.012          48.312
R05  22996723.620   122930673.802 7      2022.867          42.937    22996723.900   122930673.790 7      2022.867          42.312    22996739.280    95612803.670 7      1573.341          43.750    22996738.740    95612805.664 7      1573.341          43.500
R10  22119188.940   117907714.982 6     -1657.559          40.812    22119186.640   117907714.985 6     -1657.559          39.687
G02  21716855.840   114122847.818 7      3101.850          47.687    21716854.180   114122847.828 6      3101.850          37.562    21716858.060    88926902.378 6      2417.026          37.500
G27  21700765.300   114038282.140 7      1164.196          46.375    21700763.660   114038282.147 7      1164.196          46.750    21700772.480    88861031.589 7       907.166          46.875    21700771.440    88861028.590 7       907.166          47.937
G21  20767949.380   109136310.331 8      2125.715          48.062    20767947.520   109136310.338 6      2125.715          39.125    20767952.300    85041292.757 6      1656.402          39.250
G26  25295118.540   132926751.310 6     -1133.893          40.375    25295117.720   132926751.307 5     -1133.893          34.687    25295138.500   103579367.438 5      -883.553          34.500    25295139.400   103579365.440 6      -883.553          41.750
G03  24359998.160   128012653.599 7      6245.920          43.625    24359996.940   128012653.601 5      6245.920          32.312    24360017.740    99750171.786 5      4866.950          32.125    24360018.760    99750203.789 7      4866.950          45.312
G08  20877564.240   109712340.776 8      2863.869          48.687    20877564.020   109712340.783 8      2863.869          49.187    20877571.180    85490164.139 8      2231.586          49.125    20877571.080    85490162.143 8      2231.586          49.437
R11  19930326.940   106501628.300 8      1473.271          49.062    19930327.100   106501628.309 7      1473.271          47.750    19930336.320    82834634.442 8      1145.878          50.562    19930336.100    82834632.438 8      1145.878          51.812
G16  22439073.740   117918122.907 7      -571.266          45.937    22439072.420   117918122.912 6      -571.266          36.000    22439082.400    91884281.942 6      -445.142          36.125
> 2024 05 08 13 29 45.0000000  0 13
R22  21979214.640   117326541.851 6      3746.610          41.687    21979215.420   117326541.871 6      3746.610          41.812    21979225.860    91254024.498 7      2914.030          43.562    21979225.400    91254023.481 7      2914.030          43.875
G10  23064234.680   121203376.467 7       260.136          46.375    23064233.140   121203376.469 7       260.136          44.625    23064243.140    94444219.441 7       202.704          44.312    23064243.480    94444222.437 7       202.704          46.250
R21  20755367.260   111066159.519 8      1731.625          49.125    20755368.100   111066159.536 8      1731.625          48.687    20755378.920    86384841.730 8      1346.820          48.687    20755378.440    86384840.723 7      1346.820          47.687
R05  22996345.580   122928651.392 7      2021.931          43.375    22996345.320   122928651.383 7      2021.931          42.312    22996361.120    95611230.695 7      1572.613          43.687    22996360.480    95611232.691 7      1572.613          43.500
R10  22119499.360   117909372.869 6     -1658.167          40.812    22119498.140   117909372.867 6     -1658.167          39.812
G02  21716265.820   114119746.225 7      3101.408          47.500    21716263.880   114119746.235 6      3101.408          37.625    21716267.780    88924485.553 6      2416.681          37.375
G27  21700544.040   114037118.073 7      1163.889          47.750    21700542.200   114037118.075 7      1163.889          46.750    21700551.040    88860124.518 7       906.926          46.375    21700550.160    88860121.519 8       906.926          48.250
G21  20767544.880   109134184.750 8      2125.330          48.062    20767543.020   109134184.755 6      2125.330          39.687    20767547.720    85039636.454 6      1656.101          39.625
G26  25295334.840   132927885.205 6     -1133.985          40.250    25295333.580   132927885.205 5     -1133.985          34.625    25295354.400   103580250.999 5      -883.624          34.500    25295354.680   103580249.005 6      -883.624          41.625
G03  24358809.580   128006407.734 7      6245.744          43.687    24358808.460   128006407.737 5      6245.744          32.312    24358829.160    99745304.881 5      4866.814          32.125    24358830.040    99745336.880 7      4866.814          45.625
G08  20877019.220   109709476.994 8      2863.536          49.562    20877018.920   109709477.002 8      2863.536          48.812    20877026.220    85487932.619 8      2231.327          48.812    20877026.160    85487930.618 8      2231.327          49.375
R11  19930051.080   106500155.486 8      1472.222          49.000    19930051.520   106500155.498 8      1472.222          48.500    19930060.700    82833488.914 8      1145.062          50.312    19930060.360    82833486.908 8      1145.062          50.937
G16  22439182.300   117918694.353 7      -571.739          46.250    22439181.340   117918694.355 6      -571.739          36.000    22439191.320    91884727.210 5      -445.511          35.625
> 2024 05 08 13 29 46.0000000  0 13
R22  21978512.300   117322795.072 6      3746.584          41.875    21978514.080   117322795.084 7      3746.584          42.125    21978523.360    91251110.318 7      2914.010          44.500    21978523.580    91251109.303 7      2914.010          44.437
G10  23064184.940   121203116.393 7       259.959          46.687    23064183.620   121203116.395 7       259.959          44.625    23064193.720    94444016.782 7       202.565          44.500    23064193.800    94444019.780 7       202.565          47.000
R21  20755043.740   111064427.752 8      1731.772          48.312    20755044.360   111064427.769 8      1731.772          48.062    20755055.400    86383494.798 8      1346.933          49.812    20755054.820    86383493.793 8      1346.933          49.000
R05  22995967.080   122926629.659 7      2021.400          43.375    22995967.320   122926629.652 6      2021.400          41.937    22995982.640    95609658.234 7      1572.200          43.875    22995982.300    95609660.230 7      1572.200          43.937
R10  22119810.800   117911030.885 6     -1658.182          40.812    22119808.860   117911030.875 6     -1658.182          39.812
G02  21715675.380   114116644.861 7      3101.280          47.312    21715673.820   114116644.868 6      3101.280          38.125    21715677.660    88922068.903 6      2416.582          38.062
G27  21700322.260   114035954.130 7      1163.872          46.562    21700320.800   114035954.138 7      1163.872          47.250    21700329.500    88859217.547 7       906.913          47.250    21700328.560    88859214.544 8       906.913          49.187
G21  20767140.640   109132059.414 7      2125.224          47.750    20767138.480   109132059.422 6      2125.224          39.750    20767143.360    85037980.352 6      1656.019          39.875
G26  25295550.440   132929019.011 6     -1133.705          40.187    25295549.380   132929019.015 5     -1133.705          34.625    25295570.040   103581134.486 5      -883.406          34.437    25295570.860   103581132.490 6      -883.406          41.625
G03  24357621.000   128000161.783 7      6245.953          43.312    24357620.020   128000161.785 5      6245.953          32.312    24357640.700    99740437.908 5      4866.976          32.125    24357641.620    99740469.913 7      4866.976          45.625
G08  20876474.320   109706613.318 8      2863.647          49.312    20876474.040   109706613.323 8      2863.647          49.312    20876481.360    85485701.178 8      2231.413          49.500    20876481.260    85485699.180 8      2231.413          50.312
R11  19929775.780   106498683.434 8      1471.677          48.750    19929775.840   106498683.446 8      1471.677          48.187    19929785.120    82832343.987 8      1144.638          51.812    19929785.100    82832341.980 8      1144.638          52.437
G16  22439291.080   117919266.035 7      -571.790          46.687    22439290.200   117919266.037 5      -571.790          35.812    22439300.020    91885172.663 6      -445.551          36.125
> 2024 05 08 13 29 47.0000000  0 13
R22  21977810.420   117319048.685 6      3746.248          41.875    21977812.680   117319048.697 7      3746.248          42.125    21977821.760    91248196.457 7      2913.749          43.875    21977821.720    91248195.451 7      2913.749          44.687
G10  23064135.840   121202857.015 7       259.039          46.687    23064134.340   121202857.014 7       259.039          44.687    23064144.320    94443814.665 7       201.848          44.687    23064144.540    94443817.667 7       201.848          46.562
R21  20754720.020   111062696.341 8      1731.290          48.000    20754720.640   111062696.361 8      1731.290          48.000    20754731.880    86382148.145 8      1346.559          49.750    20754731.140    86382147.142 8      1346.559          48.937
R05  22995589.180   122924608.923 7      2020.211          43.250    22995589.300   122924608.914 7      2020.211          42.312    22995604.940    95608086.546 7      1571.275          44.125    22995604.340    95608088.542 7      1571.275          44.187
R10  22120120.980   117912689.348 6     -1658.591          40.812    22120120.260   117912689.341 6     -1658.591          39.812
G02  21715085.500   114113544.033 7      3100.515          47.187    21715083.700   114113544.040 6      3100.515          37.812    21715087.740    88919652.675 6      2415.986          37.625
G27  21700100.880   114034790.634 7      1163.272          47.062    21700099.400   114034790.641 7      1163.272          46.937    21700108.020    88858310.925 7       906.446          46.562    21700107.200    88858307.924 8       906.446          48.812
G21  20766736.360   109129934.648 7      2124.561          47.937    20766734.340   109129934.651 6      2124.561          39.562    20766739.080    85036324.686 6      1655.502          39.687
G26  25295765.960   132930153.071 6     -1134.153          40.125    25295765.240   132930153.076 5     -1134.153          34.812    25295785.980   103582018.167 5      -883.755          34.437    25295786.620   103582016.167 6      -883.755          41.875
G03  24356432.460   127993916.087 7      6245.673          44.000    24356431.600   127993916.084 5      6245.673          32.500    24356452.260    99735571.131 5      4866.758          32.250    24356453.240    99735603.127 7      4866.758          45.562
G08  20875929.340   109703750.075 8      2863.073          49.125    20875929.140   109703750.085 8      2863.073          49.437    20875936.520    85483470.082 8      2230.966          49.812    20875936.640    85483468.086 8      2230.966          49.875
R11  19929500.680   106497212.501 8      1470.461          48.562    19929500.640   106497212.510 7      1470.461          47.687    19929509.920    82831199.922 8      1143.692          51.687    19929509.820    82831197.915 8      1143.692          52.312
G16  22439400.240   117919838.251 7      -572.400          45.937    22439399.040   117919838.255 6      -572.400          36.125    22439408.900    91885618.535 6      -446.026          36.000
> 2024 05 08 13 29 48.0000000  0 13
R22  21977108.980   117315302.501 7      3745.998          42.812    21977110.760   117315302.513 7      3745.998          42.187    21977119.860    91245282.764 7      2913.554          43.875    21977120.040    91245281.756 7      2913.554          44.625
G10  23064086.500   121202598.031 7       258.787          46.687    23064085.100   121202598.033 7       258.787          44.437    23064095.100    94443612.859 7       201.653          44.625    23064095.200    94443615.857 7       201.653          46.687
R21  20754396.620   111060964.962 8      1731.447          49.187    20754397.120   111060964.980 8      1731.447          48.625    20754408.160    86380801.515 8      1346.681          49.750    20754407.760    86380800.519 8      1346.681          48.750
R05  22995211.820   122922588.890 7      2019.704          42.562    22995211.520   122922588.880 7      2019.704          42.312    22995226.820    95606515.407 7      1570.881          44.125    22995226.580    95606517.407 7      1570.881          44.625
R10  22120432.640   117914348.067 6     -1658.922          41.062    22120430.900   117914348.065 6     -1658.922          39.750
G02  21714495.340   114110443.441 7      3100.462          47.312    21714493.680   114110443.451 6      3100.462          37.875    21714497.760    88917236.632 6      2415.944          37.625
G27  21699879.620   114033627.306 7      1163.233          46.375    21699878.020   114033627.310 7      1163.233          47.000    21699886.720    88857404.429 7       906.415          46.500    21699885.960    88857401.426 8       906.415          48.687
G21  20766332.000   109127810.166 7      2124.343          47.750    20766329.960   109127810.171 6      2124.343          39.437    20766334.900    85034669.246 6      1655.332          39.625
G26  25295981.900   132931287.042 6     -1133.981          40.250    25295981.000   132931287.049 5     -1133.981          34.937    25296001.720   103582901.789 5      -883.622          34.875    25296002.200   103582899.789 6      -883.622          41.875
G03  24355243.980   127987670.346 7      6245.897          44.375    24355243.120   127987670.345 5      6245.897          32.500    24355263.660    99730704.322 5      4866.933          32.250    24355264.480    99730736.326 7      4866.933          45.125
G08  20875384.660   109700886.995 8      2863.051          49.437    20875384.340   109700886.997 8      2863.051          49.437    20875391.600    85481239.104 8      2230.949          49.687    20875391.960    85481237.108 8      2230.949          50.500
R11  19929225.520   106495742.405 8      1469.716          49.062    19929225.560   106495742.411 8      1469.716          48.187    19929234.860    82830056.512 8      1143.112          51.812    19929234.520    82830054.511 8      1143.112          52.562
G16  22439509.360   117920410.768 7      -572.614          46.937    22439508.020   117920410.776 6      -572.614          36.437    22439518.080    91886064.642 6      -446.193          36.000
> 2024 05 08 13 29 49.0000000  0 13
R22  21976407.380   117311556.416 7      3745.963          42.500    21976408.780   117311556.422 7      3745.963          42.437    21976418.220    91242369.149 7      2913.527          44.250    21976418.340    91242368.147 7      2913.527          44.625
G10  23064037.260   121202339.444 7       258.375          45.812    23064035.840   121202339.441 7       258.375          44.500    23064045.840    94443411.355 7       201.331          44.437    23064046.000    94443414.357 7       201.331          47.062
R21  20754072.960   111059233.592 8      1731.390          48.750    20754073.460   111059233.612 8      1731.390          48.562    20754084.740    86379454.894 8      1346.636          49.750    20754084.200    86379453.895 8      1346.636          48.812
R05  22994834.060   122920569.551 7      2018.958          42.562    22994833.660   122920569.553 7      2018.958          42.375    22994849.140    95604944.821 7      1570.301          43.937    22994848.940    95604946.817 7      1570.301          44.375
R10  22120744.120   117916006.922 6     -1658.935          41.062    22120742.380   117916006.912 6     -1658.935          39.750
G02  21713905.320   114107343.091 7      3100.245          47.125    21713903.640   114107343.096 6      3100.245          37.812    21713907.660    88914820.775 6      2415.775          37.875
G27  21699658.000   114032464.106 7      1163.153          47.000    21699656.660   114032464.114 7      1163.153          47.375    21699665.420    88856498.036 7       906.353          47.187    21699664.380    88856495.039 8       906.353          48.562
G21  20765927.720   109125685.939 7      2124.131          47.937    20765925.680   109125685.944 6      2124.131          39.375    20765930.580    85033014.006 6      1655.167          39.437
G26  25296197.920   132932420.937 6     -1133.730          41.125    25296196.660   132932420.941 5     -1133.730          34.937    25296217.580   103583785.341 5      -883.426          34.750    25296218.300   103583783.339 6      -883.426          41.937
G03  24354055.280   127981424.560 7      6245.906          43.937    24354054.640   127981424.562 5      6245.906          32.500    24354075.040    99725837.480 5      4866.940          32.625    24354075.760    99725869.475 7      4866.940          45.750
G08  20874839.940   109698024.033 8      2862.875          49.437    20874839.460   109698024.038 8      2862.875          49.062    20874846.800    85479008.227 8      2230.812          49.312    20874847.020    85479006.229 8      2230.812          49.812
R11  19928950.640   106494273.096 8      1468.919          49.125    19928950.560   106494273.106 8      1468.919          48.437    19928959.900    82828913.720 8      1142.492          51.875    19928959.520    82828911.718 8      1142.492          52.375
G16  22439618.320   117920983.525 7      -572.828          46.437    22439617.180   117920983.530 6      -572.828          36.312    22439626.920    91886510.932 6      -446.360          36.125
> 2024 05 08 13 29 50.0000000  0 13
R22  21975705.440   117307810.419 7      3745.821          42.500    21975706.480   117307810.420 7      3745.821          42.437    21975716.980    91239455.593 7      2913.416          44.500    21975716.800    91239454.592 7      2913.416          44.000
G10  23063988.240   121202081.172 7       258.048          45.312    23063986.600   121202081.174 7       258.048          44.437    23063996.820    94443210.106 7       201.076          44.375    23063997.020    94443213.100 7       201.076          46.625
R21  20753749.740   111057502.191 7      1731.293          47.687    20753749.900   111057502.217 8      1731.293          48.437    20753761.200    86378108.249 8      1346.562          49.250    20753760.880    86378107.250 8      1346.562          48.875
R05  22994456.280   122918550.903 7      2018.029          42.812    22994456.180   122918550.893 7      2018.029          42.375    22994471.420    95603374.756 7      1569.578          44.187    22994471.100    95603376.755 7      1569.578          44.437
R10  22121055.120   117917665.913 6     -1659.183          40.875    22121053.680   117917665.901 6     -1659.183          39.687
G02  21713315.460   114104242.930 7      3099.969          46.687    21713313.720   114104242.932 6      3099.969          37.562    21713317.680    88912405.063 6      2415.560          37.937
G27  21699436.660   114031301.020 7      1162.889          46.250    21699435.380   114031301.022 7      1162.889          47.312    21699444.020    88855591.729 7       906.147          47.125    21699443.180    88855588.727 8       906.147          48.625
G21  20765523.820   109123561.933 7      2123.729          47.375    20765521.520   109123561.940 6      2123.729          39.250    20765526.440    85031358.934 6      1654.854          39.500
G26  25296413.460   132933554.747 6     -1133.939          40.750    25296412.320   132933554.744 5     -1133.939          34.687    25296433.380   103584668.828 5      -883.589          34.750    25296434.340   103584666.832 6      -883.589          41.937
G03  24352866.860   127975178.675 7      6245.857          43.562    24352866.040   127975178.679 5      6245.857          32.500    24352886.540    99720970.559 5      4866.901          32.625    24352887.160    99721002.560 7      4866.901          45.437
G08  20874295.140   109695161.166 8      2862.688          49.187    20874294.720   109695161.166 8      2862.688          49.375    20874302.020    85476777.416 8      2230.666          49.625    20874302.080    85476775.420 8      2230.666          50.687
R11  19928675.920   106492804.547 8      1468.044          49.187    19928675.920   106492804.553 8      1468.044          48.250    19928685.000    82827771.505 8      1141.812          51.687    19928684.840    82827769.504 8      1141.812          52.500
G16  22439727.440   117921556.484 7      -573.168          46.375    22439726.120   117921556.489 6      -573.168          36.187    22439735.920    91886957.383 5      -446.625          35.812
> 2024 05 08 13 29 51.0000000  0 13
R22  21975003.720   117304064.526 6      3745.825          41.937    21975004.940   117304064.524 7      3745.825          42.250    21975015.140    91236542.113 7      2913.419          44.437    21975014.980    91236541.105 7      2913.419          44.437
G10  23063939.200   121201823.273 7       257.762          45.937    23063937.520   121201823.270 7       257.762          44.437    23063947.760    94443009.142 7       200.853          44.375    23063947.800    94443012.142 7       200.853          46.437
R21  20753426.040   111055770.810 8      1731.404          48.875    20753426.460   111055770.830 7      1731.404          47.937    20753437.640    86376761.619 8      1346.648          50.000    20753437.380    86376760.618 8      1346.648          49.062
R05  22994078.800   122916532.861 7      2017.662          42.437    22994078.480   122916532.872 7      2017.662          42.312    22994093.800    95601805.176 7      1569.293          43.937    22994093.760    95601807.179 7      1569.293          44.000
R10  22121366.360   117919325.035 6     -1659.179          40.875    22121365.120   117919325.033 6     -1659.179          39.687
G02  21712725.500   114101142.961 7      3099.891          47.062    21712723.740   114101142.966 6      3099.891          37.687    21712727.760    88909989.505 6      2415.500          37.875
G27  21699215.400   114030138.012 7      1162.974          46.875    21699213.920   114030138.019 7      1162.974          46.875    21699222.640    88854685.489 7       906.213          46.812    21699221.900    88854682.488 8       906.213          48.437
G21  20765119.640   109121438.147 7      2123.652          47.187    20765117.320   109121438.154 6      2123.652          39.687    20765122.280    85029704.036 6      1654.794          39.625
G26  25296629.180   132934688.392 6     -1133.697          39.875    25296628.040   132934688.395 5     -1133.697          35.187    25296649.060   103585552.194 5      -883.400          34.750    25296649.720   103585550.198 6      -883.400          41.875
G03  24351678.240   127968932.705 7      6245.985          44.375    24351677.560   127968932.710 5      6245.985          32.500    24351697.740    99716103.571 5      4867.001          32.625    24351698.620    99716135.568 7      4867.001          45.375
G08  20873750.160   109692298.378 8      2862.722          49.875    20873749.920   109692298.383 8      2862.722          49.375    20873757.220    85474546.676 8      2230.692          49.562    20873757.160    85474544.680 8      2230.692          50.375
R11  19928401.340   106491336.746 8      1467.433          49.187    19928401.400   106491336.752 7      1467.433          47.875    19928410.320    82826629.876 8      1141.337          51.625    19928410.140    82826627.871 8      1141.337          51.937
G16  22439836.340   117922129.659 7      -573.332          46.312    22439835.280   117922129.664 6      -573.332          36.312    22439845.120    91887404.001 6      -446.752          36.250
> 2024 05 08 13 29 52.0000000  0 13
R22  21974302.000   117300318.854 6      3745.576          41.062    21974303.160   117300318.853 7      3745.576          42.250    21974313.440    91233628.823 7      2913.226          44.437    21974313.300    91233627.819 7      2913.226          44.687
G10  23063890.400   121201565.850 7       257.227          46.062    23063888.560   121201565.852 7       257.227          44.750    23063898.680    94442808.552 7       200.437          44.625    23063898.620    94442811.548 7       200.437          46.812
R21  20753102.580   111054039.568 8      1731.251          48.937    20753102.660   111054039.583 8      1731.251          48.062    20753114.140    86375415.089 8      1346.529          49.687    20753113.680    86375414.086 8      1346.529          48.625
R05  22993701.040   122914515.679 7      2016.673          42.437    22993701.800   122914515.683 7      2016.673          42.250    22993716.420    95600236.256 7      1568.524          43.812    22993716.660    95600238.262 7      1568.524          44.125
R10  22121677.580   117920984.437 6     -1659.546          40.875    22121676.880   117920984.448 6     -1659.546          39.687
G02  21712135.760   114098043.333 7      3099.471          47.250    21712134.040   114098043.343 6      3099.471          38.062    21712137.880    88907574.215 6      2415.172          37.937
G27  21698994.260   114028975.278 7      1162.586          46.562    21698992.740   114028975.280 7      1162.586          47.250    21699001.360    88853779.454 7       905.911          47.250    21699000.700    88853776.455 8       905.911          48.750
G21  20764715.360   109119314.724 7      2123.229          47.500    20764713.280   109119314.734 6      2123.229          39.625    20764718.080    85028049.422 6      1654.464          39.562
G26  25296844.920   132935822.040 6     -1133.362          39.875    25296843.820   132935822.042 5     -1133.362          35.187    25296864.740   103586435.554 5      -883.139          34.812    25296865.700   103586433.554 6      -883.139          41.875
G03  24350489.800   127962686.748 7      6246.051          44.250    24350488.920   127962686.751 5      6246.051          33.000    24350509.040    99711236.588 5      4867.053          32.875    24350510.080    99711268.585 7      4867.053          45.500
G08  20873205.560   109689435.831 8      2862.373          49.250    20873205.260   109689435.836 8      2862.373          49.062    20873212.580    85472316.118 8      2230.421          49.812    20873212.420    85472314.124 8      2230.421          50.875
R11  19928126.480   106489869.855 8      1466.405          49.312    19928126.620   106489869.870 8      1466.405          48.250    19928135.780    82825488.969 8      1140.538          51.937    19928135.460    82825486.967 8      1140.538          52.312
G16  22439945.680   117922703.180 7      -573.779          46.812    22439944.500   117922703.185 6      -573.779          36.312    22439954.140    91887850.886 6      -447.100          36.437
> 2024 05 08 13 29 53.0000000  0 13
R22  21973600.180   117296573.372 6      3745.198          41.062    21973602.060   117296573.387 7      3745.198          42.125    21973612.200    91230715.681 7      2912.932          44.000    21973611.600    91230714.673 7      2912.932          44.500
G10  23063841.240   121201308.873 7       256.607          45.750    23063839.660   121201308.876 7       256.607          44.375    23063849.820    94442608.309 7       199.954          43.875    23063849.940    94442611.309 7       199.954          46.812
R21  20752779.040   111052308.422 8      1730.996          48.187    20752779.180   111052308.442 8      1730.996          48.625    20752790.660    86374068.642 8      1346.330          49.375    20752790.100    86374067.639 8      1346.330          48.500
R05  22993324.000   122912499.190 7      2015.967          42.437    22993324.120   122912499.199 7      2015.967          42.250    22993339.120    95598667.879 7      1567.974          44.000    22993339.180    95598669.884 7      1567.974          44.187
R10  22121988.280   117922644.067 6     -1659.802          40.812    22121988.080   117922644.084 6     -1659.802          40.125
G02  21711545.840   114094943.990 7      3099.117          46.562    21711544.200   114094944.000 6      3099.117          38.125    21711548.160    88905159.142 6      2414.897          38.062
G27  21698773.140   114027812.724 7      1162.304          46.562    21698771.480   114027812.729 7      1162.304          47.062    21698780.140    88852873.566 7       905.692          46.875    21698779.140    88852870.565 8       905.692          48.562
G21  20764311.300   109117191.616 7      2122.810          47.062    20764309.320   109117191.626 6      2122.810          39.625    20764314.120    85026395.053 6      1654.138          39.812
G26  25297060.520   132936955.733 6     -1133.762          39.000    25297059.680   132936955.738 5     -1133.762          34.937    25297080.440   103587318.955 5      -883.451          34.812    25297081.220   103587316.963 7      -883.451          42.000
G03  24349301.100   127956440.821 7      6245.794          43.437    24349300.280   127956440.823 5      6245.794          33.000    24349320.540    99706369.636 5      4866.853          32.875    24349321.680    99706401.633 7      4866.853          45.250
G08  20872660.900   109686573.466 8      2862.133          48.937    20872660.500   109686573.468 8      2862.133          49.187    20872667.840    85470085.701 8      2230.233          49.375    20872667.760    85470083.703 8      2230.233          50.187
R11  19927852.160   106488403.804 8      1465.523          49.125    19927852.360   106488403.819 8      1465.523          48.312    19927861.460    82824348.703 8      1139.851          51.625    19927861.300    82824346.696 8      1139.851          52.437
G16  22440054.860   117923276.972 7      -573.986          45.750    22440053.680   117923276.977 6      -573.986          36.000    22440063.320    91888297.986 5      -447.262          35.875
> 2024 05 08 13 29 54.0000000  0 13
R22  21972898.660   117292828.357 7      3745.005          42.000    21972901.160   117292828.361 7      3745.005          42.000    21972910.620    91227802.883 7      2912.782          43.812    21972910.000    91227801.871 7      2912.782          44.187
G10  23063792.420   121201052.617 7       255.981          45.625    23063790.880   121201052.619 7       255.981          44.562    23063801.040    94442408.620 7       199.465          44.625    23063801.200    94442411.616 7       199.465          46.687
R21  20752455.660   111050577.632 8      1730.820          49.500    20752455.780   111050577.652 8      1730.820          48.187    20752467.080    86372722.472 8      1346.194          49.125    20752466.880    86372721.465 8      1346.194          48.125
R05  22992947.200   122910483.738 7      2015.178          43.125    22992947.340   122910483.747 7      2015.178          42.562    22992962.120    95597100.303 7      1567.361          43.937    22992962.280    95597102.314 7      1567.361          43.687
R10  22122299.900   117924304.226 6     -1660.094          40.812    22122299.660   117924304.224 6     -1660.094          40.125
G02  21710956.380   114091845.213 7      3098.715          46.687    21710954.500   114091845.218 6      3098.715          38.187    21710958.480    88902744.511 6      2414.583          37.500
G27  21698551.800   114026650.631 7      1162.119          46.437    21698550.420   114026650.633 7      1162.119          46.500    21698559.000    88851968.031 7       905.547          46.437    21698557.780    88851965.032 7       905.547          47.812
G21  20763907.340   109115069.099 8      2122.423          48.375    20763905.460   109115069.107 6      2122.423          39.375    20763910.200    85024741.141 6      1653.836          39.625
G26  25297276.100   132938089.659 6     -1133.974          40.250    25297275.460   132938089.664 5     -1133.974          34.625    25297296.180   103588202.534 5      -883.616          34.375    25297296.800   103588200.540 6      -883.616          41.750
G03  24348112.540   127950195.151 7      6245.763          44.562    24348111.700   127950195.150 5      6245.763          32.562    24348132.080    99701502.880 5      4866.828          32.625    24348133.080    99701534.875 7      4866.828          45.250
G08  20872116.100   109683711.550 8      2861.884          49.000    20872115.960   109683711.557 8      2861.884          48.750    20872123.200    85467855.635 8      2230.040          48.812    20872123.120    85467853.641 8      2230.040          49.812
R11  19927577.800   106486938.886 8      1464.609          49.125    19927578.500   106486938.903 8      1464.609          48.375    19927587.380    82823209.320 8      1139.141          50.000    19927587.280    82823207.313 8      1139.141          50.625
G16  22440164.340   117923851.371 7      -574.454          46.125    22440162.860   117923851.376 6      -574.454          36.187    22440172.780    91888745.556 6      -447.627          36.062
> 2024 05 08 13 29 55.0000000  0 13
R22  21972197.000   117289083.334 7      3745.105          42.437    21972199.520   117289083.330 7      3745.105          42.000    21972208.860    91224890.079 7      2912.859          44.312    21972208.540    91224889.077 7      2912.859          44.312
G10  23063743.680   121200796.586 7       255.874          45.312    23063742.200   121200796.589 7       255.874          44.500    23063752.300    94442209.116 7       199.382          44.375    23063752.720    94442212.114 7       199.382          46.750
R21  20752131.780   111048846.705 8      1731.079          49.250    20752132.200   111048846.720 7      1731.079          47.937    20752143.640    86371376.187 8      1346.394          49.750    20752143.560    86371375.185 8      1346.394          48.812
R05  22992569.880   122908468.866 7      2014.649          43.125    22992570.440   122908468.870 7      2014.649          42.312    22992585.320    95595533.174 7      1566.949          43.812    22992585.080    95595535.177 7      1566.949          43.937
R10  22122611.180   117925964.392 6     -1660.030          41.250    22122611.100   117925964.387 6     -1660.030          40.125
G02  21710366.580   114088746.529 7      3098.589          47.625    21710364.820   114088746.539 6      3098.589          37.562    21710368.740    88900329.952 6      2414.485          37.812
G27  21698330.840   114025488.546 7      1162.126          46.375    21698329.280   114025488.551 7      1162.126          46.687    21698337.920    88851062.510 7       905.553          46.500    21698336.740    88851059.510 8       905.553          48.000
G21  20763503.540   109112946.701 7      2122.348          47.875    20763501.660   109112946.705 6      2122.348          39.500    20763506.360    85023087.324 6      1653.778          39.375
G26  25297491.680   132939223.351 6     -1133.637          39.875    25297491.200   132939223.359 5     -1133.637          34.625    25297512.040   103589085.932 5      -883.353          34.375    25297512.880   103589083.936 6      -883.353          41.750
G03  24346923.880   127943949.286 7      6245.953          44.250    24346923.180   127943949.291 5      6245.953          32.562    24346943.500    99696635.974 5      4866.977          32.625    24346944.340    99696667.967 7      4866.977          45.250
G08  20871571.520   109680849.629 8      2861.985          49.125    20871571.400   109680849.631 8      2861.985          49.562    20871578.580    85465625.562 8      2230.118          49.375    20871578.540    85465623.564 8      2230.118          50.000
R11  19927303.940   106485474.627 8      1464.049          49.000    19927304.460   106485474.642 8      1464.049          48.312    19927313.220    82822070.440 8      1138.704          51.187    19927313.000    82822068.435 8      1138.704          51.125
G16  22440273.360   117924425.862 7      -574.496          46.187    22440272.140   117924425.867 6      -574.496          36.125    22440282.060    91889193.197 6      -447.659          36.062
> 2024 05 08 13 29 56.0000000  0 13
R22  21971495.560   117285338.621 7      3744.538          42.312    21971498.160   117285338.627 7      3744.538          42.812    21971507.020    91221977.549 7      2912.418          44.250    21971506.960    91221976.554 7      2912.418          44.625
G10  23063695.200   121200541.121 7       255.174          46.125    23063693.540   121200541.126 7       255.174          44.812    23063703.820    94442010.052 7       198.837          44.375    23063704.160    94442013.051 7       198.837          47.187
R21  20751808.660   111047115.998 8      1730.594          49.375    20751808.820   111047116.016 8      1730.594          48.500    20751820.300    86370030.082 8      1346.017          50.062    20751819.940    86370029.083 8      1346.017          48.812
R05  22992193.180   122906454.884 7      2013.498          42.875    22992193.380   122906454.893 7      2013.498          42.312    22992208.540    95593966.750 7      1566.054          43.875    22992208.520    95593968.755 7      1566.054          44.250
R10  22122922.840   117927624.937 6     -1660.713          41.250    22122922.200   117927624.930 6     -1660.713          40.000
G02  21709777.180   114085648.260 7      3097.992          47.187    21709775.300   114085648.265 6      3097.992          38.000    21709779.340    88897915.714 6      2414.019          37.875
G27  21698109.820   114024326.794 7      1161.540          47.312    21698108.100   114024326.804 7      1161.540          47.312    21698116.820    88850157.247 7       905.096          47.125    21698115.940    88850154.245 8       905.096          48.187
G21  20763099.580   109110824.746 8      2121.717          48.687    20763097.660   109110824.754 6      2121.717          39.750    20763102.600    85021433.851 6      1653.286          39.937
G26  25297707.500   132940357.136 6     -1133.755          40.250    25297706.920   132940357.133 5     -1133.755          34.875    25297727.780   103589969.395 5      -883.446          34.812    25297728.260   103589967.397 6      -883.446          41.937
G03  24345735.420   127937703.545 7      6245.759          43.875    24345734.520   127937703.545 5      6245.759          32.562    24345755.000    99691769.163 5      4866.825          32.625    24345756.020    99691801.160 7      4866.825          45.375
G08  20871027.100   109677988.031 8      2861.395          49.500    20871026.860   109677988.036 8      2861.395          49.375    20871034.040    85463395.748 8      2229.659          49.875    20871034.040    85463393.752 8      2229.659          50.437
R11  19927030.260   106484011.371 8      1462.779          49.000    19927030.620   106484011.377 8      1462.779          48.750    19927039.420    82820932.347 8      1137.717          51.937    19927039.180    82820930.343 8      1137.717          51.812
G16  22440383.040   117925000.800 7      -575.214          46.062    22440381.520   117925000.802 5      -575.214          35.812    22440391.360    91889641.188 5      -448.219          35.750
> 2024 05 08 13 29 57.0000000  0 13
R22  21970794.380   117281594.116 7      3744.545          42.312    21970795.860   117281594.125 7      3744.545          42.812    21970805.800    91219065.165 7      2912.424          44.125    21970805.360    91219064.165 7      2912.424          43.812
G10  23063646.760   121200286.131 7       254.833          45.625    23063645.020   121200286.138 7       254.833          43.937    23063655.180    94441811.358 7       198.571          44.000    23063655.560    94441814.364 7       198.571          46.500
R21  20751485.040   111045385.390 8      1730.725          48.187    20751485.460   111045385.410 8      1730.725          48.437    20751496.980    86368684.055 8      1346.120          48.812    20751496.700    86368683.055 8      1346.120          48.375
R05  22991816.820   122904441.650 7      2013.099          42.750    22991816.740   122904441.665 7      2013.099          42.750    22991831.660    95592400.910 7      1565.744          43.625    22991831.700    95592402.912 7      1565.744          44.062
R10  22123235.040   117929285.730 6     -1660.899          40.937    22123233.660   117929285.717 6     -1660.899          40.000
G02  21709187.640   114082550.285 7      3098.020          47.187    21709185.860   114082550.290 6      3098.020          37.937    21709189.820    88895501.710 6      2414.041          37.875
G27  21697888.700   114023165.258 7      1161.559          47.062    21697887.080   114023165.268 7      1161.559          46.937    21697895.780    88849252.149 7       905.111          46.812    21697894.880    88849249.152 8       905.111          48.125
G21  20762696.020   109108703.128 8      2121.642          48.562    20762693.920   109108703.133 6      2121.642          39.437    20762698.900    85019780.642 6      1653.227          39.750
G26  25297923.420   132941490.928 6     -1133.652          40.000    25297922.580   132941490.928 5     -1133.652          35.125    25297943.500   103590852.873 5      -883.365          34.625    25297944.180   103590850.889 6      -883.365          41.937
G03  24344546.980   127931457.838 7      6245.828          43.062    24344545.980   127931457.841 5      6245.828          32.250    24344566.460    99686902.385 5      4866.879          32.125    24344567.260    99686934.382 7      4866.879          45.375
G08  20870482.660   109675126.627 8      2861.434          49.312    20870482.320   109675126.635 8      2861.434          49.000    20870489.620    85461166.084 8      2229.689          49.125    20870489.560    85461164.086 8      2229.689          49.375
R11  19926756.520   106482548.953 8      1462.162          48.875    19926757.080   106482548.965 8      1462.162          48.062    19926765.740    82819794.911 8      1137.237          50.625    19926765.420    82819792.913 8      1137.237          50.812
G16  22440492.400   117925576.056 7      -575.392          46.500    22440490.940   117925576.058 6      -575.392          36.375    22440500.820    91890089.427 6      -448.358          36.125
> 2024 05 08 13 29 58.0000000  0 13
R22  21970092.820   117277849.763 7      3744.474          42.750    21970094.180   117277849.769 7      3744.474          42.500    21970104.480    91216152.900 7      2912.369          43.937    21970103.600    91216151.892 7      2912.369          44.437
G10  23063598.220   121200031.532 7       254.588          45.750    23063596.620   121200031.539 7       254.588          44.312    23063606.780    94441612.966 7       198.380          44.062    23063607.160    94441615.961 7       198.380          46.875
R21  20751161.640   111043654.841 8      1730.673          48.937    20751162.120   111043654.861 8      1730.673          48.250    20751173.560    86367338.071 8      1346.079          49.750    20751172.980    86367337.068 8      1346.079          48.687
R05  22991439.980   122902429.173 7      2012.258          42.750    22991440.540   122902429.190 7      2012.258          42.750    22991455.200    95590835.644 7      1565.089          43.562    22991455.160    95590837.644 7      1565.089          43.937
R10  22123546.340   117930946.677 6     -1660.920          40.937    22123544.860   117930946.657 6     -1660.920          39.562
G02  21708598.080   114079452.600 7      3097.697          47.687    21708596.320   114079452.604 6      3097.697          38.000    21708600.300    88893087.927 6      2413.790          37.875
G27  21697667.780   114022003.884 7      1161.474          45.875    21697666.140   114022003.892 7      1161.474          46.875    21697674.740    88848347.179 7       905.044          47.062    21697673.700    88848344.180 8       905.044          48.125
G21  20762292.300   109106581.802 7      2121.363          47.625    20762290.320   109106581.809 6      2121.363          39.375    20762295.160    85018127.663 6      1653.010          39.812
G26  25298139.520   132942624.673 6     -1133.626          39.750    25298138.380   132942624.678 5     -1133.626          35.125    25298159.480   103591736.317 5      -883.345          34.625    25298159.540   103591734.323 6      -883.345          41.937
G03  24343358.500   127925212.092 7      6245.967          44.187    24343357.260   127925212.094 5      6245.967          32.250    24343377.900    99682035.569 5      4866.987          32.125    24343378.760    99682067.565 7      4866.987          45.312
G08  20869938.060   109672265.389 8      2861.330          49.500    20869937.860   109672265.394 8      2861.330          49.375    20869945.120    85458936.542 8      2229.608          49.625    20869945.000    85458934.546 8      2229.608          50.250
R11  19926483.040   106481087.367 8      1461.394          49.000    19926483.380   106481087.376 8      1461.394          48.500    19926492.260    82818658.109 8      1136.640          51.812    19926492.180    82818656.107 8      1136.640          52.250
G16  22440601.740   117926151.561 7      -575.483          46.250    22440600.580   117926151.561 6      -575.483          36.312    22440610.320    91890537.856 6      -448.428          36.000
> 2024 05 08 13 29 59.0000000  0 13
R22  21969391.540   117274105.754 6      3743.685          41.937    21969393.280   117274105.763 7      3743.685          42.500    21969402.520    91213240.896 7      2911.755          43.937    21969402.380    91213239.896 7      2911.755          43.937
G10  23063549.980   121199777.538 7       253.653          46.375    23063548.180   121199777.540 7       253.653          44.125    23063558.340    94441415.040 7       197.652          44.187    23063558.900    94441418.040 7       197.652          47.500
R21  20750838.540   111041924.532 8      1730.160          48.312    20750838.800   111041924.547 8      1730.160          48.437    20750850.060    86365992.269 8      1345.680          50.312    20750849.800    86365991.266 8      1345.680          48.875
R05  22991063.560   122900417.532 7      2011.253          42.750    22991064.160   122900417.541 7      2011.253          42.250    22991078.820    95589271.028 7      1564.308          43.812    22991079.060    95589273.026 7      1564.308          44.187
R10  22123858.740   117932608.022 6     -1661.781          40.500    22123857.040   117932608.006 6     -1661.781          39.562
G02  21708008.560   114076355.324 7      3096.965          47.875    21708006.980   114076355.326 6      3096.965          37.875    21708010.840    88890674.467 6      2413.220          38.062
G27  21697446.740   114020842.847 7      1160.789          47.187    21697445.180   114020842.855 7      1160.789          46.750    21697453.840    88847442.471 7       904.511          46.750    21697452.940    88847439.471 8       904.511          48.312
G21  20761888.700   109104460.930 7      2120.591          47.750    20761886.700   109104460.935 6      2120.591          39.562    20761891.540    85016475.031 6      1652.409          39.437
G26  25298355.220   132943758.534 6     -1133.990          39.812    25298354.260   132943758.536 5     -1133.990          34.937    25298375.200   103592619.847 5      -883.628          34.875    25298375.260   103592617.849 6      -883.628          41.937
G03  24342169.920   127918966.496 7      6245.481          43.687    24342168.780   127918966.500 5      6245.481          32.187    24342189.400    99677168.873 5      4866.609          32.125    24342190.560    99677200.872 7      4866.609          45.500
G08  20869393.760   109669404.474 8      2860.647          49.437    20869393.460   109669404.479 8      2860.647          49.687    20869400.700    85456707.260 8      2229.076          49.500    20869400.320    85456705.262 8      2229.076          50.312
R11  19926209.980   106479626.796 8      1459.952          49.687    19926210.300   106479626.802 8      1459.952          48.562    19926219.000    82817522.112 8      1135.518          51.812    19926218.520    82817520.109 8      1135.518          52.375
G16  22440711.420   117926727.518 7      -576.238          45.937    22440710.320   117926727.523 6      -576.238          36.437    22440720.060    91890986.646 6      -449.016          36.250
> 2024 05 08 13 30  0.0000000  0 13
R22  21968690.480   117270362.092 6      3743.397          41.937    21968691.940   117270362.091 7      3743.397          42.500    21968701.160    91210329.155 7      2911.531          44.125    21968701.040    91210328.149 7      2911.531          44.250
G10  23063501.700   121199524.137 7       253.005          45.437    23063499.980   121199524.142 7       253.005          45.000    23063510.240    94441217.587 7       197.147          44.750    23063510.680    94441220.589 7       197.147          46.937
R21  20750515.100   111040194.454 8      1729.965          48.500    20750515.380   111040194.474 8      1729.965          48.250    20750526.980    86364646.654 8      1345.528          50.125    20750526.560    86364645.652 8      1345.528          49.062
R05  22990687.780   122898406.821 7      2010.336          42.875    22990688.160   122898406.831 7      2010.336          42.562    22990702.860    95587707.140 7      1563.595          43.812    22990702.920    95587709.142 7      1563.595          44.062
R10  22124170.560   117934269.694 6     -1661.933          40.500    22124168.280   117934269.695 6     -1661.933          39.562
G02  21707419.400   114073258.487 7      3096.594          47.062    21707417.660   114073258.486 6      3096.594          37.750    21707421.460    88888261.343 6      2412.931          37.562
G27  21697225.840   114019682.173 7      1160.512          47.000    21697224.480   114019682.175 7      1160.512          46.812    21697232.960    88846538.039 7       904.295          46.687    21697232.040    88846535.040 7       904.295          47.937
G21  20761485.180   109102340.528 7      2120.108          47.687    20761483.220   109102340.536 6      2120.108          39.750    20761488.080    85014822.770 6      1652.033          39.375
G26  25298570.960   132944892.526 6     -1134.163          39.875    25298569.960   132944892.531 5     -1134.163          34.500    25298591.020   103593503.475 5      -883.763          34.437    25298591.100   103593501.485 6      -883.763          41.937
G03  24340981.440   127912721.041 7      6245.414          43.562    24340980.180   127912721.040 5      6245.414          32.187    24341000.940    99672302.285 5      4866.557          32.062    24341002.220    99672334.282 7      4866.557          45.125
G08  20868849.400   109666543.893 8      2860.361          49.000    20868849.140   109666543.898 8      2860.361          49.437    20868856.420    85454478.232 8      2228.853          49.687    20868856.040    85454476.233 8      2228.853          50.187
R11  19925936.740   106478167.218 8      1459.039          49.562    19925937.020   106478167.222 8      1459.039          48.312    19925945.980    82816386.872 8      1134.808          51.562    19925945.700    82816384.870 8      1134.808          52.250
G16  22440821.200   117927303.946 7      -576.714          46.562    22440820.100   117927303.945 6      -576.714          36.437    22440829.600    91891435.798 6      -449.388          36.687
> 2024 05 08 13 30  1.0000000  0 13
R22  21967989.020   117266618.449 7      3743.594          42.625    21967990.880   117266618.439 7      3743.594          42.250    21967999.940    91207417.428 7      2911.684          43.937    21967999.700    91207416.428 7      2911.684          43.937
G10  23063453.540   121199271.010 7       252.940          45.250    23063451.880   121199271.015 7       252.940          44.562    23063462.160    94441020.341 7       197.096          44.375    23063462.720    94441023.343 7       197.096          46.625
R21  20750191.600   111038464.319 8      1730.143          48.187    20750192.080   111038464.339 8      1730.143          48.437    20750203.680    86363300.992 8      1345.667          49.437    20750203.300    86363299.991 8      1345.667          48.562
R05  22990311.480   122896396.747 7      2009.737          42.875    22990312.500   122896396.745 7      2009.737          42.562    22990326.840    95586143.742 7      1563.129          43.937    22990326.820    95586145.743 7      1563.129          44.000
R10  22124481.720   117935931.486 6     -1661.825          40.500    22124480.280   117935931.484 6     -1661.825          39.562
G02  21706830.180   114070161.799 7      3096.636          47.812    21706828.320   114070161.802 6      3096.636          37.562    21706832.220    88885848.342 6      2412.963          38.125
G27  21697004.920   114018521.567 7      1160.481          47.062    21697003.420   114018521.574 7      1160.481          47.187    21697012.140    88845633.666 7       904.271          47.062    21697011.080    88845630.667 8       904.271          48.375
G21  20761081.480   109100220.303 7      2120.204          47.625    20761079.720   109100220.305 6      2120.204          39.937    20761084.540    85013170.645 6      1652.107          39.875
G26  25298786.900   132946026.360 6     -1133.885          39.500    25298785.800   132946026.368 5     -1133.885          34.500    25298806.800   103594386.986 5      -883.547          34.437    25298807.220   103594384.992 6      -883.547          41.937
G03  24339793.060   127906475.471 7      6245.605          43.562    24339791.800   127906475.475 5      6245.605          32.187    24339812.400    99667435.609 5      4866.705          32.062    24339813.220    99667467.610 7      4866.705          45.437
G08  20868304.960   109663683.362 8      2860.508          49.250    20868304.820   109663683.369 8      2860.508          49.875    20868312.140    85452249.248 8      2228.967          49.687    20868311.920    85452247.250 8      2228.967          50.750
R11  19925663.660   106476708.370 8      1458.470          49.625    19925663.900   106476708.371 8      1458.470          48.437    19925672.760    82815252.211 8      1134.365          52.062    19925672.760    82815250.208 8      1134.365          52.750
G16  22440931.000   117927880.520 7      -576.676          46.687    22440929.760   117927880.528 6      -576.676          36.625    22440939.620    91891885.064 6      -449.358          36.687
> 2024 05 08 13 30  2.0000000  0 13
R22  21967287.780   117262874.956 7      3743.546          42.687    21967289.100   117262874.951 7      3743.546          42.250    21967298.360    91204505.832 7      2911.647          44.312    21967298.560    91204504.830 7      2911.647          43.750
G10  23063405.520   121199018.288 7       252.731          45.125    23063403.660   121199018.295 7       252.731          44.437    23063414.020    94440823.416 7       196.933          44.250    23063414.420    94440826.418 7       196.933          46.937
R21  20749868.360   111036734.195 8      1730.217          48.125    20749868.700   111036734.216 8      1730.217          48.062    20749880.220    86361955.342 8      1345.725          49.437    20749879.820    86361954.337 8      1345.725          48.562
R05  22989935.620   122894387.365 7      2009.083          43.375    22989936.560   122894387.371 7      2009.083          42.625    22989950.600    95584580.898 7      1562.620          44.187    22989950.920    95584582.900 7      1562.620          43.937
R10  22124793.860   117937593.465 6     -1662.065          40.687    22124791.680   117937593.463 6     -1662.065          39.562
G02  21706241.080   114067065.364 7      3096.403          47.062    21706239.080   114067065.369 6      3096.403          38.062    21706242.920    88883435.537 6      2412.781          37.875
G27  21696784.320   114017361.095 7      1160.445          46.500    21696782.700   114017361.097 7      1160.445          46.687    21696791.220    88844729.402 7       904.243          46.687    21696790.120    88844726.401 8       904.243          48.625
G21  20760678.040   109098100.358 8      2119.849          48.312    20760676.420   109098100.363 6      2119.849          39.875    20760681.100    85011518.744 6      1651.831          39.812
G26  25299002.600   132947160.092 6     -1133.560          40.375    25299001.620   132947160.099 5     -1133.560          34.625    25299022.460   103595270.416 5      -883.293          34.500    25299022.840   103595268.418 6      -883.293          41.937
G03  24338604.320   127900229.845 7      6245.690          43.875    24338603.300   127900229.845 5      6245.690          31.937    24338623.980    99662568.890 5      4866.771          32.062    24338624.780    99662600.887 7      4866.771          45.250
G08  20867760.780   109660822.983 8      2860.409          48.750    20867760.460   109660822.988 8      2860.409          49.500    20867767.720    85450020.379 8      2228.890          50.062    20867767.440    85450018.381 8      2228.890          50.250
R11  19925390.900   106475250.311 8      1457.740          49.437    19925391.080   106475250.314 8      1457.740          48.000    19925400.020    82814118.166 8      1133.797          52.062    19925399.800    82814116.162 8      1133.797          52.500
G16  22441040.880   117928457.357 7      -576.851          45.625    22441039.560   117928457.368 6      -576.851          36.437    22441049.260    91892334.538 6      -449.495          36.375
> 2024 05 08 13 30  3.0000000  0 13
R22  21966586.140   117259131.473 7      3743.367          42.437    21966587.280   117259131.479 7      3743.367          42.250    21966596.880    91201594.243 7      2911.508          43.312    21966596.920    91201593.237 7      2911.508          43.187
G10  23063357.500   121198765.857 7       252.266          45.750    23063355.660   121198765.856 7       252.266          44.750    23063365.900    94440626.707 7       196.571          44.500    23063366.500    94440629.711 7       196.571          47.000
R21  20749545.120   111035004.002 7      1730.190          46.375    20749545.400   111035004.025 8      1730.190          48.375    20749556.820    86360609.634 8      1345.703          49.625    20749556.520    86360608.633 8      1345.703          49.062
R05  22989560.440   122892378.562 7      2008.399          42.687    22989560.640   122892378.574 7      2008.399          42.687    22989574.680    95583018.498 7      1562.088          43.750    22989575.500    95583020.492 7      1562.088          43.812
R10  22125105.560   117939255.471 6     -1662.194          40.687    22125103.360   117939255.469 6     -1662.194          39.562
G02  21705651.860   114063969.058 7      3096.129          47.375    21705650.020   114063969.063 6      3096.129          37.875    21705653.720    88881022.833 6      2412.568          37.875
G27  21696563.480   114016200.657 7      1160.332          47.500    21696561.880   114016200.662 7      1160.332          46.875    21696570.440    88843825.157 7       904.155          46.875    21696569.280    88843822.156 8       904.155          48.187
G21  20760274.480   109095980.545 7      2119.624          47.187    20760272.940   109095980.553 6      2119.624          39.125    20760277.800    85009866.944 6      1651.655          39.625
G26  25299217.840   132948293.669 6     -1133.492          39.500    25299217.360   132948293.679 5     -1133.492          34.625    25299237.920   103596153.728 5      -883.240          34.500    25299238.200   103596151.739 6      -883.240          41.812
G03  24337415.620   127893984.062 7      6245.716          43.750    24337414.880   127893984.062 5      6245.716          31.937    24337435.560    99657702.048 5      4866.791          32.062    24337436.620    99657734.047 7      4866.791          45.375
G08  20867216.500   109657962.617 8      2860.284          48.750    20867216.160   109657962.622 8      2860.284          49.187    20867223.460    85447791.521 8      2228.792          49.500    20867222.900    85447789.521 8      2228.792          49.562
R11  19925118.320   106473792.930 8      1456.966          48.750    19925118.360   106473792.931 8      1456.966          48.187    19925127.300    82812984.644 8      1133.196          51.500    19925127.160    82812982.643 8      1133.196          52.000
G16  22441150.660   117929034.339 7      -577.170          46.375    22441149.220   117929034.349 6      -577.170          36.250    22441159.040    91892784.124 6      -449.743          36.375
> 2024 05 08 13 30  4.0000000  0 14
R22  21965885.300   117255388.465 7      3743.020          42.437    21965886.340   117255388.460 7      3743.020          42.187    21965895.740    91198683.000 7      2911.238          43.687    21965895.780    91198681.992 7      2911.238          43.312
R12  22522792.000   120312715.421 6      5507.961          40.312
G10  23063309.600   121198514.104 7       251.697          45.625    23063307.760   121198514.109 7       251.697          43.875    23063317.960    94440430.538 7       196.128          43.750    23063318.340    94440433.537 7       196.128          46.625
R21  20749221.660   111033274.172 8      1729.926          48.062    20749222.060   111033274.198 8      1729.926          48.000    20749233.520    86359264.211 8      1345.498          48.437    20749233.180    86359263.215 8      1345.498          48.000
R05  22989184.620   122890370.778 7      2007.499          42.687    22989185.080   122890370.782 7      2007.499          42.687    22989199.460    95581456.882 7      1561.388          43.437    22989199.980    95581458.872 7      1561.388          43.687
R10  22125417.660   117940917.951 6     -1662.440          40.812    22125415.640   117940917.943 6     -1662.440          39.750
G02  21705062.500   114060873.285 7      3095.747          47.125    21705060.800   114060873.295 6      3095.747          37.812    21705064.720    88878610.549 6      2412.270          37.687
G27  21696342.760   114015040.660 7      1160.086          47.000    21696341.140   114015040.665 7      1160.086          46.750    21696349.640    88842921.259 7       903.963          46.625    21696348.780    88842918.258 7       903.963          47.875
G21  20759871.420   109093861.310 7      2119.176          47.687    20759869.640   109093861.315 6      2119.176          39.250    20759874.500    85008215.590 6      1651.306          39.625
G26  25299433.340   132949427.482 6     -1133.647          40.062    25299433.100   132949427.487 5     -1133.647          34.500    25299453.900   103597037.213 5      -883.361          34.375    25299454.120   103597035.217 6      -883.361          41.812
G03  24336227.340   127887738.508 7      6245.684          43.437    24336226.380   127887738.513 5      6245.684          32.187    24336246.900    99652835.386 5      4866.767          32.062    24336247.940    99652867.383 7      4866.767          45.375
G08  20866672.260   109655102.680 8      2860.058          48.937    20866671.860   109655102.685 8      2860.058          48.812    20866679.200    85445562.996 8      2228.617          49.000    20866678.860    85445561.000 8      2228.617          49.750
R11  19924845.600   106472336.657 8      1455.994          49.625    19924845.940   106472336.664 8      1455.994          48.437    19924854.720    82811851.987 8      1132.439          50.625    19924854.480    82811849.987 8      1132.439          51.125
G16  22441260.400   117929611.881 7      -577.614          46.687    22441259.280   117929611.888 6      -577.614          36.437    22441268.840    91893234.140 6      -450.089          36.500
> 2024 05 08 13 30  5.0000000  0 14
R22  21965183.600   117251645.366 7      3742.897          42.250    21965185.360   117251645.383 7      3742.897          42.187    21965194.220    91195771.724 7      2911.142          43.687    21965194.600    91195770.720 7      2911.142          43.625
R12  22521760.520   120307207.628 6      5507.416          40.312
G10  23063261.560   121198262.577 7       251.165          46.375    23063259.900   121198262.579 7       251.165          44.187    23063270.180    94440234.536 7       195.713          43.875    23063270.420    94440237.536 7       195.713          46.625
R21  20748898.360   111031544.185 8      1729.973          48.000    20748898.800   111031544.205 8      1729.973          48.062    20748910.380    86357918.659 8      1345.535          49.062    20748909.780    86357917.658 8      1345.535          48.062
R05  22988809.240   122888363.508 7      2006.786          42.937    22988809.860   122888363.517 7      2006.786          42.562    22988823.700    95579895.672 7      1560.834          43.937    22988824.480    95579897.674 7      1560.834          43.250
R10  22125729.760   117942580.431 6     -1662.506          40.812    22125727.580   117942580.423 6     -1662.506          39.750
G02  21704473.380   114057777.578 7      3095.561          47.687    21704471.660   114057777.585 6      3095.561          37.750    21704475.580    88876198.305 6      2412.125          37.562
G27  21696122.080   114013880.656 7      1159.882          46.000    21696120.360   114013880.658 7      1159.882          46.562    21696129.020    88842017.356 7       903.804          46.562    21696127.660    88842014.352 8       903.804          48.250
G21  20759468.260   109091742.154 7      2118.870          47.437    20759466.400   109091742.159 6      2118.870          39.312    20759471.180    85006564.299 6      1651.068          39.312
G26  25299648.840   132950561.038 6     -1133.715          39.000    25299648.940   132950561.048 5     -1133.715          34.562    25299669.620   103597920.510 5      -883.414          34.312    25299670.020   103597918.518 6      -883.414          41.812
G03  24335038.840   127881492.748 7      6245.712          43.437    24335037.760   127881492.750 5      6245.712          32.187    24335058.360    99647968.561 5      4866.789          31.812    24335059.280    99648000.560 7      4866.789          45.312
G08  20866128.040   109652242.713 8      2859.852          48.937    20866127.720   109652242.718 8      2859.852          48.375    20866135.020    85443334.451 8      2228.456          48.562    20866134.620    85443332.453 8      2228.456          50.437
R11  19924573.160   106470881.005 8      1455.266          49.562    19924573.340   106470881.009 7      1455.266          47.687    19924582.340    82810719.807 8      1131.873          50.437    19924582.000    82810717.807 8      1131.873          50.500
G16  22441370.360   117930189.472 7      -577.777          46.625    22441369.160   117930189.480 6      -577.777          36.000    22441378.720    91893684.199 6      -450.216          36.000
> 2024 05 08 13 30  6.0000000  0 14
R22  21964482.780   117247902.716 7      3742.774          42.187    21964484.140   117247902.709 7      3742.774          42.125    21964493.860    91192860.749 7      2911.046          44.187    21964493.280    91192859.737 7      2911.046          44.000
R12  22520729.280   120301700.603 6      5506.961          40.312
G10  23063213.680   121198011.670 7       250.918          45.437    23063211.980   121198011.672 7       250.918          44.500    23063222.480    94440039.025 7       195.521          44.312    23063222.640    94440042.026 7       195.521          46.937
R21  20748575.280   111029814.505 8      1729.881          48.187    20748575.400   111029814.525 7      1729.881          47.937    20748586.900    86356573.351 8      1345.463          49.812    20748586.780    86356572.352 8      1345.463          48.812
R05  22988433.940   122886357.221 7      2006.164          43.562    22988434.920   122886357.217 7      2006.164          42.437    22988448.640    95578335.220 7      1560.350          43.750    22988448.480    95578337.212 7      1560.350          44.062
R10  22126041.260   117944243.374 6     -1662.762          40.812    22126039.520   117944243.359 6     -1662.762          39.750
G02  21703884.680   114054682.375 7      3095.225          47.250    21703882.600   114054682.380 6      3095.225          38.062    21703886.540    88873786.459 6      2411.864          37.687
G27  21695901.340   114012721.043 7      1159.751          47.125    21695899.780   114012721.048 7      1159.751          47.062    21695908.220    88841113.759 7       903.702          46.875    21695907.240    88841110.756 8       903.702          48.312
G21  20759065.100   109089623.518 8      2118.754          48.000    20759063.200   109089623.523 6      2118.754          39.437    20759068.060    85004913.410 6      1650.977          39.937
G26  25299864.600   132951694.764 6     -1133.554          40.187    25299864.560   132951694.769 5     -1133.554          34.562    25299885.260   103598803.931 5      -883.289          34.312    25299885.640   103598801.933 6      -883.289          41.812
G03  24333850.260   127875247.196 7      6245.643          43.312    24333849.260   127875247.199 5      6245.643          32.187    24333869.720    99643101.905 5      4866.735          31.812    24333870.520    99643133.908 7      4866.735          45.312
G08  20865583.880   109649383.133 8      2859.735          48.875    20865583.580   109649383.141 8      2859.735          49.562    20865590.840    85441106.209 8      2228.365          49.750    20865590.280    85441104.207 8      2228.365          50.250
R11  19924301.060   106469426.432 8      1454.426          49.312    19924301.080   106469426.436 8      1454.426          48.125    19924310.280    82809588.473 8      1131.220          51.750    19924309.600    82809586.472 8      1131.220          52.687
G16  22441480.420   117930767.592 7      -578.036          46.875    22441479.120   117930767.602 6      -578.036          36.812    22441488.920    91894134.667 6      -450.418          36.500
> 2024 05 08 13 30  7.0000000  0 14
R22  21963782.000   117244159.807 7      3742.770          42.750    21963782.820   117244159.802 7      3742.770          42.500    21963792.680    91189949.597 7      2911.043          44.125    21963792.280    91189948.587 7      2911.043          44.125
R12  22519698.720   120296193.731 6      5506.584          40.125
G10  23063165.940   121197760.805 7       250.606          46.187    23063164.240   121197760.807 7       250.606          44.500    23063174.720    94439843.543 7       195.278          44.375    23063174.940    94439846.543 7       195.278          47.062
R21  20748251.980   111028084.486 8      1729.893          50.062    20748252.140   111028084.506 8      1729.893          49.562    20748263.880    86355227.778 8      1345.472          49.875    20748263.480    86355226.779 8      1345.472          48.500
R05  22988058.720   122884351.294 7      2005.396          44.312    22988059.320   122884351.296 7      2005.396          42.437    22988073.140    95576775.059 7      1559.752          43.875    22988073.920    95576777.057 7      1559.752          44.437
R10  22126353.160   117945906.105 6     -1662.873          40.812    22126351.520   117945906.103 6     -1662.873          39.500
G02  21703295.520   114051587.041 7      3095.092          47.250    21703293.860   114051587.046 6      3095.092          37.625    21703297.560    88871374.510 6      2411.760          37.625
G27  21695680.700   114011561.220 7      1159.654          47.312    21695679.040   114011561.227 7      1159.654          47.125    21695687.620    88840209.999 7       903.626          46.812    21695686.620    88840206.995 8       903.626          48.562
G21  20758661.680   109087504.788 8      2118.521          48.250    20758660.040   109087504.793 6      2118.521          40.062    20758664.880    85003262.451 6      1650.795          40.125
G26  25300080.400   132952828.055 6     -1133.370          39.687    25300080.360   132952828.060 5     -1133.370          34.812    25300100.860   103599687.016 5      -883.146          34.375    25300101.120   103599685.025 6      -883.146          41.875
G03  24332661.580   127869001.237 7      6245.848          42.625    24332660.460   127869001.237 5      6245.848          32.062    24332681.120    99638234.920 5      4866.894          31.812    24332682.200    99638266.917 7      4866.894          45.250
G08  20865039.680   109646523.338 8      2859.668          49.750    20865039.400   109646523.343 8      2859.668          50.687    20865046.700    85438877.791 8      2228.313          50.187    20865046.380    85438875.793 8      2228.313          50.250
R11  19924028.920   106467972.300 8      1453.602          49.875    19924028.980   106467972.306 8      1453.602          49.125    19924037.980    82808457.479 8      1130.579          52.000    19924037.900    82808455.470 8      1130.579          52.312
G16  22441590.260   117931345.609 7      -578.246          47.625    22441589.120   117931345.619 6      -578.246          36.187    22441598.900    91894585.060 6      -450.581          36.250
> 2024 05 08 13 30  8.0000000  0 14
R22  21963080.740   117240417.218 7      3742.742          42.750    21963081.540   117240417.224 7      3742.742          42.500    21963092.040    91187038.699 7      2911.021          43.937    21963091.560    91187037.693 7      2911.021          44.750
R12  22518667.320   120290687.514 6      5506.161          40.125    22518669.540   120290687.539 6      5506.161          39.625    22518678.440    93559463.178 6      4282.569          38.937
G10  23063118.440   121197510.515 7       250.307          46.062    23063116.720   121197510.520 7       250.307          44.812    23063127.100    94439648.506 7       195.044          44.687    23063127.480    94439651.510 7       195.044          46.875
R21  20747928.760   111026354.645 8      1730.038          50.312    20747928.800   111026354.666 8      1730.038          49.187    20747940.640    86353882.342 8      1345.585          49.687    20747940.200    86353881.344 8      1345.585          48.687
R05  22987683.340   122882346.250 7      2004.883          44.312    22987684.180   122882346.265 7      2004.883          43.562    22987697.920    95575215.588 7      1559.354          43.750    22987698.380    95575217.587 7      1559.354          44.437
R10  22126665.360   117947569.192 6     -1662.927          40.812    22126662.940   117947569.187 6     -1662.927          39.500
G02  21702706.300   114048492.127 7      3094.908          47.312    21702704.860   114048492.135 6      3094.908          37.875    21702708.800    88868962.889 6      2411.617          37.625
G27  21695460.140   114010401.730 7      1159.586          47.000    21695458.340   114010401.741 7      1159.586          47.312    21695467.000    88839306.496 7       903.573          46.875    21695465.860    88839303.493 8       903.573          48.437
G21  20758258.740   109085386.504 8      2118.388          48.375    20758257.040   109085386.509 6      2118.388          39.187    20758261.700    85001611.843 6      1650.692          39.437
G26  25300296.360   132953961.450 6     -1133.157          39.312    25300295.980   132953961.453 5     -1133.157          34.500    25300316.600   103600570.184 5      -882.979          34.375    25300316.800   103600568.190 6      -882.979          41.875
G03  24331473.140   127862755.412 7      6245.946          42.875    24331471.960   127862755.412 5      6245.946          32.062    24331492.540    99633368.043 5      4866.971          32.000    24331493.520    99633400.048 7      4866.971          45.375
G08  20864495.460   109643663.852 8      2859.599          50.437    20864495.340   109643663.860 8      2859.599          50.125    20864502.520    85436649.622 8      2228.259          50.125    20864502.180    85436647.624 8      2228.259          50.437
R11  19923756.820   106466519.135 8      1452.993          49.875    19923756.760   106466519.139 8      1452.993          49.312    19923766.160    82807327.242 8      1130.106          51.625    19923766.160    82807325.239 8      1130.106          52.312
G16  22441700.480   117931924.057 7      -578.425          46.625    22441699.140   117931924.062 6      -578.425          36.500    22441708.940    91895035.788 6      -450.721          36.312
> 2024 05 08 13 30  9.0000000  0 14
R22  21962379.340   117236674.811 7      3742.133          43.625    21962379.720   117236674.814 7      3742.133          42.625    21962390.620    91184127.963 7      2910.548          43.750    21962390.680    91184126.961 7      2910.548          44.000
R12  22517637.260   120285181.827 6      5505.279          40.125    22517639.060   120285181.847 6      5505.279          39.625    22517647.900    93555180.974 6      4281.884          40.687    22517648.740    93555183.974 6      4281.884          40.562
G10  23063071.280   121197260.646 7       249.538          45.875    23063069.180   121197260.654 7       249.538          44.562    23063079.500    94439453.805 7       194.445          44.375    23063079.740    94439456.807 7       194.445          46.500
R21  20747605.580   111024624.880 8      1729.631          49.937    20747605.520   111024624.898 8      1729.631          48.875    20747617.280    86352536.971 8      1345.268          48.875    20747617.000    86352535.971 8      1345.268          48.125
R05  22987308.820   122880341.968 7      2003.827          44.875    22987309.320   122880341.974 7      2003.827          43.812    22987323.080    95573656.704 7      1558.532          43.375    22987323.440    95573658.696 7      1558.532          44.125
R10  22126977.300   117949232.477 6     -1663.518          40.875    22126975.120   117949232.486 6     -1663.518          39.500
G02  21702117.500   114045397.484 7      3094.321          47.937    21702115.820   114045397.494 6      3094.321          37.625    21702119.900    88866551.479 6      2411.159          38.125
G27  21695239.420   114009242.422 7      1159.052          45.062    21695237.760   114009242.430 7      1159.052          46.625    21695246.280    88838403.140 7       903.157          46.312    21695245.380    88838400.138 8       903.157          48.125
G21  20757855.740   109083268.544 8      2117.643          48.812    20757854.040   109083268.548 6      2117.643          39.375    20757858.760    84999961.482 6      1650.112          39.062
G26  25300512.060   132955094.796 6     -1133.358          40.562    25300511.760   132955094.798 5     -1133.358          34.500    25300532.180   103601453.312 5      -883.136          34.437    25300533.280   103601451.318 6      -883.136          41.500
G03  24330284.360   127856509.566 7      6245.729          43.625    24330283.540   127856509.566 5      6245.729          32.062    24330304.060    99628501.152 5      4866.802          32.000    24330304.920    99628533.153 7      4866.802          45.312
G08  20863951.300   109640804.545 8      2859.116          50.562    20863951.160   109640804.553 8      2859.116          50.000    20863958.360    85434421.591 8      2227.882          49.375    20863957.960    85434419.597 8      2227.882          49.625
R11  19923485.240   106465066.841 8      1451.741          50.000    19923485.080   106465066.842 8      1451.741          49.062    19923494.380    82806197.667 8      1129.132          50.937    19923494.240    82806195.664 8      1129.132          51.687
G16  22441810.380   117932502.802 7      -579.075          46.312    22441809.260   117932502.807 6      -579.075          36.187    22441819.220    91895486.740 6      -451.227          36.312
> 2024 05 08 13 30 10.0000000  0 14
R22  21961678.300   117232932.724 7      3742.071          43.625    21961678.180   117232932.738 7      3742.071          42.000    21961689.760    91181217.459 7      2910.500          44.000    21961689.420    91181216.461 7      2910.500          44.625
R12  22516606.880   120279676.820 6      5504.861          40.687    22516608.340   120279676.837 6      5504.861          40.125    22516617.340    93550899.299 6      4281.558          40.687    22516618.200    93550902.306 6      4281.558          40.562
G10  23063024.060   121197011.369 7       249.166          46.062    23063021.820   121197011.373 7       249.166          44.562    23063032.080    94439259.561 7       194.155          44.312    23063032.100    94439262.558 7       194.155          46.937
R21  20747282.220   111022895.374 8      1729.559          49.062    20747282.280   111022895.394 7      1729.559          47.437    20747294.160    86351191.798 8      1345.213          49.937    20747293.900    86351190.797 8      1345.213          48.812
R05  22986933.820   122878338.564 7      2003.146          44.187    22986933.980   122878338.563 7      2003.146          43.812    22986948.380    95572098.493 7      1558.002          43.687    22986948.540    95572100.490 7      1558.002          43.687
R10  22127289.040   117950896.151 6     -1663.605          40.875    22127287.560   117950896.133 6     -1663.605          39.625
G02  21701528.700   114042303.264 7      3094.176          47.250    21701526.940   114042303.274 6      3094.176          37.875    21701530.960    88864140.401 6      2411.046          37.812
G27  21695019.060   114008083.451 7      1158.965          47.062    21695017.280   114008083.458 7      1158.965          47.187    21695025.860    88837500.038 7       903.089          47.062    21695024.920    88837497.037 8       903.089          48.312
G21  20757452.760   109081151.016 8      2117.476          48.000    20757451.100   109081151.016 6      2117.476          39.687    20757455.680    84998311.458 6      1649.981          39.500
G26  25300727.540   132956228.260 6     -1133.129          40.375    25300727.600   132956228.265 5     -1133.129          34.687    25300747.920   103602336.539 5      -882.958          34.875    25300748.720   103602334.539 6      -882.958          41.500
G03  24329095.960   127850263.875 7      6245.681          43.437    24329094.980   127850263.875 5      6245.681          32.062    24329115.640    99623634.384 5      4866.765          32.187    24329116.600    99623666.385 7      4866.765          45.125
G08  20863407.280   109637945.564 8      2858.981          49.312    20863407.140   109637945.572 8      2858.981          49.562    20863414.360    85432193.811 8      2227.778          49.500    20863414.080    85432191.815 8      2227.778          50.437
R11  19923213.180   106463615.528 8      1451.015          50.062    19923213.500   106463615.531 8      1451.015          48.187    19923222.640    82805068.866 8      1128.567          52.062    19923222.680    82805066.861 8      1128.567          52.625
G16  22441920.960   117933081.967 7      -579.270          46.562    22441919.540   117933081.970 6      -579.270          36.187    22441929.400    91895938.029 6      -451.379          36.125
> 2024 05 08 13 30 11.0000000  0 14
R22  21960977.100   117229190.714 6      3742.059          41.750    21960977.120   117229190.718 7      3742.059          42.000    21960988.780    91178307.005 7      2910.491          44.000    21960988.520    91178306.011 7      2910.491          44.375
R12  22515576.500   120274172.269 6      5504.451          40.687    22515577.200   120274172.288 6      5504.451          40.125    22515586.740    93546617.990 6      4281.240          40.687    22515587.740    93546620.990 6      4281.240          40.875
G10  23062976.300   121196762.403 7       248.894          45.750    23062974.460   121196762.403 7       248.894          44.500    23062984.700    94439065.556 7       193.943          44.312    23062984.600    94439068.555 7       193.943          46.812
R21  20746959.240   111021165.850 8      1729.619          48.562    20746959.060   111021165.873 7      1729.619          47.750    20746970.940    86349846.614 8      1345.259          49.875    20746970.500    86349845.616 8      1345.259          48.750
R05  22986559.120   122876335.779 7      2002.528          42.687    22986559.780   122876335.764 7      2002.528          42.625    22986573.720    95570540.761 7      1557.521          43.750    22986574.000    95570542.757 7      1557.521          44.312
R10  22127601.460   117952559.921 6     -1663.698          40.625    22127598.820   117952559.905 6     -1663.698          39.625
G02  21700939.960   114039209.225 7      3094.004          46.937    21700938.220   114039209.235 6      3094.004          38.000    21700942.120    88861729.461 6      2410.912          38.000
G27  21694798.460   114006924.579 7      1158.843          47.062    21694796.640   114006924.583 7      1158.843          47.000    21694805.240    88836597.013 7       902.994          46.625    21694804.440    88836594.010 8       902.994          48.187
G21  20757049.820   109079033.702 7      2117.237          47.875    20757048.140   109079033.705 6      2117.237          39.687    20757052.860    84996661.605 6      1649.795          39.750
G26  25300943.300   132957361.642 6     -1133.311          41.125    25300943.300   132957361.645 5     -1133.311          34.625    25300963.680   103603219.694 5      -883.100          34.875    25300964.000   103603217.704 6      -883.100          41.687
G03  24327907.360   127844018.050 7      6245.962          42.812    24327906.500   127844018.049 5      6245.962          32.062    24327927.080    99618767.507 5      4866.983          32.187    24327927.880    99618799.500 7      4866.983          45.312
G08  20862863.160   109635086.649 8      2858.952          49.437    20862863.100   109635086.656 8      2858.952          49.187    20862870.320    85429966.083 8      2227.755          49.437    20862870.260    85429964.085 8      2227.755          50.250
R11  19922941.840   106462164.954 8      1450.250          48.875    19922941.920   106462164.964 8      1450.250          48.375    19922951.160    82803940.644 8      1127.972          51.687    19922951.160    82803938.642 8      1127.972          52.250
G16  22442031.140   117933661.335 7      -579.420          46.312    22442029.780   117933661.337 6      -579.420          36.687    22442039.520    91896389.464 6      -451.496          36.375
> 2024 05 08 13 30 12.0000000  0 14
R22  21960276.320   117225448.886 6      3741.852          41.375    21960276.500   117225448.892 6      3741.852          41.125    21960287.040    91175396.702 7      2910.329          44.375    21960287.420    91175395.705 7      2910.329          43.500
R12  22514546.520   120268668.305 6      5503.706          40.687    22514546.920   120268668.330 6      5503.706          40.125    22514556.160    93542337.129 6      4280.660          41.000    22514557.160    93542340.130 6      4280.660          40.500
G10  23062928.960   121196513.880 7       248.334          45.625    23062927.140   121196513.879 7       248.334          44.187    23062937.300    94438871.897 7       193.507          44.125    23062937.320    94438874.899 7       193.507          46.937
R21  20746635.840   111019436.387 8      1729.498          48.000    20746635.880   111019436.410 7      1729.498          47.687    20746647.760    86348501.474 8      1345.165          49.812    20746647.240    86348500.476 8      1345.165          49.187
R05  22986184.520   122874333.680 7      2001.793          42.687    22986184.660   122874333.694 7      2001.793          42.562    22986199.140    95568983.591 7      1556.950          43.625    22986199.360    95568985.588 7      1556.950          44.125
R10  22127913.960   117954223.896 6     -1663.866          40.625    22127911.360   117954223.883 6     -1663.866          39.625
G02  21700351.260   114036115.476 7      3093.653          47.000    21700349.320   114036115.483 6      3093.653          38.187    21700353.420    88859318.745 6      2410.639          38.000
G27  21694577.660   114005765.872 7      1158.714          46.875    21694576.080   114005765.874 7      1158.714          46.750    21694584.820    88835694.117 7       902.894          46.437    21694583.920    88835691.116 8       902.894          48.562
G21  20756646.820   109076916.682 8      2116.961          48.125    20756645.260   109076916.685 6      2116.961          39.625    20756650.000    84995011.979 6      1649.580          39.312
G26  25301159.080   132958494.922 6     -1133.112          40.625    25301158.820   132958494.919 5     -1133.112          34.625    25301179.380   103604102.772 5      -882.944          34.500    25301180.000   103604100.780 6      -882.944          41.750
G03  24326719.000   127837772.227 7      6245.952          43.062    24326718.060   127837772.230 5      6245.952          32.125    24326738.620    99613900.634 5      4866.976          32.187    24326739.480    99613932.632 7      4866.976          45.250
G08  20862319.360   109632227.920 8      2858.753          49.562    20862319.120   109632227.925 8      2858.753          49.312    20862326.380    85427738.500 8      2227.600          49.812    20862325.940    85427736.502 8      2227.600          50.687
R11  19922670.360   106460715.220 8      1449.435          48.812    19922670.640   106460715.221 8      1449.435          48.062    19922679.940    82802813.071 8      1127.338          51.687    19922679.880    82802811.071 8      1127.338          52.812
G16  22442141.480   117934240.984 7      -579.743          46.125    22442140.040   117934240.989 6      -579.743          36.375    22442149.820    91896841.130 6      -451.748          36.625
> 2024 05 08 13 30 13.0000000  0 14
R22  21959575.340   117221707.352 6      3741.532          41.375    21959575.560   117221707.347 6      3741.532          41.125    21959586.140    91172486.616 7      2910.080          43.812    21959586.420    91172485.620 7      2910.080          43.437
R12  22513516.180   120263164.977 6      5503.047          39.437    22513516.760   120263165.005 6      5503.047          39.875    22513526.280    93538056.763 6      4280.148          41.000    22513526.700    93538059.772 6      4280.148          40.500
G10  23062881.700   121196265.894 7       247.709          45.562    23062879.900   121196265.899 7       247.709          44.500    23062890.140    94438678.662 7       193.020          44.062    23062890.440    94438681.663 7       193.020          46.687
R21  20746312.760   111017707.122 7      1729.195          47.437    20746312.900   111017707.139 8      1729.195          48.062    20746324.660    86347156.480 8      1344.930          48.625    20746324.420    86347155.484 8      1344.930          48.687
R05  22985810.220   122872332.498 7      2000.666          43.875    22985810.700   122872332.515 7      2000.666          42.562    22985824.800    95567427.123 7      1556.073          43.187    22985825.000    95567429.119 7      1556.073          43.750
R10  22128226.220   117955888.223 6     -1664.349          40.625    22128223.460   117955888.216 6     -1664.349          39.125
G02  21699762.700   114033022.112 7      3093.185          47.125    21699760.780   114033022.122 6      3093.185          37.812    21699764.920    88856908.334 6      2410.274          38.250
G27  21694357.080   114004607.499 7      1158.230          46.937    21694355.800   114004607.504 7      1158.230          46.937    21694364.260    88834791.487 7       902.517          46.875    21694363.380    88834788.487 8       902.517          48.187
G21  20756244.040   109074800.106 8      2116.433          48.312    20756242.400   109074800.106 6      2116.433          39.750    20756247.140    84993362.699 6      1649.169          39.875
G26  25301374.900   132959628.352 6     -1133.581          40.437    25301374.440   132959628.357 5     -1133.581          34.937    25301395.120   103604985.972 5      -883.310          34.562    25301395.820   103604983.984 6      -883.310          41.750
G03  24325530.220   127831526.534 7      6245.624          43.500    24325529.440   127831526.533 5      6245.624          32.125    24325550.060    99609033.862 5      4866.720          32.062    24325550.980    99609065.857 7      4866.720          45.625
G08  20861775.360   109629369.504 8      2858.285          49.937    20861775.220   109629369.512 8      2858.285          49.562    20861782.440    85425511.163 8      2227.235          49.687    20861782.160    85425509.163 8      2227.235          50.062
R11  19922399.440   106459266.504 8      1448.194          48.875    19922399.600   106459266.502 8      1448.194          48.750    19922408.840    82801686.283 8      1126.373          51.500    19922408.580    82801684.281 8      1126.373          51.687
G16  22442251.780   117934821.056 7      -580.223          46.562    22442250.360   117934821.061 6      -580.223          36.375    22442260.280    91897293.120 6      -452.122          36.187
> 2024 05 08 13 30 14.0000000  0 14
R22  21958874.600   117217965.990 6      3741.545          40.312    21958874.840   117217965.983 6      3741.545          41.562    21958884.560    91169576.654 7      2910.090          43.000    21958885.480    91169575.652 7      2910.090          43.375
R12  22512485.940   120257662.181 6      5502.688          39.437    22512486.820   120257662.201 6      5502.688          39.875    22512496.360    93533776.804 6      4279.868          40.625    22512496.340    93533779.819 6      4279.868          40.437
G10  23062834.540   121196018.322 7       247.590          44.875    23062832.760   121196018.329 7       247.590          44.062    23062843.100    94438485.748 7       192.927          43.750    23062843.020    94438488.752 7       192.927          46.250
R21  20745989.660   111015977.897 8      1729.357          49.000    20745989.500   111015977.920 7      1729.357          47.500    20746001.420    86345811.532 8      1345.056          48.875    20746001.120    86345810.531 8      1345.056          48.750
R05  22985436.100   122870332.064 7      2000.233          43.750    22985436.540   122870332.065 7      2000.233          42.812    22985450.760    95565871.215 7      1555.737          43.562    22985450.720    95565873.209 7      1555.737          43.187
R10  22128537.440   117957552.763 6     -1664.578          40.375    22128536.300   117957552.769 6     -1664.578          39.125
G02  21699173.840   114029929.011 7      3093.169          47.500    21699172.220   114029929.019 6      3093.169          37.875    21699176.280    88854498.126 6      2410.261          37.312
G27  21694136.880   114003449.271 7      1158.420          46.375    21694135.400   114003449.273 7      1158.420          46.500    21694143.900    88833888.967 7       902.665          46.625    21694142.900    88833885.960 7       902.665          47.812
G21  20755841.500   109072683.806 7      2116.339          47.750    20755839.700   109072683.809 6      2116.339          39.375    20755844.540    84991713.637 6      1649.095          39.437
G26  25301590.300   132960761.708 6     -1133.354          40.750    25301590.140   132960761.710 5     -1133.354          34.937    25301610.800   103605869.108 5      -883.133          34.562    25301611.600   103605867.116 6      -883.133          41.812
G03  24324341.960   127825280.787 7      6246.060          43.437    24324340.900   127825280.792 5      6246.060          32.125    24324361.420    99604167.047 5      4867.060          32.062    24324362.700    99604199.046 7      4867.060          45.312
G08  20861231.480   109626511.227 8      2858.396          48.875    20861231.240   109626511.235 8      2858.396          49.562    20861238.520    85423283.934 8      2227.322          49.500    20861238.340    85423281.936 8      2227.322          49.625
R11  19922128.560   106457818.573 8      1447.668          49.125    19922128.480   106457818.574 8      1447.668          48.625    19922137.740    82800560.119 8      1125.964          50.937    19922137.460    82800558.117 8      1125.964          51.437
G16  22442362.060   117935401.398 7      -580.264          46.187    22442360.760   117935401.400 6      -580.264          36.437    22442370.800    91897745.321 5      -452.154          35.750
> 2024 05 08 13 30 15.0000000  0 14
R22  21958173.860   117214224.846 6      3740.826          40.312    21958173.640   117214224.854 6      3740.826          41.562    21958183.620    91166666.887 7      2909.532          42.937    21958184.520    91166665.889 7      2909.532          43.187
R12  22511455.720   120252159.906 6      5501.862          39.437    22511456.620   120252159.944 6      5501.862          39.875    22511466.180    93529497.276 6      4279.226          40.625    22511466.620    93529500.295 6      4279.226          40.437
G10  23062787.620   121195771.233 7       246.763          44.687    23062785.820   121195771.235 7       246.763          45.000    23062796.100    94438293.207 7       192.283          44.812    23062796.180    94438296.209 7       192.283          46.312
R21  20745666.760   111014248.768 8      1729.082          48.562    20745666.520   111014248.794 7      1729.082          47.562    20745678.360    86344466.654 8      1344.842          49.500    20745678.020    86344465.655 8      1344.842          48.937
R05  22985062.000   122868332.413 7      1999.044          43.312    22985062.260   122868332.425 7      1999.044          42.812    22985076.360    95564315.942 7      1554.812          43.062    22985076.600    95564317.932 7      1554.812          43.687
R10  22128849.500   117959217.549 6     -1665.149          40.375    22128847.580   117959217.554 6     -1665.149          39.125
G02  21698585.480   114026836.221 8      3092.561          48.000    21698583.660   114026836.228 6      3092.561          37.937    21698587.640    88852088.159 6      2409.788          38.125
G27  21693916.460   114002291.287 7      1157.796          47.000    21693915.080   114002291.287 7      1157.796          46.812    21693923.640    88832986.636 7       902.179          46.750    21693922.740    88832983.633 8       902.179          48.375
G21  20755438.920   109070567.859 7      2115.665          47.625    20755436.960   109070567.863 6      2115.665          39.250    20755441.920    84990064.842 6      1648.570          39.000
G26  25301805.940   132961895.022 6     -1133.232          40.437    25301805.800   132961895.022 5     -1133.232          34.750    25301826.440   103606752.206 5      -883.038          34.750    25301827.200   103606750.210 6      -883.038          41.812
G03  24323153.740   127819035.091 7      6245.629          42.437    24323152.400   127819035.096 5      6245.629          32.062    24323172.840    99599300.271 5      4866.724          32.062    24323174.020    99599332.270 7      4866.724          45.187
G08  20860687.480   109623653.150 8      2858.007          49.312    20860687.320   109623653.155 8      2858.007          49.750    20860694.580    85421056.859 8      2227.019          50.000    20860694.520    85421054.859 8      2227.019          50.500
R11  19921857.700   106456371.511 8      1446.533          49.062    19921857.720   106456371.515 8      1446.533          48.375    19921867.020    82799434.622 8      1125.081          51.250    19921866.940    82799432.622 8      1125.081          51.750
G16  22442472.700   117935982.066 7      -580.910          45.375    22442471.360   117935982.066 6      -580.910          36.000    22442481.420    91898197.779 6      -452.657          36.250
> 2024 05 08 13 30 16.0000000  0 14
R22  21957473.260   117210483.722 6      3740.881          40.437    21957472.900   117210483.718 6      3740.881          41.500    21957482.720    91163757.116 7      2909.574          43.437    21957483.260    91163756.112 7      2909.574          43.000
R12  22510425.700   120246658.060 6      5501.549          39.375    22510427.100   120246658.093 6      5501.549          39.625    22510436.700    93525218.060 6      4278.983          40.437    22510436.960    93525221.065 6      4278.983          40.687
G10  23062740.720   121195524.419 7       246.491          46.375    23062738.800   121195524.424 7       246.491          44.312    23062749.100    94438100.881 7       192.071          44.437    23062749.300    94438103.887 7       192.071          46.562
R21  20745343.280   111012519.608 7      1729.110          47.937    20745343.580   111012519.622 8      1729.110          48.375    20745355.160    86343121.743 8      1344.864          49.875    20745354.720    86343120.742 8      1344.864          48.875
R05  22984688.060   122866333.359 7      1998.607          43.312    22984688.280   122866333.363 7      1998.607          42.812    22984702.520    95562761.113 7      1554.472          43.562    22984702.740    95562763.109 7      1554.472          43.812
R10  22129162.280   117960882.425 6     -1665.167          40.000    22129159.520   117960882.406 6     -1665.167          39.187
G02  21697996.920   114023743.585 7      3092.371          47.687    21697995.260   114023743.595 6      3092.371          38.375    21697999.160    88849678.315 6      2409.640          37.875
G27  21693696.380   114001133.351 8      1157.804          48.000    21693694.680   114001133.350 7      1157.804          46.500    21693703.320    88832084.342 7       902.185          46.562    21693702.420    88832081.338 8       902.185          48.750
G21  20755036.180   109068452.074 7      2115.524          47.875    20755034.400   109068452.078 6      2115.524          39.437    20755039.320    84988416.178 6      1648.460          39.562
G26  25302021.800   132963028.181 6     -1133.062          40.500    25302021.500   132963028.181 5     -1133.062          35.125    25302042.140   103607635.191 5      -882.905          34.750    25302042.820   103607633.210 7      -882.905          42.062
G03  24321965.320   127812789.247 7      6245.781          43.500    24321963.860   127812789.252 5      6245.781          32.062    24321984.220    99594433.382 5      4866.842          31.937    24321985.500    99594465.387 7      4866.842          44.750
G08  20860143.620   109620795.152 8      2857.843          48.625    20860143.520   109620795.157 8      2857.843          50.000    20860150.720    85418829.845 8      2226.891          50.125    20860150.600    85418827.849 8      2226.891          50.312
R11  19921587.280   106454925.167 8      1445.842          49.000    19921586.800   106454925.176 7      1445.842          47.937    19921596.360    82798309.688 8      1124.544          52.187    19921596.320    82798307.683 8      1124.544          52.250
G16  22442583.060   117936562.887 7      -581.045          45.687    22442582.080   117936562.892 6      -581.045          36.062    22442591.900    91898650.359 6      -452.763          36.250
> 2024 05 08 13 30 17.0000000  0 14
R22  21956772.780   117206742.807 6      3740.825          40.437    21956771.840   117206742.794 6      3740.825          41.500    21956782.280    91160847.515 7      2909.531          43.375    21956782.500    91160846.511 7      2909.531          43.250
R12  22509395.640   120241156.826 6      5500.944          39.375    22509397.320   120241156.851 6      5500.944          39.625    22509406.680    93520939.313 6      4278.512          40.937    22509407.180    93520942.325 6      4278.512          41.312
G10  23062693.620   121195278.100 7       246.030          44.625    23062691.980   121195278.100 7       246.030          44.687    23062702.180    94437908.940 7       191.711          44.437    23062701.980    94437911.939 7       191.711          46.562
R21  20745020.140   111010790.575 8      1728.910          48.437    20745020.040   111010790.596 8      1728.910          48.125    20745032.100    86341776.942 8      1344.708          49.750    20745031.580    86341775.948 8      1344.708          49.062
R05  22984314.220   122864335.103 7      1997.790          43.437    22984314.580   122864335.118 7      1997.790          42.812    22984328.620    95561206.923 7      1553.837          44.062    22984328.860    95561208.923 7      1553.837          43.312
R10  22129475.100   117962547.530 6     -1665.270          40.000    22129472.160   117962547.520 6     -1665.270          39.187
G02  21697408.500   114020651.265 7      3092.141          46.875    21697406.760   114020651.272 6      3092.141          37.687    21697410.680    88847268.715 6      2409.461          38.000
G27  21693476.080   113999975.653 7      1157.542          47.000    21693474.420   113999975.661 7      1157.542          46.625    21693483.040    88831182.244 7       901.981          46.875    21693482.000    88831179.238 8       901.981          48.250
G21  20754633.760   109066336.654 7      2115.163          47.500    20754631.940   109066336.656 6      2115.163          39.437    20754636.800    84986767.801 6      1648.179          39.750
G26  25302237.620   132964161.401 6     -1133.215          39.812    25302237.040   132964161.403 5     -1133.215          35.125    25302257.560   103608518.224 5      -883.025          34.812    25302258.320   103608516.221 7      -883.025          42.062
G03  24320777.080   127806543.451 7      6245.751          43.812    24320775.280   127806543.453 5      6245.751          32.062    24320795.740    99589566.536 5      4866.819          31.937    24320796.880    99589598.539 7      4866.819          44.937
G08  20859599.920   109617937.366 8      2857.601          48.687    20859599.740   109617937.374 8      2857.601          49.437    20859606.980    85416602.999 8      2226.702          50.250    20859606.800    85416601.003 8      2226.702          50.562
R11  19921316.540   106453479.742 8      1444.920          49.187    19921316.320   106453479.749 8      1444.920          48.500    19921325.820    82797185.465 8      1123.827          52.125    19921325.820    82797183.462 8      1123.827          52.187
G16  22442693.600   117937144.065 7      -581.371          45.750    22442692.580   117937144.070 6      -581.371          36.125    22442702.500    91899103.214 6      -453.016          36.312
> 2024 05 08 13 30 18.0000000  0 14
R22  21956071.660   117203002.268 6      3740.293          41.250    21956070.960   117203002.269 6      3740.293          41.375    21956082.020    91157938.226 7      2909.117          43.812    21956081.840    91157937.230 7      2909.117          43.500
R12  22508366.140   120235656.327 6      5500.010          39.375    22508367.140   120235656.341 6      5500.010          39.625    22508376.940    93516661.144 6      4277.785          40.937    22508377.320    93516664.151 6      4277.785          41.312
G10  23062647.020   121195032.375 7       245.366          45.250    23062645.340   121195032.382 7       245.366          44.125    23062655.420    94437717.469 7       191.194          44.125    23062655.680    94437720.469 7       191.194          46.375
R21  20744697.080   111009061.760 7      1728.719          47.437    20744697.280   111009061.785 8      1728.719          48.500    20744709.060    86340432.308 8      1344.560          49.750    20744708.600    86340431.315 8      1344.560          48.937
R05  22983940.300   122862337.759 7      1996.949          43.375    22983941.140   122862337.768 7      1996.949          42.437    22983955.060    95559653.431 7      1553.183          43.625    22983955.300    95559655.431 7      1553.183          43.562
R10  22129787.800   117964213.048 6     -1665.768          40.000    22129784.960   117964213.051 6     -1665.768          39.187
G02  21696820.220   114017559.415 7      3091.611          47.562    21696818.440   114017559.419 6      3091.611          37.937    21696822.380    88844859.479 6      2409.048          37.750
G27  21693255.700   113998818.318 7      1157.144          47.062    21693254.160   113998818.326 7      1157.144          46.312    21693262.660    88830280.418 7       901.670          46.312    21693261.800    88830277.415 8       901.670          48.375
G21  20754231.160   109064221.702 7      2114.724          47.125    20754229.320   109064221.701 6      2114.724          39.437    20754234.180    84985119.785 6      1647.837          39.375
G26  25302453.280   132965294.738 6     -1133.367          39.437    25302452.740   132965294.735 5     -1133.367          34.937    25302473.440   103609401.344 5      -883.143          34.750    25302473.820   103609399.360 7      -883.143          42.125
G03  24319588.120   127800297.823 7      6245.558          42.125    24319586.800   127800297.823 5      6245.558          31.875    24319607.220    99584699.814 5      4866.669          31.937    24319608.160    99584731.812 7      4866.669          45.250
G08  20859056.000   109615079.928 8      2857.222          49.812    20859055.940   109615079.932 8      2857.222          49.562    20859063.220    85414376.422 8      2226.407          49.812    20859063.080    85414374.426 8      2226.407          50.437
R11  19921046.560   106452035.328 8      1443.899          48.750    19921046.060   106452035.337 8      1443.899          48.250    19921055.520    82796062.025 8      1123.032          51.375    19921055.500    82796060.020 8      1123.032          52.562
G16  22442804.260   117937725.695 7      -581.757          45.750    22442803.220   117937725.703 6      -581.757          36.125    22442813.100    91899556.420 6      -453.317          36.375
> 2024 05 08 13 30 19.0000000  0 14
R22  21955371.000   117199261.702 6      3740.423          41.250    21955370.560   117199261.700 6      3740.423          41.375    21955381.520    91155028.901 7      2909.218          43.812    21955381.160    91155027.901 7      2909.218          43.937
R12  22507336.680   120230156.154 6      5499.766          39.250    22507337.100   120230156.152 6      5499.766          39.687    22507347.180    93512383.225 6      4277.596          40.937    22507348.320    93512386.230 6      4277.596          41.312
G10  23062600.220   121194786.888 7       245.238          45.062    23062598.480   121194786.891 7       245.238          44.375    23062608.660    94437526.173 7       191.094          44.250    23062609.040    94437529.177 7       191.094          46.625
R21  20744374.140   111007332.843 7      1728.840          47.500    20744374.140   111007332.855 8      1728.840          48.312    20744385.920    86339087.584 8      1344.653          49.687    20744385.540    86339086.587 8      1344.653          49.125
R05  22983566.820   122860340.998 7      1996.266          43.062    22983567.480   122860341.004 7      1996.266          42.437    22983581.340    95558100.392 7      1552.651          43.500    22983581.680    95558102.391 7      1552.651          43.375
R10  22130100.220   117965878.553 6     -1665.497          39.750    22130097.280   117965878.556 6     -1665.497          38.937
G02  21696231.600   114014467.633 7      3091.643          47.187    21696230.020   114014467.638 6      3091.643          37.937    21696234.180    88842450.302 6      2409.072          37.937
G27  21693035.360   113997660.994 7      1157.134          46.375    21693033.900   113997660.994 7      1157.134          47.125    21693042.480    88829378.597 7       901.663          46.750    21693041.700    88829375.593 8       901.663          48.437
G21  20753828.700   109062106.868 7      2114.643          46.750    20753826.960   109062106.873 6      2114.643          39.375    20753831.700    84983471.864 6      1647.774          39.375
G26  25302668.920   132966427.869 6     -1133.316          40.312    25302668.460   132966427.876 5     -1133.316          35.000    25302689.160   103610284.305 5      -883.103          34.750    25302690.180   103610282.319 7      -883.103          42.062
G03  24318399.540   127794052.027 7      6245.671          42.687    24318398.320   127794052.024 5      6245.671          31.875    24318418.760    99579832.956 5      4866.756          31.562    24318419.720    99579864.945 7      4866.756          45.187
G08  20858512.380   109612222.470 8      2857.319          49.312    20858512.220   109612222.478 8      2857.319          49.687    20858519.500    85412149.834 8      2226.482          49.750    20858519.360    85412147.836 8      2226.482          50.812
R11  19920776.100   106450591.565 8      1443.355          49.562    19920775.980   106450591.574 7      1443.355          47.812    19920785.340    82794939.094 8      1122.610          52.250    19920785.140    82794937.086 8      1122.610          52.187
G16  22442914.840   117938307.441 7      -581.920          45.750    22442913.920   117938307.443 5      -581.920          35.937    22442924.020    91900009.712 5      -453.444          35.875
> 2024 05 08 13 30 20.0000000  0 14
R22  21954670.220   117195521.326 6      3740.332          41.562    21954669.700   117195521.335 6      3740.332          41.187    21954680.920    91152119.730 7      2909.147          43.437    21954680.580    91152118.732 7      2909.147          43.812
R12  22506307.040   120224656.568 6      5499.216          39.250    22506307.980   120224656.558 6      5499.216          39.687    22506317.620    93508105.762 6      4277.168          41.187    22506318.660    93508108.770 6      4277.168          41.500
G10  23062553.560   121194541.846 7       244.844          44.625    23062551.880   121194541.846 7       244.844          44.687    23062562.040    94437335.225 7       190.787          44.437    23062562.360    94437338.224 7       190.787          46.375
R21  20744051.220   111005604.016 8      1728.750          48.187    20744050.920   111005604.031 7      1728.750          47.812    20744062.800    86337742.941 8      1344.583          49.625    20744062.600    86337741.939 8      1344.583          49.000
R05  22983193.440   122858344.950 7      1995.598          43.062    22983193.600   122858344.965 7      1995.598          42.687    22983207.980    95556547.917 7      1552.132          44.187    22983208.120    95556549.920 7      1552.132          43.437
R10  22130412.380   117967544.341 6     -1665.847          39.750    22130410.280   117967544.352 6     -1665.847          38.937
G02  21695643.300   114011376.164 7      3091.327          47.312    21695641.840   114011376.169 6      3091.327          37.687    21695645.860    88840041.365 6      2408.826          37.750
G27  21692815.240   113996503.864 7      1156.996          46.375    21692813.740   113996503.866 7      1156.996          46.812    21692822.260    88828476.933 7       901.555          46.875    21692821.620    88828473.930 8       901.555          48.250
G21  20753426.280   109059992.357 7      2114.355          47.437    20753424.520   109059992.362 6      2114.355          39.312    20753429.420    84981824.193 6      1647.549          39.375
G26  25302884.880   132967560.959 6     -1133.129          40.625    25302884.120   132967560.962 5     -1133.129          35.125    25302904.780   103611167.232 5      -882.958          34.875    25302905.480   103611165.234 7      -882.958          42.062
G03  24317210.920   127787806.186 7      6245.820          42.062    24317209.740   127787806.180 5      6245.820          31.875    24317230.420    99574966.065 5      4866.873          31.562    24317231.500    99574998.071 7      4866.873          45.437
G08  20857968.680   109609365.224 8      2857.121          49.125    20857968.500   109609365.234 8      2857.121          49.500    20857975.840    85409923.408 8      2226.328          49.812    20857975.500    85409921.410 8      2226.328          50.687
R11  19920506.380   106449148.671 8      1442.471          49.062    19920506.160   106449148.675 8      1442.471          48.312    19920515.360    82793816.833 8      1121.922          52.000    19920515.280    82793814.828 8      1121.922          52.187
G16  22443025.660   117938889.486 7      -582.181          45.687    22443024.720   117938889.493 6      -582.181          36.187    22443034.940    91900463.241 6      -453.648          36.375
> 2024 05 08 13 30 21.0000000  0 14
R22  21953969.340   117191781.153 6      3740.078          41.187    21953969.720   117191781.161 6      3740.078          41.187    21953980.020    91149210.704 7      2908.950          43.562    21953980.140    91149209.706 7      2908.950          43.312
R12  22505277.380   120219157.457 6      5498.692          39.250    22505278.300   120219157.477 6      5498.692          39.687    22505287.920    93503828.703 6      4276.760          41.187    22505289.240    93503831.711 6      4276.760          41.500
G10  23062506.940   121194297.224 7       244.372          45.250    23062505.380   121194297.226 7       244.372          44.187    23062515.380    94437144.610 7       190.419          43.875    23062515.720    94437147.612 7       190.419          46.250
R21  20743727.780   111003875.233 7      1728.735          46.750    20743728.000   111003875.253 8      1728.735          48.562    20743739.800    86336398.334 8      1344.571          49.437    20743739.580    86336397.331 8      1344.571          48.875
R05  22982820.280   122856349.651 7      1994.958          42.750    22982820.480   122856349.663 7      1994.958          42.750    22982834.640    95554996.013 7      1551.634          43.625    22982835.280    95554998.018 7      1551.634          43.062
R10  22130724.860   117969210.333 6     -1666.143          39.750    22130722.760   117969210.345 6     -1666.143          38.937
G02  21695055.180   114008284.965 8      3091.007          48.000    21695053.560   114008284.973 6      3091.007          37.812    21695057.620    88837632.639 6      2408.577          37.812
G27  21692595.280   113995346.913 7      1156.880          46.125    21692593.500   113995346.910 7      1156.880          47.125    21692602.020    88827575.406 7       901.465          46.750    21692601.760    88827572.403 8       901.465          48.437
G21  20753023.900   109057878.159 7      2113.949          46.312    20753022.200   109057878.164 6      2113.949          38.812    20753027.120    84980176.766 6      1647.233          38.812
G26  25303099.880   132968694.008 6     -1133.085          40.250    25303099.760   132968694.010 5     -1133.085          35.125    25303120.500   103612050.130 5      -882.923          35.312    25303121.360   103612048.132 6      -882.923          41.937
G03  24316021.960   127781560.353 7      6245.755          42.187    24316021.120   127781560.353 5      6245.755          31.312    24316042.000    99570099.192 5      4866.822          31.562    24316042.860    99570131.196 7      4866.822          45.125
G08  20857425.040   109606508.134 8      2856.929          49.812    20857424.900   109606508.145 8      2856.929          49.437    20857432.120    85407697.100 8      2226.178          49.375    20857431.860    85407695.102 8      2226.178          50.437
R11  19920236.260   106447706.589 8      1441.538          49.062    19920236.040   106447706.593 8      1441.538          48.812    19920245.420    82792695.216 8      1121.196          52.000    19920245.500    82792693.213 8      1121.196          52.187
G16  22443136.540   117939471.825 7      -582.501          45.687    22443135.680   117939471.830 6      -582.501          36.375    22443145.820    91900916.998 6      -453.897          36.125
> 2024 05 08 13 30 22.0000000  0 14
R22  21953268.580   117188041.388 6      3739.527          41.187    21953269.500   117188041.386 6      3739.527          41.687    21953279.760    91146301.996 7      2908.521          43.187    21953279.520    91146301.002 7      2908.521          43.750
R12  22504247.900   120213659.148 6      5497.934          39.375    22504249.640   120213659.179 6      5497.934          39.687    22504258.600    93499552.242 6      4276.171          41.000    22504260.060    93499555.238 6      4276.171          41.500
G10  23062460.640   121194053.285 7       243.590          45.625    23062458.860   121194053.293 7       243.590          44.437    23062469.080    94436954.528 7       189.811          44.250    23062469.120    94436957.530 7       189.811          46.375
R21  20743405.000   111002146.800 7      1728.246          47.875    20743404.940   111002146.815 7      1728.246          47.750    20743416.880    86335053.993 8      1344.191          49.875    20743416.400    86335052.986 8      1344.191          49.875
R05  22982447.480   122854355.399 7      1993.656          42.625    22982447.340   122854355.409 7      1993.656          42.750    22982461.700    95553444.927 7      1550.621          43.500    22982462.260    95553446.933 7      1550.621          43.625
R10  22131037.620   117970876.787 6     -1666.683          39.812    22131036.340   117970876.798 6     -1666.683          39.500
G02  21694467.260   114005194.274 8      3090.505          48.062    21694465.480   114005194.276 6      3090.505          38.125    21694469.440    88835224.304 6      2408.186          38.000
G27  21692375.160   113994190.414 7      1156.216          47.000    21692373.480   113994190.419 7      1156.216          46.687    21692382.100    88826674.238 7       900.947          46.500    21692381.340    88826671.235 8       900.947          48.562
G21  20752621.920   109055764.492 7      2113.405          46.500    20752620.120   109055764.494 6      2113.405          39.312    20752624.960    84978529.751 6      1646.809          39.250
G26  25303315.740   132969827.259 6     -1133.356          40.750    25303315.460   132969827.259 5     -1133.356          35.687    25303336.180   103612933.182 5      -883.135          35.437    25303336.840   103612931.182 6      -883.135          41.937
G03  24314833.700   127775314.757 6      6245.475          41.937    24314832.660   127775314.756 5      6245.475          31.312    24314853.640    99565232.496 5      4866.604          31.562    24314854.080    99565264.493 7      4866.604          45.562
G08  20856881.460   109603651.460 8      2856.485          49.125    20856881.240   109603651.470 8      2856.485          49.812    20856888.520    85405471.121 8      2225.832          49.875    20856888.220    85405469.123 8      2225.832          50.375
R11  19919966.900   106446265.605 8      1440.360          48.937    19919966.580   106446265.606 7      1440.360          47.812    19919975.820    82791574.448 8      1120.280          52.000    19919975.740    82791572.446 8      1120.280          52.562
G16  22443247.460   117940054.682 7      -583.115          45.750    22443246.420   117940054.690 6      -583.115          36.312    22443256.700    91901371.162 6      -454.375          36.125
> 2024 05 08 13 30 23.0000000  0 14
R22  21952568.120   117184301.612 6      3739.591          41.562    21952568.720   117184301.621 6      3739.591          41.375    21952579.220    91143393.288 7      2908.570          43.687    21952578.780    91143392.298 7      2908.570          43.437
R12  22503218.760   120208161.218 6      5497.706          39.375    22503220.300   120208161.252 6      5497.706          39.687    22503229.580    93495276.079 6      4275.994          40.875    22503230.440    93495279.081 6      4275.994          41.250
G10  23062414.260   121193809.599 7       243.412          45.125    23062412.540   121193809.606 7       243.412          44.312    23062422.700    94436764.641 7       189.671          44.312    23062422.900    94436767.638 7       189.671          46.562
R21  20743081.820   111000418.258 7      1728.485          47.187    20743082.100   111000418.270 8      1728.485          48.125    20743093.800    86333709.567 8      1344.377          49.687    20743093.580    86333708.562 8      1344.377          49.000
R05  22982074.460   122852361.690 7      1993.303          42.625    22982074.420   122852361.689 7      1993.303          42.750    22982088.580    95551894.260 7      1550.347          43.687    22982089.000    95551896.263 7      1550.347          43.875
R10  22131350.720   117972543.268 6     -1666.588          39.812    22131348.860   117972543.279 6     -1666.588          39.500
G02  21693879.140   114002103.706 7      3090.424          47.812    21693877.300   114002103.714 6      3090.424          37.750    21693881.320    88832816.072 6      2408.123          37.875
G27  21692155.200   113993033.896 7      1156.415          46.562    21692153.360   113993033.904 7      1156.415          46.562    21692161.880    88825773.056 7       901.103          46.437    21692161.640    88825770.050 8       901.103          48.812
G21  20752219.740   109053650.956 7      2113.463          47.562    20752217.940   109053650.953 6      2113.463          39.500    20752222.800    84976882.836 6      1646.854          39.312
G26  25303531.160   132970960.308 6     -1133.076          40.312    25303531.220   132970960.315 5     -1133.076          35.500    25303551.880   103613816.084 5      -882.916          35.437    25303552.700   103613814.098 7      -882.916          42.250
G03  24313644.960   127769068.968 7      6245.799          42.250    24313644.160   127769068.968 5      6245.799          31.312    24313664.920    99560365.650 5      4866.856          30.812    24313665.480    99560397.659 7      4866.856          45.375
G08  20856337.820   109600794.810 8      2856.533          49.937    20856337.560   109600794.820 8      2856.533          49.500    20856344.900    85403245.161 8      2225.870          49.750    20856344.640    85403243.163 8      2225.870          50.437
R11  19919697.380   106444825.292 8      1439.870          49.062    19919697.040   106444825.290 7      1439.870          47.937    19919706.300    82790454.190 8      1119.899          51.875    19919706.200    82790452.189 8      1119.899          52.687
G16  22443358.880   117940637.678 7      -583.225          46.187    22443357.260   117940637.686 6      -583.225          36.375    22443367.480    91901825.431 6      -454.461          36.062
> 2024 05 08 13 30 24.0000000  0 14
R22  21951867.340   117180562.181 6      3739.301          41.562    21951868.240   117180562.184 6      3739.301          41.375    21951878.460    91140484.845 7      2908.345          43.187    21951878.440    91140483.846 7      2908.345          42.937
R12  22502189.520   120202663.978 6      5497.170          39.625    22502191.820   120202664.016 6      5497.170          39.562    22502200.440    93491000.451 6      4275.577          40.875    22502201.320    93491003.445 6      4275.577          40.937
G10  23062367.920   121193566.480 7       243.044          45.687    23062366.320   121193566.487 7       243.044          44.000    23062376.420    94436575.197 7       189.385          43.812    23062376.840    94436578.195 7       189.385          46.312
R21  20742758.940   110998689.932 8      1728.465          48.750    20742758.920   110998689.952 7      1728.465          47.875    20742770.780    86332365.314 8      1344.362          49.437    20742770.520    86332364.315 8      1344.362          48.750
R05  22981701.880   122850368.863 7      1992.710          42.250    22981701.640   122850368.873 7      1992.710          42.625    22981715.960    95550344.288 7      1549.886          43.687    22981716.120    95550346.292 7      1549.886          43.687
R10  22131663.560   117974210.113 6     -1666.852          40.312    22131661.980   117974210.127 6     -1666.852          39.500
G02  21693291.180   113999013.559 7      3090.207          47.500    21693289.360   113999013.561 6      3090.207          37.875    21693293.240    88830408.165 6      2407.954          38.062
G27  21691935.160   113991877.738 7      1156.226          47.437    21691933.480   113991877.743 7      1156.226          46.562    21691941.860    88824872.145 7       900.956          46.375    21691941.520    88824869.144 8       900.956          48.312
G21  20751817.880   109051537.891 7      2113.094          46.750    20751815.800   109051537.890 6      2113.094          38.687    20751820.720    84975236.291 6      1646.567          38.812
G26  25303746.440   132972093.485 6     -1132.966          41.000    25303746.820   132972093.488 5     -1132.966          35.750    25303767.440   103614699.083 5      -882.831          35.625    25303767.520   103614697.073 7      -882.831          42.000
G03  24312456.180   127762823.335 6      6245.843          41.625    24312455.460   127762823.342 5      6245.843          30.812    24312476.380    99555498.931 5      4866.891          30.812    24312477.260    99555530.936 7      4866.891          45.500
G08  20855794.240   109597938.477 8      2856.421          49.812    20855794.000   109597938.480 8      2856.421          48.937    20855801.300    85401019.437 8      2225.783          49.062    20855800.980    85401017.441 8      2225.783          49.750
R11  19919428.240   106443385.961 8      1439.103          48.812    19919427.520   106443385.963 8      1439.103          48.312    19919436.860    82789334.711 8      1119.303          50.562    19919436.920    82789332.710 8      1119.303          50.812
G16  22443469.620   117941221.111 7      -583.463          46.125    22443468.440   117941221.110 6      -583.463          36.375    22443478.580    91902280.037 6      -454.646          36.375
> 2024 05 08 13 30 25.0000000  0 14
R22  21951166.920   117176822.853 6      3739.065          41.187    21951167.200   117176822.860 6      3739.065          41.250    21951177.680    91137576.490 7      2908.162          43.375    21951177.840    91137575.488 7      2908.162          42.875
R12  22501160.540   120197167.263 6      5496.355          39.625    22501162.780   120197167.280 6      5496.355          39.562    22501171.420    93486725.216 6      4274.942          40.812    22501172.600    93486728.221 6      4274.942          41.500
G10  23062321.760   121193323.763 7       242.463          46.250    23062320.140   121193323.768 7       242.463          44.125    23062330.220    94436386.063 7       188.932          43.875    23062330.520    94436389.059 7       188.932          46.062
R21  20742435.680   110996961.646 8      1728.185          48.000    20742435.800   110996961.672 8      1728.185          48.375    20742447.860    86331021.102 8      1344.144          49.437    20742447.460    86331020.101 8      1344.144          48.812
R05  22981329.660   122848376.777 7      1991.570          42.750    22981328.920   122848376.786 7      1991.570          42.625    22981343.020    95548794.897 7      1548.999          43.312    22981343.460    95548796.896 7      1548.999          43.500
R10  22131976.420   117975877.143 6     -1667.443          40.312    22131974.900   117975877.151 6     -1667.443          39.625
G02  21692702.940   113995923.666 7      3089.661          47.312    21692701.340   113995923.671 6      3089.661          37.687    21692705.200    88828000.458 6      2407.528          37.937
G27  21691715.020   113990721.733 7      1155.808          47.062    21691713.440   113990721.740 7      1155.808          46.437    21691721.920    88823971.362 7       900.630          46.375    21691721.620    88823968.361 8       900.630          48.562
G21  20751415.780   109049425.083 7      2112.651          47.562    20751413.620   109049425.090 6      2112.651          39.500    20751418.640    84973589.954 6      1646.222          39.000
G26  25303962.140   132973226.573 6     -1132.977          39.812    25303962.320   132973226.570 5     -1132.977          35.750    25303983.080   103615582.005 5      -882.839          35.437    25303983.600   103615580.009 7      -882.839          42.000
G03  24311267.440   127756577.665 7      6245.660          42.250    24311266.720   127756577.667 5      6245.660          30.812    24311287.780    99550632.185 5      4866.748          30.812    24311288.700    99550664.197 7      4866.748          44.375
G08  20855250.680   109595082.287 8      2855.998          49.937    20855250.640   109595082.289 8      2855.998          49.500    20855257.920    85398793.838 8      2225.453          49.375    20855257.520    85398791.838 8      2225.453          50.250
R11  19919158.840   106441947.468 8      1437.974          48.812    19919158.500   106441947.469 8      1437.974          48.125    19919167.700    82788215.885 8      1118.424          51.250    19919167.680    82788213.884 8      1118.424          51.000
G16  22443580.680   117941804.780 7      -583.939          46.500    22443579.380   117941804.785 6      -583.939          36.125    22443589.580    91902734.836 6      -455.017          36.000
> 2024 05 08 13 30 26.0000000  0 14
R22  21950466.840   117173083.742 6      3738.963          41.187    21950465.940   117173083.754 6      3738.963          41.250    21950477.480    91134668.299 7      2908.083          43.187    21950477.340    91134667.297 7      2908.083          43.437
R12  22500132.120   120191671.080 6      5496.029          39.625    22500133.700   120191671.100 6      5496.029          39.562    22500142.680    93482450.413 6      4274.689          41.062    22500143.600    93482453.409 6      4274.689          41.500
G10  23062275.720   121193081.487 7       242.115          45.437    23062274.020   121193081.492 7       242.115          44.375    23062284.120    94436197.275 7       188.661          44.062    23062284.500    94436200.277 7       188.661          46.562
R21  20742112.720   110995233.470 8      1728.094          48.375    20742112.900   110995233.498 8      1728.094          48.125    20742124.840    86329676.965 8      1344.073          49.687    20742124.420    86329675.968 8      1344.073          48.875
R05  22980956.740   122846385.412 7      1990.924          42.750    22980956.360   122846385.424 7      1990.924          42.562    22980970.680    95547246.056 7      1548.496          42.937    22980970.860    95547248.052 7      1548.496          43.312
R10  22132288.780   117977544.375 6     -1667.276          40.312    22132287.680   117977544.378 6     -1667.276          39.625
G02  21692115.160   113992834.058 7      3089.476          47.187    21692113.440   113992834.065 6      3089.476          38.062    21692117.200    88825592.973 6      2407.384          38.000
G27  21691495.100   113989565.935 7      1155.689          46.937    21691493.500   113989565.943 7      1155.689          46.750    21691502.140    88823070.738 7       900.537          46.750    21691501.340    88823067.731 8       900.537          48.437
G21  20751013.800   109047312.619 7      2112.365          47.375    20751011.680   109047312.624 6      2112.365          39.062    20751016.580    84971943.874 6      1645.999          39.312
G26  25304177.960   132974359.656 6     -1133.057          40.625    25304177.860   132974359.658 5     -1133.057          35.687    25304198.540   103616464.939 5      -882.902          35.500    25304198.720   103616462.961 7      -882.902          42.062
G03  24310079.360   127750332.013 6      6245.613          41.500    24310078.360   127750332.015 5      6245.613          30.812    24310099.200    99545765.456 5      4866.712          30.250    24310100.080    99545797.463 7      4866.712          44.687
G08  20854707.240   109592226.288 8      2855.929          49.125    20854707.040   109592226.296 8      2855.929          49.562    20854714.400    85396568.385 8      2225.399          49.812    20854714.200    85396566.389 8      2225.399          50.812
R11  19918889.740   106440509.840 8      1437.196          49.500    19918889.400   106440509.843 8      1437.196          48.562    19918898.760    82787097.729 8      1117.819          51.875    19918898.760    82787095.731 8      1117.819          52.437
G16  22443691.900   117942388.777 7      -584.128          46.875    22443690.600   117942388.777 5      -584.128          35.937    22443700.760    91903189.884 6      -455.165          36.062
> 2024 05 08 13 30 27.0000000  0 14
R22  21949766.320   117169344.578 6      3738.977          39.625    21949765.840   117169344.589 6      3738.977          41.250    21949776.900    91131760.058 7      2908.093          43.312    21949776.760    91131759.058 7      2908.093          43.250
R12  22499103.500   120186175.276 6      5495.547          40.250    22499105.120   120186175.285 6      5495.547          39.875    22499114.180    93478175.893 6      4274.315          41.062    22499114.780    93478178.893 6      4274.315          41.000
G10  23062229.880   121192839.438 7       241.744          45.000    23062227.960   121192839.443 7       241.744          44.125    23062238.020    94436008.663 7       188.372          44.250    23062238.380    94436011.660 7       188.372          46.562
R21  20741789.920   110993505.155 7      1728.221          47.875    20741790.220   110993505.175 8      1728.221          48.250    20741801.840    86328332.705 8      1344.172          49.625    20741801.320    86328331.709 8      1344.172          49.500
R05  22980583.860   122844394.541 7      1990.433          43.125    22980584.320   122844394.559 7      1990.433          43.125    22980598.020    95545697.603 7      1548.115          43.937    22980598.240    95545699.601 7      1548.115          43.312
R10  22132601.680   117979211.588 6     -1667.384          41.187    22132600.340   117979211.597 6     -1667.384          39.625
G02  21691526.960   113989744.512 7      3089.342          47.000    21691525.560   113989744.519 6      3089.342          37.812    21691529.400    88823185.533 6      2407.280          38.437
G27  21691275.040   113988410.098 7      1155.675          47.562    21691273.520   113988410.103 7      1155.675          46.687    21691282.040    88822170.076 7       900.526          47.062    21691281.300    88822167.074 8       900.526          48.625
G21  20750611.840   109045200.236 7      2112.161          46.687    20750609.820   109045200.241 6      2112.161          39.312    20750614.460    84970297.864 6      1645.840          39.437
G26  25304393.580   132975492.479 6     -1132.921          40.687    25304393.560   132975492.484 5     -1132.921          35.875    25304414.200   103617347.656 5      -882.796          35.500    25304414.800   103617345.670 7      -882.796          42.062
G03  24308890.980   127744086.128 7      6245.859          43.312    24308890.000   127744086.130 5      6245.859          30.812    24308910.580    99540898.524 5      4866.903          30.250    24308911.160    99540930.515 7      4866.903          44.187
G08  20854163.580   109589370.252 8      2855.846          49.812    20854163.560   109589370.263 8      2855.846          49.437    20854170.860    85394342.901 8      2225.334          50.062    20854170.800    85394340.905 8      2225.334          50.687
R11  19918621.020   106439072.791 8      1436.535          49.187    19918620.420   106439072.792 7      1436.535          47.750    19918629.780    82785980.017 8      1117.305          52.125    19918629.820    82785978.016 8      1117.305          52.437
G16  22443802.980   117942972.824 7      -584.241          46.375    22443801.700   117942972.829 6      -584.241          36.187    22443812.100    91903644.972 6      -455.253          36.000
> 2024 05 08 13 30 28.0000000  0 14
R22  21949065.640   117165605.694 6      3738.535          39.625    21949065.540   117165605.711 6      3738.535          40.937    21949076.040    91128852.032 7      2907.750          43.562    21949076.300    91128851.031 7      2907.750          43.375
R12  22498074.920   120180680.076 6      5494.826          40.250    22498075.660   120180680.096 6      5494.826          39.875    22498085.480    93473901.857 6      4273.754          40.937    22498085.820    93473904.853 6      4273.754          41.000
G10  23062183.880   121192597.898 7       241.102          45.375    23062182.100   121192597.900 7       241.102          44.312    23062192.100    94435820.446 7       187.872          44.500    23062192.300    94435823.446 7       187.872          46.562
R21  20741467.460   110991777.014 7      1727.880          47.812    20741467.420   110991777.028 7      1727.880          47.812    20741478.940    86326988.591 8      1343.907          50.125    20741478.620    86326987.591 8      1343.907          49.437
R05  22980211.760   122842404.515 7      1989.433          43.062    22980211.940   122842404.525 7      1989.433          43.125    22980225.940    95544149.793 7      1547.337          43.562    22980226.180    95544151.797 7      1547.337          42.875
R10  22132914.420   117980879.151 6     -1667.979          41.562    22132913.380   117980879.160 6     -1667.979          40.187
G02  21690939.380   113986655.334 7      3088.790          47.875    21690937.740   113986655.347 6      3088.790          37.750    21690941.520    88820778.385 6      2406.849          37.625
G27  21691055.200   113987254.555 7      1155.244          46.062    21691053.700   113987254.560 7      1155.244          46.750    21691062.160    88821269.648 7       900.190          47.000    21691061.420    88821266.645 8       900.190          48.250
G21  20750210.000   109043088.240 7      2111.621          46.687    20750207.820   109043088.245 6      2111.621          39.062    20750212.500    84968652.156 6      1645.419          39.250
G26  25304609.400   132976625.375 6     -1133.110          40.812    25304609.100   132976625.380 6     -1133.110          36.062    25304629.800   103618230.442 5      -882.943          35.687    25304630.060   103618228.442 7      -882.943          42.250
G03  24307702.320   127737840.355 7      6245.492          43.562    24307701.580   127737840.363 5      6245.492          30.500    24307722.080    99536031.678 5      4866.617          30.250    24307722.620    99536063.673 7      4866.617          44.500
G08  20853620.220   109586514.482 8      2855.475          49.125    20853620.080   109586514.487 8      2855.475          49.625    20853627.540    85392117.621 8      2225.045          50.062    20853627.060    85392115.623 8      2225.045          50.812
R11  19918351.900   106437636.707 8      1435.396          49.375    19918352.080   106437636.714 7      1435.396          47.937    19918361.120    82784863.052 8      1116.419          51.937    19918361.260    82784861.050 8      1116.419          52.250
G16  22443914.320   117943557.263 7      -584.814          45.687    22443912.980   117943557.271 6      -584.814          36.187    22443923.140    91904100.374 6      -455.700          36.000
> 2024 05 08 13 30 29.0000000  0 14
R22  21948365.140   117161866.900 6      3738.658          39.750    21948365.440   117161866.909 6      3738.658          40.937    21948375.380    91125944.086 7      2907.845          43.312    21948376.060    91125943.091 7      2907.845          42.687
R12  22497045.820   120175185.322 6      5494.633          40.250    22497047.060   120175185.339 6      5494.633          39.875    22497056.920    93469628.161 6      4273.604          40.562    22497057.280    93469631.164 6      4273.604          40.750
G10  23062137.900   121192356.697 7       241.069          46.687    23062136.140   121192356.699 7       241.069          44.562    23062146.200    94435632.493 7       187.846          44.437    23062146.660    94435635.493 7       187.846          46.625
R21  20741144.080   110990048.837 8      1728.185          48.437    20741144.300   110990048.850 7      1728.185          47.937    20741156.100    86325644.450 8      1344.144          49.875    20741155.560    86325643.454 8      1344.144          49.437
R05  22979839.340   122840415.142 7      1988.943          43.500    22979839.860   122840415.154 7      1988.943          42.937    22979854.100    95542602.512 7      1546.956          43.375    22979854.200    95542604.515 7      1546.956          43.875
R10  22133227.700   117982546.794 6     -1667.785          41.562    22133226.500   117982546.802 6     -1667.785          40.187
G02  21690351.440   113983566.351 7      3088.968          47.687    21690349.960   113983566.355 6      3088.968          37.625    21690353.640    88818371.381 6      2406.988          37.625
G27  21690835.520   113986099.109 7      1155.346          47.125    21690833.760   113986099.117 7      1155.346          46.812    21690842.400    88820369.303 7       900.270          46.750    21690841.800    88820366.300 8       900.270          48.687
G21  20749808.220   109040976.467 7      2111.683          47.562    20749805.880   109040976.470 6      2111.683          39.062    20749810.540    84967006.615 6      1645.468          38.937
G26  25304825.020   132977758.106 6     -1132.588          40.812    25304824.640   132977758.114 6     -1132.588          36.187    25304845.340   103619113.090 6      -882.536          36.312    25304845.520   103619111.098 7      -882.536          42.250
G03  24306514.020   127731594.456 7      6245.927          42.500    24306513.020   127731594.459 5      6245.927          30.500    24306533.560    99531164.738 5      4866.956          30.250    24306534.160    99531196.743 7      4866.956          45.937
G08  20853076.920   109583658.801 8      2855.639          49.062    20853076.680   109583658.809 8      2855.639          49.500    20853084.100    85389892.419 8      2225.173          49.875    20853083.700    85389890.421 8      2225.173          50.375
R11  19918083.500   106436201.361 8      1434.933          49.500    19918083.200   106436201.362 8      1434.933          48.437    19918092.480    82783746.670 8      1116.059          52.312    19918092.600    82783744.667 8      1116.059          52.375
G16  22444025.640   117944141.907 7      -584.739          46.750    22444024.240   117944141.917 5      -584.739          35.812    22444034.400    91904555.931 6      -455.641          36.062
> 2024 05 08 13 30 30.0000000  0 14
R22  21947664.780   117158128.464 6      3738.064          41.875    21947664.980   117158128.476 6      3738.064          40.812    21947675.260    91123036.422 7      2907.383          43.250    21947675.660    91123035.425 7      2907.383          42.875
R12  22496017.540   120169691.294 6      5493.592          39.687    22496018.160   120169691.308 6      5493.592          39.687    22496028.260    93465355.030 6      4272.794          40.562    22496029.060    93465358.035 6      4272.794          40.937
G10  23062092.060   121192116.116 7       240.223          44.562    23062090.320   121192116.121 7       240.223          44.187    23062100.300    94435445.027 7       187.187          44.125    23062101.060    94435448.029 7       187.187          46.500
R21  20740821.360   110988320.900 8      1727.776          48.125    20740821.400   110988320.909 7      1727.776          47.500    20740832.960    86324300.498 8      1343.826          50.312    20740832.560    86324299.498 8      1343.826          49.125
R05  22979467.200   122838426.695 7      1987.962          43.500    22979467.880   122838426.710 7      1987.962          42.437    22979481.880    95541055.937 7      1546.193          43.437    22979482.220    95541057.941 7      1546.193          43.437
R10  22133540.860   117984214.865 6     -1668.418          41.937    22133539.380   117984214.860 6     -1668.418          40.687
G02  21689763.720   113980477.840 7      3088.186          47.250    21689762.300   113980477.848 6      3088.186          37.500    21689766.080    88815964.748 6      2406.379          37.250
G27  21690615.780   113984944.037 7      1154.798          46.875    21690614.060   113984944.042 7      1154.798          46.750    21690622.460    88819469.234 7       899.843          46.562    21690621.720    88819466.235 8       899.843          48.750
G21  20749406.300   109038865.196 7      2110.950          47.437    20749404.160   109038865.199 6      2110.950          39.812    20749408.900    84965361.465 6      1644.896          39.500
G26  25305040.900   132978891.013 6     -1132.806          41.312    25305040.320   132978891.015 6     -1132.806          36.312    25305060.940   103619995.872 6      -882.706          36.125    25305061.000   103619993.868 7      -882.706          42.250
G03  24305325.400   127725348.736 7      6245.659          43.187    24305324.660   127725348.739 5      6245.659          30.500    24305344.920    99526297.947 5      4866.747          31.187    24305346.240    99526329.948 7      4866.747          45.437
G08  20852533.600   109580803.494 8      2855.060          48.875    20852533.360   109580803.501 8      2855.060          50.062    20852540.760    85387667.502 8      2224.722          50.250    20852540.280    85387665.504 8      2224.722          50.562
R11  19917814.960   106434767.057 8      1433.732          49.312    19917814.580   106434767.058 8      1433.732          48.437    19917824.140    82782631.094 8      1115.125          51.625    19917824.180    82782629.089 8      1115.125          52.125
G16  22444137.060   117944727.034 7      -585.414          46.687    22444135.540   117944727.041 6      -585.414          36.312    22444145.740    91905011.857 5      -456.166          35.937
> 2024 05 08 13 30 31.0000000  0 14
R22  21946964.600   117154390.178 6      3737.977          41.875    21946965.200   117154390.174 6      3737.977          40.812    21946974.640    91120128.854 7      2907.316          42.812    21946975.200    91120127.854 7      2907.316          42.750
R12  22494989.420   120164197.766 6      5493.146          39.687    22494989.900   120164197.778 6      5493.146          39.687    22494999.780    93461082.282 6      4272.447          40.875    22495000.680    93461085.291 6      4272.447          40.937
G10  23062046.440   121191875.932 7       239.876          45.937    23062044.600   121191875.932 7       239.876          43.875    23062054.760    94435257.867 7       186.916          44.062    23062054.920    94435260.865 7       186.916          46.500
R21  20740498.540   110986592.996 7      1727.683          47.000    20740498.220   110986593.014 7      1727.683          47.625    20740510.160    86322956.574 8      1343.753          49.750    20740509.800    86322955.573 8      1343.753          49.250
R05  22979095.300   122836438.960 7      1987.251          42.875    22979096.100   122836438.972 7      1987.251          42.625    22979109.980    95539509.927 7      1545.639          43.437    22979110.220    95539511.925 7      1545.639          43.500
R10  22133853.500   117985883.084 6     -1668.544          41.937    22133852.460   117985883.087 6     -1668.544          40.687
G02  21689176.180   113977389.542 7      3088.092          46.875    21689174.520   113977389.550 6      3088.092          37.875    21689178.300    88813558.284 6      2406.306          38.500
G27  21690396.000   113983789.111 7      1154.726          46.625    21690394.140   113983789.116 7      1154.726          47.187    21690402.760    88818569.286 7       899.787          46.687    21690401.720    88818566.285 8       899.787          48.500
G21  20749004.640   109036754.165 7      2110.805          47.250    20749002.520   109036754.167 6      2110.805          39.250    20749007.240    84963716.505 6      1644.783          39.312
G26  25305256.080   132980023.875 6     -1132.931          41.625    25305256.020   132980023.880 6     -1132.931          36.937    25305276.400   103620878.620 6      -882.804          36.625    25305276.760   103620876.624 7      -882.804          42.687
G03  24304137.140   127719103.008 7      6245.644          42.875    24304136.060   127719103.008 5      6245.644          31.562    24304156.620    99521431.144 5      4866.736          31.187    24304157.500    99521463.135 7      4866.736          45.437
G08  20851990.220   109577948.323 8      2854.983          49.500    20851990.040   109577948.327 8      2854.983          49.687    20851997.480    85385442.685 8      2224.662          49.875    20851996.760    85385440.691 8      2224.662          50.500
R11  19917546.780   106433333.589 8      1432.891          49.562    19917546.400   106433333.590 8      1432.891          48.000    19917555.800    82781516.172 8      1114.471          52.437    19917555.840    82781514.165 8      1114.471          52.375
G16  22444248.420   117945312.406 7      -585.655          46.687    22444246.800   117945312.413 6      -585.655          36.187    22444257.280    91905467.977 6      -456.355          36.375
> 2024 05 08 13 30 32.0000000  0 14
R22  21946263.820   117150652.108 6      3738.028          41.375    21946265.480   117150652.109 6      3738.028          41.312    21946274.540    91117221.468 7      2907.355          42.875    21946275.040    91117220.462 7      2907.355          42.375
R12  22493961.200   120158704.911 6      5492.335          39.687    22493961.760   120158704.898 6      5492.335          39.687    22493971.660    93456810.047 6      4271.816          40.875    22493972.100    93456813.058 6      4271.816          40.187
G10  23062001.000   121191636.224 7       239.605          45.812    23061999.040   121191636.226 7       239.605          44.250    23062009.100    94435071.075 7       186.705          44.375    23062009.340    94435074.077 7       186.705          46.687
R21  20740175.780   110984865.230 8      1727.737          48.375    20740175.540   110984865.253 8      1727.737          48.062    20740187.280    86321612.759 8      1343.795          49.750    20740187.120    86321611.755 8      1343.795          49.500
R05  22978723.900   122834452.051 7      1986.555          43.062    22978724.180   122834452.057 7      1986.555          42.625    22978738.520    95537964.547 7      1545.098          43.937    22978738.920    95537966.547 7      1545.098          43.562
R10  22134166.560   117987551.587 6     -1668.721          41.687    22134165.000   117987551.582 6     -1668.721          40.500
G02  21688588.800   113974301.600 7      3087.886          46.937    21688587.040   113974301.610 6      3087.886          38.250    21688590.640    88811152.099 6      2406.145          38.000
G27  21690176.180   113982634.444 7      1154.606          46.562    21690174.520   113982634.446 7      1154.606          47.000    21690183.060    88817669.543 7       899.693          46.875    21690182.120    88817666.542 8       899.693          48.250
G21  20748603.020   109034643.524 7      2110.456          47.937    20748600.900   109034643.527 6      2110.456          38.937    20748605.600    84962071.854 6      1644.511          39.062
G26  25305471.440   132981156.737 6     -1132.897          41.437    25305471.600   132981156.739 6     -1132.897          36.812    25305491.960   103621761.372 6      -882.776          36.625    25305492.720   103621759.382 7      -882.776          42.250
G03  24302948.280   127712857.294 6      6245.764          41.937    24302947.340   127712857.291 5      6245.764          31.562    24302968.140    99516564.353 5      4866.829          31.187    24302969.000    99516596.348 7      4866.829          45.312
G08  20851447.060   109575093.383 8      2854.934          49.625    20851446.720   109575093.387 8      2854.934          49.625    20851454.180    85383218.061 8      2224.624          49.875    20851453.620    85383216.065 8      2224.624          50.500
R11  19917278.400   106431900.994 8      1432.222          49.437    19917278.160   106431900.996 8      1432.222          48.375    19917287.900    82780401.928 8      1113.950          52.375    19917287.960    82780399.925 8      1113.950          52.875
G16  22444359.980   117945898.132 7      -585.783          46.312    22444358.180   117945898.142 6      -585.783          36.187    22444368.740    91905924.375 6      -456.454          36.062
> 2024 05 08 13 30 33.0000000  0 14
R22  21945564.040   117146914.190 6      3737.644          40.875    21945565.320   117146914.194 6      3737.644          41.750    21945574.620    91114314.196 7      2907.057          42.812    21945574.680    91114313.192 7      2907.057          42.625
R12  22492932.760   120153212.446 6      5492.186          39.000    22492933.620   120153212.441 6      5492.186          39.375    22492943.400    93452538.132 6      4271.700          40.937    22492943.360    93452541.147 6      4271.700          40.187
G10  23061955.200   121191396.902 7       238.971          45.562    23061953.580   121191396.907 7       238.971          44.250    23061963.440    94434884.586 7       186.211          43.937    23061963.920    94434887.588 7       186.211          46.250
R21  20739852.700   110983137.522 8      1727.551          48.437    20739852.500   110983137.540 7      1727.551          47.875    20739864.440    86320268.980 8      1343.650          49.500    20739864.160    86320267.978 8      1343.650          49.937
R05  22978352.340   122832465.849 7      1985.764          43.062    22978352.800   122832465.851 7      1985.764          42.187    22978367.000    95536419.721 7      1544.483          43.687    22978367.300    95536421.726 7      1544.483          43.125
R10  22134479.480   117989220.192 6     -1668.792          41.687    22134477.920   117989220.206 6     -1668.792          40.500
G02  21688001.000   113971213.896 7      3087.467          46.812    21687999.420   113971213.906 6      3087.467          37.625    21688002.980    88808746.096 6      2405.819          37.875
G27  21689956.300   113981479.918 7      1154.298          47.562    21689954.780   113981479.922 7      1154.298          46.500    21689963.400    88816769.904 7       899.453          46.187    21689962.560    88816766.909 7       899.453          47.875
G21  20748201.400   109032533.120 7      2110.194          47.062    20748199.200   109032533.125 6      2110.194          39.062    20748204.000    84960427.382 6      1644.307          39.500
G26  25305686.940   132982289.518 7     -1132.846          42.250    25305687.200   132982289.523 6     -1132.846          36.687    25305707.640   103622644.062 6      -882.737          36.625    25305707.800   103622642.068 7      -882.737          42.250
G03  24301760.020   127706611.558 7      6245.629          42.000    24301758.720   127706611.558 5      6245.629          31.562    24301779.680    99511697.548 5      4866.724          31.562    24301780.660    99511729.543 7      4866.724          45.625
G08  20850903.620   109572238.585 8      2854.628          48.250    20850903.560   109572238.592 8      2854.628          48.750    20850910.920    85380993.543 8      2224.386          48.750    20850910.400    85380991.545 8      2224.386          49.562
R11  19917010.920   106430469.186 8      1431.329          49.125    19917010.300   106430469.189 8      1431.329          48.375    19917020.020    82779288.299 8      1113.256          50.125    19917019.820    82779286.292 8      1113.256          50.562
G16  22444471.400   117946484.116 7      -586.264          46.250    22444469.720   117946484.120 6      -586.264          36.000    22444480.260    91906380.969 6      -456.829          36.062
> 2024 05 08 13 30 34.0000000  0 14
R22  21944863.840   117143176.547 6      3737.532          40.875    21944864.320   117143176.548 6      3737.532          41.750    21944874.440    91111407.140 7      2906.969          42.812    21944874.540    91111406.137 7      2906.969          42.875
R12  22491904.660   120147720.709 6      5491.518          39.000    22491905.860   120147720.721 6      5491.518          39.375    22491915.500    93448266.786 6      4271.180          40.312    22491915.840    93448269.801 6      4271.180          40.187
G10  23061909.760   121191158.123 7       238.682          45.687    23061908.100   121191158.120 7       238.682          44.437    23061918.100    94434698.519 7       185.986          44.250    23061918.280    94434701.525 7       185.986          46.250
R21  20739529.660   110981409.991 7      1727.603          47.500    20739529.720   110981410.003 7      1727.603          47.875    20739541.620    86318925.339 8      1343.691          49.000    20739541.120    86318924.334 8      1343.691          48.500
R05  22977980.940   122830480.544 7      1984.885          43.750    22977981.360   122830480.553 7      1984.885          42.875    22977995.500    95534875.595 7      1543.799          43.625    22977995.760    95534877.601 7      1543.799          43.125
R10  22134792.520   117990889.191 6     -1669.056          41.625    22134791.060   117990889.191 6     -1669.056          40.500
G02  21687413.600   113968126.578 7      3087.265          46.562    21687411.880   113968126.588 6      3087.265          37.750    21687415.600    88806340.396 6      2405.661          37.625
G27  21689736.620   113980325.686 7      1154.202          47.125    21689735.200   113980325.691 7      1154.202          47.062    21689743.620    88815870.503 7       899.378          46.500    21689742.880    88815867.504 7       899.378          47.750
G21  20747799.940   109030423.148 7      2109.867          47.437    20747797.940   109030423.152 6      2109.867          39.375    20747802.560    84958783.247 6      1644.052          39.250
G26  25305902.580   132983422.370 7     -1132.685          42.437    25305902.740   132983422.377 6     -1132.685          36.875    25305923.300   103623526.806 6      -882.611          37.125    25305923.760   103623524.814 7      -882.611          42.250
G03  24300571.300   127700365.912 6      6245.678          41.875    24300570.300   127700365.916 5      6245.678          31.312    24300591.180    99506830.811 5      4866.762          31.562    24300591.980    99506862.822 7      4866.762          45.500
G08  20850360.640   109569384.083 8      2854.421          48.687    20850360.340   109569384.088 8      2854.421          49.875    20850367.780    85378769.252 8      2224.224          49.437    20850367.500    85378767.258 8      2224.224          49.625
R11  19916743.060   106429038.344 8      1430.460          49.062    19916742.660   106429038.348 8      1430.460          48.125    19916752.220    82778175.418 8      1112.580          51.062    19916751.980    82778173.415 8      1112.580          51.187
G16  22444582.800   117947070.496 7      -586.475          45.437    22444581.420   117947070.501 6      -586.475          36.000    22444591.640    91906837.872 5      -456.993          35.687
> 2024 05 08 13 30 35.0000000  0 14
R22  21944163.580   117139438.882 6      3737.533          40.687    21944163.680   117139438.891 6      3737.533          41.562    21944174.580    91108500.074 7      2906.970          43.062    21944174.440    91108499.081 7      2906.970          43.062
R12  22490875.960   120142229.310 6      5491.015          39.937    22490877.400   120142229.330 6      5491.015          39.375    22490887.400    93443995.710 6      4270.789          40.312    22490887.680    93443998.718 6      4270.789          40.000
G10  23061864.340   121190919.576 7       238.359          45.687    23061862.720   121190919.579 7       238.359          43.875    23061872.580    94434512.640 7       185.734          43.937    23061872.980    94434515.642 7       185.734          46.562
R21  20739206.780   110979682.326 7      1727.587          47.000    20739206.880   110979682.343 7      1727.587          47.625    20739218.600    86317581.599 8      1343.679          49.312    20739218.360    86317580.599 8      1343.679          48.875
R05  22977609.860   122828495.767 7      1984.364          43.500    22977609.880   122828495.779 7      1984.364          42.875    22977624.280    95533331.884 7      1543.394          43.000    22977624.720    95533333.886 7      1543.394          43.562
R10  22135105.740   117992558.198 6     -1669.230          41.625    22135103.720   117992558.207 6     -1669.230          40.250
G02  21686825.880   113965039.360 7      3087.081          46.625    21686824.600   113965039.368 6      3087.081          38.437    21686828.100    88803934.765 6      2405.517          38.000
G27  21689517.080   113979171.462 7      1154.148          47.625    21689515.560   113979171.467 7      1154.148          46.750    21689523.940    88814971.102 7       899.336          46.000    21689523.140    88814968.102 8       899.336          48.312
G21  20747398.340   109028313.288 7      2109.763          47.437    20747396.320   109028313.292 6      2109.763          38.812    20747400.780    84957139.198 6      1643.971          39.062
G26  25306118.240   132984555.037 6     -1132.685          41.750    25306118.120   132984555.040 6     -1132.685          36.750    25306138.740   103624409.402 6      -882.611          36.937    25306139.320   103624407.398 7      -882.611          42.187
G03  24299382.980   127694120.076 7      6245.836          42.875    24299381.680   127694120.081 5      6245.836          31.312    24299402.660    99501963.930 5      4866.885          31.562    24299403.420    99501995.939 7      4866.885          45.750
G08  20849817.420   109566529.564 8      2854.420          48.437    20849817.220   109566529.569 8      2854.420          48.750    20849824.580    85376544.949 8      2224.224          48.937    20849824.300    85376542.949 8      2224.224          50.125
R11  19916475.180   106427608.160 8      1429.748          49.187    19916474.920   106427608.169 8      1429.748          48.250    19916484.540    82777063.050 8      1112.026          50.500    19916484.380    82777061.047 8      1112.026          50.875
G16  22444694.580   117947656.958 7      -586.502          45.500    22444693.060   117947656.965 5      -586.502          35.500    22444703.400    91907294.846 5      -457.014          35.562
> 2024 05 08 13 30 36.0000000  0 14
R22  21943463.180   117135701.402 6      3737.251          40.687    21943463.680   117135701.424 6      3737.251          41.562    21943474.380    91105593.160 7      2906.751          42.812    21943474.300    91105592.164 7      2906.751          43.437
R12  22489848.500   120136738.429 6      5490.750          39.937    22489849.580   120136738.459 6      5490.750          39.750    22489859.360    93439725.030 6      4270.583          40.312    22489859.860    93439728.037 6      4270.583          40.000
G10  23061819.080   121190681.471 7       237.974          45.437    23061817.420   121190681.470 7       237.974          44.375    23061827.320    94434327.097 7       185.435          44.562    23061827.640    94434330.101 7       185.435          46.375
R21  20738884.000   110977954.730 7      1727.510          47.812    20738884.080   110977954.745 8      1727.510          48.250    20738895.940    86316237.910 8      1343.619          49.750    20738895.560    86316236.911 8      1343.619          49.562
R05  22977238.820   122826511.771 7      1983.597          43.375    22977238.420   122826511.783 7      1983.597          43.062    22977253.120    95531788.776 7      1542.798          43.437    22977253.600    95531790.776 7      1542.798          43.750
R10  22135419.160   117994227.397 6     -1669.140          41.250    22135417.220   117994227.414 6     -1669.140          40.250
G02  21686238.600   113961952.432 7      3086.724          46.187    21686237.100   113961952.431 6      3086.724          37.937    21686240.520    88801529.366 6      2405.240          38.125
G27  21689297.460   113978017.440 7      1153.966          46.562    21689295.980   113978017.443 7      1153.966          47.250    21689304.380    88814071.860 7       899.195          47.250    21689303.400    88814068.861 8       899.195          48.312
G21  20746996.820   109026203.756 7      2109.378          47.875    20746994.900   109026203.758 6      2109.378          39.875    20746999.480    84955495.409 6      1643.671          39.500
G26  25306333.680   132985687.647 6     -1132.601          41.812    25306333.700   132985687.644 6     -1132.601          36.687    25306354.180   103625291.957 6      -882.546          36.375    25306354.760   103625289.959 7      -882.546          42.187
G03  24298194.320   127687874.253 7      6245.778          42.000    24298193.120   127687874.258 5      6245.778          31.687    24298214.140    99497097.059 5      4866.840          31.500    24298214.980    99497129.069 7      4866.840          45.500
G08  20849274.300   109563675.231 8      2854.274          48.250    20849273.980   109563675.236 8      2854.274          49.875    20849281.380    85374320.794 8      2224.109          50.250    20849281.200    85374318.796 8      2224.109          50.500
R11  19916208.000   106426178.801 8      1428.988          49.187    19916207.540   106426178.810 8      1428.988          48.187    19916217.320    82775951.324 8      1111.435          52.062    19916216.900    82775949.324 8      1111.435          52.312
G16  22444806.180   117948243.754 7      -586.888          44.562    22444804.700   117948243.759 6      -586.888          36.000    22444815.100    91907752.077 6      -457.315          36.187
> 2024 05 08 13 30 37.0000000  0 14
R22  21942763.420   117131964.154 6      3736.926          40.437    21942763.360   117131964.163 6      3736.926          41.250    21942774.160    91102686.403 7      2906.498          42.750    21942774.200    91102685.410 7      2906.498          42.937
R12  22488820.560   120131248.180 6      5489.946          39.937    22488822.080   120131248.192 6      5489.946          39.750    22488831.480    93435454.820 6      4269.958          40.687    22488831.960    93435457.827 6      4269.958          40.750
G10  23061773.760   121190443.801 7       237.438          46.250    23061772.220   121190443.803 7       237.438          44.062    23061782.040    94434141.902 7       185.017          44.187    23061782.240    94434144.902 7       185.017          46.312
R21  20738560.880   110976227.231 8      1727.400          48.500    20738561.320   110976227.243 7      1727.400          47.750    20738573.120    86314894.295 8      1343.534          49.875    20738572.600    86314893.297 8      1343.534          49.562
R05  22976867.640   122824528.515 7      1982.816          43.375    22976867.640   122824528.525 7      1982.816          42.500    22976882.220    95530246.245 7      1542.191          43.187    22976882.260    95530248.240 7      1542.191          43.500
R10  22135732.000   117995896.887 6     -1669.581          41.250    22135730.420   117995896.885 6     -1669.581          40.125
G02  21685651.060   113958865.771 7      3086.421          46.812    21685649.760   113958865.776 6      3086.421          38.000    21685653.180    88799124.176 6      2405.003          37.937
G27  21689077.820   113976863.621 7      1153.694          46.250    21689076.360   113976863.621 7      1153.694          47.375    21689084.720    88813172.774 7       898.983          47.125    21689084.020    88813169.775 8       898.983          48.062
G21  20746595.520   109024094.537 7      2108.970          47.937    20746593.520   109024094.539 6      2108.970          38.625    20746598.080    84953851.858 6      1643.353          38.750
G26  25306549.360   132986820.239 7     -1132.687          42.250    25306549.200   132986820.236 6     -1132.687          36.562    25306569.560   103626174.496 6      -882.613          36.625    25306570.340   103626172.506 7      -882.613          42.187
G03  24297005.620   127681628.449 7      6245.765          42.875    24297004.720   127681628.449 5      6245.765          31.687    24297025.520    99492230.201 5      4866.830          31.500    24297026.260    99492262.204 7      4866.830          45.562
G08  20848731.140   109560821.095 8      2853.959          49.625    20848730.760   109560821.100 8      2853.959          49.812    20848738.260    85372096.788 8      2223.864          50.125    20848737.980    85372094.794 8      2223.864          50.625
R11  19915940.540   106424750.337 8      1427.914          48.937    19915940.240   106424750.346 8      1427.914          48.437    19915949.940    82774840.293 8      1110.600          52.250    19915949.520    82774838.292 8      1110.600          52.500
G16  22444917.940   117948830.841 7      -587.281          45.750    22444916.380   117948830.846 5      -587.281          35.875    22444926.780    91908209.539 5      -457.621          35.812
> 2024 05 08 13 30 38.0000000  0 14
R22  21942063.400   117128227.160 6      3736.877          40.437    21942062.800   117128227.171 6      3736.877          41.250    21942074.180    91099779.864 7      2906.460          43.312    21942074.240    91099778.869 7      2906.460          43.500
R12  22487792.860   120125758.581 6      5489.316          39.437    22487793.760   120125758.595 6      5489.316          39.687    22487804.000    93431185.143 6      4269.468          40.687    22487804.460    93431188.151 6      4269.468          40.750
G10  23061728.340   121190206.726 7       236.864          46.062    23061727.120   121190206.728 7       236.864          44.312    23061736.940    94433957.168 7       184.569          44.125    23061736.940    94433960.172 7       184.569          46.375
R21  20738238.380   110974500.002 8      1727.112          48.312    20738238.640   110974500.017 8      1727.112          48.375    20738250.420    86313550.895 8      1343.309          50.250    20738249.880    86313549.892 8      1343.309          49.312
R05  22976496.780   122822546.158 7      1981.927          43.187    22976496.820   122822546.175 7      1981.927          42.500    22976511.360    95528704.418 7      1541.499          43.687    22976511.360    95528706.418 7      1541.499          43.875
R10  22136045.820   117997566.742 6     -1670.050          41.312    22136043.900   117997566.753 6     -1670.050          40.125
G02  21685063.800   113955779.567 7      3086.014          46.562    21685062.420   113955779.567 6      3086.014          37.687    21685065.880    88796719.342 6      2404.686          37.812
G27  21688858.340   113975710.149 7      1153.398          46.812    21688856.740   113975710.146 7      1153.398          46.875    21688865.340    88812273.960 7       898.752          47.062    21688864.280    88812270.959 7       898.752          47.687
G21  20746194.260   109021985.781 8      2108.541          48.187    20746192.340   109021985.783 6      2108.541          39.187    20746196.820    84952208.673 6      1643.019          39.062
G26  25306765.040   132987952.956 6     -1132.826          41.562    25306764.800   132987952.956 6     -1132.826          37.125    25306785.060   103627057.141 6      -882.722          36.812    25306786.000   103627055.151 7      -882.722          43.000
G03  24295817.300   127675382.777 7      6245.549          43.312    24295816.160   127675382.776 5      6245.549          31.687    24295837.080    99487363.451 5      4866.662          31.500    24295837.780    99487395.459 7      4866.662          45.625
G08  20848188.040   109557967.288 8      2853.641          48.187    20848187.700   109557967.298 8      2853.641          49.812    20848195.240    85369873.048 8      2223.616          49.937    20848194.780    85369871.050 8      2223.616          50.437
R11  19915673.400   106423322.865 8      1426.944          49.375    19915673.080   106423322.871 8      1426.944          48.375    19915682.840    82773730.035 8      1109.845          52.437    19915682.520    82773728.034 8      1109.845          52.937
G16  22445029.720   117949418.380 7      -587.715          46.625    22445028.260   117949418.385 5      -587.715          35.875    22445038.660    91908667.350 6      -457.960          36.000
> 2024 05 08 13 30 39.0000000  0 14
R22  21941363.520   117124490.301 6      3736.799          40.437    21941362.380   117124490.307 6      3736.799          41.062    21941374.200    91096873.423 7      2906.399          43.125    21941374.200    91096872.425 7      2906.399          43.187
R12  22486765.680   120120269.476 6      5488.508          39.437    22486766.360   120120269.496 6      5488.508          39.687    22486776.440    93426915.845 6      4268.840          40.437    22486776.740    93426918.851 6      4268.840          40.500
G10  23061683.660   121189969.997 7       236.482          45.687    23061682.080   121189969.996 7       236.482          44.437    23061692.000    94433772.696 7       184.272          44.125    23061691.900    94433775.699 7       184.272          46.312
R21  20737915.760   110972772.760 8      1727.162          48.562    20737916.100   110972772.775 7      1727.162          47.937    20737927.620    86312207.480 8      1343.348          50.375    20737927.100    86312206.477 8      1343.348          49.375
R05  22976126.100   122820564.431 7      1981.391          43.375    22976125.860   122820564.440 7      1981.391          42.500    22976140.680    95527163.062 7      1541.082          43.625    22976140.780    95527165.056 7      1541.082          43.562
R10  22136358.860   117999236.703 6     -1670.115          41.312    22136357.020   117999236.714 6     -1670.115          40.125
G02  21684476.600   113952693.524 7      3085.848          46.000    21684475.160   113952693.527 6      3085.848          38.062    21684478.580    88794314.635 6      2404.557          38.187
G27  21688639.040   113974556.779 7      1153.181          46.125    21688637.320   113974556.786 7      1153.181          46.500    21688645.900    88811375.226 7       898.583          46.687    21688644.640    88811372.227 8       898.583          48.312
G21  20745793.180   109019877.219 8      2108.437          48.500    20745791.040   109019877.224 6      2108.437          39.562    20745795.540    84950565.640 6      1642.938          39.875
G26  25306980.320   132989085.529 6     -1132.533          41.250    25306980.120   132989085.529 6     -1132.533          36.750    25307000.600   103627939.666 6      -882.493          36.437    25307001.320   103627937.670 7      -882.493          43.000
G03  24294628.780   127669137.022 7      6245.702          43.250    24294627.760   127669137.022 5      6245.702          31.562    24294648.520    99482496.632 5      4866.781          31.625    24294649.380    99482528.625 7      4866.781          45.687
G08  20847645.040   109555113.567 8      2853.600          48.875    20847644.720   109555113.574 8      2853.600          49.500    20847652.160    85367649.363 8      2223.585          49.500    20847651.800    85367647.367 8      2223.585          50.875
R11  19915406.380   106421896.122 8      1426.315          49.437    19915406.200   106421896.131 8      1426.315          48.187    19915415.960    82772620.337 8      1109.356          52.375    19915415.620    82772618.337 8      1109.356          52.312
G16  22445141.520   117950006.117 7      -587.981          45.937    22445140.020   117950006.121 6      -587.981          36.187    22445150.520    91909125.316 6      -458.167          36.000
> 2024 05 08 13 30 40.0000000  0 14
R22  21940663.760   117120753.475 6      3736.699          40.437    21940662.680   117120753.478 6      3736.699          41.062    21940673.940    91093967.002 7      2906.321          43.062    21940674.280    91093966.009 7      2906.321          43.062
R12  22485738.220   120114780.718 6      5488.386          39.437    22485738.700   120114780.706 6      5488.386          39.687    22485748.860    93422646.796 6      4268.745          40.437    22485749.260    93422649.805 6      4268.745          40.562
G10  23061638.600   121189733.533 7       236.139          46.312    23061637.100   121189733.541 7       236.139          44.250    23061646.940    94433588.451 7       184.004          44.250    23061647.080    94433591.452 7       184.004          46.500
R21  20737593.040   110971045.424 8      1727.293          48.062    20737593.000   110971045.444 8      1727.293          48.187    20737604.760    86310864.003 8      1343.450          49.625    20737604.440    86310863.002 8      1343.450          49.312
R05  22975755.480   122818583.292 7      1980.689          43.375    22975754.800   122818583.296 7      1980.689          42.500    22975769.900    95525622.191 7      1540.536          43.750    22975770.200    95525624.187 7      1540.536          42.875
R10  22136672.540   118000906.734 6     -1670.316          40.562    22136670.660   118000906.750 6     -1670.316          40.062
G02  21683889.340   113949607.631 7      3085.627          46.375    21683887.860   113949607.638 6      3085.627          38.000    21683891.380    88791910.043 6      2404.385          37.875
G27  21688419.480   113973403.440 7      1153.169          46.125    21688418.120   113973403.440 7      1153.169          47.187    21688426.380    88810476.517 7       898.573          47.000    21688425.160    88810473.518 8       898.573          48.062
G21  20745391.600   109017768.838 8      2108.191          48.062    20745389.880   109017768.843 6      2108.191          39.312    20745394.380    84948922.746 6      1642.746          39.250
G26  25307196.000   132990217.940 6     -1132.571          40.625    25307195.580   132990217.937 6     -1132.571          36.125    25307216.040   103628822.071 6      -882.523          36.000    25307216.640   103628820.088 7      -882.523          43.062
G03  24293440.020   127662891.058 6      6245.866          40.812    24293439.100   127662891.055 5      6245.866          31.562    24293459.960    99477629.659 5      4866.908          31.625    24293460.960    99477661.697 7      4866.908          46.062
G08  20847102.100   109552259.886 8      2853.540          48.375    20847101.880   109552259.893 8      2853.540          49.000    20847109.160    85365425.715 8      2223.538          49.875    20847108.840    85365423.719 8      2223.538          50.687
R11  19915139.680   106420470.076 8      1425.513          48.375    19915139.340   106420470.085 7      1425.513          47.750    19915148.940    82771511.189 8      1108.732          52.250    19915148.740    82771509.186 8      1108.732          52.375
G16  22445253.540   117950593.974 7      -587.945          45.875    22445251.840   117950593.979 5      -587.945          35.812    22445262.360    91909583.372 5      -458.139          35.937
> 2024 05 08 13 30 41.0000000  0 14
R22  21939964.280   117117016.894 6      3736.690          40.625    21939963.380   117117016.903 6      3736.690          41.250    21939974.120    91091060.775 7      2906.315          43.375    21939974.340    91091059.784 7      2906.315          43.187
R12  22484710.400   120109292.564 6      5488.194          39.437    22484711.260   120109292.551 6      5488.194          39.250    22484721.900    93418378.228 6      4268.596          41.000    22484721.860    93418381.228 6      4268.596          40.562
G10  23061593.500   121189497.564 7       235.918          46.250    23061592.280   121189497.577 7       235.918          44.125    23061602.120    94433404.574 7       183.832          44.125    23061602.140    94433407.574 7       183.832          46.125
R21  20737270.140   110969318.233 7      1727.370          47.500    20737270.240   110969318.248 7      1727.370          47.812    20737282.020    86309520.621 8      1343.510          49.687    20737281.740    86309519.623 8      1343.510          49.187
R05  22975384.680   122816602.936 7      1980.275          42.125    22975384.260   122816602.953 7      1980.275          42.000    22975399.520    95524081.912 7      1540.214          43.062    22975399.440    95524083.900 7      1540.214          43.375
R10  22136985.340   118002577.044 6     -1670.201          40.562    22136983.800   118002577.042 6     -1670.201          40.062
G02  21683302.020   113946522.074 7      3085.534          45.937    21683300.620   113946522.081 6      3085.534          38.375    21683304.220    88789505.717 6      2404.312          38.062
G27  21688200.060   113972250.365 7      1153.163          45.937    21688198.680   113972250.364 7      1153.163          47.000    21688206.980    88809578.014 7       898.569          46.875    21688205.840    88809575.015 7       898.569          47.875
G21  20744990.480   109015660.841 8      2107.920          48.062    20744988.840   109015660.849 6      2107.920          40.062    20744993.340    84947280.153 6      1642.535          40.000
G26  25307411.480   132991350.363 6     -1132.390          39.937    25307411.140   132991350.363 6     -1132.390          36.125    25307431.620   103629704.492 6      -882.382          36.000    25307432.040   103629702.514 7      -882.382          42.687
G03  24292251.320   127656645.233 6      6245.942          40.187    24292250.200   127656645.233 5      6245.942          31.562    24292271.620    99472762.801 5      4866.968          31.625    24292272.460    99472794.820 7      4866.968          45.562
G08  20846558.920   109549406.433 8      2853.632          48.750    20846558.820   109549406.440 8      2853.632          49.500    20846566.040    85363202.241 8      2223.610          50.250    20846565.620    85363200.245 8      2223.610          51.187
R11  19914872.700   106419044.952 7      1424.924          47.500    19914872.840   106419044.959 8      1424.924          48.125    19914882.380    82770402.751 8      1108.274          52.312    19914882.100    82770400.752 8      1108.274          52.750
G16  22445365.200   117951182.249 7      -588.350          45.375    22445363.720   117951182.251 5      -588.350          35.812    22445374.420    91910041.754 5      -458.455          35.562
> 2024 05 08 13 30 42.0000000  0 14
R22  21939263.780   117113280.375 6      3736.347          40.625    21939263.120   117113280.368 6      3736.347          41.250    21939274.260    91088154.589 7      2906.047          43.062    21939274.260    91088153.589 7      2906.047          43.062
R12  22483682.640   120103804.895 6      5487.297          38.562    22483684.120   120103804.899 6      5487.297          39.250    22483694.540    93414110.056 6      4267.898          40.500    22483694.660    93414113.064 6      4267.898          41.125
G10  23061548.820   121189261.904 7       235.510          46.750    23061547.580   121189261.904 7       235.510          44.312    23061557.200    94433220.935 7       183.514          44.187    23061557.280    94433223.937 7       183.514          46.125
R21  20736947.200   110967590.964 8      1727.227          48.812    20736947.300   110967590.979 8      1727.227          48.000    20736959.340    86308177.194 8      1343.399          49.187    20736958.880    86308176.200 8      1343.399          48.562
R05  22975014.520   122814623.254 7      1979.357          42.375    22975014.280   122814623.263 7      1979.357          42.312    22975029.720    95522542.162 7      1539.500          43.375    22975029.120    95522544.162 7      1539.500          43.562
R10  22137298.860   118004247.416 6     -1670.316          41.812    22137296.920   118004247.419 6     -1670.316          40.687
G02  21682714.860   113943436.679 7      3085.243          46.187    21682713.680   113943436.687 6      3085.243          38.062    21682716.980    88787101.510 6      2404.086          38.000
G27  21687980.820   113971097.355 7      1152.911          46.375    21687979.260   113971097.362 7      1152.911          47.000    21687987.680    88808679.567 7       898.372          47.000    21687986.460    88808676.572 7       898.372          47.875
G21  20744589.460   109013553.007 8      2107.679          48.125    20744587.580   109013553.014 6      2107.679          39.687    20744592.260    84945637.687 6      1642.347          39.500
G26  25307626.980   132992482.645 6     -1132.310          40.375    25307626.700   132992482.647 5     -1132.310          35.687    25307647.340   103630586.799 5      -882.319          35.375    25307647.740   103630584.809 7      -882.319          42.687
G03  24291062.900   127650399.261 6      6245.856          40.125    24291061.680   127650399.260 5      6245.856          31.562    24291082.780    99467895.822 5      4866.901          31.625    24291083.600    99467927.833 7      4866.901          45.125
G08  20846015.860   109546553.072 8      2853.287          49.750    20846015.920   109546553.077 8      2853.287          49.312    20846023.120    85360978.846 8      2223.341          50.187    20846022.600    85360976.847 8      2223.341          50.187
R11  19914606.300   106417620.560 8      1423.979          49.312    19914606.120   106417620.570 8      1423.979          48.062    19914615.940    82769294.897 8      1107.539          52.125    19914615.400    82769292.894 8      1107.539          53.000
G16  22445477.060   117951770.660 7      -588.752          45.312    22445475.580   117951770.668 5      -588.752          35.375    22445486.440    91910500.244 5      -458.768          35.562
> 2024 05 08 13 30 43.0000000  0 14
R22  21938563.800   117109544.095 6      3735.991          40.687    21938562.620   117109544.091 6      3735.991          41.187    21938574.020    91085248.594 7      2905.771          42.687    21938574.380    91085247.599 7      2905.771          42.500
R12  22482655.820   120098317.796 6      5486.824          38.562    22482657.280   120098317.805 6      5486.824          39.250    22482666.820    93409842.318 6      4267.530          40.500    22482667.620    93409845.323 6      4267.530          40.000
G10  23061504.020   121189026.742 7       234.999          46.125    23061502.740   121189026.749 7       234.999          44.125    23061512.240    94433037.694 7       183.116          44.000    23061513.020    94433040.695 7       183.116          46.125
R21  20736624.560   110965863.845 7      1727.142          47.562    20736624.280   110965863.851 7      1727.142          47.250    20736636.120    86306833.873 8      1343.333          48.687    20736636.120    86306832.877 7      1343.333          47.687
R05  22974644.220   122812644.384 7      1978.608          42.375    22974644.020   122812644.385 7      1978.608          42.312    22974659.220    95521003.032 7      1538.917          43.312    22974658.700    95521005.029 7      1538.917          43.750
R10  22137612.680   118005918.115 6     -1670.715          41.812    22137610.740   118005918.121 6     -1670.715          40.687
G02  21682128.000   113940351.637 7      3084.875          45.875    21682126.440   113940351.642 6      3084.875          37.687    21682129.960    88784697.581 6      2403.799          37.937
G27  21687761.520   113969944.592 7      1152.768          46.562    21687759.780   113969944.597 7      1152.768          47.187    21687768.320    88807781.306 7       898.261          47.000    21687767.140    88807778.307 8       898.261          48.000
G21  20744188.580   109011445.546 7      2107.366          47.750    20744186.500   109011445.551 6      2107.366          39.375    20744191.240    84943995.509 6      1642.103          39.812
G26  25307842.240   132993614.944 6     -1132.199          40.312    25307842.240   132993614.944 5     -1132.199          35.562    25307862.800   103631469.104 5      -882.233          35.312    25307862.980   103631467.100 7      -882.233          42.750
G03  24289874.140   127644153.323 6      6245.925          40.062    24289873.140   127644153.322 5      6245.925          31.562    24289894.300    99463028.873 4      4866.955          29.250    24289895.140    99463060.891 7      4866.955          44.562
G08  20845472.980   109543699.937 8      2853.073          48.750    20845473.100   109543699.942 8      2853.073          49.687    20845479.980    85358755.622 8      2223.174          49.625    20845479.720    85358753.630 8      2223.174          50.125
R11  19914339.900   106416197.099 8      1423.112          49.187    19914339.820   106416197.105 7      1423.112          47.687    19914349.580    82768187.747 8      1106.865          51.625    19914349.000    82768185.742 8      1106.865          52.562
G16  22445589.460   117952359.421 7      -589.011          45.250    22445587.760   117952359.434 5      -589.011          35.687    22445598.480    91910959.004 5      -458.969          35.562
> 2024 05 08 13 30 44.0000000  0 14
R22  21937863.440   117105808.000 6      3736.097          39.875    21937863.440   117105807.983 6      3736.097          41.187    21937874.820    91082342.728 7      2905.854          42.312    21937874.460    91082341.732 7      2905.854          42.687
R12  22481628.860   120092831.282 6      5486.596          38.562    22481629.220   120092831.277 6      5486.596          38.812    22481639.500    93405575.033 6      4267.353          39.937    22481640.420    93405578.042 6      4267.353          40.000
G10  23061459.320   121188792.020 7       234.770          45.125    23061458.060   121188792.025 7       234.770          44.250    23061467.560    94432854.790 7       182.937          44.375    23061468.280    94432857.794 7       182.937          46.312
R21  20736302.180   110964136.832 7      1727.172          47.375    20736301.880   110964136.842 7      1727.172          46.875    20736313.620    86305490.633 8      1343.356          48.687    20736313.420    86305489.637 8      1343.356          48.000
R05  22974273.700   122810666.247 7      1978.045          43.250    22974274.000   122810666.267 7      1978.045          42.062    22974288.540    95519464.487 7      1538.479          42.750    22974288.560    95519466.484 7      1538.479          43.500
R10  22137925.580   118007589.034 6     -1670.907          41.312    22137923.960   118007589.050 6     -1670.907          40.625
G02  21681540.860   113937266.868 7      3084.836          46.125    21681539.480   113937266.873 6      3084.836          38.125    21681542.900    88782293.863 6      2403.768          37.937
G27  21687542.300   113968792.057 7      1152.657          46.187    21687540.600   113968792.060 7      1152.657          46.750    21687548.780    88806883.213 7       898.174          46.375    21687548.060    88806880.214 7       898.174          47.562
G21  20743787.620   109009338.419 7      2107.183          47.375    20743785.580   109009338.418 6      2107.183          39.312    20743790.340    84942353.588 6      1641.961          39.125
G26  25308057.740   132994747.244 6     -1131.919          39.812    25308057.700   132994747.239 5     -1131.919          35.750    25308078.000   103632351.412 5      -882.015          35.375    25308078.540   103632349.402 7      -882.015          42.562
G03  24288685.480   127637907.440 6      6246.072          39.250    24288684.740   127637907.442 4      6246.072          29.062    24288705.700    99458161.958 4      4867.069          29.250    24288706.820    99458193.973 7      4867.069          45.250
G08  20844930.140   109540846.994 8      2853.054          49.375    20844930.220   109540846.999 8      2853.054          49.000    20844937.260    85356532.549 8      2223.159          49.625    20844936.760    85356530.553 8      2223.159          49.625
R11  19914073.800   106414774.486 8      1422.331          48.562    19914073.420   106414774.495 7      1422.331          47.875    19914083.240    82767081.273 8      1106.258          51.062    19914083.020    82767079.268 8      1106.258          51.875
G16  22445701.500   117952948.477 7      -589.069          46.125    22445699.880   117952948.487 5      -589.069          35.687    22445710.600    91911417.994 5      -459.015          35.625
> 2024 05 08 13 30 45.0000000  0 14
R22  21937163.480   117102071.948 6      3735.813          39.875    21937164.580   117102071.944 6      3735.813          40.687    21937175.320    91079436.926 7      2905.632          42.937    21937174.540    91079435.930 7      2905.632          43.000
R12  22480601.660   120087345.187 6      5485.609          38.875    22480602.960   120087345.185 6      5485.609          38.812    22480613.300    93401308.062 6      4266.585          39.937    22480613.500    93401311.065 6      4266.585          39.437
G10  23061414.900   121188557.638 7       234.046          45.375    23061413.400   121188557.640 7       234.046          43.750    23061423.060    94432672.148 7       182.373          43.812    23061423.960    94432675.156 7       182.373          45.625
R21  20735979.380   110962409.794 8      1726.840          48.625    20735979.660   110962409.803 7      1726.840          47.750    20735991.080    86304147.387 8      1343.097          48.687    20735990.440    86304146.388 7      1343.097          47.812
R05  22973904.260   122808688.812 7      1976.770          43.250    22973903.820   122808688.822 7      1976.770          42.187    22973919.380    95517926.487 7      1537.488          42.812    22973918.600    95517928.481 7      1537.488          43.000
R10  22138238.780   118009260.080 6     -1671.448          41.312    22138237.200   118009260.104 6     -1671.448          40.625
G02  21680954.080   113934182.302 7      3084.202          45.562    21680952.440   113934182.309 6      3084.202          37.250    21680955.860    88779890.304 6      2403.274          37.437
G27  21687322.880   113967639.626 7      1152.056          46.000    21687321.140   113967639.630 7      1152.056          46.000    21687329.560    88805985.216 7       897.706          46.187    21687328.440    88805982.219 7       897.706          47.250
G21  20743386.440   109007231.501 7      2106.519          47.250    20743384.780   109007231.506 6      2106.519          39.250    20743389.160    84940711.832 6      1641.443          39.250
G26  25308272.800   132995879.429 6     -1132.422          40.500    25308273.080   132995879.428 5     -1132.422          35.750    25308293.520   103633233.633 5      -882.407          35.750    25308293.600   103633231.637 7      -882.407          42.562
G03  24287497.560   127631661.452 6      6245.896          39.750    24287496.180   127631661.451 4      6245.896          29.062    24287517.200    99453294.954 4      4866.932          29.250    24287518.220    99453326.949 7      4866.932          44.937
G08  20844387.260   109537994.146 8      2852.527          48.312    20844387.240   109537994.151 8      2852.527          48.937    20844394.400    85354309.548 8      2222.748          48.875    20844394.080    85354307.554 8      2222.748          49.250
R11  19913807.560   106413352.611 8      1421.199          48.562    19913807.340   106413352.620 7      1421.199          47.625    19913817.260    82765975.368 8      1105.377          50.375    19913816.980    82765973.365 8      1105.377          50.250
G16  22445813.700   117953537.753 7      -589.607          45.687    22445812.080   117953537.760 5      -589.607          35.750    22445822.820    91911877.154 5      -459.434          35.812
> 2024 05 08 13 30 46.0000000  0 14
R22  21936463.760   117098336.227 6      3735.691          41.125    21936464.500   117098336.230 6      3735.691          40.687    21936474.580    91076531.371 7      2905.538          43.000    21936474.580    91076530.380 7      2905.538          42.875
R12  22479574.260   120081859.722 6      5485.140          38.875    22479575.400   120081859.750 6      5485.140          38.812    22479586.200    93397041.610 6      4266.220          39.750    22479586.320    93397044.619 6      4266.220          39.437
G10  23061370.560   121188323.804 7       233.707          45.250    23061368.860   121188323.812 7       233.707          44.062    23061378.600    94432489.942 7       182.110          44.000    23061379.020    94432492.946 7       182.110          46.375
R21  20735656.520   110960682.942 8      1726.878          48.250    20735657.180   110960682.954 7      1726.878          47.937    20735668.520    86302804.276 8      1343.128          49.875    20735668.000    86302803.277 8      1343.128          49.000
R05  22973534.680   122806712.209 7      1976.340          42.312    22973534.200   122806712.216 7      1976.340          42.187    22973549.760    95516389.127 7      1537.153          43.000    22973548.880    95516391.123 7      1537.153          43.875
R10  22138552.780   118010931.496 6     -1671.576          40.937    22138551.120   118010931.513 6     -1671.576          40.687
G02  21680367.100   113931098.114 7      3084.131          46.562    21680365.560   113931098.121 6      3084.131          37.687    21680368.960    88777487.043 6      2403.219          37.437
G27  21687103.420   113966487.475 7      1152.115          46.187    21687101.940   113966487.480 7      1152.115          46.500    21687110.300    88805087.430 7       897.752          46.437    21687109.260    88805084.431 7       897.752          47.750
G21  20742985.480   109005124.992 7      2106.469          47.875    20742983.980   109005124.994 6      2106.469          39.250    20742988.380    84939070.394 6      1641.404          39.312
G26  25308488.380   132997011.681 6     -1132.292          41.250    25308488.420   132997011.683 5     -1132.292          35.687    25308508.960   103634115.910 5      -882.306          35.750    25308509.320   103634113.924 6      -882.306          41.750
G03  24286308.840   127625415.571 6      6246.044          39.312    24286307.460   127625415.574 4      6246.044          29.062    24286328.360    99448428.043 4      4867.047          29.250    24286329.780    99448460.040 7      4867.047          45.875
G08  20843844.360   109535141.579 8      2852.621          49.500    20843844.440   109535141.581 8      2852.621          49.687    20843851.580    85352086.765 8      2222.821          50.000    20843851.320    85352084.766 8      2222.821          50.687
R11  19913541.720   106411931.680 8      1420.665          48.375    19913541.300   106411931.686 7      1420.665          47.500    19913551.480    82764870.188 8      1104.962          51.937    19913550.920    82764868.184 8      1104.962          52.125
G16  22445925.980   117954127.436 7      -589.756          46.062    22445924.340   117954127.443 5      -589.756          35.687    22445934.920    91912336.639 5      -459.551          35.437
> 2024 05 08 13 30 47.0000000  0 14
R22  21935763.920   117094600.719 6      3735.242          41.125    21935763.740   117094600.736 6      3735.242          41.562    21935774.480    91073625.989 7      2905.189          42.875    21935774.740    91073624.995 7      2905.189          42.687
R12  22478547.680   120076374.919 6      5484.409          38.875    22478549.140   120076374.926 6      5484.409          38.875    22478559.540    93392775.632 6      4265.652          40.250    22478559.600    93392778.630 6      4265.652          40.062
G10  23061326.140   121188090.423 7       233.171          46.312    23061324.560   121188090.425 7       233.171          44.187    23061334.220    94432308.080 7       181.692          44.437    23061334.440    94432311.088 7       181.692          46.375
R21  20735334.200   110958956.197 8      1726.589          48.500    20735334.480   110958956.210 7      1726.589          47.812    20735345.660    86301461.248 8      1342.902          49.875    20735345.180    86301460.245 8      1342.902          49.500
R05  22973164.920   122804736.411 7      1975.423          43.312    22973164.960   122804736.420 7      1975.423          42.500    22973180.060    95514852.395 7      1536.440          43.625    22973179.740    95514854.391 7      1536.440          43.625
R10  22138866.280   118012603.110 6     -1671.905          40.937    22138865.040   118012603.132 6     -1671.905          40.687
G02  21679780.260   113928014.243 7      3083.664          47.187    21679778.900   113928014.251 6      3083.664          37.625    21679782.200    88775084.029 6      2402.855          37.437
G27  21686884.420   113965335.560 7      1151.657          46.000    21686882.860   113965335.571 7      1151.657          46.937    21686891.100    88804189.835 7       897.395          46.937    21686890.180    88804186.839 8       897.395          48.312
G21  20742584.900   109003018.836 7      2105.908          47.312    20742583.240   109003018.839 6      2105.908          39.812    20742587.700    84937429.234 6      1640.967          39.812
G26  25308704.460   132998143.910 6     -1132.279          40.250    25308703.780   132998143.912 5     -1132.279          35.375    25308724.440   103634998.167 5      -882.295          35.500    25308724.620   103634996.177 6      -882.295          41.750
G03  24285119.500   127619169.733 6      6245.830          40.312    24285118.800   127619169.735 4      6245.830          29.062    24285139.740    99443561.158 4      4866.880          29.250    24285141.060    99443593.147 7      4866.880          45.812
G08  20843301.660   109532289.245 8      2852.138          48.812    20843301.620   109532289.250 8      2852.138          49.625    20843308.780    85349864.167 8      2222.445          50.000    20843308.520    85349862.169 8      2222.445          50.812
R11  19913276.240   106410511.664 8      1419.468          49.187    19913275.700   106410511.668 8      1419.468          48.375    19913285.580    82763765.734 8      1104.030          52.312    19913285.320    82763763.729 8      1104.030          52.937
G16  22446038.200   117954717.448 7      -590.209          45.750    22446036.460   117954717.455 5      -590.209          35.812    22446047.180    91912796.374 5      -459.903          35.750
> 2024 05 08 13 30 48.0000000  0 14
R22  21935064.800   117090865.569 6      3735.143          41.062    21935063.440   117090865.575 6      3735.143          41.562    21935074.700    91070720.870 7      2905.111          42.687    21935074.740    91070719.876 7      2905.111          42.687
R12  22477521.200   120070890.894 6      5483.693          38.875    22477521.900   120070890.890 6      5483.693          38.875    22477532.900    93388510.275 6      4265.095          40.250    22477532.620    93388513.282 6      4265.095          39.812
G10  23061281.780   121187857.696 7       232.529          45.687    23061280.280   121187857.701 7       232.529          44.375    23061290.000    94432126.735 7       181.192          43.937    23061290.220    94432129.738 7       181.192          46.437
R21  20735011.480   110957229.726 8      1726.416          48.750    20735011.660   110957229.738 8      1726.416          48.562    20735023.060    86300118.437 8      1342.768          49.812    20735022.460    86300117.432 8      1342.768          49.312
R05  22972795.260   122802761.577 7      1974.482          43.312    22972795.400   122802761.591 7      1974.482          42.500    22972810.440    95513316.411 7      1535.708          44.125    22972810.240    95513318.411 7      1535.708          43.625
R10  22139179.980   118014275.153 6     -1672.126          41.437    22139178.400   118014275.159 6     -1672.126          40.687
G02  21679193.620   113924930.872 8      3083.213          48.000    21679192.060   113924930.877 6      3083.213          38.125    21679195.460    88772681.402 6      2402.504          38.187
G27  21686665.220   113964184.035 7      1151.458          46.812    21686663.600   113964184.043 7      1151.458          46.750    21686671.960    88803292.534 7       897.240          47.000    21686670.780    88803289.535 7       897.240          47.875
G21  20742184.020   109000913.175 8      2105.507          48.125    20742182.560   109000913.180 6      2105.507          39.375    20742186.980    84935788.461 6      1640.655          39.312
G26  25308919.800   132999276.320 6     -1132.366          40.562    25308919.120   132999276.317 5     -1132.366          35.375    25308940.000   103635880.566 5      -882.363          35.375    25308940.020   103635878.574 7      -882.363          42.250
G03  24283931.240   127612924.092 6      6245.579          40.562    24283930.280   127612924.094 4      6245.579          28.500    24283951.180    99438694.422 4      4866.685          28.500    24283952.400    99438726.430 7      4866.685          45.687
G08  20842759.000   109529437.285 8      2851.830          49.312    20842758.940   109529437.295 8      2851.830          49.375    20842766.080    85347641.862 8      2222.205          49.875    20842765.640    85347639.868 8      2222.205          50.812
R11  19913010.740   106409092.683 8      1418.542          49.000    19913010.140   106409092.684 8      1418.542          48.687    19913020.100    82762662.072 8      1103.311          52.500    19913019.720    82762660.069 8      1103.311          52.375
G16  22446150.600   117955307.974 7      -590.723          45.687    22446148.880   117955307.977 5      -590.723          35.750    22446159.680    91913256.511 5      -460.304          35.750
> 2024 05 08 13 30 49.0000000  0 14
R22  21934364.740   117087130.520 6      3735.155          41.062    21934363.340   117087130.521 6      3735.155          41.187    21934374.640    91067815.828 7      2905.121          42.687    21934375.200    91067814.832 7      2905.121          42.812
R12  22476494.280   120065407.259 6      5483.636          38.875    22476494.520   120065407.276 6      5483.636          38.875    22476506.100    93384245.236 6      4265.050          40.250    22476505.920    93384248.249 6      4265.050          39.812
G10  23061237.560   121187625.252 7       232.538          47.000    23061236.080   121187625.249 7       232.538          44.312    23061245.820    94431945.598 7       181.199          44.375    23061245.900    94431948.601 7       181.199          46.125
R21  20734688.440   110955503.190 8      1726.814          48.562    20734689.020   110955503.205 8      1726.814          48.062    20734700.360    86298775.576 8      1343.077          50.125    20734699.780    86298774.569 8      1343.077          49.625
R05  22972425.960   122800787.355 7      1974.164          42.937    22972425.820   122800787.367 7      1974.164          42.500    22972441.080    95511780.907 7      1535.461          43.812    22972440.880    95511782.905 7      1535.461          43.250
R10  22139493.560   118015947.273 6     -1672.035          41.437    22139492.200   118015947.277 6     -1672.035          40.187
G02  21678606.880   113921847.635 8      3083.341          48.125    21678605.380   113921847.643 6      3083.341          38.062    21678608.600    88770278.880 6      2402.603          38.000
G27  21686446.240   113963032.594 7      1151.596          47.125    21686444.480   113963032.599 7      1151.596          47.062    21686452.760    88802395.299 7       897.348          46.500    21686451.600    88802392.304 7       897.348          47.562
G21  20741783.220   108998807.701 7      2105.591          47.750    20741781.760   108998807.703 6      2105.591          39.937    20741786.320    84934147.832 6      1640.720          39.687
G26  25309135.260   133000408.591 6     -1132.131          40.812    25309134.480   133000408.596 5     -1132.131          35.500    25309155.360   103636762.865 5      -882.180          35.375    25309155.440   103636760.871 7      -882.180          42.375
G03  24282742.700   127606678.304 6      6246.230          40.437    24282741.860   127606678.306 4      6246.230          28.500    24282762.640    99433827.570 4      4867.192          28.500    24282763.700    99433859.571 7      4867.192          45.812
G08  20842216.160   109526585.377 8      2852.034          48.562    20842216.140   109526585.385 8      2852.034          50.000    20842223.360    85345419.595 8      2222.364          50.437    20842223.180    85345417.601 8      2222.364          50.437
R11  19912745.160   106407674.396 8      1418.116          49.000    19912744.740   106407674.398 8      1418.116          48.062    19912754.720    82761558.950 8      1102.979          52.375    19912754.160    82761556.947 8      1102.979          52.812
G16  22446263.220   117955898.638 7      -590.582          46.500    22446261.220   117955898.643 5      -590.582          35.750    22446272.080    91913716.755 5      -460.194          35.875
> 2024 05 08 13 30 50.0000000  0 14
R22  21933665.040   117083395.370 6      3734.879          39.312    21933664.300   117083395.378 6      3734.879          41.187    21933675.100    91064910.700 7      2904.906          42.375    21933675.280    91064909.690 7      2904.906          42.625
R12  22475468.320   120059923.939 6      5482.911          38.875    22475468.820   120059923.956 6      5482.911          38.875    22475479.740    93379980.444 6      4264.486          40.250    22475479.620    93379983.444 6      4264.486          40.062
G10  23061193.320   121187393.011 7       231.941          45.312    23061191.840   121187393.014 7       231.941          44.000    23061201.640    94431764.631 7       180.733          43.937    23061202.020    94431767.636 7       180.733          46.500
R21  20734366.200   110953776.533 7      1726.531          47.062    20734366.220   110953776.554 7      1726.531          47.812    20734377.800    86297432.619 8      1342.857          50.062    20734377.320    86297431.618 8      1342.857          49.750
R05  22972056.700   122798813.649 7      1973.288          42.750    22972056.560   122798813.656 7      1973.288          42.687    22972071.900    95510245.794 7      1534.780          43.437    22972071.840    95510247.790 7      1534.780          43.375
R10  22139807.460   118017619.316 6     -1672.215          41.625    22139805.880   118017619.333 6     -1672.215          40.187
G02  21678020.180   113918764.456 7      3082.963          47.750    21678018.700   113918764.464 6      3082.963          37.875    21678021.900    88767876.405 6      2402.308          37.750
G27  21686227.100   113961881.102 7      1151.282          47.187    21686225.540   113961881.102 7      1151.282          46.937    21686233.760    88801498.025 7       897.103          46.875    21686232.680    88801495.027 7       897.103          47.875
G21  20741382.760   108996702.302 8      2105.210          48.125    20741381.160   108996702.307 6      2105.210          39.375    20741385.620    84932507.257 6      1640.423          39.312
G26  25309350.660   133001540.576 6     -1132.101          40.500    25309350.000   133001540.575 5     -1132.101          35.500    25309370.880   103637644.929 5      -882.157          35.000    25309371.180   103637642.931 7      -882.157          42.375
G03  24281554.240   127600432.326 6      6245.928          40.750    24281553.420   127600432.323 4      6245.928          28.500    24281573.980    99428960.573 4      4866.957          28.500    24281575.400    99428992.580 7      4866.957          45.937
G08  20841673.460   109523733.420 8      2851.824          49.312    20841673.580   109523733.422 8      2851.824          49.812    20841680.720    85343197.284 8      2222.200          49.812    20841680.420    85343195.288 8      2222.200          50.625
R11  19912480.060   106406256.730 8      1417.139          49.187    19912479.520   106406256.742 8      1417.139          48.187    19912489.460    82760456.328 8      1102.219          52.625    19912489.000    82760454.328 8      1102.219          52.500
G16  22446375.800   117956489.356 7      -590.860          44.687    22446373.620   117956489.358 5      -590.860          35.750    22446384.380    91914177.041 5      -460.410          35.687
> 2024 05 08 13 30 51.0000000  0 14
R22  21932964.920   117079660.417 6      3734.841          39.312    21932964.720   117079660.418 6      3734.841          41.375    21932975.580    91062005.714 7      2904.876          43.062    21932975.940    91062004.713 7      2904.876          42.562
R12  22474442.020   120054441.172 6      5482.361          39.000    22474442.360   120054441.184 6      5482.361          39.250    22474453.060    93375716.067 6      4264.059          40.187    22474453.640    93375719.072 6      4264.059          40.062
G10  23061149.340   121187161.228 7       231.466          45.062    23061147.720   121187161.235 7       231.466          44.312    23061157.540    94431584.020 7       180.363          44.250    23061157.780    94431587.030 7       180.363          46.250
R21  20734043.100   110952049.965 7      1726.494          47.187    20734043.620   110952049.983 7      1726.494          47.625    20734055.160    86296089.732 8      1342.829          49.687    20734054.580    86296088.728 8      1342.829          50.062
R05  22971687.760   122796840.681 7      1972.592          42.750    22971688.040   122796840.696 7      1972.592          42.875    22971702.780    95508711.267 7      1534.238          43.562    22971702.880    95508713.262 7      1534.238          44.000
R10  22140121.400   118019291.618 6     -1672.347          41.625    22140119.780   118019291.613 6     -1672.347          40.750
G02  21677433.560   113915681.587 7      3082.630          47.375    21677432.040   113915681.597 6      3082.630          38.187    21677435.240    88765474.171 6      2402.049          38.062
G27  21686008.040   113960729.824 7      1151.168          47.312    21686006.380   113960729.826 7      1151.168          47.250    21686014.600    88800600.924 7       897.014          47.375    21686013.640    88800597.925 7       897.014          47.875
G21  20740982.180   108994597.237 7      2104.883          47.875    20740980.500   108994597.242 6      2104.883          38.875    20740984.940    84930866.945 6      1640.169          39.187
G26  25309565.780   133002672.552 6     -1132.114          40.250    25309565.380   133002672.555 5     -1132.114          35.187    25309586.280   103638526.993 5      -882.167          35.000    25309586.640   103638524.995 7      -882.167          42.187
G03  24280365.960   127594186.341 6      6245.950          40.687    24280364.860   127594186.343 4      6245.950          28.500    24280385.500    99424093.573 4      4866.974          28.500    24280386.740    99424125.578 7      4866.974          45.687
G08  20841130.920   109520881.672 8      2851.653          49.937    20841130.880   109520881.677 8      2851.653          49.562    20841138.040    85340975.141 8      2222.067          49.812    20841137.540    85340973.143 8      2222.067          50.687
R11  19912214.800   106404839.937 8      1416.292          49.562    19912214.520   106404839.948 8      1416.292          48.812    19912224.360    82759354.372 8      1101.560          52.562    19912223.740    82759352.373 8      1101.560          52.812
G16  22446488.040   117957080.406 7      -591.208          45.187    22446486.040   117957080.416 5      -591.208          35.812    22446496.880    91914637.589 5      -460.681          35.437
> 2024 05 08 13 30 52.0000000  0 14
R22  21932265.260   117075925.555 6      3734.791          41.250    21932265.040   117075925.556 6      3734.791          41.375    21932275.620    91059100.830 7      2904.837          43.000    21932276.320    91059099.824 7      2904.837          42.750
R12  22473415.660   120048958.870 6      5482.105          39.000    22473415.800   120048958.855 6      5482.105          39.250    22473426.800    93371452.030 6      4263.859          40.187    22473427.520    93371455.040 6      4263.859          40.125
G10  23061104.900   121186929.759 7       231.243          46.250    23061103.660   121186929.764 7       231.243          44.125    23061113.420    94431403.653 7       180.189          43.937    23061113.500    94431406.658 7       180.189          46.687
R21  20733720.300   110950323.357 8      1726.624          48.812    20733720.760   110950323.378 8      1726.624          48.062    20733732.340    86294746.813 8      1342.930          50.312    20733731.880    86294745.810 8      1342.930          49.937
R05  22971319.060   122794868.373 7      1971.946          42.625    22971318.340   122794868.388 7      1971.946          42.875    22971333.840    95507177.252 7      1533.736          43.687    22971334.040    95507179.242 7      1533.736          44.312
R10  22140435.160   118020964.013 6     -1672.502          41.937    22140432.720   118020964.018 6     -1672.502          40.750
G02  21676847.000   113912598.883 7      3082.595          47.250    21676845.320   113912598.888 6      3082.595          37.625    21676848.660    88763072.062 6      2402.022          37.562
G27  21685788.740   113959578.643 7      1151.099          46.500    21685787.340   113959578.645 7      1151.099          47.125    21685795.560    88799703.892 7       896.961          47.000    21685794.340    88799700.899 8       896.961          48.250
G21  20740581.680   108992492.391 7      2104.729          47.937    20740580.060   108992492.393 6      2104.729          39.500    20740584.420    84929226.807 6      1640.049          39.375
G26  25309781.240   133003804.390 6     -1131.796          40.312    25309780.880   133003804.389 5     -1131.796          34.875    25309801.560   103639408.946 5      -881.919          35.000    25309801.900   103639406.948 7      -881.919          42.187
G03  24279176.760   127587940.271 6      6246.028          41.125    24279176.200   127587940.274 4      6246.028          28.500    24279196.740    99419226.508 4      4867.035          28.937    24279198.160    99419258.511 7      4867.035          45.875
G08  20840588.240   109518030.009 8      2851.596          49.812    20840588.180   109518030.014 8      2851.596          49.875    20840595.300    85338753.065 8      2222.023          50.250    20840594.960    85338751.069 8      2222.023          50.750
R11  19911949.880   106403423.886 8      1415.587          50.000    19911949.320   106403423.893 8      1415.587          48.937    19911959.340    82758252.993 8      1101.012          52.250    19911958.860    82758250.995 8      1101.012          53.687
G16  22446600.320   117957671.653 7      -591.392          45.562    22446598.600   117957671.660 5      -591.392          35.625    22446609.740    91915098.285 5      -460.825          35.500
> 2024 05 08 13 30 53.0000000  0 14
R22  21931565.680   117072191.029 6      3734.200          41.250    21931565.600   117072191.033 6      3734.200          41.000    21931576.280    91056196.218 7      2904.378          42.687    21931576.540    91056195.218 7      2904.378          43.062
R12  22472389.020   120043477.256 6      5481.201          39.000    22472389.320   120043477.249 6      5481.201          39.250    22472400.840    93367188.565 6      4263.157          40.250    22472401.280    93367191.570 6      4263.157          40.125
G10  23061061.040   121186698.895 7       230.344          45.937    23061059.700   121186698.902 7       230.344          43.875    23061069.540    94431223.761 7       179.489          43.687    23061069.400    94431226.766 7       179.489          46.125
R21  20733397.780   110948596.993 8      1726.208          48.375    20733398.320   110948597.021 8      1726.208          48.125    20733409.840    86293404.089 8      1342.606          49.312    20733409.420    86293403.084 8      1342.606          49.687
R05  22970950.180   122792896.987 7      1970.796          42.687    22970949.540   122792897.002 7      1970.796          42.437    22970965.420    95505643.950 7      1532.841          43.500    22970965.200    95505645.944 7      1532.841          43.812
R10  22140749.380   118022636.791 6     -1673.019          41.937    22140746.860   118022636.784 6     -1673.019          40.812
G02  21676260.360   113909516.624 7      3081.950          47.375    21676258.660   113909516.634 6      3081.950          37.562    21676262.080    88760670.303 6      2401.520          37.625
G27  21685569.780   113958427.793 7      1150.554          46.062    21685568.480   113958427.798 7      1150.554          46.687    21685576.500    88798807.126 7       896.536          46.562    21685575.520    88798804.130 7       896.536          47.937
G21  20740181.180   108990388.007 8      2104.092          48.062    20740179.620   108990388.011 6      2104.092          39.687    20740183.880    84927587.027 6      1639.553          39.312
G26  25309996.640   133004936.364 6     -1132.153          39.812    25309996.380   133004936.361 5     -1132.153          34.875    25310016.820   103640291.002 5      -882.197          34.500    25310017.140   103640289.002 7      -882.197          42.000
G03  24277987.900   127581694.333 6      6245.764          40.875    24277987.600   127581694.341 4      6245.764          29.250    24278008.340    99414359.545 4      4866.829          28.937    24278009.280    99414391.547 7      4866.829          45.875
G08  20840045.560   109515178.671 8      2851.065          49.625    20840045.620   109515178.676 8      2851.065          49.750    20840052.800    85336531.242 8      2221.609          50.375    20840052.500    85336529.246 8      2221.609          50.250
R11  19911684.980   106402008.819 8      1414.447          49.687    19911684.760   106402008.831 8      1414.447          48.437    19911694.500    82757152.385 8      1100.126          52.625    19911694.140    82757150.385 8      1100.126          53.062
G16  22446713.020   117958263.317 7      -592.000          45.812    22446711.280   117958263.324 5      -592.000          35.750    22446722.320    91915559.312 5      -461.299          35.500
> 2024 05 08 13 30 54.0000000  0 14
R22  21930866.260   117068456.546 6      3734.651          41.687    21930866.140   117068456.550 6      3734.651          41.250    21930876.820    91053291.630 7      2904.729          43.062    21930877.080    91053290.635 7      2904.729          42.875
R12  22471363.580   120037996.092 6      5481.178          39.062    22471364.020   120037996.077 6      5481.178          39.125    22471374.720    93362925.429 6      4263.139          40.062    22471375.320    93362928.431 6      4263.139          39.937
G10  23061017.060   121186468.317 7       230.624          45.437    23061015.760   121186468.319 7       230.624          44.625    23061025.720    94431044.081 7       179.707          44.500    23061025.540    94431047.083 7       179.707          46.250
R21  20733074.940   110946870.604 8      1726.505          48.500    20733075.660   110946870.627 8      1726.505          48.187    20733087.220    86292061.336 8      1342.837          49.312    20733086.700    86292060.337 8      1342.837          49.125
R05  22970581.840   122790926.197 7      1970.726          43.562    22970580.720   122790926.209 7      1970.726          42.375    22970596.640    95504111.111 7      1532.787          43.312    22970596.540    95504113.106 7      1532.787          43.312
R10  22141062.960   118024309.642 6     -1672.715          41.562    22141060.960   118024309.645 6     -1672.715          40.812
G02  21675673.760   113906434.524 7      3082.191          47.500    21675672.240   113906434.532 6      3082.191          37.750    21675675.520    88758268.666 6      2401.707          37.500
G27  21685350.800   113957277.029 7      1150.859          46.687    21685349.400   113957277.034 7      1150.859          46.750    21685357.500    88797910.421 7       896.773          46.687    21685356.580    88797907.424 7       896.773          47.562
G21  20739780.900   108988283.817 8      2104.292          48.250    20739779.200   108988283.819 6      2104.292          39.562    20739783.500    84925947.397 6      1639.708          39.250
G26  25310211.880   133006068.165 6     -1131.590          40.062    25310211.700   133006068.156 5     -1131.590          34.687    25310232.320   103641172.923 5      -881.758          34.625    25310232.700   103641170.922 7      -881.758          42.000
G03  24276799.540   127575448.290 6      6246.189          41.250    24276798.960   127575448.292 4      6246.189          29.250    24276819.660    99409492.499 4      4867.160          28.937    24276820.620    99409524.508 7      4867.160          45.687
G08  20839502.900   109512327.407 8      2851.314          49.625    20839502.980   109512327.412 8      2851.314          49.250    20839510.180    85334309.478 8      2221.803          49.187    20839509.900    85334307.482 8      2221.803          50.250
R11  19911420.140   106400594.474 8      1414.148          48.875    19911419.940   106400594.486 8      1414.148          48.437    19911429.820    82756052.343 8      1099.893          51.062    19911429.380    82756050.340 8      1099.893          51.625
G16  22446825.800   117958855.168 7      -591.841          46.250    22446823.840   117958855.181 5      -591.841          35.750    22446835.020    91916020.486 5      -461.174          35.562
> 2024 05 08 13 30 55.0000000  0 14
R22  21930166.280   117064722.167 7      3734.183          42.250    21930167.320   117064722.163 6      3734.183          41.250    21930177.120    91050387.107 7      2904.364          42.562    21930177.480    91050386.116 7      2904.364          43.187
R12  22470337.700   120032515.352 6      5480.362          39.062    22470337.880   120032515.345 6      5480.362          39.125    22470348.240    93358662.631 6      4262.504          40.062    22470349.140    93358665.636 6      4262.504          40.312
G10  23060973.360   121186238.081 7       229.882          46.000    23060972.020   121186238.086 7       229.882          44.250    23060981.780    94430864.676 7       179.129          44.250    23060981.680    94430867.680 7       179.129          46.250
R21  20732751.900   110945144.138 8      1726.407          48.375    20732752.900   110945144.158 8      1726.407          48.000    20732764.720    86290718.525 8      1342.761          49.062    20732764.480    86290717.522 8      1342.761          49.500
R05  22970213.700   122788956.070 7      1969.717          43.562    22970212.500   122788956.069 7      1969.717          42.375    22970227.920    95502578.784 7      1532.002          43.437    22970227.920    95502580.782 7      1532.002          43.625
R10  22141376.860   118025982.604 6     -1672.984          41.562    22141374.480   118025982.589 6     -1672.984          40.875
G02  21675087.140   113903352.585 7      3081.758          46.687    21675085.760   113903352.593 6      3081.758          37.062    21675089.000    88755867.159 6      2401.370          37.687
G27  21685131.760   113956126.342 7      1150.438          47.125    21685130.520   113956126.344 7      1150.438          46.625    21685138.560    88797013.777 7       896.445          46.500    21685137.680    88797010.784 7       896.445          47.562
G21  20739380.600   108986179.811 8      2103.792          48.187    20739378.840   108986179.816 6      2103.792          39.062    20739383.160    84924307.914 6      1639.319          39.000
G26  25310427.240   133007199.826 6     -1131.746          38.937    25310427.080   133007199.823 5     -1131.746          35.187    25310447.780   103642054.737 5      -881.880          34.625    25310448.260   103642052.743 7      -881.880          42.000
G03  24275610.880   127569202.115 6      6246.020          41.562    24275610.440   127569202.118 4      6246.020          29.250    24275631.140    99404625.356 4      4867.029          28.937    24275631.760    99404657.367 7      4867.029          45.312
G08  20838960.300   109509476.206 8      2851.016          49.625    20838960.600   109509476.211 8      2851.016          49.312    20838967.620    85332087.761 8      2221.571          48.937    20838967.320    85332085.765 8      2221.571          49.875
R11  19911155.900   106399180.868 8      1413.058          49.062    19911155.740   106399180.877 8      1413.058          48.062    19911165.180    82754952.866 8      1099.045          50.250    19911165.040    82754950.861 8      1099.045          51.062
G16  22446938.460   117959447.195 7      -592.153          46.250    22446936.520   117959447.202 6      -592.153          36.125    22446947.580    91916481.789 6      -461.418          36.250
> 2024 05 08 13 30 56.0000000  0 14
R22  21929467.020   117060988.048 7      3733.852          42.250    21929467.480   117060988.046 6      3733.852          41.625    21929477.700    91047482.802 7      2904.107          42.937    21929477.920    91047481.813 7      2904.107          43.125
R12  22469311.400   120027035.216 6      5479.807          39.062    22469311.640   120027035.217 6      5479.807          39.125    22469322.760    93354400.317 6      4262.072          40.000    22469323.340    93354403.322 6      4262.072          40.312
G10  23060929.520   121186008.359 7       229.355          45.687    23060928.360   121186008.364 7       229.355          44.125    23060938.180    94430685.667 7       178.718          44.312    23060937.780    94430688.673 7       178.718          46.625
R21  20732429.620   110943417.877 8      1726.058          48.437    20732430.420   110943417.900 8      1726.058          48.437    20732441.960    86289375.880 8      1342.489          49.812    20732441.720    86289374.875 8      1342.489          50.000
R05  22969845.240   122786986.785 7      1968.642          43.312    22969844.240   122786986.789 7      1968.642          42.812    22969859.860    95501047.128 7      1531.166          43.562    22969859.340    95501049.114 7      1531.166          43.750
R10  22141690.540   118027655.876 6     -1673.462          41.625    22141688.840   118027655.874 6     -1673.462          40.875
G02  21674501.040   113900271.048 7      3081.266          46.437    21674499.380   113900271.056 6      3081.266          37.687    21674502.820    88753465.959 6      2400.986          37.500
G27  21684912.940   113954975.957 7      1150.133          47.125    21684911.580   113954975.959 7      1150.133          46.687    21684919.660    88796117.371 7       896.208          46.812    21684918.660    88796114.374 7       896.208          47.625
G21  20738980.060   108984076.228 7      2103.311          47.312    20738978.440   108984076.233 6      2103.311          39.125    20738982.760    84922668.758 6      1638.944          39.000
G26  25310643.060   133008331.566 6     -1131.933          39.875    25310642.500   133008331.563 5     -1131.933          35.187    25310663.320   103642936.616 5      -882.026          35.312    25310663.620   103642934.628 7      -882.026          42.187
G03  24274422.400   127562956.077 6      6245.908          41.000    24274421.900   127562956.080 4      6245.908          29.250    24274442.560    99399758.315 4      4866.941          28.937    24274443.560    99399790.319 7      4866.941          45.562
G08  20838417.960   109506625.297 8      2850.606          49.562    20838418.040   109506625.304 8      2850.606          49.875    20838425.060    85329866.273 8      2221.252          49.625    20838424.840    85329864.277 8      2221.252          50.875
R11  19910891.300   106397768.230 8      1412.071          49.625    19910891.100   106397768.231 8      1412.071          48.500    19910900.840    82753854.135 8      1098.277          51.937    19910900.740    82753852.130 8      1098.277          52.500
G16  22447051.060   117960039.650 7      -592.817          46.250    22447049.280   117960039.658 6      -592.817          36.187    22447060.220    91916943.426 5      -461.935          35.875
> 2024 05 08 13 30 57.0000000  0 14
R22  21928767.500   117057254.144 7      3734.075          42.625    21928768.220   117057254.139 6      3734.075          41.625    21928777.820    91044578.646 7      2904.280          42.687    21928778.360    91044577.657 7      2904.280          42.437
R12  22468285.780   120021555.712 6      5479.334          39.062    22468285.960   120021555.724 6      5479.334          39.125    22468297.040    93350138.490 6      4261.704          40.000    22468297.720    93350141.499 6      4261.704          41.000
G10  23060886.040   121185779.124 7       229.251          45.125    23060884.640   121185779.127 7       229.251          44.125    23060894.620    94430507.040 7       178.637          43.937    23060894.360    94430510.040 7       178.637          46.125
R21  20732107.080   110941691.756 8      1726.288          48.500    20732107.840   110941691.776 8      1726.288          48.187    20732119.400    86288033.339 8      1342.669          48.437    20732119.300    86288032.332 8      1342.669          48.250
R05  22969476.920   122785018.278 7      1968.345          43.000    22969475.700   122785018.274 7      1968.345          42.937    22969491.280    95499516.059 7      1530.935          43.687    22969491.120    95499518.051 7      1530.935          44.125
R10  22142004.880   118029329.403 6     -1673.298          41.625    22142002.400   118029329.398 6     -1673.298          40.875
G02  21673914.560   113897189.829 7      3081.282          46.375    21673913.000   113897189.837 6      3081.282          37.750    21673916.500    88751065.009 6      2400.999          37.437
G27  21684694.300   113953825.806 7      1150.327          46.875    21684692.780   113953825.805 7      1150.327          46.937    21684700.800    88795221.143 7       896.359          46.500    21684699.680    88795218.148 8       896.359          48.000
G21  20738579.780   108981972.984 7      2103.327          47.562    20738578.280   108981972.989 6      2103.327          39.687    20738582.560    84921029.865 6      1638.956          39.250
G26  25310858.140   133009463.280 6     -1131.388          40.062    25310857.800   133009463.282 5     -1131.388          35.250    25310878.640   103643818.481 5      -881.601          35.000    25310879.000   103643816.490 7      -881.601          42.187
G03  24273234.080   127556710.076 6      6246.161          40.375    24273233.220   127556710.079 4      6246.161          29.000    24273254.140    99394891.305 4      4867.139          28.875    24273255.140    99394923.313 7      4867.139          45.625
G08  20837875.520   109503774.593 8      2850.856          48.250    20837875.540   109503774.600 8      2850.856          48.812    20837882.600    85327644.945 8      2221.446          49.062    20837882.520    85327642.947 8      2221.446          49.812
R11  19910627.080   106396356.487 8      1411.517          49.750    19910627.000   106396356.488 8      1411.517          48.437    19910636.680    82752756.108 8      1097.847          50.625    19910636.320    82752754.099 8      1097.847          51.375
G16  22447163.800   117960632.403 7      -592.661          45.812    22447162.000   117960632.413 5      -592.661          35.750    22447172.920    91917405.303 5      -461.813          35.875
> 2024 05 08 13 30 58.0000000  0 14
R22  21928068.380   117053520.307 7      3733.887          42.250    21928068.640   117053520.302 7      3733.887          42.000    21928077.880    91041674.547 7      2904.134          42.812    21928078.400    91041673.551 7      2904.134          42.250
R12  22467259.160   120016076.661 6      5478.788          39.125    22467260.620   120016076.659 6      5478.788          39.125    22467271.720    93345877.003 6      4261.279          40.125    22467272.000    93345880.005 6      4261.279          41.000
G10  23060842.400   121185550.189 7       228.854          46.125    23060841.160   121185550.186 7       228.854          44.250    23060851.060    94430328.638 7       178.328          44.062    23060850.760    94430331.642 7       178.328          45.937
R21  20731784.340   110939965.560 7      1726.299          47.812    20731785.420   110939965.572 7      1726.299          47.812    20731796.820    86286690.732 8      1342.677          49.687    20731796.820    86286689.729 8      1342.677          49.812
R05  22969109.040   122783050.396 7      1967.651          43.000    22969107.380   122783050.403 7      1967.651          42.937    22969123.080    95497985.488 7      1530.395          43.750    22969123.240    95497987.480 7      1530.395          44.312
R10  22142319.240   118031003.027 6     -1673.532          41.500    22142316.800   118031003.014 6     -1673.532          40.875
G02  21673328.240   113894108.760 7      3081.052          46.437    21673326.760   113894108.767 6      3081.052          37.437    21673330.120    88748664.176 6      2400.820          37.250
G27  21684475.540   113952675.715 7      1150.130          47.312    21684473.840   113952675.722 7      1150.130          46.812    21684481.940    88794324.967 7       896.205          46.687    21684480.960    88794321.969 8       896.205          48.250
G21  20738179.780   108979869.917 7      2103.091          47.625    20738178.120   108979869.919 6      2103.091          39.312    20738182.480    84919391.104 6      1638.772          39.437
G26  25311073.480   133010594.894 6     -1131.485          39.562    25311073.140   133010594.891 5     -1131.485          34.812    25311093.980   103644700.255 5      -881.677          35.000    25311094.320   103644698.259 6      -881.677          41.812
G03  24272045.780   127550463.933 6      6246.280          40.937    24272044.500   127550463.936 4      6246.280          29.000    24272065.460    99390024.181 4      4867.231          28.875    24272066.400    99390056.186 7      4867.231          45.625
G08  20837332.960   109500923.967 8      2850.658          48.937    20837333.120   109500923.969 8      2850.658          49.812    20837340.160    85325423.672 8      2221.292          50.125    20837340.080    85325421.674 8      2221.292          50.687
R11  19910363.340   106394945.459 8      1410.773          49.625    19910362.960   106394945.461 8      1410.773          48.937    19910372.600    82751658.634 8      1097.268          51.875    19910372.080    82751656.627 8      1097.268          52.625
G16  22447276.540   117961225.331 7      -592.915          45.562    22447274.800   117961225.341 5      -592.915          35.687    22447285.860    91917867.311 5      -462.011          35.875
> 2024 05 08 13 30 59.0000000  0 14
R22  21927368.600   117049786.456 7      3733.792          42.250    21927369.000   117049786.460 6      3733.792          41.875    21927378.620    91038770.447 7      2904.060          42.500    21927379.300    91038769.460 7      2904.060          42.250
R12  22466233.840   120010598.001 6      5478.478          39.125    22466234.680   120010597.989 6      5478.478          39.125    22466246.040    93341615.815 6      4261.039          40.125    22466246.720    93341618.812 6      4261.039          41.000
G10  23060798.920   121185321.487 7       228.603          45.312    23060797.600   121185321.489 7       228.603          44.437    23060807.520    94430150.431 7       178.132          44.250    23060807.420    94430153.435 7       178.132          46.187
R21  20731462.160   110938239.233 8      1726.335          48.125    20731462.740   110938239.248 8      1726.335          48.375    20731474.260    86285348.029 8      1342.705          50.312    20731474.080    86285347.030 8      1342.705          49.937
R05  22968740.440   122781083.110 7      1966.941          43.500    22968739.300   122781083.117 7      1966.941          43.250    22968755.380    95496455.385 7      1529.843          43.750    22968754.880    95496457.373 7      1529.843          43.812
R10  22142633.380   118032676.666 6     -1673.655          41.500    22142630.760   118032676.656 6     -1673.655          40.812
G02  21672742.100   113891027.803 7      3080.844          47.437    21672740.400   113891027.811 6      3080.844          37.250    21672743.880    88746263.426 6      2400.658          37.687
G27  21684256.620   113951525.664 7      1149.975          46.875    21684255.000   113951525.663 7      1149.975          47.312    21684263.100    88793428.813 7       896.085          47.062    21684262.320    88793425.815 7       896.085          47.812
G21  20737779.420   108977766.991 7      2102.781          47.937    20737777.860   108977766.993 6      2102.781          39.250    20737782.200    84917752.461 6      1638.531          39.562
G26  25311288.740   133011726.256 6     -1131.176          40.375    25311288.380   133011726.245 5     -1131.176          34.812    25311309.280   103645581.835 5      -881.436          34.812    25311310.120   103645579.841 6      -881.436          41.812
G03  24270856.780   127544217.625 6      6246.346          40.750    24270855.900   127544217.632 4      6246.346          29.000    24270876.740    99385156.930 4      4867.282          28.875    24270877.740    99385188.929 7      4867.282          45.750
G08  20836790.320   109498073.347 8      2850.580          50.062    20836790.640   109498073.349 8      2850.580          50.125    20836797.720    85323202.405 8      2221.231          50.375    20836797.460    85323200.411 8      2221.231          50.437
R11  19910099.180   106393535.100 8      1409.966          50.000    19910098.920   106393535.104 8      1409.966          48.750    19910108.520    82750561.688 8      1096.640          52.687    19910108.180    82750559.683 8      1096.640          52.562
G16  22447389.280   117961818.388 7      -593.218          45.625    22447387.820   117961818.398 6      -593.218          36.187    22447398.660    91918329.415 5      -462.248          35.937
> 2024 05 08 13 31  0.0000000  0 14
R22  21926669.340   117046052.769 7      3733.564          42.062    21926669.740   117046052.786 6      3733.564          41.875    21926678.620    91035866.482 7      2903.883          42.000    21926679.520    91035865.491 6      2903.883          41.875
R12  22465208.600   120005119.839 6      5478.018          39.125    22465209.740   120005119.832 6      5478.018          39.375    22465220.220    93337355.026 6      4260.681          40.062    22465221.140    93337358.023 6      4260.681          40.687
G10  23060755.520   121185093.219 7       228.145          45.625    23060754.200   121185093.224 7       228.145          44.312    23060764.180    94429972.560 7       177.775          44.312    23060764.380    94429975.564 7       177.775          46.437
R21  20731139.720   110936512.965 8      1726.305          48.375    20731140.140   110936512.974 7      1726.305          47.875    20731151.540    86284005.369 8      1342.682          49.687    20731151.320    86284004.368 8      1342.682          49.625
R05  22968372.440   122779116.549 7      1966.264          43.250    22968371.520   122779116.547 7      1966.264          43.062    22968387.660    95494925.829 7      1529.316          44.125    22968386.920    95494927.825 7      1529.316          43.937
R10  22142947.300   118034350.479 6     -1673.811          41.562    22142944.580   118034350.474 6     -1673.811          40.812
G02  21672155.720   113887947.102 7      3080.605          47.562    21672154.260   113887947.107 6      3080.605          37.812    21672157.680    88743862.880 6      2400.471          37.250
G27  21684037.620   113950375.762 7      1149.874          45.875    21684036.200   113950375.762 7      1149.874          46.812    21684044.280    88792532.779 7       896.006          47.312    21684043.440    88792529.784 7       896.006          47.625
G21  20737379.400   108975664.325 7      2102.651          47.062    20737377.820   108975664.324 6      2102.651          39.437    20737382.120    84916114.018 6      1638.429          39.437
G26  25311504.200   133012857.586 6     -1131.265          40.625    25311503.720   133012857.581 5     -1131.265          34.875    25311524.520   103646463.397 5      -881.506          34.812    25311524.800   103646461.406 6      -881.506          41.875
G03  24269668.200   127537971.314 6      6246.188          39.750    24269667.340   127537971.316 4      6246.188          29.000    24269688.040    99380289.676 4      4867.159          28.875    24269689.080    99380321.686 7      4867.159          45.562
G08  20836248.180   109495222.887 8      2850.387          49.125    20836248.220   109495222.892 8      2850.387          50.187    20836255.260    85320981.270 8      2221.081          50.437    20836255.300    85320979.274 8      2221.081          50.562
R11  19909835.400   106392125.559 8      1409.166          49.625    19909835.220   106392125.562 8      1409.166          48.187    19909844.740    82749465.376 8      1096.018          52.062    19909844.520    82749463.371 8      1096.018          52.625
G16  22447502.160   117962411.695 7      -593.304          45.500    22447500.780   117962411.702 6      -593.304          36.187    22447511.600    91918791.715 5      -462.315          35.875
> 2024 05 08 13 31  1.0000000  0 14
R22  21925969.980   117042319.409 6      3733.369          41.937    21925970.480   117042319.410 6      3733.369          41.375    21925979.400    91032962.746 7      2903.732          42.187    21925979.900    91032961.748 6      2903.732          41.562
R12  22464183.180   119999642.363 6      5477.345          39.250    22464184.100   119999642.369 6      5477.345          39.375    22464194.800    93333094.780 6      4260.157          40.125    22464195.540    93333097.774 6      4260.157          40.687
G10  23060712.220   121184865.534 7       227.547          45.812    23060710.920   121184865.533 7       227.547          44.250    23060720.780    94429795.139 7       177.309          44.250    23060720.740    94429798.143 7       177.309          46.812
R21  20730817.200   110934786.945 8      1725.998          48.000    20730817.700   110934786.960 8      1725.998          48.125    20730829.000    86282662.914 8      1342.443          49.812    20730828.860    86282661.913 8      1342.443          49.875
R05  22968004.640   122777150.888 7      1965.289          43.125    22968003.760   122777150.889 7      1965.289          43.062    22968019.680    95493396.988 7      1528.558          43.937    22968019.340    95493398.982 7      1528.558          44.625
R10  22143261.040   118036024.705 6     -1674.461          41.562    22143259.180   118036024.702 6     -1674.461          40.812
G02  21671569.520   113884866.829 7      3080.213          47.312    21671567.980   113884866.836 6      3080.213          37.937    21671571.340    88741462.665 6      2400.166          37.750
G27  21683818.740   113949226.223 7      1149.473          47.312    21683817.560   113949226.225 7      1149.473          46.937    21683825.480    88791637.036 7       895.693          46.937    21683824.920    88791634.035 7       895.693          47.937
G21  20736979.260   108973562.142 7      2102.078          47.187    20736977.720   108973562.142 6      2102.078          39.312    20736982.200    84914475.956 6      1637.983          39.750
G26  25311719.400   133013989.043 6     -1131.523          40.000    25311719.100   133013989.040 5     -1131.523          34.875    25311739.780   103647345.056 5      -881.706          34.625    25311740.540   103647343.064 7      -881.706          42.062
G03  24268479.560   127531725.097 6      6246.443          40.250    24268478.760   127531725.102 4      6246.443          28.937    24268499.440    99375422.498 4      4867.358          28.687    24268500.660    99375454.504 7      4867.358          45.750
G08  20835705.800   109492372.755 8      2850.146          49.312    20835705.900   109492372.755 8      2850.146          49.875    20835712.940    85318760.384 8      2220.893          50.125    20835712.720    85318758.388 8      2220.893          50.500
R11  19909571.760   106390716.998 8      1408.128          49.062    19909571.720   106390717.009 8      1408.128          48.687    19909581.120    82748369.832 8      1095.211          52.312    19909580.900    82748367.830 8      1095.211          52.750
G16  22447615.340   117963005.471 7      -593.890          44.875    22447613.820   117963005.484 5      -593.890          35.687    22447624.520    91919254.394 5      -462.772          35.437
> 2024 05 08 13 31  2.0000000  0 14
R22  21925270.340   117038586.232 6      3733.130          41.937    21925270.880   117038586.238 6      3733.130          41.375    21925280.240    91030059.165 7      2903.546          42.062    21925280.880    91030058.163 6      2903.546          41.625
R12  22463158.060   119994165.466 6      5476.600          39.250    22463158.860   119994165.478 6      5476.600          39.375    22463169.600    93328834.980 6      4259.578          40.125    22463169.800    93328837.982 6      4259.578          40.125
G10  23060669.140   121184638.285 7       227.024          45.687    23060667.680   121184638.290 7       227.024          44.250    23060677.460    94429618.064 7       176.902          44.062    23060677.700    94429621.064 7       176.902          46.562
R21  20730494.360   110933061.019 8      1725.847          48.437    20730495.100   110933061.037 8      1725.847          48.437    20730506.420    86281320.527 8      1342.326          49.562    20730506.380    86281319.530 8      1342.326          48.937
R05  22967637.360   122775185.978 7      1964.532          43.125    22967636.420   122775185.972 7      1964.532          42.875    22967651.920    95491868.719 7      1527.969          43.562    22967651.580    95491870.717 7      1527.969          44.000
R10  22143575.440   118037699.112 6     -1674.592          41.625    22143572.660   118037699.112 6     -1674.592          40.625
G02  21670983.480   113881786.866 7      3079.841          47.062    21670981.880   113881786.868 6      3079.841          37.500    21670985.100    88739062.694 6      2399.876          37.312
G27  21683600.220   113948076.878 7      1149.257          47.000    21683598.780   113948076.881 7      1149.257          46.937    21683606.920    88790741.437 7       895.525          47.250    21683606.320    88790738.440 8       895.525          48.250
G21  20736579.500   108971460.265 7      2101.748          47.000    20736577.800   108971460.267 6      2101.748          39.375    20736582.180    84912838.129 6      1637.726          39.375
G26  25311934.640   133015120.457 6     -1131.462          40.250    25311934.340   133015120.451 5     -1131.462          34.875    25311954.960   103648226.682 5      -881.659          34.437    25311955.720   103648224.688 7      -881.659          42.062
G03  24267290.940   127525478.964 6      6246.180          39.750    24267290.200   127525478.967 4      6246.180          28.937    24267310.820    99370555.382 4      4867.153          28.687    24267311.640    99370587.390 7      4867.153          45.812
G08  20835163.500   109489522.826 8      2849.879          49.625    20835163.660   109489522.831 8      2849.879          49.562    20835170.620    85316539.660 8      2220.685          50.000    20835170.200    85316537.666 8      2220.685          50.437
R11  19909308.260   106389309.305 8      1407.326          49.500    19909308.280   106389309.309 8      1407.326          48.812    19909317.660    82747274.944 8      1094.587          52.375    19909317.280    82747272.943 8      1094.587          52.812
G16  22447728.400   117963599.561 7      -594.300          45.500    22447726.860   117963599.569 5      -594.300          35.562    22447737.660    91919717.305 5      -463.091          35.437
> 2024 05 08 13 31  3.0000000  0 14
R22  21924570.920   117034853.123 6      3732.795          41.750    21924571.820   117034853.129 6      3732.795          41.437    21924581.260    91027155.634 7      2903.285          42.437    21924581.600    91027154.624 6      2903.285          41.625
R12  22462132.600   119988689.021 6      5475.963          39.250    22462133.020   119988689.004 6      5475.963          39.437    22462144.160    93324575.499 6      4259.082          39.937    22462144.540    93324578.502 6      4259.082          40.125
G10  23060625.940   121184411.336 7       226.475          45.500    23060624.420   121184411.341 7       226.475          44.375    23060634.380    94429441.216 7       176.474          44.250    23060634.280    94429444.220 7       176.474          46.562
R21  20730171.980   110931335.034 7      1725.717          47.250    20730172.700   110931335.052 8      1725.717          48.062    20730183.900    86279978.088 8      1342.224          49.875    20730183.560    86279977.090 8      1342.224          49.687
R05  22967269.660   122773221.665 7      1963.759          43.250    22967269.020   122773221.669 7      1963.759          42.625    22967284.740    95490340.923 7      1527.368          43.687    22967284.260    95490342.913 7      1527.368          44.187
R10  22143889.440   118039373.580 6     -1674.691          41.625    22143886.940   118039373.589 6     -1674.691          40.625
G02  21670397.560   113878707.044 7      3079.427          47.250    21670395.780   113878707.047 6      3079.427          37.750    21670399.080    88736662.839 6      2399.553          37.500
G27  21683381.380   113946927.607 7      1148.955          47.187    21683380.060   113946927.607 7      1148.955          47.000    21683388.140    88789845.893 7       895.290          46.562    21683387.580    88789842.898 8       895.290          48.375
G21  20736179.520   108969358.569 7      2101.347          47.562    20736177.940   108969358.573 6      2101.347          39.250    20736182.160    84911200.446 6      1637.413          39.062
G26  25312150.040   133016251.732 6     -1131.642          39.750    25312149.540   133016251.727 5     -1131.642          34.937    25312170.280   103649108.197 5      -881.799          34.437    25312170.500   103649106.203 6      -881.799          41.812
G03  24266102.580   127519232.695 6      6245.894          39.187    24266101.700   127519232.700 4      6245.894          28.937    24266122.260    99365688.164 4      4866.931          28.687    24266123.200    99365720.171 7      4866.931          45.812
G08  20834621.200   109486672.955 8      2849.546          49.937    20834621.320   109486672.959 8      2849.546          49.875    20834628.260    85314318.981 8      2220.425          50.250    20834628.120    85314316.985 8      2220.425          50.562
R11  19909045.120   106387902.323 8      1406.325          49.687    19909045.140   106387902.327 8      1406.325          48.500    19909054.380    82746180.631 8      1093.808          52.187    19909053.940    82746178.630 8      1093.808          53.312
G16  22447841.440   117964193.787 7      -594.642          45.500    22447839.860   117964193.798 5      -594.642          35.750    22447850.800    91920180.326 5      -463.358          35.562
> 2024 05 08 13 31  4.0000000  0 14
R22  21923871.460   117031120.255 6      3732.704          41.750    21923871.960   117031120.267 6      3732.704          41.437    21923882.260    91024252.301 7      2903.215          42.500    21923882.280    91024251.297 7      2903.215          42.312
R12  22461107.260   119983213.204 6      5475.494          39.187    22461108.320   119983213.197 6      5475.494          39.437    22461119.180    93320316.537 6      4258.717          39.937    22461119.040    93320319.547 6      4258.717          39.937
G10  23060582.800   121184184.907 7       226.108          45.125    23060581.320   121184184.912 7       226.108          44.000    23060591.300    94429264.776 7       176.188          43.875    23060591.020    94429267.778 7       176.188          46.000
R21  20729849.480   110929609.178 7      1725.810          47.687    20729850.140   110929609.196 8      1725.810          48.062    20729861.300    86278635.753 8      1342.297          49.187    20729861.000    86278634.753 8      1342.297          49.062
R05  22966902.460   122771258.228 7      1962.913          42.937    22966901.340   122771258.237 7      1962.913          42.437    22966917.020    95488813.814 7      1526.710          43.062    22966916.880    95488815.810 7      1526.710          44.000
R10  22144203.280   118041048.419 6     -1675.011          41.250    22144200.820   118041048.414 6     -1675.011          40.687
G02  21669811.540   113875627.583 7      3079.285          46.875    21669809.900   113875627.585 6      3079.285          37.500    21669813.160    88734263.255 6      2399.443          37.750
G27  21683162.860   113945778.620 7      1148.815          47.000    21683161.520   113945778.620 7      1148.815          46.687    21683169.520    88788950.576 7       895.180          46.437    21683168.840    88788947.579 8       895.180          48.000
G21  20735779.700   108967257.285 8      2101.139          48.312    20735778.040   108967257.290 6      2101.139          38.937    20735782.320    84909563.082 6      1637.251          39.187
G26  25312365.740   133017383.021 6     -1131.337          40.062    25312364.860   133017383.015 5     -1131.337          34.562    25312385.540   103649989.720 5      -881.561          34.437    25312385.960   103649987.722 6      -881.561          41.812
G03  24264913.820   127512986.494 6      6246.108          40.000    24264913.160   127512986.502 4      6246.108          28.937    24264933.580    99360820.992 4      4867.097          28.687    24264934.700    99360852.997 7      4867.097          45.875
G08  20834078.880   109483823.351 8      2849.436          50.375    20834079.060   109483823.356 8      2849.436          49.437    20834086.020    85312098.509 8      2220.340          49.625    20834085.780    85312096.513 8      2220.340          50.062
R11  19908782.060   106386496.273 8      1405.559          50.000    19908782.040   106386496.277 8      1405.559          48.937    19908791.200    82745087.024 8      1093.213          51.187    19908790.900    82745085.021 8      1093.213          51.687
G16  22447954.800   117964788.387 7      -594.733          46.062    22447953.100   117964788.394 6      -594.733          36.062    22447963.780    91920643.634 5      -463.428          35.937
> 2024 05 08 13 31  5.0000000  0 14
R22  21923171.980   117027387.566 6      3732.602          40.687    21923171.920   117027387.580 6      3732.602          41.375    21923183.020    91021349.108 7      2903.135          42.500    21923183.120    91021348.109 6      2903.135          41.500
R12  22460082.540   119977737.953 6      5474.884          39.187    22460083.240   119977737.954 6      5474.884          39.000    22460094.380    93316058.018 6      4258.243          39.875    22460094.200    93316061.033 6      4258.243          39.937
G10  23060539.420   121183958.888 7       225.858          45.187    23060538.320   121183958.890 7       225.858          43.875    23060548.300    94429088.655 7       175.993          43.812    23060548.440    94429091.657 7       175.993          46.312
R21  20729527.160   110927883.397 7      1725.725          46.312    20729527.640   110927883.414 7      1725.725          47.437    20729538.860    86277293.481 8      1342.231          48.875    20729538.600    86277292.480 8      1342.231          48.187
R05  22966535.200   122769295.480 7      1962.433          42.937    22966534.100   122769295.492 7      1962.433          42.437    22966550.120    95487287.237 7      1526.337          43.500    22966550.120    95487289.227 7      1526.337          43.875
R10  22144517.040   118042723.439 6     -1675.101          41.250    22144515.040   118042723.439 6     -1675.101          40.687
G02  21669225.640   113872548.406 7      3079.036          46.500    21669223.960   113872548.410 6      3079.036          37.750    21669227.260    88731863.898 6      2399.249          37.875
G27  21682944.240   113944629.798 7      1148.780          46.312    21682942.820   113944629.801 7      1148.780          47.125    21682950.900    88788055.387 7       895.154          45.875    21682950.060    88788052.387 7       895.154          47.812
G21  20735379.860   108965156.311 7      2100.871          47.375    20735378.240   108965156.316 6      2100.871          39.000    20735382.480    84907925.955 6      1637.043          38.750
G26  25312580.920   133018514.283 6     -1131.188          39.875    25312580.120   133018514.279 5     -1131.188          34.562    25312600.840   103650871.223 5      -881.445          34.562    25312601.200   103650869.235 6      -881.445          41.812
G03  24263725.300   127506740.296 6      6246.156          40.062    24263724.380   127506740.301 4      6246.156          28.937    24263745.020    99355953.827 4      4867.135          28.687    24263746.300    99355985.834 7      4867.135          45.437
G08  20833536.720   109480973.919 8      2849.299          49.187    20833536.840   109480973.926 8      2849.299          48.562    20833543.780    85309878.174 8      2220.233          48.625    20833543.320    85309876.178 8      2220.233          50.250
R11  19908519.220   106385091.068 8      1404.803          49.437    19908519.200   106385091.075 8      1404.803          48.125    19908528.180    82743994.097 8      1092.624          50.562    19908527.860    82743992.094 8      1092.624          50.625
G16  22448068.040   117965383.294 7      -595.076          45.062    22448066.260   117965383.309 6      -595.076          36.062    22448077.060    91921107.188 5      -463.696          35.687
