     3.05           OBSERVATION DATA    MIXED               RINEX VERSION / TYPE
TPS2RIN 1.0.29.3920 TPS-USER            20240511 192648 UTC PGM / RUN BY / DATE
Win64 build Feb 23, 2024 (c) Topcon Positioning Systems     COMMENT
SRC: 20240508_GUI19.tps                                     COMMENT
OPT: -S -v 3.05                                             COMMENT
Observer            Agency                                  OBSERVER / AGENCY
O0M3X53SBGM         TPS HIPER_SR        4.8 HSR Jul,08,2022 REC # / TYPE / VERS
FW: 4.8 HSR Jul,08,2022 p3                                  COMMENT
SN: HiPer SR 1212-12575                                     COMMENT
000                 TPSHIPER_SR     NONE                    ANT # / TYPE
        1.8000        0.0000        0.0000                  ANTENNA: DELTA H/E/N
GUI19                                                       MARKER NAME
  5389707.5380 -1589026.5713  3008886.4282                  APPROX POSITION XYZ
  2024     5     8    16     0   15.0000000     GPS         TIME OF FIRST OBS
  2024     5     8    16    15   29.0000000     GPS         TIME OF LAST OBS
     1.000                                                  INTERVAL
   915 EPOCHS                                               COMMENT
G   16 C1C L1C D1C S1C C1W L1W D1W S1W C2W L2W D2W S2W C2X  SYS / # / OBS TYPES
       L2X D2X S2X                                          SYS / # / OBS TYPES
R   16 C1C L1C D1C S1C C1P L1P D1P S1P C2P L2P D2P S2P C2C  SYS / # / OBS TYPES
       L2C D2C S2C                                          SYS / # / OBS TYPES
    14                                                      # OF SATELLITES
   G02   915   915   915   915   915   915   915   915   915PRN / # OF OBS
         915   915   915     0     0     0     0            PRN / # OF OBS
   G03   915   915   915   915   915   915   915   915   915PRN / # OF OBS
         915   915   915   915   915   915   915            PRN / # OF OBS
   G04   915   915   915   915   915   915   915   915   915PRN / # OF OBS
         915   915   915   915   915   915   915            PRN / # OF OBS
   G08   915   915   915   915   915   915   915   915   915PRN / # OF OBS
         915   915   915   915   915   915   915            PRN / # OF OBS
   G09   107   107   107   107   106   106   106   106   106PRN / # OF OBS
         106   106   106   101   101   101   101            PRN / # OF OBS
   G14   641   641   641   641   627   627   627   627   629PRN / # OF OBS
         629   629   629   599   599   599   599            PRN / # OF OBS
   G17   915   915   915   915   915   915   915   915   915PRN / # OF OBS
         915   915   915   915   915   915   915            PRN / # OF OBS
   G21   915   915   915   915   915   915   915   915   915PRN / # OF OBS
         915   915   915     0     0     0     0            PRN / # OF OBS
   G22   915   915   915   915   915   915   915   915   915PRN / # OF OBS
         915   915   915     0     0     0     0            PRN / # OF OBS
   R07   915   915   915   915   915   915   915   915   915PRN / # OF OBS
         915   915   915   915   915   915   915            PRN / # OF OBS
   R08   915   915   915   915   915   915   915   915   915PRN / # OF OBS
         915   915   915   915   915   915   915            PRN / # OF OBS
   R21   915   915   915   915   915   915   915   915   915PRN / # OF OBS
         915   915   915   915   915   915   915            PRN / # OF OBS
   R22   915   915   915   915   915   915   915   915   915PRN / # OF OBS
         915   915   915   915   915   915   915            PRN / # OF OBS
   R23   915   915   915   915   915   915   915   915     0PRN / # OF OBS
           0     0     0     0     0     0     0            PRN / # OF OBS
G L1C                                                       SYS / PHASE SHIFT
G L1W -0.25000                                              SYS / PHASE SHIFT
G L2W  0.00000                                              SYS / PHASE SHIFT
G L2X  0.25000                                              SYS / PHASE SHIFT
R L1C                                                       SYS / PHASE SHIFT
R L1P -0.25000                                              SYS / PHASE SHIFT
R L2P -0.25000                                              SYS / PHASE SHIFT
R L2C                                                       SYS / PHASE SHIFT
  5 R07  5 R08  6 R21  4 R22 -3 R23  3                      GLONASS SLOT / FRQ #
                                                            GLONASS COD/PHS/BIS
    18    18  1929     7GPS                                 LEAP SECONDS
                                                            END OF HEADER
> 2024 05 08 16 00 15.0000000  0 12
G08  22503296.220   118255612.313 7      -108.339          44.000    22503295.540   118255612.320 7      -108.339          42.312    22503313.220    92147295.582 7       -84.420          42.312    22503313.960    92147300.594 7       -84.420          47.375
G04  23182490.140   121824809.071 7      5499.465          43.000    23182488.960   121824809.083 5      5499.465          32.312    23182507.420    94928424.041 5      4285.297          32.250    23182507.880    94928496.040 8      4285.297          48.125
R23  22387925.600   119760321.793 6      4747.155          40.312    22387925.300   119760321.824 6      4747.155          39.937
R21  22447862.480   120123036.155 7       998.584          43.625    22447864.680   120123036.199 7       998.584          43.375    22447879.920    93429105.480 7       776.676          45.875    22447880.320    93429105.489 7       776.676          44.312
R22  20596671.240   109946438.152 7      2969.542          46.062    20596671.220   109946438.153 7      2969.542          47.687    20596679.580    85513983.511 8      2309.643          50.062    20596679.920    85513974.511 8      2309.643          50.250
R07  19836547.220   106186598.714 7      2316.647          47.687    19836548.080   106186598.747 7      2316.647          47.625    19836560.660    82589636.931 8      1801.836          50.500    19836560.600    82589636.934 8      1801.836          50.187
R08  20786322.640   111309821.939 7      5869.694          46.375    20786323.820   111309821.973 7      5869.694          44.687    20786343.960    86574390.649 8      4565.317          49.437    20786343.200    86574389.648 8      4565.317          49.250
G03  20134067.480   105805233.219 8      2638.479          48.812    20134066.440   105805233.224 8      2638.479          50.125    20134074.640    82445669.447 8      2055.957          50.937    20134075.260    82445676.445 8      2055.957          51.000
G02  21941559.340   115303675.027 7      1949.164          45.937    21941557.420   115303675.034 6      1949.164          37.500    21941560.880    89847027.482 6      1518.829          37.562
G22  23629966.800   124176315.479 7      3790.941          42.562    23629966.140   124176315.484 3      3790.941          22.500    23629974.160    96760790.158 3      2953.980          22.562
G17  23305130.140   122469301.405 7      5343.316          43.687    23305129.680   122469301.408 5      5343.316          32.000    23305136.160    95430635.016 5      4163.623          32.375    23305137.120    95430640.004 7      4163.623          44.125
G21  22537596.060   118435860.100 7      1213.733          45.937    22537595.320   118435860.097 5      1213.733          35.812    22537600.180    92287704.412 6       945.766          36.000
> 2024 05 08 16 00 16.0000000  0 12
G08  22503317.000   118255720.777 7      -108.805          43.875    22503316.120   118255720.787 7      -108.805          43.000    22503333.840    92147380.091 7       -84.783          42.375    22503334.700    92147385.097 7       -84.783          47.437
G04  23181443.620   121819309.784 7      5499.048          42.937    23181442.400   121819309.794 5      5499.048          32.312    23181460.860    94924138.882 5      4284.972          32.250    23181461.380    94924210.886 8      4284.972          48.062
R23  22387038.420   119755574.732 6      4746.791          39.812    22387037.880   119755574.765 6      4746.791          39.937
R21  22447676.000   120122037.693 7       998.199          43.437    22447678.120   120122037.732 7       998.199          43.062    22447693.280    93428328.890 7       776.377          45.437    22447693.960    93428328.897 7       776.377          44.375
R22  20596114.760   109943468.833 7      2969.077          47.437    20596115.040   109943468.839 7      2969.077          47.875    20596123.380    85511674.037 8      2309.282          50.687    20596123.700    85511665.034 8      2309.282          50.625
R07  19836114.680   106184282.536 8      2315.514          48.875    19836115.320   106184282.561 7      2315.514          47.375    19836127.940    82587835.455 8      1800.955          50.375    19836127.960    82587835.460 8      1800.955          51.250
R08  20785226.700   111303952.580 7      5868.852          46.437    20785227.920   111303952.613 7      5868.852          44.687    20785247.980    86569825.604 8      4564.662          49.625    20785247.240    86569824.603 8      4564.662          49.500
G03  20133565.460   105802595.083 8      2637.668          48.875    20133564.360   105802595.088 8      2637.668          50.500    20133572.620    82443613.757 8      2055.326          50.812    20133573.520    82443620.755 8      2055.326          51.875
G02  21941188.460   115301725.955 7      1948.852          45.812    21941186.520   115301725.957 6      1948.852          36.937    21941189.680    89845508.725 6      1518.586          37.500
G22  23629245.340   124172524.830 7      3790.258          42.000    23629245.000   124172524.832 3      3790.258          22.375    23629252.860    96757836.401 3      2953.448          22.375
G17  23304113.660   122463958.206 7      5343.069          43.375    23304112.740   122463958.203 5      5343.069          32.250    23304119.360    95426471.484 5      4163.430          32.375    23304119.700    95426476.470 7      4163.430          44.125
G21  22537365.180   118434646.539 7      1213.437          45.250    22537364.400   118434646.536 5      1213.437          35.562    22537369.200    92286758.780 5       945.535          35.875
> 2024 05 08 16 00 17.0000000  0 12
G08  22503337.940   118255829.798 7      -109.072          43.625    22503336.820   118255829.805 7      -109.072          42.937    22503354.680    92147465.030 7       -84.991          42.000    22503355.340    92147470.036 7       -84.991          47.812
G04  23180397.240   121813810.799 7      5498.971          42.062    23180395.920   121813810.804 5      5498.971          32.312    23180414.240    94919853.963 5      4284.912          32.000    23180414.860    94919925.969 8      4284.912          48.250
R23  22386150.860   119750827.793 6      4746.986          39.812    22386150.160   119750827.816 6      4746.986          39.937
R21  22447489.380   120121039.680 7       997.916          43.250    22447491.240   120121039.706 7       997.916          43.562    22447506.820    93427552.640 7       776.157          45.562    22447507.460    93427552.650 7       776.157          44.312
R22  20595558.520   109940499.853 7      2968.931          47.750    20595558.860   109940499.862 8      2968.931          48.062    20595567.100    85509364.834 8      2309.169          51.125    20595567.460    85509355.830 8      2309.169          51.000
R07  19835681.880   106181967.450 8      2314.718          48.250    19835682.760   106181967.475 8      2314.718          48.062    19835695.360    82586034.835 8      1800.336          50.875    19835695.660    82586034.839 8      1800.336          51.250
R08  20784130.760   111298083.980 7      5868.375          46.750    20784132.140   111298084.014 7      5868.375          44.937    20784152.280    86565261.151 8      4564.291          50.500    20784151.220    86565260.149 8      4564.291          49.562
G03  20133063.520   105799957.710 8      2637.210          48.937    20133062.540   105799957.712 8      2637.210          50.937    20133070.720    82441558.662 8      2054.968          51.000    20133071.520    82441565.665 8      2054.968          51.875
G02  21940817.660   115299777.125 7      1948.894          45.937    21940815.860   115299777.130 6      1948.894          38.375    21940819.000    89843990.156 6      1518.619          37.500
G22  23628524.340   124168734.888 6      3789.742          41.125    23628523.660   124168734.893 3      3789.742          22.375    23628531.460    96754883.199 3      2953.046          22.375
G17  23303096.860   122458615.283 7      5342.919          42.875    23303095.940   122458615.285 5      5342.919          32.250    23303102.640    95422308.171 5      4163.314          32.375    23303103.220    95422313.163 7      4163.314          43.875
G21  22537134.380   118433433.188 7      1213.367          47.500    22537133.360   118433433.185 6      1213.367          36.250    22537138.340    92285813.308 6       945.481          36.250
> 2024 05 08 16 00 18.0000000  0 12
G08  22503358.800   118255939.102 7      -109.708          43.312    22503357.540   118255939.110 7      -109.708          42.812    22503375.420    92147550.190 7       -85.487          42.125    22503376.180    92147555.198 7       -85.487          46.562
G04  23179350.600   121808311.864 7      5498.611          43.062    23179349.440   121808311.872 5      5498.611          32.250    23179367.920    94915569.083 5      4284.632          32.000    23179368.520    94915641.084 8      4284.632          48.437
R23  22385263.580   119746080.719 6      4746.819          40.562    22385263.260   119746080.742 6      4746.819          40.125
R21  22447303.120   120120041.791 7       997.496          43.812    22447304.520   120120041.824 7       997.496          43.687    22447320.280    93426776.501 7       775.830          45.000    22447320.880    93426776.516 7       775.830          44.312
R22  20595002.260   109937530.969 7      2968.582          47.562    20595002.760   109937530.970 7      2968.582          47.937    20595010.980    85507055.700 8      2308.897          48.937    20595011.280    85507046.698 8      2308.897          48.687
R07  19835249.680   106179653.204 8      2313.530          48.875    19835250.340   106179653.230 7      2313.530          47.875    19835263.080    82584234.871 8      1799.413          48.562    19835263.300    82584234.875 8      1799.413          51.062
R08  20783035.100   111292215.893 7      5867.528          46.937    20783036.020   111292215.926 7      5867.528          45.500    20783056.400    86560697.097 8      4563.633          49.625    20783055.580    86560696.098 8      4563.633          48.062
G03  20132561.580   105797320.870 8      2636.364          48.750    20132560.740   105797320.874 8      2636.364          51.250    20132568.980    82439503.986 8      2054.309          51.375    20132569.800    82439510.988 8      2054.309          51.812
G02  21940446.780   115297828.306 7      1948.537          46.187    21940444.960   115297828.313 6      1948.537          37.750    21940448.040    89842471.600 6      1518.341          37.562
G22  23627803.260   124164945.392 6      3788.996          40.750    23627802.420   124164945.397 3      3788.996          22.375    23627810.420    96751930.346 3      2952.464          22.375
G17  23302080.560   122453272.347 7      5342.779          43.937    23302079.360   122453272.351 5      5342.779          32.187    23302085.880    95418144.848 5      4163.204          31.937    23302086.380    95418149.846 7      4163.204          44.187
G21  22536903.420   118432219.779 7      1213.196          46.250    22536902.460   118432219.782 5      1213.196          35.937    22536907.620    92284867.797 5       945.347          35.750
> 2024 05 08 16 00 19.0000000  0 12
G08  22503379.760   118256048.738 7      -109.821          44.375    22503378.440   118256048.743 7      -109.821          42.937    22503396.340    92147635.606 7       -85.574          42.625    22503396.880    92147640.613 7       -85.574          47.687
G04  23178304.220   121802813.050 7      5498.665          42.875    23178303.060   121802813.055 5      5498.665          32.250    23178321.580    94911284.295 5      4284.674          32.000    23178322.020    94911356.303 8      4284.674          48.312
R23  22384376.240   119741333.602 6      4747.054          40.562    22384375.760   119741333.619 6      4747.054          40.125
R21  22447116.340   120119044.126 7       997.559          43.625    22447118.240   120119044.157 7       997.559          43.687    22447133.980    93426000.538 7       775.879          46.000    22447134.620    93426000.546 7       775.879          45.375
R22  20594446.700   109934562.256 7      2968.643          47.687    20594446.540   109934562.259 7      2968.643          47.625    20594454.680    85504746.705 8      2308.945          50.687    20594455.020    85504737.701 8      2308.945          50.625
R07  19834817.960   106177339.855 8      2312.905          48.437    19834818.260   106177339.881 7      2312.905          47.875    19834830.980    82582435.603 8      1798.926          50.937    19834830.900    82582435.610 8      1798.926          50.750
R08  20781939.520   111286348.343 7      5867.262          46.687    20781940.480   111286348.377 7      5867.262          45.187    20781960.700    86556133.460 8      4563.426          50.062    20781959.820    86556132.460 8      4563.426          50.125
G03  20132059.840   105794684.592 8      2636.012          49.375    20132059.040   105794684.597 8      2636.012          50.625    20132067.280    82437449.752 8      2054.035          50.500    20132068.120    82437456.752 8      2054.035          51.937
G02  21940076.000   115295879.542 7      1948.771          46.187    21940074.080   115295879.549 6      1948.771          37.437    21940077.200    89840953.082 6      1518.523          37.500
G22  23627082.180   124161156.399 6      3788.820          41.437    23627081.280   124161156.404 3      3788.820          22.375    23627089.480    96748977.881 3      2952.328          22.375
G17  23301063.440   122447929.499 7      5342.958          43.062    23301062.680   122447929.504 5      5342.958          32.187    23301069.220    95413981.595 5      4163.344          31.937    23301069.820    95413986.581 7      4163.344          44.375
G21  22536672.280   118431006.394 7      1213.377          46.812    22536671.440   118431006.391 5      1213.377          35.937    22536676.640    92283922.300 6       945.489          36.000
> 2024 05 08 16 00 20.0000000  0 12
G08  22503400.520   118256158.739 7      -110.228          43.562    22503399.300   118256158.749 7      -110.228          42.375    22503417.180    92147721.317 7       -85.892          42.062    22503418.160    92147726.321 7       -85.892          47.687
G04  23177258.000   121797314.368 7      5498.623          43.500    23177256.800   121797314.373 5      5498.623          32.625    23177275.340    94906999.613 5      4284.642          32.312    23177275.740    94907071.621 8      4284.642          48.375
R23  22383489.200   119736586.420 6      4747.038          40.562    22383488.440   119736586.451 6      4747.038          40.125
R21  22446929.860   120118046.737 7       997.198          43.625    22446931.780   120118046.781 7       997.198          43.250    22446947.580    93425224.784 7       775.599          45.812    22446948.420    93425224.793 7       775.599          45.625
R22  20593890.400   109931593.735 8      2968.396          48.562    20593890.640   109931593.741 8      2968.396          48.250    20593898.700    85502437.858 8      2308.752          50.812    20593899.140    85502428.851 8      2308.752          50.750
R07  19834385.940   106175027.449 8      2311.919          48.812    19834386.580   106175027.477 7      2311.919          47.500    19834398.800    82580637.069 8      1798.159          50.875    19834398.920    82580637.075 8      1798.159          50.625
R08  20780843.820   111280481.390 7      5866.547          46.312    20780845.100   111280481.422 7      5866.547          45.437    20780865.060    86551570.287 8      4562.870          49.875    20780864.080    86551569.288 8      4562.870          49.812
G03  20131558.480   105792048.947 8      2635.316          49.625    20131557.500   105792048.955 8      2635.316          50.937    20131565.720    82435396.005 8      2053.493          51.125    20131566.500    82435403.009 8      2053.493          51.562
G02  21939705.280   115293930.875 7      1948.607          47.375    21939703.360   115293930.880 6      1948.607          37.625    21939706.360    89839434.638 6      1518.395          37.500
G22  23626361.260   124157367.957 6      3788.048          41.062    23626360.420   124157367.962 3      3788.048          22.375    23626368.460    96746025.851 3      2951.725          22.375
G17  23300046.880   122442586.776 7      5342.642          43.312    23300045.980   122442586.775 5      5342.642          32.187    23300052.640    95409818.432 5      4163.098          31.937    23300053.180    95409823.419 7      4163.098          44.187
G21  22536441.480   118429793.057 7      1213.336          46.312    22536440.620   118429793.056 5      1213.336          35.875    22536445.760    92282976.838 6       945.457          36.000
> 2024 05 08 16 00 21.0000000  0 12
G08  22503421.400   118256269.092 7      -110.585          44.062    22503420.260   118256269.102 7      -110.585          42.437    22503438.240    92147807.295 7       -86.170          42.562    22503439.220    92147812.301 7       -86.170          47.750
G04  23176211.600   121791815.827 7      5498.475          43.062    23176210.620   121791815.832 5      5498.475          32.625    23176229.080    94902715.036 5      4284.526          32.312    23176229.320    94902787.042 8      4284.526          48.687
R23  22382602.080   119731839.172 6      4747.265          40.875    22382600.680   119731839.205 6      4747.265          40.625
R21  22446743.660   120117049.586 7       997.005          43.375    22446745.160   120117049.625 7       997.005          43.187    22446761.380    93424449.212 7       775.449          45.875    22446762.100    93424449.216 7       775.449          45.375
R22  20593334.180   109928625.377 8      2968.263          48.062    20593334.380   109928625.383 7      2968.263          47.750    20593342.460    85500129.133 8      2308.649          50.750    20593342.920    85500120.128 8      2308.649          51.250
R07  19833954.120   106172715.976 8      2310.983          48.125    19833954.640   106172716.007 8      2310.983          48.000    19833966.960    82578839.261 8      1797.431          51.250    19833967.020    82578839.268 8      1797.431          50.625
R08  20779748.460   111274614.968 7      5866.073          46.250    20779749.660   111274615.002 7      5866.073          45.187    20779769.720    86547007.527 8      4562.501          50.000    20779768.720    86547006.529 8      4562.501          50.062
G03  20131056.920   105789413.875 8      2634.717          50.000    20131056.140   105789413.883 8      2634.717          50.750    20131064.300    82433342.704 8      2053.026          50.937    20131065.280    82433349.706 8      2053.026          51.812
G02  21939334.560   115291982.263 7      1948.560          47.250    21939332.560   115291982.268 6      1948.560          37.500    21939335.540    89837916.238 6      1518.358          37.312
G22  23625640.720   124153580.038 6      3787.564          41.312    23625639.580   124153580.046 3      3787.564          22.375    23625647.700    96743074.230 3      2951.348          22.375
G17  23299029.780   122437244.105 7      5342.549          43.937    23299029.480   122437244.104 5      5342.549          32.500    23299035.980    95405655.309 5      4163.025          32.375    23299036.580    95405660.307 7      4163.025          44.062
G21  22536210.640   118428579.756 7      1213.248          47.250    22536209.760   118428579.755 5      1213.248          35.937    22536214.760    92282031.406 6       945.388          36.250
> 2024 05 08 16 00 22.0000000  0 12
G08  22503442.320   118256379.837 7      -110.892          43.625    22503441.240   118256379.844 7      -110.892          42.562    22503459.280    92147893.577 7       -86.409          42.500    22503460.140    92147898.583 7       -86.409          47.750
G04  23175164.920   121786317.475 7      5498.244          42.875    23175164.000   121786317.480 5      5498.244          32.625    23175182.640    94898430.612 5      4284.346          32.375    23175183.040    94898502.612 8      4284.346          48.187
R23  22381714.060   119727091.990 6      4747.142          40.875    22381713.740   119727092.016 6      4747.142          40.625
R21  22446557.240   120116052.775 7       996.657          43.312    22446559.060   120116052.816 7       996.657          43.437    22446575.120    93423673.906 7       775.178          46.562    22446575.660    93423673.906 7       775.178          45.312
R22  20592778.120   109925657.264 7      2967.987          46.625    20592778.420   109925657.265 7      2967.987          47.812    20592786.460    85497820.599 8      2308.434          50.500    20592786.840    85497811.596 8      2308.434          50.437
R07  19833522.320   106170405.523 8      2309.956          48.750    19833523.300   106170405.544 8      2309.956          48.312    19833535.500    82577042.234 8      1796.633          50.937    19833535.480    82577042.243 8      1796.633          51.187
R08  20778652.820   111268749.204 7      5865.414          47.125    20778654.080   111268749.230 7      5865.414          45.250    20778674.340    86542445.272 8      4561.989          50.125    20778673.400    86542444.277 8      4561.989          50.125
G03  20130555.560   105786779.452 8      2634.117          49.875    20130554.760   105786779.460 8      2634.117          50.562    20130563.000    82431289.909 8      2052.559          51.187    20130563.900    82431296.909 8      2052.559          51.875
G02  21938963.860   115290033.790 7      1948.438          47.375    21938961.680   115290033.798 6      1948.438          37.250    21938964.780    89836397.947 6      1518.263          37.437
G22  23624919.720   124149792.697 6      3787.041          41.812    23624918.680   124149792.702 3      3787.041          22.375    23624926.940    96740123.055 3      2950.941          22.375
G17  23298013.260   122431901.586 7      5342.340          44.125    23298012.820   122431901.588 5      5342.340          32.500    23298019.220    95401492.314 5      4162.862          32.375    23298019.920    95401497.312 7      4162.862          44.312
G21  22535979.860   118427366.534 7      1213.132          46.937    22535978.800   118427366.536 6      1213.132          36.312    22535984.060    92281086.038 6       945.298          36.437
> 2024 05 08 16 00 23.0000000  0 12
G08  22503463.380   118256490.642 7      -111.055          43.312    22503462.320   118256490.649 7      -111.055          42.750    22503480.280    92147979.908 7       -86.536          42.125    22503481.240    92147984.910 7       -86.536          47.562
G04  23174118.760   121780818.927 7      5498.496          42.250    23174117.580   121780818.927 5      5498.496          32.125    23174136.300    94894146.027 5      4284.543          32.375    23174136.940    94894218.027 8      4284.543          48.687
R23  22380826.760   119722344.407 6      4747.569          40.375    22380826.160   119722344.422 6      4747.569          40.625
R21  22446371.180   120115055.918 7       996.767          43.312    22446372.560   120115055.957 7       996.767          43.437    22446389.040    93422898.559 7       775.263          45.937    22446389.400    93422898.563 7       775.263          45.562
R22  20592221.980   109922688.970 8      2968.225          48.000    20592222.580   109922688.971 7      2968.225          47.875    20592230.480    85495511.926 8      2308.620          50.375    20592230.800    85495502.919 8      2308.620          50.500
R07  19833090.980   106168095.611 8      2309.523          49.125    19833091.620   106168095.634 7      2309.523          47.625    19833103.900    82575245.646 8      1796.296          51.125    19833103.940    82575245.652 8      1796.296          50.875
R08  20777557.420   111262883.674 7      5865.210          46.687    20777558.540   111262883.707 7      5865.210          45.312    20777578.940    86537883.213 8      4561.830          49.937    20777577.940    86537882.216 8      4561.830          50.437
G03  20130054.300   105784145.311 8      2633.759          50.125    20130053.540   105784145.318 8      2633.759          50.687    20130061.760    82429237.335 8      2052.280          51.250    20130062.520    82429244.333 8      2052.280          52.062
G02  21938592.700   115288085.055 7      1948.759          47.250    21938590.920   115288085.060 6      1948.759          37.875    21938593.920    89834879.454 6      1518.513          37.750
G22  23624198.700   124146005.548 6      3786.806          41.437    23624197.740   124146005.553 3      3786.806          22.375    23624206.120    96737172.028 3      2950.758          22.375
G17  23296996.440   122426558.805 7      5342.787          43.750    23296996.140   122426558.804 5      5342.787          32.625    23297002.680    95397329.110 5      4163.211          32.500    23297003.260    95397334.110 7      4163.211          44.375
G21  22535749.100   118426153.014 7      1213.476          46.375    22535747.900   118426153.014 5      1213.476          35.937    22535753.180    92280140.437 6       945.566          36.312
> 2024 05 08 16 00 24.0000000  0 12
G08  22503484.880   118256602.038 7      -111.390          44.250    22503483.620   118256602.043 7      -111.390          42.562    22503501.460    92148066.696 7       -86.798          42.125    22503502.680    92148071.696 7       -86.798          47.750
G04  23173072.560   121775320.765 7      5498.254          42.062    23173071.220   121775320.764 5      5498.254          32.125    23173089.960    94889861.747 5      4284.354          32.375    23173090.400    94889933.750 8      4284.354          48.562
R23  22379939.400   119717597.025 6      4747.526          40.375    22379938.140   119717597.056 6      4747.526          40.250
R21  22446185.280   120114059.572 7       996.437          43.000    22446186.340   120114059.606 7       996.437          43.375    22446202.880    93422123.617 7       775.007          46.625    22446203.060    93422123.621 7       775.007          45.500
R22  20591666.080   109919721.135 7      2967.861          47.562    20591666.380   109919721.144 7      2967.861          47.875    20591674.420    85493203.614 8      2308.336          50.875    20591674.940    85493194.611 8      2308.336          50.437
R07  19832659.440   106165786.909 8      2308.368          49.187    19832660.460   106165786.937 8      2308.368          48.312    19832672.580    82573449.991 8      1795.397          51.187    19832672.760    82573449.999 8      1795.397          50.437
R08  20776461.980   111257019.021 7      5864.384          46.875    20776463.380   111257019.060 7      5864.384          45.500    20776483.880    86533321.832 8      4561.187          50.000    20776482.860    86533320.834 8      4561.187          49.500
G03  20129553.280   105781512.007 8      2633.082          50.062    20129552.380   105781512.012 8      2633.082          50.562    20129560.580    82427185.410 8      2051.752          50.750    20129561.580    82427192.408 8      2051.752          52.125
G02  21938221.940   115286136.677 7      1948.477          47.125    21938220.200   115286136.684 6      1948.477          37.562    21938223.260    89833361.238 6      1518.294          37.250
G22  23623478.520   124142219.179 6      3786.232          41.375    23623477.180   124142219.190 3      3786.232          22.500    23623485.480    96734221.609 3      2950.310          22.375
G17  23295979.920   122421216.407 7      5342.476          42.937    23295979.480   122421216.409 5      5342.476          32.625    23295985.940    95393166.204 5      4162.969          32.500    23295986.880    95393171.202 7      4162.969          44.500
G21  22535518.340   118424939.792 7      1213.324          46.750    22535516.960   118424939.789 6      1213.324          36.125    22535522.360    92279195.063 6       945.447          36.250
> 2024 05 08 16 00 25.0000000  0 12
G08  22503505.860   118256713.550 7      -111.426          43.375    22503504.720   118256713.563 7      -111.426          42.312    22503522.680    92148153.580 7       -86.826          42.125    22503524.080    92148158.582 7       -86.826          47.437
G04  23172025.900   121769822.513 6      5498.334          41.687    23172024.920   121769822.520 5      5498.334          32.187    23172043.640    94885577.397 5      4284.416          32.125    23172044.260    94885649.403 8      4284.416          48.187
R23  22379052.200   119712849.384 6      4747.960          40.375    22379051.120   119712849.401 6      4747.960          40.250
R21  22445998.600   120113063.229 7       996.474          43.312    22445999.920   120113063.263 7       996.474          43.312    22446016.780    93421348.673 7       775.035          46.125    22446017.160    93421348.673 7       775.035          45.875
R22  20591110.140   109916753.231 7      2968.085          47.750    20591110.500   109916753.234 7      2968.085          47.875    20591118.580    85490895.241 8      2308.510          50.750    20591119.020    85490886.237 8      2308.510          50.812
R07  19832227.920   106163478.875 8      2307.804          49.187    19832229.220   106163478.901 8      2307.804          48.062    19832241.560    82571654.858 8      1794.958          50.687    19832241.540    82571654.862 8      1794.958          49.562
R08  20775366.880   111251154.687 7      5864.342          46.250    20775368.500   111251154.734 7      5864.342          45.687    20775388.700    86528760.702 8      4561.155          50.000    20775387.700    86528759.704 8      4561.155          50.250
G03  20129052.420   105778879.053 8      2632.925          49.750    20129051.280   105778879.061 8      2632.925          50.937    20129059.580    82425133.760 8      2051.630          50.937    20129060.580    82425140.760 8      2051.630          52.125
G02  21937851.080   115284188.123 7      1948.800          47.625    21937849.460   115284188.130 6      1948.800          37.625    21937852.480    89831842.880 6      1518.545          37.812
G22  23622758.020   124138433.092 6      3786.221          41.500    23622756.760   124138433.105 3      3786.221          22.500    23622765.000    96731271.415 3      2950.302          22.250
G17  23294963.420   122415873.828 7      5342.832          43.500    23294962.880   122415873.827 5      5342.832          32.625    23294969.320    95389003.162 5      4163.246          32.500    23294969.720    95389008.160 7      4163.246          44.500
G21  22535287.320   118423726.349 7      1213.671          47.125    22535286.100   118423726.352 5      1213.671          35.562    22535291.380    92278249.525 6       945.718          36.250
> 2024 05 08 16 00 26.0000000  0 12
G08  22503527.040   118256825.516 7      -112.192          44.187    22503526.140   118256825.521 7      -112.192          42.437    22503543.980    92148240.810 6       -87.423          41.875    22503545.140    92148245.812 7       -87.423          47.437
G04  23170979.740   121764324.432 6      5498.067          41.000    23170978.660   121764324.437 5      5498.067          32.187    23170997.600    94881293.182 5      4284.208          32.125    23170998.120    94881365.188 8      4284.208          48.812
R23  22378164.740   119708101.739 6      4747.628          40.500    22378163.060   119708101.760 6      4747.628          40.375
R21  22445812.280   120112067.165 7       996.022          43.312    22445813.820   120112067.198 7       996.022          43.312    22445830.860    93420573.948 7       774.684          45.937    22445830.900    93420573.952 7       774.684          45.375
R22  20590554.060   109913785.609 7      2967.355          46.687    20590554.640   109913785.621 7      2967.355          47.875    20590562.440    85488587.098 8      2307.943          50.125    20590562.800    85488578.097 8      2307.943          49.937
R07  19831797.440   106161171.859 8      2306.472          48.687    19831798.180   106161171.888 8      2306.472          48.000    19831810.420    82569860.514 8      1793.923          50.250    19831810.440    82569860.518 8      1793.923          50.125
R08  20774272.140   111245291.047 7      5863.255          46.250    20774273.320   111245291.097 7      5863.255          45.125    20774293.500    86524200.109 8      4560.310          49.187    20774292.680    86524199.112 8      4560.310          49.500
G03  20128551.400   105776246.790 8      2631.953          49.875    20128550.360   105776246.798 8      2631.953          50.437    20128558.660    82423082.652 8      2050.873          50.437    20128559.540    82423089.652 8      2050.873          52.000
G02  21937480.180   115282239.732 7      1948.276          47.125    21937478.580   115282239.737 6      1948.276          37.750    21937481.640    89830324.657 6      1518.137          37.312
G22  23622037.500   124134647.638 6      3785.156          40.187    23622036.420   124134647.648 3      3785.156          22.500    23622044.680    96728321.706 3      2949.472          22.250
G17  23293946.500   122410531.448 7      5342.297          43.250    23293946.180   122410531.448 5      5342.297          32.750    23293952.760    95384840.271 5      4162.829          32.625    23293952.980    95384845.267 7      4162.829          44.312
G21  22535056.240   118422513.027 7      1213.309          46.187    22535055.320   118422513.032 6      1213.309          36.187    22535060.520    92277304.077 5       945.435          35.875
> 2024 05 08 16 00 27.0000000  0 12
G08  22503548.520   118256937.848 7      -112.332          43.187    22503547.600   118256937.856 7      -112.332          42.250    22503565.440    92148328.331 6       -87.532          41.875    22503566.700    92148333.335 7       -87.532          47.687
G04  23169934.060   121758826.561 7      5498.032          42.250    23169932.540   121758826.564 5      5498.032          32.187    23169951.440    94877009.129 5      4284.181          32.125    23169951.700    94877081.129 8      4284.181          48.187
R23  22377277.120   119703354.092 6      4747.879          40.500    22377276.000   119703354.110 6      4747.879          40.375
R21  22445626.420   120111071.418 7       995.820          42.812    22445627.740   120111071.457 7       995.820          43.437    22445644.820    93419799.470 7       774.526          46.375    22445644.920    93419799.468 7       774.526          45.750
R22  20589998.200   109910818.167 7      2967.442          47.687    20589998.700   109910818.181 7      2967.442          47.812    20590006.580    85486279.091 8      2308.011          50.812    20590006.980    85486270.088 8      2308.011          50.500
R07  19831366.560   106158865.793 8      2305.821          49.562    19831367.680   106158865.819 7      2305.821          47.312    19831379.620    82568066.911 8      1793.416          51.000    19831379.720    82568066.912 8      1793.416          50.625
R08  20773177.100   111239427.993 7      5862.888          46.562    20773178.740   111239428.040 7      5862.888          45.812    20773198.700    86519639.962 8      4560.024          49.750    20773197.860    86519638.965 8      4560.024          50.125
G03  20128050.480   105773615.155 8      2631.547          49.812    20128049.620   105773615.160 8      2631.547          51.062    20128057.860    82421032.027 8      2050.556          51.375    20128058.820    82421039.025 8      2050.556          52.312
G02  21937109.580   115280291.435 7      1948.403          47.625    21937107.920   115280291.443 6      1948.403          37.437    21937110.960    89828806.498 6      1518.236          37.187
G22  23621317.400   124130862.746 6      3784.733          40.625    23621316.160   124130862.756 3      3784.733          22.500    23621324.440    96725372.441 3      2949.142          22.250
G17  23292929.860   122405189.163 7      5342.434          43.625    23292929.600   122405189.160 5      5342.434          32.750    23292936.060    95380677.456 5      4162.936          32.625    23292936.560    95380682.447 7      4162.936          44.312
G21  22534825.380   118421299.792 7      1213.349          46.562    22534824.480   118421299.794 6      1213.349          36.000    22534829.660    92276358.695 6       945.467          36.250
> 2024 05 08 16 00 28.0000000  0 12
G08  22503569.900   118257050.377 7      -112.493          43.375    22503568.940   118257050.384 7      -112.493          42.500    22503586.680    92148416.004 7       -87.657          42.000    22503587.760    92148421.004 7       -87.657          47.812
G04  23168887.920   121753328.641 7      5498.080          42.625    23168886.340   121753328.643 5      5498.080          32.437    23168905.080    94872725.039 5      4284.219          32.062    23168905.640    94872797.049 8      4284.219          48.375
R23  22376389.980   119698606.237 6      4747.924          40.250    22376388.600   119698606.252 6      4747.924          40.375
R21  22445440.560   120110075.782 7       995.677          43.750    22445441.320   120110075.813 7       995.677          43.375    22445458.620    93419025.071 7       774.415          46.187    22445458.800    93419025.072 7       774.415          45.812
R22  20589442.260   109907850.743 7      2967.499          47.875    20589442.960   109907850.746 7      2967.499          47.937    20589450.880    85483971.092 8      2308.054          50.500    20589451.180    85483962.088 8      2308.054          50.562
R07  19830935.860   106156560.506 8      2304.919          49.250    19830936.740   106156560.535 7      2304.919          47.875    19830948.920    82566273.910 8      1792.715          50.750    19830949.100    82566273.913 8      1792.715          50.812
R08  20772082.400   111233565.324 7      5862.503          45.750    20772083.640   111233565.371 7      5862.503          45.500    20772103.840    86515080.119 8      4559.725          50.000    20772103.300    86515079.126 8      4559.725          49.875
G03  20127550.000   105770983.943 8      2631.079          50.875    20127548.860   105770983.948 8      2631.079          50.562    20127557.160    82418981.730 8      2050.192          51.000    20127558.120    82418988.728 8      2050.192          52.187
G02  21936738.800   115278343.055 7      1948.465          47.625    21936737.300   115278343.060 6      1948.465          37.250    21936740.040    89827288.281 6      1518.284          37.312
G22  23620597.380   124127078.198 6      3784.454          41.187    23620596.000   124127078.205 3      3784.454          22.500    23620604.320    96722423.443 3      2948.926          22.250
G17  23291913.180   122399846.797 7      5342.502          43.250    23291913.100   122399846.802 5      5342.502          32.750    23291919.580    95376514.575 5      4162.988          32.812    23291920.180    95376519.569 7      4162.988          44.312
G21  22534594.560   118420086.407 7      1213.510          47.750    22534593.720   118420086.404 6      1213.510          36.000    22534598.800    92275413.198 6       945.592          36.250
> 2024 05 08 16 00 29.0000000  0 12
G08  22503591.460   118257163.237 7      -112.993          42.625    22503590.440   118257163.239 7      -112.993          42.250    22503608.120    92148503.930 6       -88.047          41.937    22503609.380    92148508.934 7       -88.047          47.375
G04  23167841.440   121747830.823 7      5497.804          42.750    23167840.200   121747830.830 5      5497.804          32.437    23167858.900    94868441.029 5      4284.003          32.062    23167859.520    94868513.045 8      4284.003          48.437
R23  22375502.240   119693858.258 6      4748.094          40.250    22375501.220   119693858.276 6      4748.094          40.562
R21  22445255.020   120109080.397 7       995.274          43.750    22445255.800   120109080.422 7       995.274          43.375    22445272.860    93418250.879 7       774.102          46.250    22445272.820    93418250.881 7       774.102          45.312
R22  20588886.380   109904883.476 7      2967.113          47.937    20588887.140   109904883.493 8      2967.113          48.062    20588894.820    85481663.221 8      2307.755          50.625    20588895.340    85481654.222 8      2307.755          50.500
R07  19830505.680   106154256.094 8      2303.915          49.562    19830506.100   106154256.120 8      2303.915          48.250    19830518.520    82564481.594 8      1791.934          50.875    19830518.460    82564481.594 8      1791.934          50.937
R08  20770987.440   111227703.183 7      5861.909          46.125    20770988.600   111227703.225 7      5861.909          45.437    20771009.000    86510520.687 8      4559.262          49.875    20771008.520    86510519.691 8      4559.262          49.875
G03  20127049.300   105768353.301 8      2630.310          50.375    20127048.320   105768353.309 8      2630.310          51.125    20127056.600    82416931.887 8      2049.592          50.750    20127057.540    82416938.888 8      2049.592          51.937
G02  21936368.220   115276394.714 8      1948.263          48.187    21936366.680   115276394.721 6      1948.263          37.625    21936369.300    89825770.095 6      1518.127          37.312
G22  23619877.160   124123294.152 7      3783.840          42.000    23619875.880   124123294.157 3      3783.840          22.500    23619884.180    96719474.832 3      2948.447          22.250
G17  23290896.540   122394504.523 7      5342.222          44.562    23290896.680   122394504.528 5      5342.222          32.750    23290902.880    95372351.768 5      4162.770          32.812    23290903.580    95372356.766 7      4162.770          44.437
G21  22534363.340   118418873.033 7      1213.326          47.125    22534362.760   118418873.032 6      1213.326          36.187    22534367.820    92274467.712 6       945.448          36.062
> 2024 05 08 16 00 30.0000000  0 12
G08  22503613.040   118257276.448 7      -113.184          43.937    22503612.080   118257276.448 7      -113.184          42.437    22503629.680    92148592.137 6       -88.195          41.625    22503631.040    92148597.135 7       -88.195          46.875
G04  23166795.140   121742333.149 6      5497.833          41.937    23166793.980   121742333.154 5      5497.833          32.062    23166812.720    94864157.132 5      4284.026          32.062    23166813.180    94864229.136 8      4284.026          48.562
R23  22374614.000   119689110.277 6      4748.269          40.500    22374613.580   119689110.287 6      4748.269          40.562
R21  22445069.200   120108085.247 7       995.229          43.500    22445069.780   120108085.278 7       995.229          43.187    22445087.100    93417476.865 7       774.067          45.437    22445086.920    93417476.863 7       774.067          44.937
R22  20588330.660   109901916.383 7      2967.197          47.187    20588331.400   109901916.395 8      2967.197          48.625    20588339.120    85479355.477 8      2307.820          48.687    20588339.320    85479346.475 8      2307.820          48.500
R07  19830075.160   106151952.587 8      2303.241          49.187    19830075.900   106151952.615 8      2303.241          48.125    19830088.240    82562689.982 8      1791.409          48.875    19830088.260    82562689.978 8      1791.409          50.625
R08  20769893.300   111221841.650 7      5861.440          46.187    20769894.420   111221841.691 7      5861.440          45.250    20769914.620    86505961.731 8      4558.897          48.250    20769913.800    86505960.733 8      4558.897          48.437
G03  20126548.660   105765723.248 8      2629.971          50.125    20126547.760   105765723.253 8      2629.971          49.187    20126556.140    82414882.497 8      2049.328          49.062    20126557.040    82414889.493 8      2049.328          51.750
G02  21935997.260   115274446.454 8      1948.384          48.437    21935995.880   115274446.461 6      1948.384          37.812    21935998.740    89824251.971 6      1518.221          37.312
G22  23619157.340   124119510.637 6      3783.381          41.375    23619155.640   124119510.644 3      3783.381          22.500    23619164.220    96716526.638 3      2948.089          22.250
G17  23289880.160   122389162.306 7      5342.382          44.062    23289880.200   122389162.306 5      5342.382          32.937    23289886.360    95368189.004 5      4162.895          32.812    23289886.380    95368193.993 7      4162.895          43.937
G21  22534132.560   118417659.687 7      1213.492          47.437    22534131.840   118417659.686 5      1213.492          35.875    22534137.000    92273522.245 6       945.578          36.250
> 2024 05 08 16 00 31.0000000  0 12
G08  22503634.600   118257390.033 7      -113.763          42.812    22503633.620   118257390.041 7      -113.763          42.250    22503651.480    92148680.640 6       -88.647          41.750    22503652.820    92148685.643 7       -88.647          47.562
G04  23165748.920   121736835.633 7      5497.587          42.000    23165747.800   121736835.638 5      5497.587          32.062    23165766.580    94859873.353 5      4283.834          32.062    23165766.720    94859945.351 8      4283.834          48.625
R23  22373726.540   119684362.261 6      4748.076          40.500    22373725.900   119684362.289 6      4748.076          40.812
R21  22444882.960   120107090.327 7       994.822          43.312    22444884.140   120107090.364 7       994.822          43.125    22444900.940    93416703.030 7       773.751          46.312    22444900.840    93416703.033 7       773.751          46.000
R22  20587774.960   109898949.501 7      2966.839          47.875    20587775.640   109898949.507 7      2966.839          47.812    20587783.160    85477047.900 8      2307.542          50.187    20587783.440    85477038.900 8      2307.542          50.687
R07  19829645.020   106149650.046 8      2302.082          49.000    19829645.320   106149650.074 7      2302.082          47.812    19829658.120    82560899.116 8      1790.508          50.625    19829657.920    82560899.117 8      1790.508          50.625
R08  20768798.600   111215980.721 7      5860.662          46.312    20768799.820   111215980.766 7      5860.662          45.750    20768819.840    86501403.244 8      4558.292          49.562    20768819.140    86501402.250 8      4558.292          49.875
G03  20126048.420   105763093.825 8      2629.100          50.125    20126047.440   105763093.830 8      2629.100          50.875    20126055.760    82412833.598 8      2048.649          50.750    20126056.600    82412840.597 8      2048.649          51.875
G02  21935626.420   115272498.297 7      1948.119          47.500    21935625.060   115272498.299 6      1948.119          37.312    21935628.100    89822733.924 6      1518.015          37.625
G22  23618437.300   124115727.660 6      3782.795          41.500    23618435.840   124115727.668 3      3782.795          22.500    23618444.360    96713578.860 3      2947.632          22.250
G17  23288863.840   122383820.229 7      5341.981          43.875    23288863.780   122383820.231 5      5341.981          32.937    23288869.800    95364026.348 5      4162.583          32.812    23288870.100    95364031.346 7      4162.583          44.000
G21  22533901.740   118416446.399 7      1213.322          47.375    22533900.880   118416446.401 6      1213.322          36.375    22533906.160    92272576.824 6       945.446          36.250
> 2024 05 08 16 00 32.0000000  0 12
G08  22503656.200   118257503.960 7      -114.230          42.875    22503655.200   118257503.978 7      -114.230          42.625    22503673.000    92148769.408 6       -89.010          41.812    22503674.380    92148774.412 7       -89.010          47.312
G04  23164703.380   121731338.228 7      5497.332          42.250    23164701.720   121731338.227 5      5497.332          32.062    23164720.560    94855589.663 5      4283.635          32.062    23164720.480    94855661.672 8      4283.635          48.375
R23  22372838.940   119679614.232 6      4747.901          40.875    22372838.360   119679614.252 6      4747.901          40.812
R21  22444696.920   120106095.638 7       994.597          43.687    22444698.640   120106095.672 7       994.597          43.125    22444714.940    93415929.369 7       773.576          46.250    22444714.800    93415929.363 7       773.576          45.625
R22  20587219.020   109895982.779 8      2966.600          48.375    20587219.900   109895982.785 8      2966.600          48.687    20587227.440    85474740.452 8      2307.355          51.125    20587227.720    85474731.452 8      2307.355          50.000
R07  19829214.800   106147348.418 8      2301.065          49.312    19829215.520   106147348.446 8      2301.065          48.375    19829228.240    82559108.967 8      1789.717          51.000    19829228.200    82559108.965 8      1789.717          50.937
R08  20767704.380   111210120.323 7      5860.088          46.125    20767705.300   111210120.363 7      5860.088          45.375    20767725.380    86496845.169 8      4557.847          50.437    20767724.840    86496844.176 8      4557.847          49.500
G03  20125548.120   105760464.975 8      2628.523          50.375    20125547.140   105760464.975 8      2628.523          50.625    20125555.480    82410785.144 8      2048.200          50.812    20125556.380    82410792.142 8      2048.200          51.937
G02  21935255.820   115270550.200 7      1947.989          47.000    21935254.280   115270550.205 6      1947.989          37.687    21935257.340    89821215.927 6      1517.913          37.375
G22  23617717.840   124111945.209 6      3782.023          41.687    23617716.060   124111945.214 3      3782.023          22.437    23617724.520    96710631.496 3      2947.031          22.250
G17  23287847.300   122378478.194 7      5341.968          44.562    23287847.180   122378478.194 5      5341.968          32.937    23287853.200    95359863.725 5      4162.572          32.812    23287853.400    95359868.723 7      4162.572          44.250
G21  22533670.900   118415233.143 8      1213.121          48.000    22533670.060   118415233.148 5      1213.121          35.937    22533675.380    92271631.432 6       945.289          36.000
> 2024 05 08 16 00 33.0000000  0 12
G08  22503677.940   118257618.204 7      -114.391          43.375    22503676.880   118257618.212 7      -114.391          42.062    22503694.720    92148858.414 6       -89.136          41.937    22503695.920    92148863.409 7       -89.136          47.687
G04  23163657.140   121725840.938 7      5497.227          42.750    23163655.480   121725840.937 5      5497.227          32.500    23163674.380    94851306.066 5      4283.554          32.000    23163674.560    94851378.066 8      4283.554          48.562
R23  22371951.280   119674866.090 6      4748.175          40.875    22371950.660   119674866.102 6      4748.175          41.000
R21  22444510.640   120105101.179 7       994.272          43.687    22444512.840   120105101.220 7       994.272          43.437    22444528.980    93415155.894 7       773.323          46.625    22444529.260    93415155.894 7       773.323          46.062
R22  20586663.360   109893016.188 8      2966.511          48.312    20586664.340   109893016.194 7      2966.511          47.875    20586671.740    85472433.105 8      2307.286          50.187    20586672.100    85472424.105 8      2307.286          50.187
R07  19828785.580   106145047.662 8      2300.300          49.062    19828785.600   106145047.685 8      2300.300          48.625    19828798.320    82557319.486 8      1789.122          50.750    19828798.440    82557319.487 8      1789.122          50.687
R08  20766609.640   111204260.442 7      5859.572          46.000    20766610.840   111204260.484 7      5859.572          45.375    20766631.060    86492287.498 8      4557.445          49.625    20766630.520    86492286.501 8      4557.445          49.750
G03  20125048.000   105757836.680 8      2627.994          50.312    20125046.900   105757836.685 8      2627.994          50.500    20125055.280    82408737.128 8      2047.787          51.375    20125056.200    82408744.128 8      2047.787          52.250
G02  21934885.340   115268602.132 7      1948.044          47.812    21934883.560   115268602.139 6      1948.044          37.812    21934886.620    89819697.954 6      1517.956          37.437
G22  23616998.020   124108163.221 6      3781.604          41.312    23616996.380   124108163.225 3      3781.604          22.437    23617004.720    96707684.492 3      2946.704          22.250
G17  23286830.720   122373136.227 7      5341.983          44.125    23286830.700   122373136.221 5      5341.983          32.812    23286836.620    95355701.156 5      4162.584          32.875    23286837.100    95355706.154 7      4162.584          44.250
G21  22533440.100   118414019.876 7      1213.248          46.625    22533439.180   118414019.881 5      1213.248          35.937    22533444.460    92270686.025 5       945.388          35.875
> 2024 05 08 16 00 34.0000000  0 12
G08  22503699.800   118257732.819 7      -114.833          43.312    22503698.740   118257732.832 6      -114.833          41.750    22503716.520    92148947.714 6       -89.480          41.937    22503717.900    92148952.722 7       -89.480          47.312
G04  23162611.080   121720343.776 7      5497.067          43.000    23162609.400   121720343.773 5      5497.067          32.500    23162628.320    94847022.566 5      4283.429          32.000    23162628.760    94847094.568 8      4283.429          48.750
R23  22371063.580   119670117.913 6      4748.126          40.875    22371062.900   119670117.928 6      4748.126          41.000
R21  22444324.740   120104107.032 7       993.886          43.687    22444327.260   120104107.074 7       993.886          43.437    22444343.240    93414382.661 7       773.022          46.250    22444343.540    93414382.661 7       773.022          45.875
R22  20586107.600   109890049.797 7      2966.231          47.812    20586108.260   109890049.803 8      2966.231          48.562    20586115.920    85470125.910 8      2307.069          50.625    20586116.200    85470116.908 8      2307.069          50.312
R07  19828355.960   106142747.846 8      2299.277          49.312    19828355.880   106142747.874 7      2299.277          47.937    19828368.780    82555530.747 8      1788.327          51.125    19828368.520    82555530.747 8      1788.327          50.750
R08  20765516.120   111198401.139 7      5858.899          46.625    20765516.340   111198401.181 7      5858.899          45.062    20765536.840    86487730.279 8      4556.922          49.750    20765535.920    86487729.282 8      4556.922          49.750
G03  20124547.940   105755208.999 8      2627.349          49.500    20124546.960   105755208.999 8      2627.349          51.062    20124555.260    82406689.582 8      2047.285          51.187    20124556.260    82406696.583 8      2047.285          52.000
G02  21934514.680   115266654.180 7      1947.862          47.812    21934512.880   115266654.182 6      1947.862          37.687    21934516.060    89818180.063 6      1517.814          37.687
G22  23616278.320   124104381.786 6      3781.011          40.812    23616276.720   124104381.789 3      3781.011          22.437    23616285.140    96704737.913 3      2946.242          22.625
G17  23285814.080   122367794.357 7      5341.828          44.437    23285814.080   122367794.354 5      5341.828          32.812    23285819.780    95351538.662 5      4162.463          32.875    23285820.420    95351543.658 7      4162.463          44.312
G21  22533209.280   118412806.659 7      1213.161          47.250    22533208.280   118412806.661 6      1213.161          36.500    22533213.700    92269740.661 6       945.320          36.437
> 2024 05 08 16 00 35.0000000  0 12
G08  22503721.500   118257847.563 7      -114.542          43.312    22503720.460   118257847.573 7      -114.542          42.187    22503738.320    92149037.112 6       -89.253          41.562    22503739.300    92149042.112 7       -89.253          47.437
G04  23161565.200   121714846.523 7      5497.596          42.687    23161563.400   121714846.518 5      5497.596          32.375    23161582.240    94842738.996 5      4283.841          32.000    23161582.680    94842810.996 8      4283.841          48.250
R23  22370176.000   119665369.453 6      4748.915          41.187    22370175.120   119665369.474 6      4748.915          41.000
R21  22444139.200   120103112.926 7       994.272          43.812    22444141.940   120103112.957 7       994.272          43.812    22444157.480    93413609.450 7       773.323          46.312    22444157.740    93413609.449 7       773.323          46.000
R22  20585551.780   109887083.358 7      2966.652          47.812    20585552.720   109887083.364 7      2966.652          47.812    20585560.180    85467818.682 8      2307.396          50.312    20585560.640    85467809.684 8      2307.396          50.562
R07  19827926.020   106140448.725 8      2299.026          49.312    19827926.480   106140448.751 7      2299.026          47.687    19827939.220    82553742.544 8      1788.132          51.312    19827939.280    82553742.544 8      1788.132          50.187
R08  20764421.780   111192542.203 7      5858.976          46.250    20764422.200   111192542.242 7      5858.976          45.250    20764442.600    86483173.339 8      4556.981          50.062    20764442.200    86483172.340 8      4556.981          50.000
G03  20124047.900   105752581.686 8      2627.365          49.250    20124047.040   105752581.689 8      2627.365          50.687    20124055.320    82404642.328 8      2047.297          50.937    20124056.260    82404649.330 8      2047.297          51.812
G02  21934144.200   115264706.064 8      1948.401          48.062    21934142.160   115264706.069 6      1948.401          38.437    21934145.320    89816662.053 6      1518.234          38.375
G22  23615558.760   124100600.636 6      3781.266          40.000    23615557.200   124100600.636 3      3781.266          22.437    23615565.640    96701791.567 3      2946.441          22.625
G17  23284797.560   122362452.362 7      5342.340          44.437    23284797.520   122362452.359 5      5342.340          32.875    23284803.120    95347376.070 5      4162.862          32.812    23284803.840    95347381.064 7      4162.862          44.062
G21  22532978.380   118411593.263 7      1213.760          46.187    22532977.520   118411593.263 6      1213.760          36.312    22532982.720    92268795.152 6       945.787          36.625
> 2024 05 08 16 00 36.0000000  0 12
G08  22503743.440   118257962.454 7      -115.037          43.312    22503742.320   118257962.456 7      -115.037          42.062    22503760.020    92149126.621 7       -89.639          42.187    22503760.760    92149131.627 7       -89.639          46.875
G04  23160518.820   121709349.189 7      5497.290          42.437    23160517.400   121709349.186 5      5497.290          32.375    23160536.100    94838455.365 5      4283.603          32.062    23160536.420    94838527.375 8      4283.603          48.437
R23  22369288.360   119660620.758 6      4748.773          41.187    22369287.600   119660620.776 6      4748.773          40.875
R21  22443953.540   120102118.791 7       994.056          44.250    22443955.480   120102118.821 7       994.056          43.625    22443971.620    93412836.228 7       773.155          46.250    22443971.940    93412836.224 7       773.155          45.125
R22  20584996.240   109884116.852 7      2966.430          47.687    20584996.940   109884116.872 8      2966.430          48.250    20585004.360    85465511.408 8      2307.224          50.062    20585004.620    85465502.408 8      2307.224          50.437
R07  19827496.980   106138150.325 8      2297.948          49.187    19827497.200   106138150.351 8      2297.948          48.187    19827509.920    82551954.901 8      1787.293          50.562    19827509.860    82551954.904 8      1787.293          49.687
R08  20763327.460   111186683.658 7      5858.191          46.062    20763327.880   111186683.697 7      5858.191          44.875    20763348.560    86478616.703 8      4556.371          49.687    20763348.160    86478615.708 8      4556.371          49.500
G03  20123548.020   105749954.734 8      2626.720          48.875    20123547.100   105749954.736 8      2626.720          51.000    20123555.420    82402595.355 8      2046.795          51.187    20123556.480    82402602.356 8      2046.795          51.812
G02  21933773.220   115262757.797 7      1948.283          47.187    21933771.520   115262757.804 6      1948.283          37.875    21933774.660    89815143.920 6      1518.143          37.687
G22  23614839.500   124096819.817 6      3780.580          41.937    23614837.640   124096819.816 3      3780.580          22.437    23614846.140    96698845.471 3      2945.906          22.625
G17  23283780.940   122357110.227 7      5342.118          45.312    23283781.080   122357110.226 5      5342.118          32.875    23283786.620    95343213.369 5      4162.689          32.812    23283787.600    95343218.369 7      4162.689          44.000
G21  22532747.540   118410379.666 7      1213.634          46.812    22532746.520   118410379.670 6      1213.634          36.625    22532751.680    92267849.489 6       945.689          36.562
> 2024 05 08 16 00 37.0000000  0 12
G08  22503765.540   118258077.791 7      -115.566          42.562    22503764.340   118258077.799 7      -115.566          42.062    22503782.060    92149216.482 6       -90.052          41.625    22503782.800    92149221.490 7       -90.052          47.187
G04  23159472.740   121703852.077 7      5497.196          42.312    23159471.500   121703852.074 5      5497.196          32.375    23159490.160    94834171.901 5      4283.529          32.062    23159490.120    94834243.905 8      4283.529          48.562
R23  22368400.460   119655872.084 6      4748.719          41.375    22368400.460   119655872.104 6      4748.719          40.875
R21  22443768.240   120101125.024 7       993.555          44.500    22443769.780   120101125.052 7       993.555          43.625    22443785.940    93412063.286 7       772.765          46.375    22443786.260    93412063.282 7       772.765          45.375
R22  20584440.680   109881150.632 8      2966.194          48.625    20584441.060   109881150.643 8      2966.194          48.062    20584448.820    85463204.342 8      2307.040          50.437    20584449.060    85463195.343 8      2307.040          50.750
R07  19827067.580   106135852.953 8      2296.898          48.875    19827068.080   106135852.978 8      2296.898          48.062    19827080.720    82550168.058 8      1786.477          51.250    19827080.640    82550168.060 8      1786.477          50.812
R08  20762233.560   111180825.798 7      5857.567          45.562    20762233.800   111180825.840 7      5857.567          44.875    20762254.360    86474060.607 8      4555.886          49.625    20762254.100    86474059.607 8      4555.886          49.562
G03  20123048.360   105747328.487 8      2625.957          49.437    20123047.360   105747328.490 8      2625.957          50.375    20123055.660    82400548.930 8      2046.200          50.812    20123056.380    82400555.928 8      2046.200          52.125
G02  21933402.600   115260809.721 7      1947.979          47.625    21933400.740   115260809.726 6      1947.979          37.937    21933404.080    89813625.939 6      1517.906          37.875
G22  23614119.900   124093039.625 6      3779.855          41.437    23614118.360   124093039.627 3      3779.855          22.437    23614126.780    96695899.870 3      2945.341          22.625
G17  23282764.560   122351768.283 7      5341.855          45.437    23282764.660   122351768.286 5      5341.855          33.062    23282770.260    95339050.818 5      4162.484          33.062    23282770.380    95339055.818 7      4162.484          44.000
G21  22532516.420   118409166.220 7      1213.395          46.562    22532515.580   118409166.225 5      1213.395          35.937    22532520.840    92266903.945 6       945.502          36.062
> 2024 05 08 16 00 38.0000000  0 12
G08  22503787.460   118258193.573 7      -116.392          43.437    22503786.440   118258193.575 6      -116.392          41.625    22503804.080    92149306.689 6       -90.695          41.750    22503805.040    92149311.704 7       -90.695          47.250
G04  23158426.480   121698355.224 7      5496.495          42.562    23158425.460   121698355.220 5      5496.495          32.187    23158444.280    94829888.639 5      4282.983          32.000    23158444.460    94829960.649 8      4282.983          48.562
R23  22367512.460   119651123.474 6      4748.363          41.375    22367512.680   119651123.497 6      4748.363          41.375
R21  22443582.500   120100131.603 7       992.990          43.562    22443584.360   120100131.634 7       992.990          43.312    22443600.160    93411290.616 7       772.325          46.562    22443600.320    93411290.615 7       772.325          45.437
R22  20583885.000   109878184.700 7      2965.560          47.312    20583885.440   109878184.714 8      2965.560          48.125    20583893.180    85460897.506 8      2306.547          50.500    20583893.360    85460888.507 8      2306.547          50.500
R07  19826638.620   106133556.626 8      2295.506          49.000    19826639.220   106133556.649 7      2295.506          47.875    19826651.760    82548382.027 8      1785.394          51.000    19826651.540    82548382.031 8      1785.394          50.750
R08  20761139.840   111174968.616 7      5856.605          45.437    20761139.680   111174968.657 7      5856.605          45.000    20761160.640    86469505.035 8      4555.137          49.937    20761160.460    86469504.038 8      4555.137          49.812
G03  20122548.740   105744702.911 8      2625.031          48.937    20122547.680   105744702.916 8      2625.031          50.125    20122555.980    82398503.035 8      2045.479          50.312    20122556.860    82398510.033 8      2045.479          52.000
G02  21933031.760   115258861.792 7      1947.572          47.625    21933030.180   115258861.797 6      1947.572          37.812    21933033.160    89812108.073 6      1517.589          37.937
G22  23613401.000   124089260.038 7      3778.941          42.187    23613399.140   124089260.038 3      3778.941          22.437    23613407.500    96692954.737 3      2944.630          22.625
G17  23281747.720   122346426.521 7      5341.348          45.500    23281748.080   122346426.524 5      5341.348          33.062    23281753.660    95334888.408 5      4162.090          33.062    23281754.240    95334893.404 7      4162.090          43.625
G21  22532285.780   118407952.877 7      1213.037          46.187    22532284.780   118407952.882 6      1213.037          36.062    22532289.920    92265958.483 6       945.223          36.000
> 2024 05 08 16 00 39.0000000  0 12
G08  22503809.560   118258309.554 7      -116.111          42.750    22503808.440   118258309.564 6      -116.111          41.937    22503826.020    92149397.058 6       -90.476          41.312    22503827.080    92149402.068 7       -90.476          47.000
G04  23157380.560   121692858.359 7      5496.766          42.687    23157379.540   121692858.364 5      5496.766          32.187    23157398.280    94825605.376 5      4283.194          32.000    23157398.320    94825677.386 8      4283.194          48.375
R23  22366624.720   119646374.712 6      4748.666          41.812    22366624.940   119646374.738 6      4748.666          41.375
R21  22443396.620   120099138.345 7       993.162          43.562    22443399.120   120099138.373 7       993.162          44.125    22443414.480    93410518.076 7       772.459          46.500    22443414.960    93410518.078 7       772.459          45.812
R22  20583329.440   109875218.803 8      2965.873          49.437    20583329.660   109875218.814 8      2965.873          48.562    20583337.460    85458590.695 8      2306.790          50.562    20583337.860    85458581.694 8      2306.790          50.625
R07  19826209.880   106131261.103 8      2295.070          49.812    19826210.560   106131261.118 8      2295.070          48.937    19826222.860    82546596.618 8      1785.055          51.125    19826223.020    82546596.622 8      1785.055          50.500
R08  20760045.980   111169111.854 7      5856.566          45.500    20760046.120   111169111.890 7      5856.566          45.000    20760066.900    86464949.784 8      4555.107          49.750    20760066.760    86464948.786 8      4555.107          49.500
G03  20122049.280   105742077.832 8      2624.835          49.937    20122048.200   105742077.834 8      2624.835          51.937    20122056.500    82396457.518 8      2045.326          51.687    20122057.320    82396464.519 8      2045.326          51.937
G02  21932661.160   115256913.832 7      1947.920          47.625    21932659.340   115256913.837 6      1947.920          37.875    21932662.600    89810590.179 6      1517.860          37.750
G22  23612681.760   124085480.866 6      3778.851          41.312    23612680.000   124085480.866 3      3778.851          22.437    23612688.360    96690009.926 3      2944.559          22.625
G17  23280731.340   122341084.715 7      5341.742          45.000    23280731.600   122341084.717 5      5341.742          33.062    23280737.100    95330725.962 5      4162.396          33.062    23280737.720    95330730.962 7      4162.396          43.937
G21  22532054.600   118406739.463 7      1213.430          47.312    22532053.720   118406739.463 6      1213.430          36.125    22532059.100    92265012.964 6       945.530          36.000
> 2024 05 08 16 00 40.0000000  0 12
G08  22503831.800   118258426.074 7      -116.654          42.937    22503830.640   118258426.090 7      -116.654          42.250    22503848.260    92149487.845 6       -90.900          41.437    22503849.100    92149492.855 7       -90.900          46.812
G04  23156334.340   121687361.784 7      5496.632          42.750    23156333.640   121687361.786 5      5496.632          32.125    23156352.160    94821322.330 5      4283.090          32.000    23156352.300    94821394.332 8      4283.090          48.687
R23  22365737.080   119641626.025 6      4748.865          41.812    22365737.820   119641626.037 7      4748.865          42.000
R21  22443211.020   120098145.510 7       992.748          44.500    22443213.440   120098145.538 7       992.748          45.000    22443228.860    93409745.856 7       772.138          46.250    22443229.220    93409745.859 7       772.138          45.437
R22  20582773.640   109872253.260 8      2965.512          49.625    20582774.000   109872253.269 8      2965.512          48.937    20582781.920    85456284.160 8      2306.509          50.250    20582782.580    85456275.159 8      2306.509          50.250
R07  19825781.320   106128966.651 8      2294.103          50.687    19825781.960   106128966.671 8      2294.103          49.562    19825794.260    82544812.048 8      1784.302          50.750    19825794.520    82544812.052 8      1784.302          50.500
R08  20758952.200   111163255.796 7      5855.903          46.312    20758952.120   111163255.824 7      5855.903          45.437    20758973.240    86460395.081 8      4554.591          50.250    20758972.920    86460394.083 8      4554.591          49.562
G03  20121549.780   105739453.478 8      2624.152          49.687    20121548.780   105739453.483 8      2624.152          51.937    20121557.080    82394412.573 8      2044.794          51.312    20121558.020    82394419.572 8      2044.794          52.125
G02  21932290.380   115254966.095 7      1947.732          46.875    21932288.720   115254966.100 6      1947.732          37.687    21932292.060    89809072.462 6      1517.713          37.812
G22  23611962.780   124081702.370 6      3778.245          41.875    23611961.140   124081702.369 3      3778.245          23.250    23611969.300    96687065.643 3      2944.087          22.625
G17  23279715.120   122335743.166 7      5341.461          45.312    23279715.260   122335743.163 5      5341.461          33.062    23279720.600    95326563.716 5      4162.177          33.062    23279721.480    95326568.709 7      4162.177          44.062
G21  22531823.640   118405526.228 7      1213.264          46.625    22531822.860   118405526.230 6      1213.264          36.125    22531828.320    92264067.586 6       945.401          36.375
> 2024 05 08 16 00 41.0000000  0 12
G08  22503853.920   118258542.909 7      -117.169          43.875    22503852.840   118258542.922 7      -117.169          42.375    22503870.280    92149578.875 6       -91.300          41.375    22503871.240    92149583.881 7       -91.300          46.750
G04  23155288.400   121681865.311 7      5496.382          42.437    23155287.780   121681865.313 5      5496.382          32.125    23155306.280    94817039.367 5      4282.895          31.937    23155306.320    94817111.370 8      4282.895          48.500
R23  22364849.400   119636877.276 7      4748.685          43.500    22364849.740   119636877.296 7      4748.685          42.000
R21  22443025.740   120097152.870 7       992.462          45.812    22443028.400   120097152.893 7       992.462          45.000    22443043.360    93408973.789 7       771.915          46.250    22443043.660    93408973.795 7       771.915          45.250
R22  20582218.020   109869287.846 8      2965.217          49.250    20582218.280   109869287.852 8      2965.217          48.562    20582226.320    85453977.730 8      2306.280          49.750    20582226.920    85453968.730 8      2306.280          50.312
R07  19825353.060   106126673.087 8      2293.060          49.875    19825353.320   106126673.110 8      2293.060          49.250    19825365.820    82543028.173 8      1783.491          50.687    19825365.960    82543028.178 8      1783.491          51.125
R08  20757858.760   111157400.265 7      5855.205          46.437    20757858.780   111157400.294 7      5855.205          45.750    20757879.580    86455840.787 8      4554.048          49.875    20757879.380    86455839.788 8      4554.048          49.750
G03  20121050.580   105736829.691 8      2623.434          49.625    20121049.480   105736829.699 8      2623.434          51.937    20121057.780    82392368.066 8      2044.234          51.375    20121058.620    82392375.064 8      2044.234          52.000
G02  21931919.620   115253018.395 7      1947.593          47.375    21931918.140   115253018.400 6      1947.593          37.937    21931921.480    89807554.774 6      1517.605          38.062
G22  23611244.140   124077924.349 7      3777.729          42.187    23611242.260   124077924.348 3      3777.729          23.250    23611250.420    96684121.724 3      2943.685          22.625
G17  23278698.580   122330401.638 7      5341.461          43.250    23278698.800   122330401.634 5      5341.461          33.437    23278704.180    95322401.486 5      4162.178          33.062    23278704.880    95322406.484 7      4162.178          44.312
G21  22531592.780   118404312.990 7      1213.181          47.062    22531591.760   118404312.995 6      1213.181          36.375    22531597.540    92263122.203 6       945.336          36.187
> 2024 05 08 16 00 42.0000000  0 12
G08  22503876.280   118258660.018 7      -117.293          43.625    22503875.120   118258660.028 6      -117.293          41.000    22503892.540    92149670.116 6       -91.397          41.000    22503893.580    92149675.120 7       -91.397          45.375
G04  23154242.520   121676368.883 7      5496.474          42.812    23154241.740   121676368.888 5      5496.474          32.125    23154260.180    94812756.440 5      4282.967          31.937    23154260.400    94812828.445 8      4282.967          48.375
R23  22363961.760   119632128.388 7      4749.037          42.750    22363962.080   119632128.395 7      4749.037          43.062
R21  22442840.380   120096160.401 7       992.326          45.500    22442842.840   120096160.432 7       992.326          44.625    22442857.860    93408201.864 7       771.809          44.250    22442858.200    93408201.871 7       771.809          43.750
R22  20581662.860   109866322.536 7      2965.344          47.437    20581662.740   109866322.537 7      2965.344          47.875    20581670.840    85451671.374 7      2306.378          46.187    20581671.420    85451662.376 7      2306.378          46.187
R07  19824924.660   106124380.364 8      2292.356          49.312    19824925.360   106124380.384 8      2292.356          48.375    19824937.620    82541244.944 7      1782.944          46.687    19824937.660    82541244.948 7      1782.944          46.562
R08  20756764.900   111151545.244 7      5854.796          45.500    20756765.280   111151545.280 7      5854.796          45.187    20756786.180    86451286.903 7      4553.730          45.875    20756785.920    86451285.905 8      4553.730          49.375
G03  20120551.420   105734206.422 8      2623.017          48.750    20120550.200   105734206.427 7      2623.017          47.062    20120558.600    82390323.962 7      2043.909          46.750    20120559.440    82390330.961 8      2043.909          52.062
G02  21931549.080   115251070.692 7      1947.719          47.562    21931547.520   115251070.700 6      1947.719          37.562    21931550.680    89806037.086 6      1517.703          37.687
G22  23610524.760   124074146.787 6      3777.325          41.062    23610523.400   124074146.784 3      3777.325          23.250    23610531.600    96681178.168 3      2943.370          23.250
G17  23277682.000   122325060.154 7      5341.475          44.687    23277682.280   122325060.151 5      5341.475          33.437    23277687.660    95318239.293 5      4162.188          33.375    23277688.140    95318244.285 7      4162.188          43.937
G21  22531361.740   118403099.710 7      1213.380          47.437    22531361.000   118403099.709 6      1213.380          36.312    22531366.680    92262176.786 6       945.491          36.187
> 2024 05 08 16 00 43.0000000  0 12
G08  22503898.520   118258777.531 7      -117.737          43.937    22503897.420   118258777.541 7      -117.737          42.062    22503914.940    92149761.672 6       -91.743          41.812    22503916.040    92149766.682 7       -91.743          46.750
G04  23153196.820   121670872.668 7      5496.198          42.625    23153195.800   121670872.667 5      5496.198          32.250    23153214.360    94808473.677 5      4282.751          31.937    23153214.680    94808545.678 8      4282.751          48.625
R23  22363073.960   119627379.500 7      4748.822          42.750    22363074.320   119627379.523 7      4748.822          42.250
R21  22442654.840   120095168.248 7       991.955          44.437    22442657.540   120095168.268 7       991.955          43.500    22442672.380    93407430.177 7       771.520          46.500    22442673.100    93407430.182 7       771.520          45.687
R22  20581107.000   109863357.469 7      2964.896          46.562    20581107.200   109863357.481 8      2964.896          48.500    20581115.440    85449365.217 8      2306.030          50.000    20581115.980    85449356.219 8      2306.030          50.437
R07  19824496.700   106122088.622 8      2291.227          49.812    19824497.060   106122088.643 8      2291.227          48.000    19824509.400    82539462.479 8      1782.065          50.812    19824509.600    82539462.485 8      1782.065          50.812
R08  20755671.720   111145690.886 7      5853.945          45.500    20755672.100   111145690.922 7      5853.945          44.437    20755692.840    86446733.528 8      4553.068          49.125    20755692.720    86446732.533 8      4553.068          49.250
G03  20120052.260   105731583.802 8      2622.285          49.562    20120051.220   105731583.810 8      2622.285          50.625    20120059.500    82388280.367 8      2043.339          51.125    20120060.400    82388287.365 8      2043.339          52.125
G02  21931178.420   115249123.126 7      1947.480          47.000    21931176.740   115249123.134 6      1947.480          38.000    21931180.200    89804519.500 6      1517.517          37.937
G22  23609805.780   124070369.807 6      3776.718          41.437    23609804.640   124070369.804 3      3776.718          23.250    23609812.820    96678235.066 3      2942.897          23.250
G17  23276665.720   122319718.786 7      5341.314          45.187    23276665.880   122319718.786 5      5341.314          33.125    23276671.280    95314077.192 5      4162.063          33.375    23276671.840    95314082.194 7      4162.063          44.312
G21  22531130.880   118401886.524 7      1213.094          47.187    22531130.140   118401886.527 6      1213.094          36.000    22531135.760    92261231.447 6       945.268          36.312
> 2024 05 08 16 00 44.0000000  0 12
G08  22503921.280   118258895.296 7      -117.897          43.375    22503919.940   118258895.304 7      -117.897          42.312    22503937.340    92149853.423 6       -91.868          41.562    22503938.500    92149858.427 7       -91.868          46.437
G04  23152151.300   121665376.500 7      5495.946          43.250    23152149.860   121665376.502 5      5495.946          32.250    23152168.400    94804190.950 5      4282.555          32.000    23152169.020    94804262.956 8      4282.555          48.625
R23  22362186.320   119622630.451 6      4748.998          41.812    22362186.720   119622630.477 7      4748.998          42.250
R21  22442469.620   120094176.258 7       991.806          43.875    22442472.100   120094176.279 7       991.806          43.625    22442487.000    93406658.621 7       771.404          46.375    22442487.500    93406658.628 7       771.404          45.625
R22  20580551.620   109860392.479 7      2964.883          46.687    20580551.660   109860392.480 8      2964.883          48.312    20580559.940    85447059.112 8      2306.020          50.125    20580560.620    85447050.109 8      2306.020          50.625
R07  19824068.460   106119797.695 8      2290.378          50.000    19824069.240   106119797.718 8      2290.378          48.000    19824081.480    82537680.652 8      1781.405          50.750    19824081.480    82537680.657 8      1781.405          51.062
R08  20754578.580   111139837.010 7      5853.479          45.125    20754578.800   111139837.047 7      5853.479          44.687    20754599.620    86442180.528 8      4552.706          49.500    20754599.520    86442179.531 8      4552.706          49.250
G03  20119553.220   105728961.684 8      2621.762          49.062    20119552.260   105728961.691 8      2621.762          51.187    20119560.640    82386237.162 8      2042.931          51.375    20119561.620    82386244.158 8      2042.931          52.562
G02  21930808.080   115247175.542 7      1947.417          46.687    21930806.140   115247175.552 6      1947.417          37.750    21930809.620    89803001.903 6      1517.467          37.812
G22  23609087.000   124066593.252 6      3776.272          40.187    23609086.140   124066593.252 3      3776.272          23.250    23609094.220    96675292.296 3      2942.550          23.250
G17  23275649.120   122314377.416 7      5341.316          44.125    23275649.380   122314377.418 5      5341.316          33.125    23275654.840    95309915.094 5      4162.065          33.000    23275655.600    95309920.090 7      4162.065          44.375
G21  22530899.940   118400673.263 7      1213.219          47.000    22530899.100   118400673.268 6      1213.219          36.062    22530904.980    92260286.048 5       945.366          35.812
> 2024 05 08 16 00 45.0000000  0 12
G08  22503943.780   118259013.605 7      -118.455          42.625    22503942.480   118259013.610 6      -118.455          41.437    22503959.780    92149945.604 6       -92.303          40.937    22503961.260    92149950.610 7       -92.303          46.625
G04  23151105.500   121659880.594 7      5495.842          42.750    23151103.880   121659880.602 5      5495.842          32.250    23151122.640    94799908.431 5      4282.474          32.000    23151122.920    94799980.443 8      4282.474          48.187
R23  22361298.700   119617881.526 6      4749.033          41.812    22361299.240   119617881.554 7      4749.033          42.250
R21  22442284.460   120093184.715 7       991.546          44.562    22442286.700   120093184.730 7       991.546          43.625    22442301.820    93405887.407 7       771.202          46.312    22442302.220    93405887.413 7       771.202          45.500
R22  20579996.320   109857427.831 7      2964.679          47.812    20579996.180   109857427.829 8      2964.679          48.000    20580004.600    85444753.272 8      2305.862          50.125    20580004.960    85444744.270 8      2305.862          50.375
R07  19823640.820   106117507.884 8      2289.385          49.312    19823641.420   106117507.907 8      2289.385          48.312    19823653.600    82535899.686 8      1780.633          51.250    19823653.840    82535899.692 8      1780.633          50.937
R08  20753485.720   111133983.900 7      5852.884          45.062    20753485.780   111133983.934 7      5852.884          44.687    20753506.480    86437628.117 8      4552.243          49.562    20753506.340    86437627.120 8      4552.243          49.375
G03  20119054.420   105726340.315 8      2621.215          49.437    20119053.380   105726340.319 8      2621.215          51.062    20119061.740    82384194.534 8      2042.505          51.375    20119062.540    82384201.534 8      2042.505          51.937
G02  21930437.340   115245228.183 7      1947.359          47.062    21930435.540   115245228.188 6      1947.359          37.687    21930439.000    89801484.479 6      1517.423          37.937
G22  23608368.520   124062817.404 6      3775.645          40.812    23608367.520   124062817.406 3      3775.645          23.250    23608375.600    96672350.075 3      2942.061          23.250
G17  23274632.660   122309036.316 7      5341.142          44.500    23274632.880   122309036.316 5      5341.142          33.187    23274638.500    95305753.198 5      4161.929          33.000    23274639.440    95305758.183 7      4161.929          44.375
G21  22530669.280   118399460.225 7      1213.056          46.562    22530668.240   118399460.224 5      1213.056          35.750    22530674.020    92259340.820 6       945.238          36.000
> 2024 05 08 16 00 46.0000000  0 12
G08  22503966.140   118259132.251 7      -118.884          43.000    22503965.180   118259132.261 7      -118.884          42.062    22503982.480    92150038.051 6       -92.637          41.500    22503983.720    92150043.057 7       -92.637          46.250
G04  23150060.140   121654384.839 7      5495.778          42.187    23150058.160   121654384.844 5      5495.778          32.250    23150076.700    94795626.028 5      4282.425          32.062    23150077.140    94795698.034 8      4282.425          48.750
R23  22360411.120   119613132.542 7      4749.090          42.000    22360411.060   119613132.567 7      4749.090          42.250
R21  22442099.020   120092193.411 7       991.152          44.562    22442101.460   120092193.431 7       991.152          43.812    22442116.360    93405116.390 7       770.896          45.937    22442117.020    93405116.392 7       770.896          45.625
R22  20579441.100   109854463.380 7      2964.276          46.125    20579440.600   109854463.387 8      2964.276          48.000    20579449.220    85442447.595 8      2305.548          49.937    20579449.640    85442438.592 8      2305.548          49.687
R07  19823213.460   106115218.998 8      2288.430          49.937    19823213.940   106115219.016 7      2288.430          47.937    19823226.080    82534119.446 8      1779.890          50.312    19823226.100    82534119.450 8      1779.890          50.250
R08  20752393.080   111128131.350 7      5852.209          45.125    20752392.940   111128131.384 7      5852.209          44.687    20752413.480    86433076.148 8      4551.718          49.375    20752413.340    86433075.147 8      4551.718          48.875
G03  20118555.700   105723719.552 8      2620.527          49.125    20118554.620   105723719.560 8      2620.527          50.500    20118563.060    82382152.386 8      2041.969          50.437    20118564.020    82382159.384 8      2041.969          52.000
G02  21930066.780   115243280.919 7      1947.196          47.062    21930065.000   115243280.924 6      1947.196          37.750    21930068.640    89799967.129 6      1517.296          37.937
G22  23607650.040   124059042.076 6      3775.033          40.875    23607649.100   124059042.078 3      3775.033          23.250    23607657.180    96669408.261 3      2941.584          23.250
G17  23273616.280   122303695.298 7      5340.945          43.875    23273616.440   122303695.303 5      5340.945          33.187    23273622.280    95301591.365 5      4161.775          33.125    23273623.160    95301596.367 7      4161.775          44.437
G21  22530438.580   118398247.223 7      1212.904          47.562    22530437.640   118398247.225 6      1212.904          36.125    22530443.180    92258395.622 6       945.120          36.000
> 2024 05 08 16 00 47.0000000  0 12
G08  22503988.940   118259251.170 7      -118.949          44.000    22503987.720   118259251.175 6      -118.949          41.750    22504005.160    92150130.699 6       -92.688          40.812    22504005.900    92150135.705 7       -92.688          46.375
G04  23149013.960   121648889.128 7      5495.852          42.750    23149012.340   121648889.135 5      5495.852          32.250    23149030.940    94791343.666 5      4282.482          32.062    23149031.340    94791415.676 8      4282.482          48.562
R23  22359522.940   119608383.440 7      4749.312          42.437    22359523.000   119608383.465 7      4749.312          42.312
R21  22441913.520   120091202.237 7       991.171          44.187    22441916.400   120091202.260 7       991.171          43.250    22441931.140    93404345.468 7       770.911          45.812    22441931.740    93404345.471 7       770.911          45.687
R22  20578885.780   109851499.002 7      2964.503          46.125    20578885.260   109851499.005 8      2964.503          48.187    20578893.840    85440141.967 8      2305.725          50.000    20578894.460    85440132.964 8      2305.725          50.500
R07  19822785.860   106112930.927 8      2287.786          49.812    19822786.620   106112930.952 8      2287.786          48.500    19822798.680    82532339.841 8      1779.389          50.812    19822798.620    82532339.845 8      1779.389          51.312
R08  20751300.380   111122279.249 7      5852.057          45.437    20751299.820   111122279.281 7      5852.057          44.625    20751320.720    86428524.525 8      4551.600          49.187    20751320.520    86428523.530 8      4551.600          49.125
G03  20118057.020   105721099.294 8      2620.151          49.312    20118056.000   105721099.302 8      2620.151          50.562    20118064.380    82380110.628 8      2041.676          50.625    20118065.340    82380117.627 8      2041.676          52.187
G02  21929696.020   115241333.627 7      1947.391          46.500    21929694.500   115241333.632 6      1947.391          38.000    21929697.920    89798449.756 6      1517.447          37.750
G22  23606931.860   124055267.203 6      3774.689          40.875    23606930.880   124055267.205 3      3774.689          23.187    23606938.840    96666466.799 3      2941.316          23.250
G17  23272600.180   122298354.290 7      5341.114          44.000    23272600.100   122298354.292 5      5341.114          33.187    23272606.080    95297429.541 5      4161.907          33.125    23272606.680    95297434.539 7      4161.907          44.500
G21  22530207.580   118397034.153 7      1213.207          46.812    22530206.700   118397034.153 6      1213.207          36.125    22530212.260    92257450.369 6       945.356          36.000
> 2024 05 08 16 00 48.0000000  0 12
G08  22504011.300   118259370.346 7      -119.366          43.125    22504010.540   118259370.351 6      -119.366          41.687    22504027.900    92150223.551 6       -93.013          41.562    22504028.760    92150228.557 7       -93.013          46.250
G04  23147968.020   121643393.475 7      5495.675          42.562    23147966.620   121643393.480 5      5495.675          32.187    23147985.140    94787061.341 5      4282.344          32.062    23147985.720    94787133.339 8      4282.344          48.562
R23  22358634.760   119603634.172 7      4749.319          42.437    22358635.400   119603634.198 7      4749.319          42.312
R21  22441727.820   120090211.216 7       990.876          43.937    22441731.000   120090211.239 7       990.876          43.687    22441745.800    93403574.670 7       770.681          46.562    22441746.600    93403574.675 7       770.681          45.437
R22  20578330.340   109848534.701 7      2964.241          47.687    20578330.140   109848534.704 8      2964.241          48.312    20578338.540    85437836.397 8      2305.521          50.187    20578339.160    85437827.395 8      2305.521          50.437
R07  19822358.280   106110643.653 8      2286.870          49.687    19822359.400   106110643.676 8      2286.870          48.125    19822371.440    82530560.850 8      1778.677          51.375    19822371.420    82530560.854 8      1778.677          50.375
R08  20750207.460   111116427.644 7      5851.355          45.812    20750207.480   111116427.683 7      5851.355          44.875    20750227.800    86423973.289 8      4551.054          49.000    20750227.660    86423972.292 8      4551.054          48.750
G03  20117558.480   105718479.530 8      2619.452          48.937    20117557.540   105718479.535 8      2619.452          50.687    20117565.880    82378069.254 8      2041.132          50.812    20117566.780    82378076.252 8      2041.132          52.062
G02  21929325.280   115239386.302 7      1947.327          47.312    21929323.960   115239386.307 6      1947.327          37.375    21929327.380    89796932.364 6      1517.398          37.500
G22  23606213.620   124051492.732 6      3774.150          41.000    23606212.600   124051492.736 3      3774.150          23.187    23606220.360    96663525.649 3      2940.896          23.250
G17  23271583.600   122293013.253 7      5341.004          43.250    23271583.460   122293013.255 5      5341.004          33.312    23271589.740    95293267.698 5      4161.821          33.187    23271590.300    95293272.700 7      4161.821          44.750
G21  22529976.720   118395821.018 7      1213.190          45.750    22529976.000   118395821.018 6      1213.190          36.000    22529981.440    92256505.064 5       945.343          35.875
> 2024 05 08 16 00 49.0000000  0 12
G08  22504034.320   118259489.890 7      -119.436          43.750    22504033.000   118259489.893 6      -119.436          41.375    22504050.500    92150316.690 6       -93.067          41.437    22504051.600    92150321.698 7       -93.067          46.125
G04  23146922.180   121637897.969 7      5495.802          42.062    23146920.880   121637897.971 5      5495.802          32.187    23146939.480    94782779.127 5      4282.443          31.937    23146939.760    94782851.130 8      4282.443          48.750
R23  22357747.040   119598884.904 6      4749.514          41.812    22357747.780   119598884.935 7      4749.514          42.250
R21  22441542.780   120089220.513 7       990.834          44.625    22441545.840   120089220.549 7       990.834          43.687    22441560.460    93402804.119 7       770.648          46.187    22441561.420    93402804.124 7       770.648          45.375
R22  20577774.960   109845570.610 8      2964.263          48.125    20577774.680   109845570.617 8      2964.263          48.000    20577783.320    85435530.996 8      2305.538          50.125    20577783.840    85435521.989 8      2305.538          50.562
R07  19821931.240   106108357.329 8      2286.126          48.625    19821932.240   106108357.355 8      2286.126          48.250    19821944.300    82528782.600 8      1778.098          50.562    19821944.240    82528782.602 8      1778.098          50.250
R08  20749115.200   111110576.657 7      5851.033          45.312    20749115.040   111110576.694 7      5851.033          44.750    20749135.280    86419422.534 8      4550.804          49.250    20749135.080    86419421.537 8      4550.804          49.375
G03  20117060.200   105715860.376 8      2619.185          49.000    20117059.100   105715860.378 8      2619.185          50.500    20117067.460    82376028.359 8      2040.923          50.937    20117068.460    82376035.359 8      2040.923          51.750
G02  21928954.960   115237439.109 7      1947.417          47.875    21928953.340   115237439.114 6      1947.417          38.125    21928956.880    89795415.067 6      1517.468          37.750
G22  23605495.680   124047718.828 6      3774.003          39.875    23605494.680   124047718.835 3      3774.003          23.187    23605502.320    96660584.944 3      2940.782          23.250
G17  23270567.020   122287672.337 7      5341.193          44.437    23270567.200   122287672.339 5      5341.193          33.312    23270573.360    95289105.946 5      4161.968          33.187    23270574.260    95289110.952 7      4161.968          44.687
G21  22529745.920   118394607.948 7      1213.406          45.562    22529745.120   118394607.953 6      1213.406          36.375    22529750.620    92255559.821 6       945.511          36.562
> 2024 05 08 16 00 50.0000000  0 12
G08  22504057.440   118259609.624 7      -119.807          42.312    22504055.760   118259609.626 6      -119.807          41.250    22504073.140    92150409.983 6       -93.356          41.187    22504074.120    92150414.987 7       -93.356          46.125
G04  23145876.340   121632402.421 7      5495.668          42.062    23145875.140   121632402.426 5      5495.668          31.937    23145893.700    94778496.884 5      4282.339          31.937    23145893.960    94778568.887 8      4282.339          48.375
R23  22356859.320   119594135.398 7      4749.675          42.937    22356859.820   119594135.421 7      4749.675          42.500
R21  22441357.860   120088229.901 7       990.672          44.500    22441360.960   120088229.927 7       990.672          43.875    22441375.400    93402033.625 7       770.523          46.000    22441376.180    93402033.631 7       770.523          44.812
R22  20577219.680   109842606.528 8      2964.105          48.125    20577219.540   109842606.526 7      2964.105          47.937    20577228.000    85433225.590 8      2305.415          50.125    20577228.400    85433216.586 8      2305.415          50.000
R07  19821504.160   106106071.744 8      2285.182          50.187    19821504.980   106106071.764 8      2285.182          48.500    19821517.320    82527004.923 8      1777.364          51.062    19821517.300    82527004.923 8      1777.364          50.312
R08  20748022.720   111104726.059 7      5850.493          46.125    20748022.440   111104726.090 7      5850.493          44.687    20748042.700    86414872.075 8      4550.384          49.687    20748042.440    86414871.077 8      4550.384          49.812
G03  20116561.840   105713241.658 8      2618.557          49.562    20116560.820   105713241.660 8      2618.557          51.125    20116569.120    82373987.803 8      2040.434          51.375    20116570.140    82373994.801 8      2040.434          51.437
G02  21928584.360   115235491.814 7      1947.326          47.187    21928582.860   115235491.819 6      1947.326          38.187    21928586.400    89793897.692 6      1517.397          37.937
G22  23604777.480   124043945.284 6      3773.407          40.562    23604776.560   124043945.289 3      3773.407          23.187    23604784.280    96657644.519 3      2940.317          23.562
G17  23269551.020   122282331.350 7      5341.041          43.937    23269550.780   122282331.353 5      5341.041          33.312    23269557.040    95284944.140 5      4161.850          33.187    23269557.620    95284949.136 7      4161.850          44.625
G21  22529515.040   118393394.760 7      1213.287          47.062    22529514.300   118393394.763 5      1213.287          35.937    22529519.900    92254614.478 6       945.419          36.062
> 2024 05 08 16 00 51.0000000  0 12
G08  22504080.260   118259729.780 7      -120.282          42.875    22504078.700   118259729.790 6      -120.282          41.500    22504096.020    92150503.601 6       -93.726          41.312    22504096.920    92150508.609 7       -93.726          46.312
G04  23144830.780   121626907.112 6      5495.324          40.875    23144829.240   121626907.120 5      5495.324          31.937    23144848.140    94774214.829 5      4282.071          31.937    23144848.280    94774286.835 8      4282.071          48.437
R23  22355971.680   119589385.938 7      4749.630          42.937    22355972.460   119589385.950 7      4749.630          42.500
R21  22441173.040   120087239.629 7       990.252          44.687    22441175.820   120087239.652 7       990.252          43.437    22441190.220    93401263.401 7       770.196          45.875    22441191.400    93401263.405 7       770.196          45.125
R22  20576664.780   109839642.702 7      2963.843          47.937    20576664.240   109839642.695 8      2963.843          48.000    20576672.700    85430920.386 8      2305.211          49.875    20576672.920    85430911.383 8      2305.211          50.000
R07  19821077.360   106103787.173 8      2284.166          49.437    19821078.480   106103787.199 8      2284.166          48.625    19821090.520    82525228.037 8      1776.574          50.937    19821090.400    82525228.041 8      1776.574          51.062
R08  20746929.880   111098876.092 7      5849.777          46.312    20746929.900   111098876.129 7      5849.777          45.000    20746950.400    86410322.118 8      4549.827          49.562    20746949.800    86410321.118 8      4549.827          49.187
G03  20116063.760   105710623.607 8      2617.835          48.750    20116062.520   105710623.617 8      2617.835          50.750    20116070.940    82371947.765 8      2039.872          50.875    20116071.740    82371954.764 8      2039.872          51.875
G02  21928213.820   115233544.663 7      1947.231          46.625    21928212.220   115233544.668 6      1947.231          38.187    21928216.040    89792380.429 6      1517.323          38.375
G22  23604059.700   124040172.358 6      3772.674          41.812    23604058.500   124040172.360 3      3772.674          23.187    23604066.220    96654704.568 3      2939.746          23.562
G17  23268534.540   122276990.516 7      5340.924          43.250    23268534.420   122276990.516 5      5340.924          33.312    23268540.700    95280782.451 5      4161.759          32.937    23268541.320    95280787.451 7      4161.759          44.625
G21  22529284.100   118392181.683 7      1213.104          46.875    22529283.420   118392181.688 5      1213.104          35.937    22529289.020    92253669.220 5       945.276          35.937
> 2024 05 08 16 00 52.0000000  0 12
G08  22504102.760   118259850.178 7      -120.435          43.000    22504101.820   118259850.191 6      -120.435          41.375    22504118.920    92150597.411 6       -93.845          41.000    22504119.640    92150602.413 7       -93.845          46.062
G04  23143784.820   121621411.814 6      5495.321          41.812    23143783.600   121621411.814 5      5495.321          31.937    23143802.220    94769932.776 5      4282.068          31.625    23143802.740    94770004.784 8      4282.068          48.687
R23  22355084.180   119584636.277 7      4749.922          43.187    22355084.140   119584636.292 7      4749.922          43.187
R21  22440988.080   120086249.480 7       990.189          44.687    22440990.280   120086249.495 7       990.189          43.250    22441005.300    93400493.268 7       770.147          46.062    22441006.040    93400493.277 7       770.147          45.187
R22  20576109.400   109836678.935 8      2963.814          48.187    20576108.980   109836678.933 8      2963.814          48.500    20576117.740    85428615.244 8      2305.189          50.375    20576117.960    85428606.241 8      2305.189          50.187
R07  19820650.700   106101503.440 8      2283.330          49.937    19820651.700   106101503.469 8      2283.330          48.312    19820663.780    82523451.804 8      1775.923          50.875    19820663.680    82523451.808 8      1775.923          50.812
R08  20745837.380   111093026.597 7      5849.292          46.312    20745837.700   111093026.623 7      5849.292          45.062    20745857.960    86405772.520 8      4549.449          49.125    20745857.640    86405771.521 8      4549.449          49.062
G03  20115565.400   105708006.040 8      2617.417          49.187    20115564.500   105708006.045 8      2617.417          51.000    20115572.820    82369908.101 8      2039.546          51.000    20115573.780    82369915.101 8      2039.546          51.937
G02  21927843.580   115231597.481 7      1947.274          46.375    21927841.640   115231597.483 6      1947.274          37.687    21927845.600    89790863.144 6      1517.356          38.000
G22  23603341.580   124036399.797 6      3772.478          40.875    23603340.460   124036399.796 3      3772.478          23.187    23603348.260    96651764.914 3      2939.593          23.562
G17  23267518.140   122271649.671 7      5340.949          43.937    23267518.020   122271649.673 5      5340.949          33.250    23267524.280    95276620.755 5      4161.778          32.937    23267524.840    95276625.757 7      4161.778          44.687
G21  22529053.180   118390968.503 7      1213.321          46.312    22529052.520   118390968.510 5      1213.321          35.937    22529058.280    92252723.881 5       945.445          35.937
> 2024 05 08 16 00 53.0000000  0 12
G08  22504126.080   118259970.952 7      -120.767          42.875    22504124.760   118259970.954 6      -120.767          41.437    22504141.920    92150691.500 6       -94.104          41.437    22504142.560    92150696.504 7       -94.104          45.937
G04  23142738.980   121615916.637 7      5495.262          42.000    23142738.000   121615916.636 5      5495.262          31.875    23142756.600    94765650.828 5      4282.022          31.625    23142756.780    94765722.834 8      4282.022          48.625
R23  22354196.340   119579886.608 7      4749.828          43.375    22354196.500   119579886.634 7      4749.828          42.750
R21  22440802.900   120085259.591 7       989.853          44.375    22440805.300   120085259.605 7       989.853          43.250    22440820.180    93399723.346 7       769.886          46.187    22440821.220    93399723.350 7       769.886          45.375
R22  20575554.340   109833715.346 8      2963.661          48.125    20575554.000   109833715.350 8      2963.661          48.062    20575562.500    85426310.237 8      2305.070          50.312    20575562.640    85426301.234 8      2305.070          50.250
R07  19820224.380   106099220.639 8      2282.495          48.500    19820225.420   106099220.664 8      2282.495          48.312    19820237.460    82521676.294 8      1775.274          50.750    19820237.320    82521676.296 8      1775.274          51.125
R08  20744745.200   111087177.680 7      5848.753          46.562    20744745.820   111087177.711 7      5848.753          45.375    20744765.780    86401223.377 8      4549.030          49.812    20744765.340    86401222.378 8      4549.030          48.812
G03  20115067.580   105705389.064 8      2616.829          49.437    20115066.440   105705389.069 8      2616.829          51.062    20115074.840    82367868.902 8      2039.088          51.312    20115075.960    82367875.901 8      2039.088          52.375
G02  21927472.840   115229650.374 7      1947.251          47.062    21927471.180   115229650.377 6      1947.251          37.812    21927475.040    89789345.918 6      1517.338          37.937
G22  23602623.740   124032627.811 7      3771.911          42.125    23602622.820   124032627.813 3      3771.911          23.187    23602630.540    96648825.700 3      2939.152          23.562
G17  23266501.640   122266308.905 7      5340.920          44.000    23266501.720   122266308.907 5      5340.920          33.250    23266507.940    95272459.121 5      4161.756          33.187    23266508.680    95272464.127 7      4161.756          44.500
G21  22528822.520   118389755.375 7      1213.313          46.687    22528821.700   118389755.380 6      1213.313          36.000    22528827.320    92251778.585 6       945.438          36.000
> 2024 05 08 16 00 54.0000000  0 12
G08  22504149.240   118260091.960 7      -121.259          42.937    22504147.660   118260091.967 6      -121.259          41.312    22504165.060    92150785.788 6       -94.487          40.500    22504165.680    92150790.792 7       -94.487          45.625
G04  23141693.200   121610421.525 7      5494.984          42.875    23141692.440   121610421.527 5      5494.984          31.875    23141710.780    94761368.927 5      4281.806          31.625    23141710.980    94761440.930 8      4281.806          48.062
R23  22353308.500   119575136.790 7      4749.763          43.375    22353308.540   119575136.818 7      4749.763          42.750
R21  22440618.140   120084269.843 7       989.490          43.812    22440620.100   120084269.860 7       989.490          43.375    22440635.180    93398953.532 7       769.603          46.312    22440636.240    93398953.536 7       769.603          45.437
R22  20574999.080   109830751.864 7      2963.338          47.812    20574998.780   109830751.862 7      2963.338          47.937    20575007.340    85424005.304 8      2304.818          50.375    20575007.600    85423996.302 8      2304.818          50.500
R07  19819798.100   106096938.672 8      2281.481          48.812    19819799.040   106096938.695 8      2281.481          48.062    19819811.100    82519901.435 8      1774.485          50.812    19819811.020    82519901.438 8      1774.485          49.750
R08  20743653.420   111081329.282 7      5847.973          46.437    20743653.720   111081329.314 7      5847.973          45.437    20743673.560    86396674.636 8      4548.424          48.937    20743673.400    86396673.637 8      4548.424          48.500
G03  20114569.520   105702772.595 8      2616.098          50.312    20114568.520   105702772.602 8      2616.098          50.125    20114576.960    82365830.100 8      2038.518          50.125    20114577.900    82365837.098 8      2038.518          52.250
G02  21927102.340   115227703.265 7      1946.987          47.125    21927100.580   115227703.268 6      1946.987          37.875    21927104.480    89787828.691 6      1517.133          38.187
G22  23601906.380   124028856.256 6      3771.200          41.375    23601905.200   124028856.256 3      3771.200          23.187    23601912.740    96645886.820 3      2938.598          23.562
G17  23265485.420   122260968.149 7      5340.698          43.437    23265485.440   122260968.151 5      5340.698          33.187    23265491.580    95268297.498 5      4161.583          33.187    23265492.040    95268302.502 7      4161.583          44.062
G21  22528591.720   118388542.197 7      1213.090          46.687    22528590.780   118388542.205 6      1213.090          36.187    22528596.460    92250833.250 6       945.265          36.125
> 2024 05 08 16 00 55.0000000  0 12
G08  22504172.360   118260213.354 7      -121.524          43.437    22504170.680   118260213.364 6      -121.524          40.875    22504188.020    92150880.366 6       -94.694          40.687    22504188.820    92150885.370 7       -94.694          46.312
G04  23140647.600   121604926.550 7      5494.915          42.187    23140646.780   121604926.552 5      5494.915          32.062    23140665.040    94757087.130 5      4281.752          31.875    23140665.300    94757159.138 8      4281.752          48.500
R23  22352420.500   119570386.949 7      4749.867          43.625    22352420.700   119570386.967 7      4749.867          43.187
R21  22440433.380   120083280.341 7       989.362          44.187    22440435.220   120083280.362 7       989.362          43.500    22440450.080    93398183.917 7       769.504          45.812    22440450.800    93398183.920 7       769.504          45.750
R22  20574444.040   109827788.561 8      2963.279          48.000    20574443.800   109827788.560 8      2963.279          48.312    20574452.380    85421700.517 8      2304.773          49.812    20574452.540    85421691.513 8      2304.773          50.500
R07  19819371.420   106094657.640 8      2280.517          49.437    19819372.760   106094657.671 7      2280.517          47.937    19819384.880    82518127.305 8      1773.736          50.875    19819384.980    82518127.305 8      1773.736          51.187
R08  20742561.180   111075481.490 7      5847.418          46.437    20742562.140   111075481.521 7      5847.418          45.625    20742581.600    86392126.368 8      4547.992          49.625    20742580.980    86392125.368 8      4547.992          49.625
G03  20114071.860   105700156.740 8      2615.506          50.187    20114070.720   105700156.743 8      2615.506          50.937    20114079.180    82363791.774 8      2038.057          51.125    20114079.960    82363798.772 8      2038.057          52.000
G02  21926732.000   115225756.230 7      1947.031          46.625    21926729.960   115225756.235 6      1947.031          37.875    21926733.860    89786311.524 6      1517.167          38.062
G22  23601188.900   124025085.238 6      3770.777          41.500    23601187.620   124025085.240 3      3770.777          23.500    23601195.240    96642948.366 3      2938.268          23.562
G17  23264469.200   122255627.514 7      5340.579          43.687    23264469.160   122255627.511 5      5340.579          33.187    23264475.360    95264135.968 5      4161.490          33.062    23264475.680    95264140.970 7      4161.490          44.750
G21  22528361.000   118387329.070 7      1213.037          46.187    22528360.020   118387329.075 5      1213.037          35.937    22528365.600    92249887.953 6       945.224          36.062
> 2024 05 08 16 00 56.0000000  0 12
G08  22504195.480   118260335.073 7      -121.879          43.375    22504193.840   118260335.073 6      -121.879          40.875    22504211.120    92150975.196 6       -94.970          40.187    22504212.180    92150980.198 7       -94.970          45.937
G04  23139601.820   121599431.695 7      5494.772          43.250    23139601.160   121599431.695 5      5494.772          32.062    23139619.600    94752805.427 5      4281.641          31.875    23139619.740    94752877.437 8      4281.641          48.500
R23  22351532.400   119565637.040 7      4749.885          44.625    22351532.200   119565637.049 7      4749.885          43.250
R21  22440248.580   120082291.108 7       989.067          44.625    22440250.360   120082291.138 7       989.067          43.500    22440265.220    93397414.505 7       769.275          45.937    22440266.160    93397414.505 7       769.275          45.562
R22  20573889.020   109824825.429 7      2962.963          47.000    20573888.660   109824825.433 7      2962.963          47.250    20573897.300    85419395.857 8      2304.527          49.687    20573897.480    85419386.854 8      2304.527          50.062
R07  19818945.780   106092377.486 8      2279.571          49.125    19818946.940   106092377.519 8      2279.571          48.312    19818958.920    82516353.856 8      1772.999          50.375    19818958.860    82516353.856 8      1772.999          50.000
R08  20741469.060   111069634.233 7      5846.867          46.375    20741470.040   111069634.267 7      5846.867          45.187    20741489.820    86387578.516 8      4547.563          49.125    20741489.280    86387577.516 8      4547.563          49.000
G03  20113574.180   105697541.430 8      2614.940          49.875    20113573.020   105697541.438 8      2614.940          50.625    20113581.480    82361753.876 8      2037.616          50.812    20113582.360    82361760.874 8      2037.616          51.812
G02  21926361.400   115223809.266 7      1946.818          46.625    21926359.480   115223809.268 6      1946.818          37.812    21926363.580    89784794.405 6      1517.001          37.625
G22  23600471.240   124021314.716 7      3770.195          42.125    23600470.000   124021314.723 3      3770.195          23.500    23600477.840    96640010.297 3      2937.814          23.562
G17  23263453.160   122250286.924 7      5340.427          43.875    23263452.860   122250286.924 5      5340.427          33.187    23263459.160    95259974.476 5      4161.371          33.062    23263459.340    95259979.478 7      4161.371          44.562
G21  22528129.960   118386115.924 7      1213.104          46.812    22528129.180   118386115.929 6      1213.104          36.312    22528134.920    92248942.645 6       945.276          36.250
> 2024 05 08 16 00 57.0000000  0 12
G08  22504218.600   118260457.193 7      -122.117          43.062    22504217.000   118260457.198 6      -122.117          41.000    22504234.340    92151070.348 6       -95.156          40.437    22504235.060    92151075.350 7       -95.156          45.812
G04  23138556.160   121593937.046 7      5494.592          42.625    23138555.600   121593937.046 5      5494.592          32.062    23138574.000    94748523.889 5      4281.500          32.250    23138574.280    94748595.896 8      4281.500          48.437
R23  22350644.720   119560887.122 7      4750.120          43.750    22350644.800   119560887.137 7      4750.120          43.250
R21  22440063.600   120081302.221 7       988.871          44.625    22440065.180   120081302.244 7       988.871          43.625    22440080.640    93396645.359 7       769.122          46.187    22440081.300    93396645.361 7       769.122          45.312
R22  20573333.680   109821862.508 7      2962.967          47.812    20573333.600   109821862.514 7      2962.967          47.937    20573342.380    85417091.364 8      2304.530          50.312    20573342.500    85417082.362 8      2304.530          50.812
R07  19818520.100   106090098.308 8      2278.791          48.937    19818521.080   106090098.342 8      2278.791          48.125    19818533.200    82514581.162 8      1772.393          51.062    19818533.260    82514581.165 8      1772.393          50.625
R08  20740377.300   111063787.616 7      5846.555          46.437    20740378.280   111063787.650 7      5846.555          45.750    20740397.900    86383031.155 8      4547.320          49.250    20740397.480    86383030.158 8      4547.320          49.500
G03  20113076.760   105694926.782 8      2614.489          49.750    20113075.520   105694926.787 8      2614.489          51.125    20113083.940    82359716.485 8      2037.264          51.125    20113084.640    82359723.486 8      2037.264          51.687
G02  21925991.060   115221862.409 7      1947.013          46.375    21925988.820   115221862.411 6      1947.013          38.312    21925992.980    89783277.374 6      1517.153          37.625
G22  23599753.820   124017544.777 6      3769.859          41.437    23599752.500   124017544.784 3      3769.859          23.500    23599760.440    96637072.680 3      2937.553          23.562
G17  23262436.900   122244946.481 7      5340.536          43.562    23262436.600   122244946.478 5      5340.536          33.187    23262442.920    95255813.094 5      4161.457          33.062    23262443.360    95255818.091 7      4161.457          44.937
G21  22527899.160   118384902.891 7      1213.162          47.312    22527898.380   118384902.896 6      1213.162          36.062    22527904.000    92247997.420 6       945.321          36.250
> 2024 05 08 16 00 58.0000000  0 12
G08  22504242.020   118260579.506 7      -122.271          42.875    22504240.180   118260579.514 6      -122.271          40.687    22504257.560    92151165.647 6       -95.276          40.750    22504258.640    92151170.647 7       -95.276          45.625
G04  23137510.860   121588442.328 7      5494.877          42.625    23137509.960   121588442.333 5      5494.877          32.562    23137528.380    94744242.292 5      4281.722          32.250    23137528.700    94744314.296 8      4281.722          48.125
R23  22349756.800   119556137.004 7      4750.376          44.187    22349756.980   119556137.021 7      4750.376          43.125
R21  22439879.080   120080313.424 7       988.854          43.687    22439880.020   120080313.447 7       988.854          43.062    22439895.940    93395876.288 7       769.108          46.437    22439896.500    93395876.288 7       769.108          45.187
R22  20572778.600   109818899.608 8      2962.995          48.375    20572778.600   109818899.609 8      2962.995          48.125    20572787.380    85414786.881 8      2304.551          50.125    20572787.460    85414777.876 8      2304.551          50.437
R07  19818094.780   106087819.883 8      2278.205          48.500    19818095.480   106087819.916 8      2278.205          48.187    19818107.380    82512809.062 8      1771.937          51.437    19818107.500    82512809.064 8      1771.937          50.250
R08  20739285.720   111057941.430 7      5846.191          45.812    20739286.640   111057941.469 7      5846.191          45.312    20739306.240    86378484.140 8      4547.038          49.562    20739305.740    86378483.139 8      4547.038          49.812
G03  20112579.060   105692312.549 8      2614.140          49.000    20112577.960   105692312.556 8      2614.140          51.187    20112586.480    82357679.427 8      2036.993          51.500    20112587.360    82357686.423 8      2036.993          51.937
G02  21925620.400   115219915.476 7      1947.068          46.437    21925618.440   115219915.481 6      1947.068          37.750    21925622.580    89781760.282 6      1517.196          37.500
G22  23599036.580   124013775.203 7      3769.508          42.250    23599035.100   124013775.211 3      3769.508          23.500    23599043.120    96634135.356 3      2937.279          23.312
G17  23261420.940   122239605.952 7      5340.678          42.750    23261420.200   122239605.951 5      5340.678          33.187    23261426.760    95251651.648 5      4161.567          32.875    23261427.320    95251656.642 7      4161.567          45.000
G21  22527668.400   118383689.708 7      1213.482          47.250    22527667.520   118383689.710 6      1213.482          36.625    22527673.200    92247052.081 6       945.570          36.250
> 2024 05 08 16 00 59.0000000  0 12
G08  22504264.880   118260702.019 7      -122.867          42.687    22504263.460   118260702.024 6      -122.867          40.562    22504281.000    92151261.102 6       -95.740          40.250    22504282.020    92151266.106 7       -95.740          45.812
G04  23136464.960   121582947.621 7      5494.503          42.062    23136464.320   121582947.618 5      5494.503          32.562    23136482.700    94739960.705 5      4281.431          32.250    23136483.040    94740032.708 8      4281.431          48.437
R23  22348868.640   119551386.685 7      4750.298          44.187    22348869.040   119551386.705 7      4750.298          43.125
R21  22439694.340   120079324.701 7       988.526          43.625    22439695.420   120079324.716 7       988.526          43.187    22439711.280    93395107.266 7       768.853          46.375    22439712.280    93395107.271 7       768.853          45.375
R22  20572223.560   109815936.719 7      2962.722          47.750    20572223.600   109815936.717 7      2962.722          47.375    20572232.480    85412482.413 8      2304.339          50.187    20572232.460    85412473.411 8      2304.339          50.375
R07  19817669.000   106085542.274 8      2277.055          48.250    19817670.020   106085542.302 8      2277.055          48.625    19817682.060    82511037.586 8      1771.043          51.000    19817682.420    82511037.589 8      1771.043          50.312
R08  20738194.200   111052095.672 7      5845.373          45.625    20738195.300   111052095.709 7      5845.373          45.375    20738214.620    86373937.453 8      4546.401          49.750    20738214.340    86373936.453 8      4546.401          49.000
G03  20112081.680   105689698.768 8      2613.413          50.437    20112080.580   105689698.770 8      2613.413          51.125    20112089.080    82355642.714 8      2036.426          51.125    20112089.800    82355649.711 8      2036.426          52.000
G02  21925249.960   115217968.449 7      1946.897          46.812    21925248.100   115217968.454 6      1946.897          37.937    21925252.220    89780243.119 6      1517.063          37.687
G22  23598319.020   124010005.995 6      3768.797          41.875    23598317.800   124010006.002 3      3768.797          23.500    23598325.940    96631198.307 3      2936.725          23.312
G17  23260404.640   122234265.357 7      5340.532          43.937    23260404.020   122234265.356 5      5340.532          32.937    23260410.540    95247490.149 5      4161.454          32.875    23260410.560    95247495.147 7      4161.454          44.937
G21  22527437.360   118382476.444 7      1213.191          47.125    22527436.700   118382476.449 6      1213.191          36.437    22527442.220    92246106.684 6       945.343          36.250
> 2024 05 08 16 01  0.0000000  0 12
G08  22504288.400   118260824.877 6      -123.044          41.875    22504286.980   118260824.882 6      -123.044          40.687    22504304.380    92151356.823 6       -95.878          40.500    22504305.300    92151361.825 7       -95.878          45.875
G04  23135419.680   121577453.048 7      5494.357          42.562    23135418.740   121577453.048 5      5494.357          32.062    23135437.040    94735679.219 5      4281.317          32.062    23135437.360    94735751.235 8      4281.317          48.250
R23  22347980.340   119546636.342 7      4750.326          43.562    22347980.740   119546636.357 7      4750.326          43.437
R21  22439509.860   120078336.238 7       988.209          43.750    22439510.800   120078336.258 7       988.209          43.187    22439526.680    93394338.457 7       768.607          46.000    22439527.080    93394338.462 7       768.607          45.500
R22  20571668.320   109812974.035 7      2962.449          47.625    20571668.600   109812974.041 8      2962.449          48.000    20571677.480    85410178.114 8      2304.127          50.187    20571677.480    85410169.112 8      2304.127          50.437
R07  19817243.700   106083265.564 8      2276.207          49.125    19817244.900   106083265.592 7      2276.207          47.750    19817256.620    82509266.812 8      1770.383          50.937    19817257.000    82509266.817 8      1770.383          50.312
R08  20737102.700   111046250.466 7      5844.933          45.875    20737103.480   111046250.503 7      5844.933          45.437    20737123.020    86369391.194 8      4546.059          50.062    20737122.560    86369390.192 8      4546.059          49.562
G03  20111584.480   105687085.578 8      2612.792          49.562    20111583.260   105687085.586 8      2612.792          50.937    20111591.840    82353606.469 8      2035.942          50.812    20111592.600    82353613.467 8      2035.942          51.812
G02  21924879.420   115216021.508 7      1946.899          47.062    21924877.660   115216021.513 6      1946.899          38.125    21924881.680    89778726.025 6      1517.064          37.812
G22  23597602.300   124006237.312 7      3768.374          42.250    23597600.680   124006237.319 3      3768.374          23.500    23597608.780    96628261.669 3      2936.395          23.312
G17  23259388.200   122228924.874 7      5340.318          44.437    23259387.880   122228924.871 5      5340.318          32.937    23259394.260    95243328.734 5      4161.287          32.750    23259394.520    95243333.736 7      4161.287          45.000
G21  22527206.560   118381263.227 7      1213.168          46.437    22527205.800   118381263.237 6      1213.168          36.250    22527211.420    92245161.319 6       945.326          36.500
> 2024 05 08 16 01  1.0000000  0 12
G08  22504311.960   118260948.184 7      -123.450          42.812    22504310.300   118260948.186 6      -123.450          40.812    22504327.780    92151452.893 6       -96.195          40.250    22504328.720    92151457.896 7       -96.195          46.000
G04  23134373.900   121571958.704 7      5494.168          42.312    23134373.040   121571958.701 5      5494.168          32.062    23134391.420    94731397.918 5      4281.170          32.062    23134391.680    94731469.926 8      4281.170          48.125
R23  22347092.460   119541886.028 7      4750.212          44.250    22347093.140   119541886.048 7      4750.212          43.500
R21  22439325.060   120077348.117 7       987.835          43.750    22439325.720   120077348.140 7       987.835          43.375    22439342.040    93393569.909 7       768.316          46.187    22439342.600    93393569.913 7       768.316          45.312
R22  20571113.580   109810011.607 7      2962.229          47.187    20571113.860   109810011.614 7      2962.229          47.875    20571122.620    85407874.004 8      2303.956          50.500    20571122.480    85407865.003 8      2303.956          50.562
R07  19816818.780   106080989.877 8      2275.129          49.625    19816819.660   106080989.902 8      2275.129          48.562    19816831.480    82507496.833 8      1769.545          50.750    19816831.480    82507496.835 8      1769.545          50.250
R08  20736011.440   111040405.935 7      5844.137          46.187    20736012.320   111040405.974 7      5844.137          45.375    20736031.580    86364845.455 8      4545.440          49.562    20736031.220    86364844.456 8      4545.440          49.437
G03  20111087.280   105684473.066 8      2612.163          49.625    20111086.100   105684473.071 8      2612.163          50.625    20111094.680    82351570.745 8      2035.451          50.875    20111095.660    82351577.743 8      2035.451          51.875
G02  21924508.960   115214074.757 7      1946.562          46.562    21924507.180   115214074.764 6      1946.562          38.312    21924511.340    89777209.073 6      1516.802          38.250
G22  23596885.540   124002469.260 6      3767.754          41.812    23596883.580   124002469.267 3      3767.754          23.500    23596891.620    96625325.522 3      2935.912          23.312
G17  23258371.920   122223584.563 7      5340.126          43.562    23258371.640   122223584.560 5      5340.126          33.312    23258378.060    95239167.455 5      4161.137          32.750    23258378.420    95239172.461 7      4161.137          44.750
G21  22526975.680   118380050.136 7      1213.016          46.500    22526975.000   118380050.144 6      1213.016          36.312    22526980.520    92244216.049 6       945.207          36.625
> 2024 05 08 16 01  2.0000000  0 12
G08  22504335.340   118261071.906 7      -123.818          42.625    22504333.800   118261071.908 6      -123.818          40.750    22504351.360    92151549.292 6       -96.482          40.250    22504352.200    92151554.292 7       -96.482          45.812
G04  23133328.480   121566464.517 7      5494.319          43.250    23133327.400   121566464.519 5      5494.319          32.062    23133346.020    94727116.737 5      4281.288          32.062    23133346.240    94727188.751 8      4281.288          48.375
R23  22346204.600   119537135.693 7      4750.564          44.437    22346204.780   119537135.711 7      4750.564          43.500
R21  22439140.500   120076360.295 7       987.869          43.500    22439141.160   120076360.308 7       987.869          43.375    22439157.300    93392801.584 7       768.342          45.750    22439158.000    93392801.595 7       768.342          45.062
R22  20570558.700   109807049.388 8      2962.389          48.062    20570558.840   109807049.392 8      2962.389          48.375    20570567.760    85405570.049 8      2304.080          50.437    20570567.660    85405561.049 8      2304.080          50.375
R07  19816393.880   106078715.116 8      2274.530          49.875    19816394.460   106078715.149 8      2274.530          48.187    19816406.660    82505727.583 8      1769.079          50.625    19816406.520    82505727.585 8      1769.079          49.937
R08  20734919.820   111034562.003 7      5843.803          46.062    20734920.940   111034562.037 7      5843.803          45.375    20734940.280    86360300.188 8      4545.180          49.500    20734939.720    86360299.188 8      4545.180          49.437
G03  20110590.260   105681861.198 8      2611.843          49.687    20110589.160   105681861.203 8      2611.843          51.375    20110597.720    82349535.527 8      2035.202          51.250    20110598.580    82349542.523 8      2035.202          52.375
G02  21924138.560   115212128.094 7      1946.752          46.500    21924136.700   115212128.102 6      1946.752          38.250    21924140.880    89775692.194 6      1516.950          38.125
G22  23596168.560   123998701.741 6      3767.559          41.500    23596166.720   123998701.748 3      3767.559          23.875    23596174.480    96622389.795 3      2935.760          23.312
G17  23257355.820   122218244.351 7      5340.421          44.187    23257355.240   122218244.351 5      5340.421          33.312    23257362.020    95235006.259 5      4161.367          33.250    23257362.200    95235011.267 7      4161.367          45.250
G21  22526744.640   118378837.111 7      1213.203          45.750    22526744.040   118378837.119 6      1213.203          36.187    22526749.740    92243270.833 5       945.353          35.937
> 2024 05 08 16 01  3.0000000  0 12
G08  22504359.100   118261195.756 7      -124.070          42.812    22504357.280   118261195.766 6      -124.070          40.687    22504374.920    92151645.791 6       -96.678          40.312    22504375.960    92151650.795 7       -96.678          46.062
G04  23132282.940   121560970.293 7      5494.206          42.687    23132281.940   121560970.295 5      5494.206          32.125    23132300.480    94722835.530 5      4281.199          32.125    23132301.060    94722907.538 8      4281.199          48.687
R23  22345316.580   119532385.115 7      4750.589          43.875    22345316.960   119532385.130 7      4750.589          43.562
R21  22438955.920   120075372.525 7       987.658          43.937    22438956.500   120075372.543 7       987.658          43.375    22438973.120    93392033.314 7       768.179          46.000    22438973.480    93392033.319 7       768.179          45.500
R22  20570003.360   109804087.169 7      2962.139          47.937    20570003.920   109804087.172 8      2962.139          48.000    20570012.860    85403266.103 8      2303.886          50.687    20570012.740    85403257.103 8      2303.886          50.437
R07  19815968.940   106076441.093 8      2273.580          49.062    19815969.760   106076441.124 8      2273.580          48.500    19815981.640    82503958.901 8      1768.340          50.562    19815982.000    82503958.901 8      1768.340          49.687
R08  20733828.600   111028718.449 7      5843.256          46.187    20733829.120   111028718.491 7      5843.256          45.500    20733849.000    86355755.222 8      4544.755          49.687    20733848.580    86355754.225 8      4544.755          49.062
G03  20110093.200   105679249.739 8      2611.133          49.500    20110092.180   105679249.747 8      2611.133          50.875    20110100.720    82347500.629 8      2034.649          50.687    20110101.720    82347507.625 8      2034.649          52.562
G02  21923767.920   115210181.303 7      1946.813          46.875    21923766.300   115210181.311 6      1946.813          38.062    21923770.400    89774175.214 6      1516.997          37.937
G22  23595451.720   123994934.611 6      3766.839          41.500    23595449.880   123994934.618 3      3766.839          23.875    23595457.620    96619454.369 3      2935.199          23.312
G17  23256339.820   122212904.084 7      5340.143          42.875    23256339.160   122212904.086 5      5340.143          33.187    23256345.800    95230845.014 5      4161.150          33.250    23256345.900    95230850.022 7      4161.150          45.125
G21  22526513.640   118377623.923 7      1213.204          47.312    22526513.060   118377623.933 6      1213.204          36.187    22526518.920    92242325.491 6       945.354          36.125
> 2024 05 08 16 01  4.0000000  0 12
G08  22504382.720   118261319.991 7      -124.378          43.250    22504381.000   118261319.993 6      -124.378          40.437    22504398.560    92151742.582 6       -96.918          40.187    22504399.600    92151747.584 7       -96.918          46.062
G04  23131237.220   121555476.217 7      5494.089          42.500    23131236.520   121555476.221 5      5494.089          32.125    23131254.680    94718554.438 5      4281.108          32.125    23131255.260    94718626.446 8      4281.108          48.062
R23  22344428.420   119527634.483 7      4750.699          44.125    22344428.820   119527634.501 7      4750.699          43.500
R21  22438771.220   120074384.996 7       987.492          43.937    22438771.400   120074385.013 7       987.492          43.312    22438788.680    93391265.230 7       768.049          46.000    22438788.860    93391265.234 7       768.049          45.812
R22  20569448.840   109801125.134 8      2962.012          48.062    20569449.100   109801125.129 7      2962.012          47.875    20569458.000    85400962.302 8      2303.787          50.437    20569457.980    85400953.302 8      2303.787          50.562
R07  19815544.440   106074167.983 8      2272.721          48.250    19815544.960   106074168.014 8      2272.721          48.187    19815557.120    82502190.931 8      1767.672          50.812    19815557.200    82502190.933 8      1767.672          50.812
R08  20732737.120   111022875.522 7      5842.593          46.000    20732738.240   111022875.564 7      5842.593          45.250    20732757.800    86351210.733 8      4544.239          49.937    20732757.420    86351209.738 8      4544.239          48.750
G03  20109596.480   105676638.872 8      2610.558          49.500    20109595.360   105676638.880 8      2610.558          50.125    20109603.900    82345466.193 8      2034.201          50.812    20109604.860    82345473.187 8      2034.201          52.187
G02  21923397.660   115208234.631 7      1946.643          46.562    21923395.980   115208234.641 6      1946.643          38.250    21923399.980    89772658.328 6      1516.864          38.187
G22  23594734.820   123991167.978 6      3766.407          41.812    23594733.100   123991167.988 3      3766.407          23.875    23594740.700    96616519.332 3      2934.863          23.312
G17  23255323.360   122207563.891 7      5340.145          43.875    23255322.760   122207563.890 5      5340.145          33.187    23255329.480    95226683.825 5      4161.152          33.125    23255329.840    95226688.839 7      4161.152          44.750
G21  22526282.720   118376410.790 7      1213.218          46.875    22526282.460   118376410.795 5      1213.218          35.812    22526288.000    92241380.189 6       945.365          36.562
> 2024 05 08 16 01  5.0000000  0 12
G08  22504406.040   118261444.540 7      -124.673          42.000    22504404.620   118261444.537 6      -124.673          40.625    22504422.420    92151839.620 6       -97.148          40.187    22504423.240    92151844.624 7       -97.148          45.562
G04  23130191.840   121549982.287 7      5493.676          42.437    23130191.100   121549982.292 5      5493.676          32.125    23130209.300    94714273.454 5      4280.786          32.187    23130210.060    94714345.462 8      4280.786          48.187
R23  22343540.340   119522883.784 7      4750.696          44.250    22343540.160   119522883.810 7      4750.696          43.250
R21  22438586.560   120073397.734 7       987.034          42.937    22438587.500   120073397.756 7       987.034          43.125    22438604.040    93390497.351 7       767.693          46.437    22438604.660    93390497.353 7       767.693          45.625
R22  20568894.280   109798163.272 8      2961.721          48.125    20568894.520   109798163.267 7      2961.721          47.750    20568903.000    85398658.630 8      2303.561          50.375    20568902.880    85398649.627 8      2303.561          50.312
R07  19815119.840   106071895.821 8      2271.650          48.750    19815120.740   106071895.857 7      2271.650          47.687    19815132.720    82500423.698 8      1766.839          50.937    19815132.780    82500423.702 8      1766.839          50.750
R08  20731645.780   111017033.157 7      5841.997          45.562    20731647.220   111017033.204 7      5841.997          45.250    20731666.640    86346666.690 8      4543.776          49.937    20731666.180    86346665.693 8      4543.776          48.750
G03  20109099.900   105674028.581 8      2609.981          49.187    20109098.600   105674028.588 8      2609.981          51.125    20109107.200    82343432.199 8      2033.751          51.250    20109107.960    82343439.196 8      2033.751          52.250
G02  21923027.240   115206288.003 7      1946.581          47.125    21923025.420   115206288.005 6      1946.581          38.312    21923029.660    89771141.471 6      1516.816          38.312
G22  23594018.240   123987401.870 7      3765.843          42.000    23594016.380   123987401.880 3      3765.843          23.875    23594023.960    96613584.703 3      2934.423          23.312
G17  23254306.940   122202223.768 7      5340.041          44.000    23254306.560   122202223.771 5      5340.041          33.125    23254312.980    95222522.694 5      4161.071          33.125    23254313.300    95222527.711 7      4161.071          45.062
G21  22526052.100   118375197.668 7      1213.116          47.000    22526051.540   118375197.673 6      1213.116          36.125    22526057.140    92240434.895 6       945.285          36.375
> 2024 05 08 16 01  6.0000000  0 12
G08  22504429.820   118261569.471 7      -125.019          42.750    22504428.360   118261569.468 6      -125.019          40.250    22504446.140    92151936.956 6       -97.417          39.937    22504447.080    92151941.962 7       -97.417          45.000
G04  23129146.600   121544488.452 7      5493.837          42.812    23129145.760   121544488.452 5      5493.837          32.375    23129163.960    94709992.544 5      4280.912          32.187    23129164.420    94710064.553 8      4280.912          48.062
R23  22342652.020   119518133.067 7      4750.783          44.250    22342652.060   119518133.084 7      4750.783          43.250
R21  22438402.220   120072410.747 7       986.862          43.250    22438402.900   120072410.773 7       986.862          43.125    22438419.680    93389729.695 7       767.559          45.562    22438419.920    93389729.699 7       767.559          45.437
R22  20568339.520   109795201.597 8      2961.600          48.375    20568339.880   109795201.593 8      2961.600          48.187    20568348.160    85396355.096 8      2303.467          49.437    20568348.080    85396346.096 8      2303.467          49.437
R07  19814695.520   106069624.614 8      2270.723          49.250    19814696.400   106069624.648 7      2270.723          47.937    19814708.400    82498657.205 8      1766.118          49.812    19814708.580    82498657.208 7      1766.118          47.750
R08  20730555.280   111011191.410 7      5841.461          46.000    20730556.220   111011191.460 7      5841.461          45.250    20730575.720    86342123.126 8      4543.358          49.187    20730575.320    86342122.129 7      4543.358          46.875
G03  20108603.220   105671418.906 8      2609.319          49.125    20108602.080   105671418.911 8      2609.319          50.937    20108610.480    82341398.687 8      2033.235          50.937    20108611.600    82341405.683 8      2033.235          51.875
G02  21922656.820   115204341.456 7      1946.577          46.937    21922655.040   115204341.458 6      1946.577          38.375    21922659.400    89769624.679 6      1516.813          38.375
G22  23593301.520   123983636.316 7      3765.232          42.187    23593299.920   123983636.326 3      3765.232          23.875    23593307.420    96610650.501 3      2933.947          23.875
G17  23253290.860   122196883.769 7      5339.982          43.500    23253290.320   122196883.772 5      5339.982          33.125    23253296.640    95218361.658 5      4161.025          33.125    23253296.860    95218366.658 7      4161.025          44.000
G21  22525821.320   118373984.596 7      1213.002          47.312    22525820.820   118373984.606 5      1213.002          35.937    22525826.400    92239489.648 6       945.197          36.375
> 2024 05 08 16 01  7.0000000  0 12
G08  22504453.760   118261694.619 7      -125.271          42.750    22504452.180   118261694.624 6      -125.271          40.562    22504469.960    92152034.470 6       -97.613          40.187    22504470.540    92152039.476 7       -97.613          45.812
G04  23128101.080   121538994.660 7      5493.720          42.375    23128100.360   121538994.659 5      5493.720          32.375    23128118.400    94705711.672 5      4280.820          32.187    23128118.740    94705783.686 8      4280.820          48.437
R23  22341764.180   119513382.141 7      4750.983          44.500    22341764.080   119513382.156 7      4750.983          43.437
R21  22438217.800   120071423.916 7       986.644          43.250    22438218.560   120071423.944 7       986.644          43.250    22438235.600    93388962.145 7       767.390          46.000    22438235.700    93388962.149 7       767.390          45.500
R22  20567784.380   109792239.976 8      2961.485          48.062    20567784.920   109792239.974 8      2961.485          48.437    20567793.240    85394051.613 8      2303.377          50.312    20567793.360    85394042.615 8      2303.377          50.312
R07  19814271.640   106067354.227 8      2269.857          49.187    19814272.460   106067354.255 8      2269.857          48.500    19814284.340    82496891.344 8      1765.444          51.062    19814284.140    82496891.344 8      1765.444          50.937
R08  20729464.180   111005350.129 7      5840.976          45.250    20729465.300   111005350.184 7      5840.976          44.812    20729485.000    86337579.920 8      4542.981          49.062    20729484.300    86337578.923 8      4542.981          49.312
G03  20108106.820   105668809.673 8      2608.932          49.187    20108105.520   105668809.681 8      2608.932          50.812    20108113.960    82339365.523 8      2032.934          50.812    20108114.900    82339372.517 8      2032.934          52.375
G02  21922286.540   115202394.875 7      1946.533          46.875    21922284.660   115202394.880 6      1946.533          38.250    21922288.980    89768107.865 6      1516.779          38.250
G22  23592584.800   123979871.136 6      3764.849          41.312    23592583.360   123979871.143 3      3764.849          23.875    23592590.900    96607716.590 3      2933.649          23.875
G17  23252274.280   122191543.713 7      5340.067          43.625    23252273.820   122191543.710 5      5340.067          33.125    23252280.300    95214200.575 5      4161.091          32.687    23252280.820    95214205.577 7      4161.091          44.687
G21  22525590.600   118372771.424 7      1213.169          47.500    22525589.980   118372771.434 6      1213.169          36.312    22525595.520    92238544.316 6       945.327          36.437
> 2024 05 08 16 01  8.0000000  0 12
G08  22504477.940   118261820.073 7      -125.730          42.937    22504475.920   118261820.073 6      -125.730          40.625    22504493.620    92152132.216 6       -97.972          40.750    22504494.660    92152137.214 7       -97.972          45.562
G04  23127055.960   121533500.940 7      5493.558          42.375    23127055.060   121533500.940 5      5493.558          31.937    23127072.780    94701430.856 5      4280.695          31.937    23127073.580    94701502.864 8      4280.695          48.375
R23  22340875.720   119508631.124 7      4750.855          44.375    22340875.600   119508631.147 7      4750.855          43.375
R21  22438033.360   120070437.232 7       986.445          43.125    22438034.020   120070437.263 7       986.445          43.312    22438051.180    93388194.714 7       767.235          46.312    22438051.360    93388194.716 7       767.235          45.937
R22  20567229.880   109789278.464 8      2961.283          48.250    20567230.080   109789278.464 8      2961.283          48.125    20567238.480    85391748.219 8      2303.220          50.375    20567238.520    85391739.219 8      2303.220          50.437
R07  19813847.720   106065084.719 8      2268.932          48.750    19813848.360   106065084.751 8      2268.932          48.125    19813860.380    82495126.176 8      1764.725          51.000    19813860.320    82495126.178 8      1764.725          51.187
R08  20728373.880   110999509.373 7      5840.380          45.937    20728374.500   110999509.423 7      5840.380          45.625    20728394.240    86333037.122 8      4542.518          49.500    20728393.660    86333036.125 8      4542.518          48.937
G03  20107610.360   105666200.982 8      2608.349          49.062    20107609.080   105666200.987 8      2608.349          50.375    20107617.500    82337332.780 8      2032.480          50.937    20107618.480    82337339.774 8      2032.480          52.062
G02  21921916.120   115200448.297 7      1946.470          47.000    21921914.280   115200448.305 6      1946.470          38.062    21921918.640    89766591.049 6      1516.730          37.812
G22  23591868.400   123976106.415 6      3764.341          40.937    23591866.840   123976106.423 3      3764.341          23.875    23591874.560    96604783.040 3      2933.252          23.875
G17  23251258.100   122186203.703 7      5339.847          43.500    23251257.520   122186203.695 5      5339.847          32.687    23251264.040    95210039.523 5      4160.920          32.687    23251264.520    95210044.533 7      4160.920          44.375
G21  22525359.880   118371558.228 7      1213.099          47.437    22525359.160   118371558.235 6      1213.099          36.625    22525364.680    92237598.965 6       945.272          36.562
> 2024 05 08 16 01  9.0000000  0 12
G08  22504501.700   118261945.871 7      -126.014          42.125    22504500.200   118261945.870 6      -126.014          40.437    22504517.720    92152230.228 6       -98.192          40.000    22504518.800    92152235.228 7       -98.192          45.625
G04  23126010.520   121528007.374 7      5493.495          42.250    23126009.640   121528007.371 5      5493.495          31.937    23126027.520    94697150.153 5      4280.646          31.937    23126028.320    94697222.163 8      4280.646          48.187
R23  22339987.860   119503880.051 7      4751.093          44.125    22339987.360   119503880.066 7      4751.093          43.687
R21  22437849.240   120069450.818 7       986.307          43.000    22437849.500   120069450.844 7       986.307          43.312    22437867.240    93387427.488 7       767.128          46.500    22437867.180    93387427.484 7       767.128          46.375
R22  20566674.940   109786317.125 7      2961.218          47.875    20566675.320   109786317.129 7      2961.218          47.625    20566683.440    85389444.960 8      2303.170          50.187    20566683.720    85389435.964 8      2303.170          50.125
R07  19813423.960   106062816.149 8      2268.095          49.187    19813424.680   106062816.186 7      2268.095          47.812    19813436.580    82493361.741 8      1764.074          51.125    19813436.520    82493361.743 8      1764.074          50.250
R08  20727283.300   110993669.198 7      5839.776          45.937    20727283.980   110993669.240 7      5839.776          45.812    20727303.620    86328494.779 8      4542.048          49.125    20727303.000    86328493.777 8      4542.048          49.187
G03  20107113.940   105663592.897 8      2607.755          50.250    20107112.780   105663592.900 8      2607.755          51.125    20107121.280    82335300.504 8      2032.017          51.312    20107122.280    82335307.502 8      2032.017          52.437
G02  21921545.660   115198501.824 7      1946.302          46.875    21921543.860   115198501.834 6      1946.302          38.625    21921548.040    89765074.319 6      1516.599          38.687
G22  23591151.960   123972342.228 6      3763.872          40.687    23591150.600   123972342.238 3      3763.872          23.687    23591158.140    96601849.907 3      2932.887          23.875
G17  23250242.020   122180863.775 7      5339.752          44.500    23250241.340   122180863.770 5      5339.752          32.687    23250247.720    95205878.546 5      4160.846          32.437    23250248.620    95205883.556 7      4160.846          44.250
G21  22525129.120   118370345.058 7      1213.147          47.500    22525128.360   118370345.071 6      1213.147          36.250    22525133.840    92236653.636 6       945.309          36.125
> 2024 05 08 16 01 10.0000000  0 12
G08  22504525.960   118262071.968 7      -126.246          42.562    22504524.340   118262071.965 6      -126.246          40.750    22504541.880    92152328.471 6       -98.374          40.312    22504542.900    92152333.465 7       -98.374          45.937
G04  23124965.340   121522513.854 7      5493.500          43.125    23124964.240   121522513.854 5      5493.500          31.937    23124982.240    94692869.492 5      4280.649          31.937    23124982.900    94692941.504 8      4280.649          48.500
R23  22339099.460   119499128.913 7      4751.114          43.625    22339099.120   119499128.936 7      4751.114          43.250
R21  22437665.200   120068464.594 7       986.152          43.000    22437665.320   120068464.631 7       986.152          42.812    22437683.020    93386660.425 7       767.007          46.812    22437683.140    93386660.421 7       767.007          46.312
R22  20566119.960   109783355.928 8      2961.213          48.500    20566120.680   109783355.921 8      2961.213          48.437    20566128.760    85387141.800 8      2303.165          50.312    20566128.940    85387132.802 8      2303.165          50.125
R07  19813000.300   106060548.403 8      2267.435          49.375    19813001.220   106060548.434 7      2267.435          47.812    19813013.020    82491597.936 8      1763.560          50.875    19813012.780    82491597.941 8      1763.560          50.687
R08  20726192.580   110987829.481 7      5839.480          45.625    20726193.140   110987829.522 7      5839.480          45.812    20726213.000    86323952.787 8      4541.818          49.562    20726212.360    86323951.791 8      4541.818          49.312
G03  20106617.680   105660985.330 8      2607.347          48.875    20106616.620   105660985.338 8      2607.347          50.500    20106625.060    82333268.642 8      2031.699          50.750    20106626.140    82333275.638 8      2031.699          52.437
G02  21921175.520   115196555.325 7      1946.540          47.125    21921173.400   115196555.327 6      1946.540          38.687    21921177.760    89763557.562 6      1516.785          38.500
G22  23590435.900   123968578.514 6      3763.595          41.562    23590434.260   123968578.524 3      3763.595          23.687    23590441.960    96598917.143 3      2932.671          23.875
G17  23249225.900   122175523.871 7      5339.935          43.687    23249225.260   122175523.863 5      5339.935          32.687    23249231.740    95201717.582 5      4160.989          32.437    23249232.360    95201722.588 7      4160.989          44.500
G21  22524898.200   118369131.870 7      1213.289          47.000    22524897.400   118369131.885 6      1213.289          36.687    22524902.940    92235708.299 6       945.420          36.812
> 2024 05 08 16 01 11.0000000  0 12
G08  22504549.940   118262198.388 7      -126.530          43.062    22504548.300   118262198.385 6      -126.530          40.875    22504566.020    92152426.964 6       -98.595          40.500    22504567.060    92152431.966 7       -98.595          45.812
G04  23123919.960   121517020.490 7      5493.241          42.812    23123919.020   121517020.495 5      5493.241          32.500    23123936.960    94688588.957 5      4280.448          32.187    23123937.440    94688660.967 7      4280.448          47.875
R23  22338211.280   119494377.715 7      4751.183          44.375    22338211.120   119494377.729 7      4751.183          43.250
R21  22437480.440   120067478.630 7       985.827          42.937    22437480.820   120067478.666 7       985.827          42.812    22437498.840    93385893.552 7       766.754          46.562    22437498.840    93385893.550 7       766.754          46.812
R22  20565565.720   109780394.896 8      2960.991          48.312    20565565.700   109780394.897 8      2960.991          48.250    20565574.100    85384838.780 8      2302.993          50.125    20565574.160    85384829.784 8      2302.993          50.375
R07  19812576.940   106058281.543 8      2266.448          48.687    19812577.620   106058281.580 7      2266.448          47.937    19812589.480    82489834.829 8      1762.793          51.125    19812589.480    82489834.832 8      1762.793          50.937
R08  20725102.000   110981990.347 7      5838.911          45.875    20725102.480   110981990.389 7      5838.911          45.250    20725122.620    86319411.251 8      4541.375          49.125    20725122.120    86319410.254 8      4541.375          49.562
G03  20106121.720   105658378.347 8      2606.742          50.062    20106120.480   105658378.354 8      2606.742          50.875    20106128.980    82331237.226 8      2031.228          51.000    20106129.820    82331244.222 8      2031.228          52.062
G02  21920804.900   115194608.912 7      1946.439          46.625    21920803.120   115194608.917 6      1946.439          38.312    21920807.560    89762040.877 6      1516.706          38.437
G22  23589719.620   123964815.333 6      3762.915          41.125    23589718.100   123964815.343 3      3762.915          23.687    23589725.800    96595984.790 3      2932.142          23.875
G17  23248209.480   122170184.056 7      5339.740          44.375    23248208.820   122170184.048 5      5339.740          32.687    23248215.540    95197556.691 5      4160.836          32.437    23248216.220    95197561.695 7      4160.836          44.500
G21  22524667.140   118367918.719 7      1213.159          46.937    22524666.680   118367918.726 6      1213.159          36.687    22524672.100    92234762.980 6       945.318          36.562
> 2024 05 08 16 01 12.0000000  0 12
G08  22504573.900   118262325.237 7      -127.227          43.250    22504572.320   118262325.244 6      -127.227          40.562    22504590.260    92152525.805 6       -99.138          40.312    22504591.160    92152530.803 7       -99.138          45.625
G04  23122874.500   121511527.293 7      5493.016          42.687    23122873.760   121511527.296 5      5493.016          32.500    23122891.620    94684308.544 5      4280.273          32.187    23122892.000    94684380.548 8      4280.273          48.312
R23  22337323.360   119489626.502 7      4751.113          43.562    22337323.180   119489626.514 7      4751.113          43.625
R21  22437296.480   120066492.973 6       985.422          41.937    22437297.400   120066492.996 7       985.422          42.375    22437314.660    93385126.911 7       766.439          46.562    22437314.540    93385126.905 7       766.439          46.687
R22  20565010.780   109777434.092 7      2960.620          47.562    20565011.260   109777434.090 8      2960.620          48.312    20565019.460    85382535.932 8      2302.704          49.812    20565019.660    85382526.933 8      2302.704          50.500
R07  19812153.620   106056015.625 8      2265.322          49.312    19812154.480   106056015.664 8      2265.322          48.312    19812166.180    82488072.453 8      1761.917          51.000    19812166.380    82488072.457 8      1761.917          50.750
R08  20724011.800   110976151.845 7      5838.061          46.062    20724011.980   110976151.887 7      5838.061          45.250    20724032.160    86314870.207 8      4540.714          49.187    20724031.920    86314869.211 8      4540.714          49.062
G03  20105625.720   105655772.020 8      2605.893          49.437    20105624.620   105655772.019 8      2605.893          50.312    20105632.960    82329206.320 8      2030.566          50.875    20105633.820    82329213.312 8      2030.566          52.000
G02  21920434.500   115192662.618 7      1946.186          46.937    21920432.640   115192662.625 6      1946.186          38.750    21920437.140    89760524.284 6      1516.509          38.750
G22  23589003.580   123961052.699 6      3762.343          39.937    23589001.900   123961052.714 3      3762.343          23.687    23589009.640    96593052.869 3      2931.696          23.875
G17  23247193.360   122164844.375 7      5339.515          43.812    23247192.680   122164844.370 5      5339.515          32.750    23247199.360    95193395.905 5      4160.661          32.437    23247200.620    95193400.907 7      4160.661          44.312
G21  22524436.300   118366705.631 7      1212.936          46.812    22524435.760   118366705.636 6      1212.936          36.312    22524441.340    92233817.716 6       945.145          36.375
> 2024 05 08 16 01 13.0000000  0 12
G08  22504598.180   118262452.396 7      -127.453          42.625    22504596.560   118262452.398 6      -127.453          40.687    22504614.340    92152624.876 6       -99.314          40.000    22504615.300    92152629.869 7       -99.314          45.875
G04  23121829.320   121506034.205 7      5492.980          43.187    23121828.380   121506034.210 5      5492.980          32.062    23121846.380    94680028.217 5      4280.244          32.062    23121846.680    94680100.227 7      4280.244          47.937
R23  22336435.080   119484875.199 7      4751.479          45.062    22336434.920   119484875.206 7      4751.479          43.750
R21  22437112.180   120065507.552 6       985.244          41.937    22437113.300   120065507.575 7       985.244          42.875    22437130.520    93384360.460 7       766.301          47.250    22437130.540    93384360.454 7       766.301          46.625
R22  20564455.900   109774473.442 7      2960.465          46.625    20564456.460   109774473.440 8      2960.465          48.625    20564464.780    85380233.204 8      2302.584          50.250    20564464.800    85380224.204 8      2302.584          50.312
R07  19811730.280   106053750.615 8      2264.492          49.312    19811731.040   106053750.646 8      2264.492          48.312    19811743.220    82486310.776 8      1761.271          51.500    19811743.280    82486310.778 8      1761.271          50.812
R08  20722921.280   110970313.903 7      5837.506          46.375    20722921.840   110970313.943 7      5837.506          45.312    20722941.820    86310329.595 8      4540.282          49.625    20722941.600    86310328.598 8      4540.282          49.000
G03  20105129.780   105653166.237 8      2605.449          49.250    20105128.660   105653166.242 8      2605.449          51.312    20105137.160    82327175.846 8      2030.220          51.375    20105138.100    82327182.844 8      2030.220          52.062
G02  21920064.000   115190716.389 8      1946.154          48.062    21920062.360   115190716.394 6      1946.154          38.750    21920066.840    89759007.738 6      1516.484          38.687
G22  23588287.500   123957290.582 6      3761.898          39.937    23588285.860   123957290.597 3      3761.898          23.687    23588293.820    96590121.350 3      2931.349          23.875
G17  23246177.580   122159504.742 7      5339.651          43.687    23246176.740   122159504.736 5      5339.651          32.750    23246183.400    95189235.151 5      4160.767          32.437    23246184.200    95189240.153 7      4160.767          44.625
G21  22524205.460   118365492.548 7      1213.027          46.875    22524204.900   118365492.555 6      1213.027          36.375    22524210.600    92232872.457 6       945.216          36.625
> 2024 05 08 16 01 14.0000000  0 12
G08  22504622.320   118262579.988 7      -127.681          42.375    22504620.800   118262579.987 6      -127.681          40.437    22504638.520    92152724.286 6       -99.492          40.250    22504639.280    92152729.278 7       -99.492          45.437
G04  23120784.100   121500541.353 7      5492.764          42.875    23120783.240   121500541.355 5      5492.764          32.062    23120801.020    94675748.075 5      4280.076          32.062    23120801.360    94675820.087 8      4280.076          48.312
R23  22335547.200   119480123.979 7      4751.219          45.062    22335546.800   119480124.002 7      4751.219          43.312
R21  22436928.100   120064522.465 7       984.870          43.500    22436929.080   120064522.504 7       984.870          42.875    22436946.140    93383594.283 7       766.010          46.500    22436946.520    93383594.284 7       766.010          46.125
R22  20563901.400   109771513.061 7      2960.212          47.812    20563901.820   109771513.065 8      2960.212          48.000    20563910.200    85377930.684 8      2302.387          50.437    20563910.280    85377921.679 8      2302.387          49.687
R07  19811307.280   106051486.621 8      2263.533          49.187    19811307.980   106051486.650 7      2263.533          47.875    19811320.260    82484549.892 8      1760.526          50.625    19811320.500    82484549.896 8      1760.526          50.687
R08  20721831.460   110964476.628 7      5836.939          46.500    20721831.800   110964476.673 7      5836.939          45.000    20721851.840    86305789.507 8      4539.841          49.250    20721851.640    86305788.510 8      4539.841          48.875
G03  20104634.160   105650561.156 8      2604.766          49.875    20104632.940   105650561.160 8      2604.766          50.875    20104641.420    82325145.915 8      2029.688          51.250    20104642.240    82325152.909 8      2029.688          51.937
G02  21919693.900   115188770.318 7      1945.972          47.937    21919691.900   115188770.326 6      1945.972          38.812    21919696.600    89757491.321 6      1516.342          38.625
G22  23587571.880   123953529.099 6      3761.233          40.875    23587570.120   123953529.114 3      3761.233          23.687    23587578.120    96587190.319 3      2930.831          23.562
G17  23245161.680   122154165.326 7      5339.291          44.187    23245160.660   122154165.326 5      5339.291          32.750    23245167.440    95185074.572 5      4160.487          32.875    23245168.260    95185079.576 7      4160.487          44.562
G21  22523974.520   118364279.604 7      1212.874          46.875    22523974.040   118364279.614 6      1212.874          36.375    22523979.820    92231927.302 6       945.097          36.437
> 2024 05 08 16 01 15.0000000  0 12
G08  22504646.580   118262707.911 7      -128.036          42.312    22504645.220   118262707.911 6      -128.036          40.875    22504662.960    92152823.958 6       -99.768          40.500    22504663.540    92152828.952 7       -99.768          45.562
G04  23119738.820   121495048.603 7      5492.689          42.812    23119737.860   121495048.611 5      5492.689          32.062    23119755.760    94671468.018 5      4280.018          32.062    23119755.980    94671540.028 7      4280.018          47.875
R23  22334658.860   119475372.646 7      4751.392          43.500    22334658.660   119475372.664 7      4751.392          43.812
R21  22436744.100   120063537.609 6       984.685          41.875    22436745.520   120063537.648 7       984.685          42.937    22436762.500    93382828.271 7       765.866          46.750    22436762.560    93382828.269 7       765.866          46.000
R22  20563346.800   109768552.814 7      2960.202          47.062    20563347.200   109768552.813 7      2960.202          47.562    20563355.520    85375628.270 8      2302.379          50.125    20563355.460    85375619.269 8      2302.379          49.937
R07  19810884.780   106049223.514 8      2262.739          48.812    19810885.120   106049223.547 7      2262.739          47.812    19810897.340    82482789.701 8      1759.908          50.812    19810897.660    82482789.704 8      1759.908          50.687
R08  20720741.500   110958639.923 7      5836.516          46.000    20720741.740   110958639.968 7      5836.516          45.000    20720761.780    86301249.864 8      4539.512          49.437    20720761.580    86301248.869 8      4539.512          48.562
G03  20104138.420   105647956.615 8      2604.269          49.875    20104137.340   105647956.623 8      2604.269          51.312    20104145.760    82323116.407 8      2029.300          51.437    20104146.600    82323123.403 8      2029.300          52.562
G02  21919323.360   115186824.274 7      1946.078          47.562    21919321.760   115186824.278 6      1946.078          38.562    21919326.320    89755974.921 6      1516.424          38.750
G22  23586856.060   123949768.088 6      3760.751          40.812    23586854.340   123949768.106 3      3760.751          23.687    23586862.520    96584259.662 3      2930.455          23.562
G17  23244145.480   122148825.908 7      5339.482          43.187    23244144.620   122148825.907 5      5339.482          32.937    23244151.440    95180913.990 5      4160.636          32.875    23244152.480    95180918.998 7      4160.636          45.000
G21  22523743.900   118363066.642 7      1212.960          47.250    22523743.200   118363066.655 6      1212.960          36.500    22523749.000    92230982.137 6       945.164          36.562
> 2024 05 08 16 01 16.0000000  0 12
G08  22504671.120   118262836.145 7      -128.161          42.875    22504669.600   118262836.147 6      -128.161          40.937    22504687.540    92152923.868 6       -99.866          40.500    22504688.100    92152928.866 7       -99.866          45.625
G04  23118693.460   121489555.966 7      5492.771          42.875    23118692.640   121489555.971 5      5492.771          32.250    23118710.580    94667188.044 5      4280.081          32.250    23118710.960    94667260.052 7      4280.081          47.812
R23  22333770.520   119470621.223 7      4751.712          44.375    22333770.560   119470621.240 7      4751.712          43.937
R21  22436560.120   120062552.934 6       984.918          41.875    22436561.280   120062552.970 7       984.918          42.750    22436578.580    93382062.403 7       766.048          46.687    22436578.420    93382062.405 7       766.048          46.250
R22  20562792.360   109765592.728 8      2960.209          48.250    20562792.680   109765592.731 8      2960.209          48.000    20562801.080    85373325.980 8      2302.385          49.375    20562801.020    85373316.980 8      2302.385          49.625
R07  19810462.120   106046961.335 8      2261.980          48.937    19810462.660   106046961.371 7      2261.980          47.812    19810474.780    82481030.237 8      1759.318          50.125    19810475.120    82481030.240 8      1759.318          50.062
R08  20719651.640   110952803.820 7      5836.060          45.875    20719652.140   110952803.852 7      5836.060          44.812    20719671.860    86296710.675 8      4539.157          48.687    20719671.680    86296709.680 8      4539.157          48.375
G03  20103642.820   105645352.635 8      2603.974          49.625    20103641.820   105645352.640 8      2603.974          50.625    20103650.220    82321087.333 8      2029.070          50.375    20103651.140    82321094.330 8      2029.070          51.312
G02  21918953.360   115184878.292 7      1946.164          47.812    21918951.480   115184878.297 6      1946.164          38.500    21918956.160    89754458.573 6      1516.491          38.812
G22  23586140.720   123946007.580 6      3760.448          41.812    23586138.620   123946007.598 3      3760.448          23.687    23586146.960    96581329.393 3      2930.219          23.562
G17  23243129.660   122143486.616 7      5339.358          42.562    23243128.540   122143486.615 5      5339.358          32.937    23243135.420    95176753.505 5      4160.539          32.875    23243136.020    95176758.513 7      4160.539          45.062
G21  22523513.020   118361853.698 7      1213.125          47.062    22523512.400   118361853.709 6      1213.125          36.562    22523518.160    92230036.986 6       945.292          36.375
> 2024 05 08 16 01 17.0000000  0 12
G08  22504695.520   118262964.735 7      -128.962          43.125    22504694.120   118262964.738 6      -128.962          40.625    22504711.780    92153024.058 6      -100.490          40.250    22504712.800    92153029.048 7      -100.490          45.687
G04  23117648.460   121484063.451 7      5492.355          42.937    23117647.400   121484063.450 5      5492.355          32.250    23117665.280    94662908.153 5      4279.757          32.250    23117665.760    94662980.157 8      4279.757          48.187
R23  22332882.080   119465869.743 7      4751.362          44.125    22332881.920   119465869.768 7      4751.362          43.937
R21  22436376.320   120061568.538 6       984.087          41.937    22436377.580   120061568.571 7       984.087          43.437    22436394.820    93381296.749 7       765.401          46.937    22436394.360    93381296.747 7       765.401          46.687
R22  20562237.980   109762632.801 7      2959.666          47.875    20562238.080   109762632.799 8      2959.666          48.375    20562246.620    85371023.796 8      2301.962          50.187    20562246.700    85371014.794 8      2301.962          49.875
R07  19810039.660   106044700.053 8      2260.627          48.625    19810040.120   106044700.092 8      2260.627          48.375    19810052.300    82479271.465 8      1758.266          51.062    19810052.400    82479271.467 8      1758.266          51.062
R08  20718562.120   110946968.232 7      5835.129          46.000    20718562.180   110946968.260 7      5835.129          45.562    20718582.040    86292171.897 8      4538.434          49.625    20718581.840    86292170.899 8      4538.434          49.187
G03  20103147.480   105642749.241 8      2602.935          50.312    20103146.440   105642749.245 8      2602.935          51.187    20103154.880    82319058.716 8      2028.261          51.125    20103155.740    82319065.715 8      2028.261          52.250
G02  21918582.860   115182932.365 7      1945.711          47.562    21918581.200   115182932.373 6      1945.711          38.687    21918585.700    89752942.265 6      1516.139          38.312
G22  23585425.260   123942247.575 6      3759.654          40.875    23585422.980   123942247.591 3      3759.654          23.875    23585431.400    96578399.518 3      2929.601          23.562
G17  23242113.700   122138147.360 7      5338.981          43.687    23242112.440   122138147.360 5      5338.981          32.500    23242119.620    95172593.048 5      4160.245          32.500    23242120.160    95172598.059 7      4160.245          44.875
G21  22523282.360   118360640.778 7      1212.665          46.500    22523281.480   118360640.786 6      1212.665          36.250    22523287.340    92229091.849 6       944.934          36.187
> 2024 05 08 16 01 18.0000000  0 12
G08  22504719.980   118263093.699 6      -128.922          41.750    22504718.600   118263093.696 6      -128.922          40.875    22504736.380    92153124.533 6      -100.459          40.000    22504737.040    92153129.523 7      -100.459          45.375
G04  23116603.480   121478571.111 7      5492.482          42.812    23116602.100   121478571.111 5      5492.482          32.437    23116620.120    94658628.410 5      4279.856          32.250    23116620.600    94658700.420 7      4279.856          47.187
R23  22331993.640   119461118.282 7      4751.576          44.125    22331993.800   119461118.302 7      4751.576          43.500
R21  22436192.300   120060584.430 7       984.145          42.687    22436193.960   120060584.469 7       984.145          43.437    22436210.800    93380531.326 7       765.446          46.500    22436210.400    93380531.326 7       765.446          46.000
R22  20561683.520   109759673.083 8      2959.867          48.062    20561683.520   109759673.086 8      2959.867          48.812    20561692.080    85368721.807 8      2302.119          48.875    20561692.140    85368712.807 8      2302.119          48.750
R07  19809617.300   106042439.683 8      2260.186          49.375    19809617.700   106042439.717 8      2260.186          48.062    19809630.160    82477513.399 8      1757.922          49.062    19809630.140    82477513.402 8      1757.922          51.187
R08  20717472.740   110941133.222 7      5834.924          46.000    20717472.180   110941133.261 7      5834.924          44.687    20717492.260    86287633.572 7      4538.275          47.500    20717492.000    86287632.577 7      4538.275          47.687
G03  20102652.400   105640146.485 8      2602.640          49.250    20102651.280   105640146.492 8      2602.640          49.625    20102659.520    82317030.599 8      2028.031          49.500    20102660.420    82317037.595 8      2028.031          52.437
G02  21918212.440   115180986.565 8      1945.938          48.125    21918210.940   115180986.573 6      1945.938          38.437    21918215.500    89751426.059 6      1516.315          38.375
G22  23584709.820   123938488.170 6      3759.246          41.187    23584707.640   123938488.183 3      3759.246          23.875    23584715.980    96575470.109 3      2929.283          23.562
G17  23241097.560   122132808.255 7      5339.186          44.000    23241096.400   122132808.252 5      5339.186          32.500    23241103.580    95168432.706 5      4160.405          32.500    23241104.340    95168437.713 7      4160.405          44.812
G21  22523051.560   118359427.919 7      1213.027          46.000    22523050.740   118359427.926 6      1213.027          36.312    22523056.520    92228146.758 6       945.216          36.187
> 2024 05 08 16 01 19.0000000  0 12
G08  22504744.520   118263223.096 6      -129.676          41.875    22504743.140   118263223.093 6      -129.676          40.687    22504761.040    92153225.348 6      -101.046          40.250    22504761.780    92153230.344 7      -101.046          45.375
G04  23115557.980   121473078.966 7      5492.096          42.687    23115557.020   121473078.965 5      5492.096          32.437    23115574.940    94654348.820 5      4279.555          32.375    23115575.480    94654420.828 8      4279.555          48.062
R23  22331105.840   119456366.810 7      4751.508          44.125    22331105.480   119456366.830 7      4751.508          43.687
R21  22436008.780   120059600.668 7       983.542          43.687    22436010.180   120059600.696 7       983.542          43.375    22436026.960    93379766.160 7       764.977          47.187    22436026.620    93379766.159 7       764.977          47.187
R22  20561129.100   109756713.623 8      2959.313          48.000    20561129.120   109756713.629 8      2959.313          48.625    20561137.700    85366420.003 8      2301.688          50.375    20561137.820    85366411.003 8      2301.688          50.312
R07  19809195.000   106040180.320 8      2258.841          48.562    19809195.760   106040180.357 8      2258.841          48.125    19809207.900    82475756.121 8      1756.877          50.687    19809208.260    82475756.119 8      1756.877          51.250
R08  20716383.160   110935298.865 7      5834.037          46.312    20716383.220   110935298.901 7      5834.037          45.625    20716402.700    86283095.747 8      4537.584          49.125    20716402.560    86283094.750 8      4537.584          49.000
G03  20102157.160   105637544.378 8      2601.739          49.687    20102156.120   105637544.385 8      2601.739          50.375    20102164.320    82315002.985 8      2027.329          50.875    20102165.300    82315009.981 8      2027.329          52.000
G02  21917842.200   115179040.886 7      1945.624          47.187    21917840.620   115179040.893 6      1945.624          38.875    21917845.120    89749909.941 6      1516.071          38.687
G22  23583994.760   123934729.296 6      3758.622          41.000    23583992.320   123934729.306 3      3758.622          23.875    23584000.900    96572541.114 3      2928.796          23.562
G17  23240081.520   122127469.270 7      5338.900          43.937    23240080.300   122127469.265 5      5338.900          33.062    23240087.700    95164272.463 5      4160.182          33.062    23240088.520    95164277.471 7      4160.182          45.250
G21  22522820.700   118358215.162 7      1212.644          46.875    22522819.980   118358215.169 6      1212.644          36.312    22522825.660    92227201.756 6       944.917          36.437
> 2024 05 08 16 01 20.0000000  0 12
G08  22504769.480   118263352.757 7      -129.547          42.062    22504767.540   118263352.759 6      -129.547          40.562    22504785.560    92153326.378 6      -100.946          39.875    22504786.260    92153331.376 7      -100.946          45.375
G04  23114512.840   121467586.918 7      5492.255          42.875    23114512.000   121467586.917 5      5492.255          32.437    23114530.040    94650069.304 5      4279.679          32.375    23114530.200    94650141.312 7      4279.679          47.750
R23  22330217.760   119451615.280 7      4751.746          43.875    22330216.700   119451615.305 7      4751.746          43.687
R21  22435824.700   120058617.082 7       983.705          43.625    22435826.720   120058617.119 7       983.705          43.375    22435843.320    93379001.147 7       765.104          47.437    22435842.920    93379001.150 7       765.104          46.937
R22  20560574.740   109753754.297 7      2959.454          47.187    20560575.040   109753754.295 8      2959.454          48.500    20560583.420    85364118.299 8      2301.797          50.500    20560583.480    85364109.301 8      2301.797          50.437
R07  19808773.380   106037921.857 8      2258.196          49.000    19808773.840   106037921.882 8      2258.196          48.062    19808786.120    82473999.534 8      1756.375          50.937    19808786.240    82473999.534 8      1756.375          50.625
R08  20715293.680   110929465.046 7      5833.738          46.500    20715293.480   110929465.082 7      5833.738          45.250    20715313.080    86278558.349 8      4537.352          49.187    20715313.160    86278557.352 8      4537.352          49.000
G03  20101661.960   105634942.807 8      2601.496          50.562    20101661.060   105634942.814 8      2601.496          50.625    20101669.280    82312975.791 8      2027.140          50.875    20101670.220    82312982.789 8      2027.140          52.000
G02  21917472.000   115177095.248 7      1945.753          47.937    21917470.400   115177095.258 6      1945.753          38.875    21917474.800    89748393.862 6      1516.171          39.187
G22  23583279.720   123930970.947 6      3758.246          41.250    23583277.160   123930970.957 3      3758.246          23.875    23583285.640    96569612.533 3      2928.504          23.562
G17  23239065.600   122122130.346 7      5339.095          43.250    23239064.200   122122130.343 5      5339.095          33.062    23239071.640    95160112.262 5      4160.334          33.062    23239072.200    95160117.276 7      4160.334          45.250
G21  22522590.020   118357002.376 7      1213.020          46.125    22522589.240   118357002.383 6      1213.020          36.437    22522595.080    92226256.724 6       945.210          36.437
> 2024 05 08 16 01 21.0000000  0 12
G08  22504794.080   118263482.595 6      -129.983          41.750    22504792.140   118263482.595 6      -129.983          40.250    22504810.440    92153427.539 6      -101.286          39.562    22504810.880    92153432.532 7      -101.286          45.562
G04  23113467.600   121462094.814 7      5491.852          43.000    23113467.020   121462094.817 5      5491.852          32.625    23113484.760    94645789.748 5      4279.365          32.500    23113485.020    94645861.753 7      4279.365          47.812
R23  22329329.440   119446863.479 7      4751.740          43.750    22329328.600   119446863.494 7      4751.740          43.687
R21  22435641.300   120057633.574 7       983.317          43.625    22435642.780   120057633.597 7       983.317          43.187    22435659.460    93378236.182 7       764.802          47.125    22435659.140    93378236.176 7       764.802          46.750
R22  20560020.260   109750794.928 7      2959.224          47.500    20560020.560   109750794.926 8      2959.224          48.125    20560029.040    85361816.578 8      2301.619          50.000    20560029.040    85361807.580 8      2301.619          50.375
R07  19808351.660   106035664.121 8      2257.151          49.125    19808351.860   106035664.147 7      2257.151          47.125    19808364.280    82472243.522 8      1755.562          50.937    19808364.380    82472243.522 8      1755.562          51.000
R08  20714204.400   110923631.648 7      5833.062          45.687    20714204.340   110923631.684 7      5833.062          45.000    20714223.860    86274021.270 8      4536.826          48.750    20714223.680    86274020.273 8      4536.826          48.687
G03  20101166.960   105632341.627 8      2600.847          49.937    20101166.060   105632341.637 8      2600.847          50.312    20101174.280    82310948.900 8      2026.634          51.250    20101175.260    82310955.898 8      2026.634          52.250
G02  21917101.820   115175149.463 7      1945.697          47.750    21917100.260   115175149.471 6      1945.697          38.937    21917104.620    89746877.668 6      1516.128          38.687
G22  23582564.680   123927212.922 6      3757.627          41.625    23582562.000   123927212.934 3      3757.627          23.875    23582570.540    96566684.203 3      2928.021          23.562
G17  23238049.900   122116791.322 7      5338.913          43.375    23238048.220   122116791.319 5      5338.913          33.062    23238055.620    95155951.990 5      4160.192          32.562    23238055.980    95155956.996 7      4160.192          44.937
G21  22522359.080   118355789.443 7      1212.849          47.000    22522358.380   118355789.453 6      1212.849          36.312    22522364.260    92225311.582 6       945.077          36.500
> 2024 05 08 16 01 22.0000000  0 12
G08  22504818.780   118263612.726 6      -130.382          41.875    22504817.000   118263612.733 6      -130.382          40.437    22504835.200    92153528.931 6      -101.596          40.000    22504835.800    92153533.927 7      -101.596          45.687
G04  23112422.620   121456602.745 7      5492.043          43.812    23112422.020   121456602.750 5      5492.043          32.625    23112439.600    94641510.215 5      4279.514          32.500    23112439.820    94641582.233 8      4279.514          48.437
R23  22328441.060   119442111.550 7      4751.937          43.812    22328440.440   119442111.565 7      4751.937          43.187
R21  22435457.400   120056650.245 7       983.183          44.000    22435458.820   120056650.268 7       983.183          43.187    22435475.740    93377471.358 7       764.698          47.250    22435475.600    93377471.356 7       764.698          46.625
R22  20559466.000   109747835.679 7      2959.176          47.812    20559465.980   109747835.675 8      2959.176          48.062    20559474.840    85359514.940 8      2301.582          50.437    20559474.900    85359505.940 8      2301.582          50.125
R07  19807930.020   106033407.228 8      2256.315          48.562    19807930.260   106033407.259 8      2256.315          48.250    19807942.600    82470488.165 8      1754.912          50.875    19807942.880    82470488.165 8      1754.912          50.625
R08  20713115.280   110917798.753 7      5832.568          45.562    20713115.180   110917798.792 7      5832.568          45.125    20713134.520    86269484.589 8      4536.442          49.125    20713134.540    86269483.593 8      4536.442          48.687
G03  20100672.100   105629740.978 8      2600.344          50.437    20100671.160   105629740.986 8      2600.344          50.687    20100679.420    82308922.422 8      2026.242          51.187    20100680.480    82308929.419 8      2026.242          51.812
G02  21916731.800   115173203.708 7      1945.647          47.750    21916730.100   115173203.718 6      1945.647          38.875    21916734.380    89745361.495 6      1516.089          38.875
G22  23581849.460   123923455.332 6      3757.293          41.312    23581846.900   123923455.345 3      3757.293          23.875    23581855.380    96563756.207 3      2927.761          23.875
G17  23237033.720   122111452.308 7      5338.939          43.562    23237032.120   122111452.305 5      5338.939          32.687    23237039.700    95151791.721 5      4160.212          32.562    23237039.800    95151796.736 7      4160.212          45.125
G21  22522128.260   118354576.460 7      1212.982          46.562    22522127.300   118354576.467 6      1212.982          36.375    22522133.320    92224366.398 6       945.181          36.625
> 2024 05 08 16 01 23.0000000  0 12
G08  22504843.860   118263743.198 7      -130.543          42.187    22504841.760   118263743.195 6      -130.543          40.375    22504860.000    92153630.581 6      -101.722          39.375    22504860.520    92153635.567 7      -101.722          45.500
G04  23111377.720   121451110.876 7      5491.799          43.687    23111376.900   121451110.881 5      5491.799          32.312    23111394.520    94637230.841 5      4279.324          32.500    23111394.780    94637302.851 7      4279.324          47.937
R23  22327552.280   119437359.589 7      4751.963          43.812    22327551.960   119437359.606 7      4751.963          43.437
R21  22435274.240   120055667.195 7       982.981          44.500    22435275.300   120055667.210 7       982.981          43.312    22435291.800    93376706.744 7       764.541          47.062    22435291.600    93376706.743 7       764.541          46.562
R22  20558911.440   109744876.631 7      2959.071          47.687    20558911.920   109744876.632 8      2959.071          48.187    20558920.440    85357213.452 8      2301.500          50.062    20558920.400    85357204.454 8      2301.500          50.312
R07  19807508.800   106031151.254 8      2255.532          48.625    19807508.820   106031151.282 8      2255.532          48.000    19807521.320    82468733.518 8      1754.303          51.000    19807521.260    82468733.518 8      1754.303          50.500
R08  20712026.020   110911966.423 7      5832.120          46.250    20712025.940   110911966.470 7      5832.120          45.437    20712045.380    86264948.346 8      4536.093          49.500    20712045.180    86264947.349 8      4536.093          48.562
G03  20100177.340   105627140.931 8      2599.809          49.687    20100176.460   105627140.936 8      2599.809          50.937    20100184.600    82306896.410 8      2025.825          51.000    20100185.580    82306903.406 8      2025.825          51.937
G02  21916361.420   115171258.015 7      1945.800          47.437    21916359.740   115171258.023 6      1945.800          38.562    21916364.380    89743845.369 6      1516.208          38.625
G22  23581134.380   123919698.284 6      3756.838          41.750    23581131.920   123919698.299 3      3756.838          23.875    23581140.400    96560828.635 3      2927.406          23.875
G17  23236017.740   122106113.424 7      5338.859          43.250    23236016.180   122106113.423 5      5338.859          32.687    23236023.620    95147631.553 5      4160.150          32.562    23236024.140    95147636.562 7      4160.150          44.937
G21  22521897.340   118353363.548 7      1212.853          46.187    22521896.280   118353363.560 6      1212.853          36.500    22521902.660    92223421.272 6       945.081          36.937
> 2024 05 08 16 01 24.0000000  0 12
G08  22504868.580   118263874.082 6      -131.079          41.937    22504866.560   118263874.087 6      -131.079          39.875    22504884.860    92153732.561 6      -102.139          39.625    22504885.520    92153737.548 7      -102.139          45.625
G04  23110332.860   121445619.180 7      5491.527          44.000    23110331.900   121445619.185 5      5491.527          32.312    23110349.400    94632951.601 5      4279.112          32.125    23110349.660    94633023.609 7      4279.112          47.625
R23  22326664.000   119432607.652 7      4751.755          42.937    22326663.700   119432607.661 7      4751.755          43.125
R21  22435090.900   120054684.414 7       982.593          43.812    22435091.740   120054684.440 7       982.593          42.937    22435108.360    93375942.360 7       764.239          47.062    22435107.920    93375942.360 7       764.239          46.625
R22  20558357.200   109741917.831 7      2958.569          47.062    20558357.400   109741917.826 8      2958.569          48.000    20558366.120    85354912.161 8      2301.109          50.125    20558366.060    85354903.160 8      2301.109          50.312
R07  19807087.540   106028896.264 8      2254.395          49.000    19807087.580   106028896.293 7      2254.395          47.625    19807100.100    82466979.637 8      1753.418          51.062    19807100.040    82466979.637 8      1753.418          50.625
R08  20710936.920   110906134.767 7      5831.190          45.937    20710936.920   110906134.806 7      5831.190          45.250    20710956.120    86260412.621 8      4535.370          49.187    20710956.160    86260411.623 8      4535.370          48.937
G03  20099682.720   105624541.528 8      2599.070          49.625    20099681.700   105624541.533 8      2599.070          50.687    20099690.000    82304870.905 8      2025.249          51.125    20099690.960    82304877.903 8      2025.249          52.000
G02  21915991.240   115169312.488 7      1945.400          47.687    21915989.500   115169312.498 6      1945.400          38.625    21915994.160    89742329.373 6      1515.896          38.250
G22  23580419.400   123915941.843 6      3756.075          41.500    23580417.040   123915941.855 4      3756.075          24.000    23580425.600    96557901.538 3      2926.812          23.875
G17  23235001.660   122100774.702 7      5338.546          43.125    23235000.340   122100774.701 5      5338.546          32.875    23235007.820    95143471.508 5      4159.906          32.562    23235008.540    95143476.510 7      4159.906          45.312
G21  22521666.700   118352150.706 7      1212.703          47.062    22521665.640   118352150.716 6      1212.703          36.500    22521671.940    92222476.192 6       944.963          36.625
> 2024 05 08 16 01 25.0000000  0 12
G08  22504893.720   118264005.490 6      -131.580          41.875    22504891.580   118264005.489 6      -131.580          40.000    22504909.880    92153834.946 6      -102.530          39.437    22504910.600    92153839.933 7      -102.530          45.250
G04  23109287.760   121440127.768 7      5491.453          42.875    23109286.820   121440127.770 5      5491.453          32.187    23109304.380    94628672.583 5      4279.054          32.125    23109304.820    94628744.584 7      4279.054          47.812
R23  22325775.700   119427855.771 7      4752.052          43.500    22325775.280   119427855.783 7      4752.052          43.250
R21  22434907.280   120053702.043 7       982.314          44.375    22434908.280   120053702.072 7       982.314          43.562    22434925.140    93375178.287 7       764.022          47.187    22434924.360    93375178.281 7       764.022          46.937
R22  20557802.960   109738959.343 7      2958.445          47.000    20557803.140   109738959.338 7      2958.445          47.875    20557811.920    85352611.117 8      2301.012          50.562    20557811.940    85352602.114 8      2301.012          50.687
R07  19806666.680   106026642.353 8      2253.530          49.125    19806666.720   106026642.379 7      2253.530          47.812    19806679.080    82465226.595 8      1752.746          50.750    19806678.860    82465226.598 8      1752.746          50.937
R08  20709847.660   110900303.811 7      5830.743          46.375    20709847.840   110900303.853 7      5830.743          45.250    20709867.240    86255877.453 8      4535.022          49.000    20709867.060    86255876.456 8      4535.022          49.062
G03  20099188.220   105621942.868 8      2598.417          50.437    20099187.340   105621942.876 8      2598.417          50.812    20099195.460    82302845.979 8      2024.740          51.187    20099196.360    82302852.979 8      2024.740          52.187
G02  21915621.000   115167367.163 8      1945.348          48.062    21915619.480   115167367.171 6      1945.348          39.062    21915623.900    89740813.534 6      1515.855          39.062
G22  23579704.900   123912186.058 6      3755.671          41.500    23579702.400   123912186.068 4      3755.671          24.000    23579710.800    96554974.951 3      2926.497          23.875
G17  23233986.040   122095436.182 7      5338.520          43.750    23233984.480   122095436.176 5      5338.520          32.875    23233991.960    95139311.627 5      4159.886          32.562    23233992.580    95139316.629 7      4159.886          45.812
G21  22521435.980   118350938.046 7      1212.640          47.250    22521434.740   118350938.057 6      1212.640          36.562    22521441.140    92221531.263 6       944.915          36.125
> 2024 05 08 16 01 26.0000000  0 12
G08  22504919.040   118264137.115 6      -131.685          41.250    22504916.620   118264137.120 6      -131.685          40.125    22504934.900    92153937.499 6      -102.612          39.812    22504935.440    92153942.489 7      -102.612          45.375
G04  23108242.960   121434636.400 7      5491.322          43.875    23108241.880   121434636.402 5      5491.322          32.187    23108259.420    94624393.595 5      4278.952          32.125    23108259.800    94624465.607 7      4278.952          47.437
R23  22324887.280   119423103.775 7      4752.157          44.062    22324886.740   119423103.787 7      4752.157          43.250
R21  22434723.420   120052719.841 7       982.141          44.062    22434724.440   120052719.864 7       982.141          43.562    22434741.640    93374414.335 7       763.887          47.437    22434741.000    93374414.331 7       763.887          47.500
R22  20557248.820   109736000.932 7      2958.270          46.625    20557248.720   109736000.928 7      2958.270          47.687    20557257.620    85350310.143 8      2300.877          49.562    20557257.820    85350301.141 8      2300.877          49.187
R07  19806245.420   106024389.291 8      2252.647          48.937    19806245.800   106024389.319 7      2252.647          47.625    19806258.140    82463474.218 8      1752.059          50.375    19806258.340    82463474.222 8      1752.059          49.937
R08  20708758.760   110894473.376 7      5830.180          45.875    20708759.400   110894473.421 7      5830.180          45.625    20708778.560    86251342.683 8      4534.584          48.437    20708778.620    86251341.684 8      4534.584          48.625
G03  20098693.720   105619344.710 8      2597.901          49.125    20098692.900   105619344.715 8      2597.901          50.000    20098701.080    82300821.443 8      2024.338          50.312    20098702.020    82300828.439 8      2024.338          51.375
G02  21915251.040   115165421.815 7      1945.408          46.750    21915249.320   115165421.817 6      1945.408          38.812    21915253.580    89739297.672 6      1515.902          38.812
G22  23578990.540   123908430.721 6      3755.090          41.125    23578987.660   123908430.731 4      3755.090          24.000    23578996.260    96552048.716 3      2926.044          23.875
G17  23232969.840   122090097.665 7      5338.425          43.687    23232968.600   122090097.662 5      5338.425          33.062    23232976.100    95135151.750 5      4159.811          32.875    23232976.860    95135156.760 7      4159.811          45.750
G21  22521205.300   118349725.324 7      1212.681          45.750    22521203.900   118349725.334 6      1212.681          36.000    22521210.360    92220586.284 6       944.947          36.062
> 2024 05 08 16 01 27.0000000  0 12
G08  22504944.080   118264269.272 6      -132.066          41.875    22504941.760   118264269.271 6      -132.066          40.000    22504959.980    92154040.465 6      -102.909          39.750    22504960.380    92154045.453 7      -102.909          45.625
G04  23107197.940   121429145.324 7      5491.146          43.562    23107197.100   121429145.329 5      5491.146          32.187    23107214.500    94620114.839 5      4278.815          32.125    23107214.760    94620186.853 7      4278.815          47.625
R23  22323999.140   119418351.886 7      4752.160          44.187    22323998.340   119418351.901 7      4752.160          43.062
R21  22434539.660   120051738.091 7       981.772          44.062    22434540.700   120051738.108 7       981.772          43.187    22434558.080    93373650.741 7       763.601          47.375    22434557.780    93373650.740 7       763.601          46.937
R22  20556694.720   109733042.852 7      2958.240          47.812    20556694.600   109733042.848 7      2958.240          47.937    20556703.480    85348009.414 8      2300.853          50.312    20556703.640    85348000.414 8      2300.853          50.687
R07  19805824.700   106022137.304 8      2251.774          48.875    19805825.140   106022137.338 7      2251.774          47.750    19805837.380    82461722.683 8      1751.379          51.437    19805837.440    82461722.685 8      1751.379          50.250
R08  20707670.520   110888643.676 7      5829.658          45.812    20707670.640   110888643.715 7      5829.658          44.812    20707689.960    86246808.484 8      4534.179          49.312    20707690.120    86246807.483 8      4534.179          48.812
G03  20098199.320   105616747.291 8      2597.339          49.812    20098198.640   105616747.296 8      2597.339          50.875    20098206.800    82298797.481 8      2023.900          50.937    20098207.680    82298804.478 8      2023.900          52.125
G02  21914880.600   115163476.703 7      1945.270          47.625    21914879.120   115163476.710 6      1945.270          39.000    21914883.520    89737782.004 6      1515.795          39.125
G22  23578275.860   123904676.048 6      3754.613          40.937    23578273.540   123904676.063 4      3754.613          24.000    23578281.680    96549122.997 3      2925.672          23.875
G17  23231954.280   122084759.387 7      5338.482          44.062    23231952.640   122084759.384 5      5338.482          33.062    23231960.240    95130992.055 5      4159.856          32.875    23231960.860    95130997.065 7      4159.856          45.687
G21  22520974.540   118348512.790 7      1212.702          46.187    22520973.080   118348512.803 5      1212.702          35.937    22520979.660    92219641.452 6       944.962          36.062
> 2024 05 08 16 01 28.0000000  0 12
G08  22504969.000   118264401.764 7      -132.893          42.000    22504966.760   118264401.769 6      -132.893          40.250    22504985.140    92154143.698 6      -103.553          40.250    22504986.120    92154148.686 7      -103.553          45.625
G04  23106152.940   121423654.369 7      5490.648          43.437    23106152.160   121423654.371 5      5490.648          32.500    23106169.640    94615836.174 5      4278.427          32.125    23106169.660    94615908.186 7      4278.427          47.875
R23  22323110.940   119413599.949 7      4751.600          43.812    22323110.140   119413599.956 7      4751.600          44.000
R21  22434356.100   120050756.584 7       981.152          43.437    22434357.140   120050756.593 7       981.152          43.125    22434374.380    93372887.335 7       763.118          47.500    22434374.260    93372887.333 7       763.118          46.625
R22  20556140.720   109730084.962 8      2957.549          48.125    20556140.680   109730084.958 7      2957.549          47.875    20556149.460    85345708.829 8      2300.316          50.125    20556149.500    85345699.831 8      2300.316          50.562
R07  19805404.020   106019886.212 8      2250.373          49.000    19805404.520   106019886.248 8      2250.373          48.000    19805416.760    82459971.837 8      1750.290          50.687    19805416.800    82459971.838 8      1750.290          50.125
R08  20706582.020   110882814.553 7      5828.609          45.500    20706581.900   110882814.590 7      5828.609          45.125    20706601.340    86242274.731 8      4533.363          49.187    20706601.500    86242273.729 8      4533.363          48.562
G03  20097705.400   105614150.463 8      2596.252          50.000    20097704.420   105614150.465 8      2596.252          50.062    20097712.600    82296773.979 8      2023.054          50.687    20097713.240    82296780.975 8      2023.054          51.937
G02  21914510.700   115161531.646 7      1944.769          47.187    21914508.920   115161531.656 6      1944.769          38.687    21914513.300    89736266.378 6      1515.404          38.812
G22  23577561.260   123900921.898 7      3753.686          42.125    23577559.260   123900921.910 4      3753.686          24.000    23577567.200    96546197.683 3      2924.950          23.875
G17  23230938.340   122079421.199 7      5337.893          43.250    23230936.940   122079421.196 5      5337.893          33.187    23230944.540    95126832.434 5      4159.397          33.125    23230945.140    95126837.444 7      4159.397          45.562
G21  22520743.860   118347300.285 7      1212.190          45.937    22520742.280   118347300.295 6      1212.190          36.437    22520749.060    92218696.641 6       944.564          36.625
> 2024 05 08 16 01 29.0000000  0 12
G08  22504994.080   118264534.709 6      -132.981          41.375    22504992.100   118264534.711 6      -132.981          39.750    22505010.420    92154247.281 6      -103.622          39.375    22505011.340    92154252.271 7      -103.622          45.437
G04  23105108.060   121418163.695 7      5490.709          43.687    23105107.360   121418163.697 5      5490.709          32.500    23105124.860    94611557.727 5      4278.475          32.437    23105125.120    94611629.729 7      4278.475          47.125
R23  22322222.740   119408848.041 7      4751.963          43.187    22322221.840   119408848.059 7      4751.963          42.687
R21  22434172.740   120049775.420 7       981.296          43.562    22434174.160   120049775.429 7       981.296          43.125    22434191.540    93372124.188 7       763.230          47.312    22434191.100    93372124.182 7       763.230          46.437
R22  20555586.720   109727127.358 7      2957.741          47.750    20555586.520   109727127.356 7      2957.741          47.687    20555595.240    85343408.474 8      2300.465          50.250    20555595.600    85343399.476 8      2300.465          49.875
R07  19804983.700   106017636.136 8      2249.755          48.500    19804984.220   106017636.165 7      2249.755          47.437    19804996.520    82458221.772 8      1749.810          50.937    19804996.520    82458221.775 8      1749.810          50.375
R08  20705492.920   110876986.103 7      5828.318          46.312    20705493.520   110876986.139 7      5828.318          45.125    20705513.020    86237741.500 8      4533.137          49.187    20705512.780    86237740.500 8      4533.137          49.500
G03  20097211.140   105611554.310 8      2596.034          50.125    20097210.440   105611554.314 8      2596.034          51.250    20097218.580    82294751.006 8      2022.883          51.062    20097219.220    82294758.003 8      2022.883          52.125
G02  21914140.240   115159586.792 7      1944.922          46.625    21914138.720   115159586.799 6      1944.922          38.562    21914143.160    89734750.900 6      1515.524          38.312
G22  23576846.800   123897168.383 7      3753.506          42.312    23576845.200   123897168.399 4      3753.506          24.000    23576852.920    96543272.867 3      2924.810          23.875
G17  23229922.620   122074083.210 7      5338.071          42.875    23229921.180   122074083.209 5      5338.071          33.187    23229928.840    95122672.966 5      4159.536          33.125    23229929.540    95122677.978 7      4159.536          45.875
G21  22520512.940   118346087.925 7      1212.498          44.937    22520511.620   118346087.935 6      1212.498          36.125    22520518.200    92217751.939 6       944.803          36.312
> 2024 05 08 16 01 30.0000000  0 12
G08  22505019.500   118264667.976 7      -133.560          42.062    22505017.600   118264667.981 6      -133.560          40.500    22505035.800    92154351.118 6      -104.073          39.812    22505036.760    92154356.108 7      -104.073          45.562
G04  23104063.300   121412673.098 7      5490.363          43.875    23104062.400   121412673.097 5      5490.363          32.750    23104080.180    94607279.341 5      4278.205          32.437    23104080.420    94607351.351 7      4278.205          47.812
R23  22321334.540   119404096.078 7      4751.878          43.187    22321333.240   119404096.090 7      4751.878          42.687
R21  22433989.620   120048794.437 7       980.748          43.375    22433990.560   120048794.447 7       980.748          43.500    22434007.980    93371361.198 7       762.804          47.312    22434007.620    93371361.196 7       762.804          46.625
R22  20555032.680   109724169.908 8      2957.245          48.562    20555032.500   109724169.909 8      2957.245          48.187    20555041.360    85341108.239 8      2300.080          50.062    20555041.440    85341099.243 8      2300.080          50.375
R07  19804563.600   106015386.915 8      2248.685          48.875    19804563.760   106015386.946 7      2248.685          47.687    19804576.360    82456472.386 8      1748.977          50.750    19804576.240    82456472.388 8      1748.977          49.875
R08  20704404.940   110871158.191 7      5827.515          45.937    20704405.020   110871158.230 7      5827.515          44.937    20704424.700    86233208.698 8      4532.512          49.000    20704424.780    86233207.698 8      4532.512          49.312
G03  20096717.180   105608958.737 8      2595.165          50.687    20096716.540   105608958.742 8      2595.165          50.750    20096724.660    82292728.487 8      2022.206          50.875    20096725.400    82292735.483 8      2022.206          52.062
G02  21913770.100   115157641.961 7      1944.687          47.437    21913768.640   115157641.966 6      1944.687          38.750    21913773.120    89733235.454 6      1515.340          38.687
G22  23576132.860   123893415.371 6      3752.798          41.687    23576130.960   123893415.381 4      3752.798          24.000    23576138.700    96540348.440 4      2924.259          24.187
G17  23228906.700   122068745.281 7      5337.724          43.062    23228905.280   122068745.284 5      5337.724          33.437    23228913.180    95118513.549 5      4159.265          33.062    23228913.760    95118518.562 7      4159.265          45.812
G21  22520282.320   118344875.559 7      1212.246          46.000    22520280.820   118344875.572 5      1212.246          35.875    22520287.520    92216807.240 6       944.608          36.187
> 2024 05 08 16 01 31.0000000  0 12
G08  22505045.120   118264801.759 6      -133.983          41.187    22505043.140   118264801.761 6      -133.983          39.875    22505061.320    92154455.352 6      -104.402          40.062    22505062.260    92154460.335 7      -104.402          45.687
G04  23103018.640   121407182.781 7      5490.316          44.187    23103017.640   121407182.781 5      5490.316          32.750    23103035.200    94603001.175 5      4278.169          32.437    23103035.620    94603073.191 7      4278.169          47.812
R23  22320446.020   119399344.215 7      4751.926          43.062    22320444.780   119399344.222 7      4751.926          43.125
R21  22433806.220   120047813.859 7       980.473          43.375    22433807.260   120047813.871 7       980.473          43.687    22433824.760    93370598.519 7       762.590          47.812    22433824.380    93370598.516 7       762.590          46.937
R22  20554478.720   109721212.784 7      2957.106          47.500    20554478.580   109721212.782 8      2957.106          48.062    20554487.300    85338808.254 8      2299.971          50.437    20554487.480    85338799.254 8      2299.971          50.125
R07  19804143.680   106013138.798 8      2247.704          49.062    19804143.640   106013138.827 7      2247.704          47.250    19804156.140    82454723.855 8      1748.214          50.812    19804156.280    82454723.858 8      1748.214          50.812
R08  20703317.200   110865331.036 7      5826.906          46.312    20703316.820   110865331.073 7      5826.906          45.250    20703336.620    86228676.477 8      4532.038          48.937    20703336.500    86228675.475 8      4532.038          48.937
G03  20096223.520   105606363.900 8      2594.562          49.812    20096222.840   105606363.905 8      2594.562          51.000    20096230.880    82290706.538 8      2021.737          51.062    20096231.820    82290713.534 8      2021.737          51.562
G02  21913399.980   115155697.364 7      1944.624          47.562    21913398.700   115155697.369 6      1944.624          38.875    21913403.220    89731720.182 6      1515.291          38.500
G22  23575418.840   123889663.008 6      3752.309          41.125    23575416.760   123889663.018 4      3752.309          24.000    23575424.640    96537424.516 4      2923.877          24.187
G17  23227891.240   122063407.582 7      5337.767          43.437    23227889.420   122063407.581 5      5337.767          33.437    23227897.520    95114354.303 5      4159.299          33.062    23227897.920    95114359.311 7      4159.299          45.750
G21  22520051.780   118343663.404 7      1212.192          46.625    22520050.120   118343663.414 5      1212.192          35.687    22520056.820    92215862.704 5       944.565          35.875
> 2024 05 08 16 01 32.0000000  0 12
G08  22505070.640   118264935.726 6      -134.220          41.625    22505068.740   118264935.723 6      -134.220          40.375    22505086.780    92154559.725 6      -104.587          39.562    22505088.260    92154564.713 7      -104.587          45.875
G04  23101973.800   121401692.491 7      5490.218          43.687    23101972.860   121401692.493 5      5490.218          32.437    23101990.320    94598723.029 5      4278.092          32.562    23101990.600    94598795.034 7      4278.092          47.625
R23  22319557.740   119394592.158 7      4752.131          43.062    22319556.360   119394592.162 7      4752.131          43.062
R21  22433622.720   120046833.430 7       980.328          44.062    22433624.220   120046833.440 7       980.328          43.000    22433641.560    93369835.954 7       762.477          47.312    22433641.200    93369835.954 7       762.477          46.500
R22  20553924.660   109718255.700 7      2956.971          47.875    20553924.460   109718255.698 7      2956.971          47.312    20553933.500    85336508.287 8      2299.866          50.500    20553933.680    85336499.287 8      2299.866          50.375
R07  19803723.960   106010891.480 8      2246.846          48.687    19803723.920   106010891.511 7      2246.846          47.250    19803736.420    82452975.947 8      1747.547          50.625    19803736.560    82452975.950 8      1747.547          50.062
R08  20702229.040   110859504.323 7      5826.390          46.125    20702228.920   110859504.360 7      5826.390          45.312    20702248.480    86224144.602 8      4531.637          48.875    20702248.480    86224143.598 8      4531.637          49.750
G03  20095729.820   105603769.497 8      2594.098          49.812    20095729.200   105603769.507 8      2594.098          50.750    20095737.160    82288684.929 8      2021.375          51.375    20095738.000    82288691.925 8      2021.375          52.062
G02  21913030.040   115153752.701 7      1944.587          46.750    21913028.640   115153752.706 6      1944.587          38.750    21913033.180    89730204.858 6      1515.263          38.937
G22  23574705.260   123885911.065 6      3751.602          41.687    23574702.760   123885911.078 4      3751.602          24.000    23574710.520    96534500.924 4      2923.326          24.187
G17  23226875.420   122058069.850 7      5337.546          43.062    23226873.620   122058069.850 5      5337.546          33.312    23226881.680    95110195.032 5      4159.127          33.062    23226882.300    95110200.050 7      4159.127          46.000
G21  22519820.980   118342451.112 7      1212.291          45.687    22519819.260   118342451.122 6      1212.291          36.000    22519826.280    92214918.052 6       944.643          36.062
> 2024 05 08 16 01 33.0000000  0 12
G08  22505096.200   118265069.947 6      -134.648          41.250    22505094.100   118265069.960 6      -134.648          40.062    22505112.320    92154664.309 6      -104.920          40.000    22505113.520    92154669.295 7      -104.920          45.687
G04  23100929.120   121396202.227 7      5490.048          44.312    23100928.120   121396202.226 5      5490.048          32.437    23100945.500    94594444.903 5      4277.959          32.562    23100945.780    94594516.913 7      4277.959          47.625
R23  22318669.520   119389839.959 7      4752.085          42.687    22318667.900   119389839.965 7      4752.085          43.062
R21  22433439.480   120045853.235 7       979.890          43.500    22433441.440   120045853.255 7       979.890          43.000    22433458.260    93369073.573 7       762.136          47.500    22433458.040    93369073.571 7       762.136          46.937
R22  20553370.880   109715298.712 7      2956.785          47.812    20553370.640   109715298.702 7      2956.785          47.812    20553379.440    85334208.393 8      2299.721          50.687    20553379.780    85334199.391 8      2299.721          50.937
R07  19803304.460   106008645.028 8      2245.731          49.500    19803304.340   106008645.062 7      2245.731          47.750    19803316.740    82451228.707 8      1746.680          51.000    19803316.700    82451228.712 8      1746.680          50.312
R08  20701140.900   110853678.117 7      5825.850          46.187    20701141.000   110853678.153 7      5825.850          45.500    20701160.620    86219613.120 8      4531.217          49.437    20701160.400    86219612.117 8      4531.217          49.625
G03  20095236.340   105601175.620 8      2593.327          50.125    20095235.540   105601175.627 8      2593.327          50.625    20095243.540    82286663.726 8      2020.774          51.250    20095244.660    82286670.724 8      2020.774          51.687
G02  21912660.120   115151808.017 7      1944.500          47.687    21912658.520   115151808.020 6      1944.500          38.312    21912662.980    89728689.518 6      1515.195          38.500
G22  23573990.900   123882159.521 6      3751.268          40.562    23573988.860   123882159.531 4      3751.268          24.000    23573996.700    96531577.641 4      2923.066          24.187
G17  23225859.400   122052732.077 7      5337.688          42.562    23225857.760   122052732.077 5      5337.688          33.312    23225865.960    95106035.726 5      4159.238          33.062    23225866.200    95106040.736 7      4159.238          45.687
G21  22519590.260   118341238.780 7      1212.144          44.375    22519588.480   118341238.796 5      1212.144          35.875    22519595.600    92213973.379 6       944.528          36.062
> 2024 05 08 16 01 34.0000000  0 12
G08  22505121.760   118265204.584 6      -134.818          41.875    22505119.820   118265204.594 6      -134.818          40.500    22505138.040    92154769.209 6      -105.053          39.875    22505139.280    92154774.190 7      -105.053          45.562
G04  23099884.360   121390712.134 7      5490.127          43.375    23099883.340   121390712.136 5      5490.127          32.750    23099900.800    94590166.912 5      4278.021          32.250    23099901.200    94590238.924 7      4278.021          47.875
R23  22317781.440   119385087.751 7      4752.305          42.687    22317779.200   119385087.764 7      4752.305          43.000
R21  22433256.380   120044873.325 7       979.772          43.375    22433258.480   120044873.351 7       979.772          43.312    22433275.160    93368311.417 7       762.045          46.937    22433274.840    93368311.417 7       762.045          46.625
R22  20552816.900   109712341.916 7      2956.834          47.812    20552816.360   109712341.914 7      2956.834          47.375    20552825.480    85331908.671 8      2299.760          50.437    20552825.680    85331899.669 8      2299.760          50.125
R07  19802884.720   106006399.527 8      2245.146          49.125    19802885.120   106006399.555 7      2245.146          47.562    19802897.260    82449482.206 8      1746.224          50.937    19802897.240    82449482.209 8      1746.224          50.625
R08  20700053.020   110847852.550 7      5825.388          46.187    20700053.260   110847852.586 7      5825.388          45.000    20700072.820    86215082.138 8      4530.858          49.187    20700072.420    86215081.137 8      4530.858          49.187
G03  20094742.980   105598582.352 8      2592.947          50.062    20094742.040   105598582.362 8      2592.947          51.312    20094750.060    82284643.006 8      2020.478          51.687    20094750.820    82284650.002 8      2020.478          51.875
G02  21912290.040   115149863.455 7      1944.562          47.125    21912288.700   115149863.457 6      1944.562          38.812    21912292.860    89727174.274 6      1515.243          39.000
G22  23573277.380   123878408.577 6      3750.726          40.437    23573275.100   123878408.587 4      3750.726          24.000    23573282.940    96528654.830 4      2922.643          24.187
G17  23224843.840   122047394.472 7      5337.675          43.500    23224842.160   122047394.471 5      5337.675          33.500    23224850.240    95101876.553 5      4159.227          33.062    23224850.860    95101881.559 7      4159.227          45.625
G21  22519359.560   118340026.504 7      1212.394          44.250    22519357.760   118340026.514 6      1212.394          36.125    22519364.880    92213028.746 6       944.722          36.312
> 2024 05 08 16 01 35.0000000  0 12
G08  22505147.320   118265339.473 6      -134.788          41.000    22505145.420   118265339.485 6      -134.788          39.625    22505163.680    92154874.311 6      -105.030          39.687    22505164.620    92154879.309 7      -105.030          46.000
G04  23098839.900   121385222.156 7      5490.227          44.000    23098838.680   121385222.156 5      5490.227          32.750    23098856.200    94585889.008 5      4278.099          32.250    23098856.460    94585961.013 7      4278.099          47.875
R23  22316892.580   119380335.467 7      4752.451          43.687    22316890.700   119380335.484 7      4752.451          43.062
R21  22433073.560   120043893.555 7       979.904          44.687    22433075.020   120043893.575 7       979.904          43.687    22433091.940    93367549.365 7       762.148          47.187    22433091.560    93367549.365 7       762.148          46.562
R22  20552262.900   109709385.285 7      2956.732          46.500    20552262.540   109709385.278 7      2956.732          47.625    20552271.540    85329609.060 8      2299.681          50.125    20552272.000    85329600.057 8      2299.681          50.250
R07  19802465.440   106004154.922 8      2244.403          48.375    19802465.700   106004154.948 8      2244.403          48.125    19802477.960    82447736.403 8      1745.647          50.625    19802478.020    82447736.405 8      1745.647          50.312
R08  20698965.120   110842027.484 7      5825.030          45.875    20698965.400   110842027.528 7      5825.030          45.312    20698985.000    86210551.550 8      4530.579          49.437    20698984.860    86210550.547 8      4530.579          49.250
G03  20094249.460   105595989.628 8      2592.646          50.187    20094248.720   105595989.632 8      2592.646          50.750    20094256.580    82282622.697 8      2020.244          51.375    20094257.600    82282629.695 8      2020.244          51.687
G02  21911920.200   115147918.910 7      1944.667          47.687    21911918.620   115147918.918 6      1944.667          39.312    21911922.820    89725659.049 6      1515.325          38.812
G22  23572563.860   123874658.082 6      3750.542          40.875    23572561.160   123874658.092 4      3750.542          24.000    23572569.220    96525732.366 4      2922.501          24.187
G17  23223827.940   122042056.906 7      5337.722          43.562    23223826.480   122042056.900 5      5337.722          33.500    23223834.400    95097717.413 5      4159.264          33.062    23223834.800    95097722.427 7      4159.264          46.000
G21  22519128.960   118338814.228 7      1212.537          45.437    22519126.920   118338814.238 6      1212.537          36.125    22519134.280    92212084.117 5       944.834          35.687
> 2024 05 08 16 01 36.0000000  0 12
G08  22505173.200   118265474.606 6      -135.307          41.062    22505171.100   118265474.619 6      -135.307          39.875    22505189.460    92154979.597 6      -105.434          39.312    22505190.520    92154984.585 7      -105.434          45.812
G04  23097795.280   121379732.168 7      5489.742          42.875    23097794.100   121379732.173 5      5489.742          32.750    23097811.340    94581611.101 5      4277.721          32.875    23097811.800    94581683.117 7      4277.721          47.687
R23  22316004.160   119375582.981 7      4752.419          43.625    22316002.480   119375582.983 7      4752.419          43.062
R21  22432890.340   120042913.876 7       979.461          44.687    22432892.180   120042913.890 7       979.461          43.687    22432908.840    93366787.376 7       761.803          47.187    22432908.660    93366787.372 7       761.803          46.812
R22  20551709.060   109706428.658 7      2956.450          46.812    20551708.700   109706428.650 7      2956.450          47.812    20551717.640    85327309.462 8      2299.461          49.750    20551717.940    85327300.462 8      2299.461          49.687
R07  19802046.720   106001911.067 8      2243.361          48.250    19802046.640   106001911.096 7      2243.361          47.875    19802058.760    82445991.188 8      1744.836          50.125    19802058.900    82445991.190 8      1744.836          50.375
R08  20697877.440   110836202.822 7      5824.268          45.937    20697877.780   110836202.867 7      5824.268          45.250    20697897.440    86206021.268 8      4529.986          48.812    20697897.080    86206020.267 8      4529.986          48.812
G03  20093756.300   105593397.337 8      2592.010          50.437    20093755.440   105593397.339 8      2592.010          50.375    20093763.280    82280602.730 8      2019.748          50.812    20093764.140    82280609.729 8      2019.748          51.437
G02  21911549.920   115145974.292 7      1944.520          47.500    21911548.560   115145974.297 6      1944.520          39.000    21911552.820    89724143.758 6      1515.210          39.000
G22  23571849.920   123870907.994 6      3749.845          41.187    23571847.680   123870908.007 4      3749.845          24.000    23571855.540    96522810.219 4      2921.957          24.187
G17  23222812.400   122036719.277 7      5337.422          43.375    23222810.880   122036719.269 5      5337.422          33.500    23222818.700    95093558.225 5      4159.030          33.062    23222818.880    95093563.242 7      4159.030          45.812
G21  22518898.240   118337601.839 7      1212.339          44.625    22518896.280   118337601.851 6      1212.339          36.062    22518903.660    92211139.394 6       944.680          36.187
> 2024 05 08 16 01 37.0000000  0 12
G08  22505199.160   118265610.223 6      -135.654          41.375    22505197.080   118265610.230 6      -135.654          40.437    22505215.260    92155085.258 6      -105.705          40.000    22505216.300    92155090.246 7      -105.705          46.250
G04  23096750.400   121374242.429 7      5489.756          43.125    23096749.480   121374242.434 5      5489.756          33.125    23096766.820    94577333.385 5      4277.732          32.875    23096767.080    94577405.390 8      4277.732          48.125
R23  22315115.780   119370830.568 7      4752.509          43.500    22315114.020   119370830.570 7      4752.509          42.750
R21  22432707.400   120041934.533 7       979.378          44.750    22432709.360   120041934.556 7       979.378          43.312    22432725.940    93366025.663 7       761.739          47.312    22432725.600    93366025.661 7       761.739          47.437
R22  20551155.400   109703472.348 7      2956.262          47.312    20551154.760   109703472.346 7      2956.262          47.437    20551163.720    85325010.116 8      2299.315          49.937    20551164.000    85325001.114 8      2299.315          50.125
R07  19801627.320   105999668.256 8      2242.450          48.562    19801627.840   105999668.282 7      2242.450          47.375    19801639.720    82444246.777 8      1744.128          50.625    19801640.100    82444246.778 8      1744.128          51.062
R08  20696789.640   110830378.854 7      5823.765          46.125    20696790.280   110830378.896 7      5823.765          45.312    20696809.820    86201491.530 8      4529.595          49.562    20696809.220    86201490.528 8      4529.595          49.437
G03  20093262.920   105590805.782 8      2591.394          49.687    20093262.340   105590805.790 8      2591.394          50.875    20093270.160    82278583.343 8      2019.268          51.187    20093270.840    82278590.343 8      2019.268          52.000
G02  21911180.120   115144029.871 7      1944.545          47.062    21911178.520   115144029.876 6      1944.545          38.937    21911182.760    89722628.625 6      1515.230          39.187
G22  23571136.300   123867158.555 6      3749.251          40.687    23571134.340   123867158.568 4      3749.251          24.000    23571142.140    96519888.577 4      2921.494          24.312
G17  23221796.600   122031381.848 7      5337.546          43.250    23221795.260   122031381.840 5      5337.546          33.187    23221803.040    95089399.192 5      4159.127          33.062    23221803.560    95089404.192 7      4159.127          45.937
G21  22518667.560   118336389.610 7      1212.265          44.250    22518665.580   118336389.614 6      1212.265          36.187    22518672.800    92210194.794 5       944.622          35.812
> 2024 05 08 16 01 38.0000000  0 12
G08  22505225.020   118265746.034 7      -136.217          42.250    22505223.100   118265746.036 6      -136.217          40.375    22505241.080    92155191.068 6      -106.143          39.375    22505242.340    92155196.060 7      -106.143          46.312
G04  23095705.640   121368752.691 7      5489.436          44.500    23095704.860   121368752.698 5      5489.436          33.125    23095722.200    94573055.668 5      4277.483          32.875    23095722.480    94573127.676 7      4277.483          47.812
R23  22314226.900   119366077.965 7      4752.297          43.250    22314225.740   119366077.972 7      4752.297          43.312
R21  22432524.100   120040955.381 7       978.702          44.125    22432525.980   120040955.404 7       978.702          43.437    22432542.560    93365264.081 7       761.213          47.000    22432542.680    93365264.082 7       761.213          47.375
R22  20550601.620   109700516.075 7      2955.871          46.687    20550600.900   109700516.070 7      2955.871          47.812    20550609.900    85322710.789 8      2299.011          50.312    20550610.040    85322701.789 8      2299.011          49.937
R07  19801208.460   105997426.210 8      2241.241          49.250    19801208.960   105997426.238 7      2241.241          47.937    19801220.900    82442502.972 8      1743.188          51.000    19801221.020    82442502.970 8      1743.188          50.375
R08  20695701.960   110824555.346 7      5822.854          46.312    20695702.720   110824555.393 7      5822.854          45.062    20695722.360    86196962.151 8      4528.886          49.312    20695721.940    86196961.150 8      4528.886          49.062
G03  20092769.800   105588214.684 8      2590.473          50.312    20092769.300   105588214.687 8      2590.473          50.812    20092777.060    82276564.304 8      2018.550          51.062    20092777.820    82276571.300 8      2018.550          51.875
G02  21910810.020   115142085.408 7      1944.105          47.687    21910808.420   115142085.413 6      1944.105          39.187    21910812.760    89721113.459 6      1514.887          39.000
G22  23570423.360   123863409.500 6      3748.481          41.750    23570420.900   123863409.512 4      3748.481          24.250    23570428.660    96516967.235 4      2920.894          24.312
G17  23220781.100   122026044.400 7      5337.074          43.312    23220779.680   122026044.395 5      5337.074          33.187    23220787.300    95085240.140 5      4158.759          33.062    23220787.900    95085245.142 7      4158.759          45.562
G21  22518436.980   118335177.265 7      1211.979          44.750    22518434.900   118335177.272 6      1211.979          36.125    22518442.260    92209250.106 6       944.399          36.250
> 2024 05 08 16 01 39.0000000  0 12
G08  22505251.100   118265882.423 7      -136.594          42.875    22505249.000   118265882.433 6      -136.594          40.375    22505267.060    92155297.340 6      -106.437          40.000    22505268.040    92155302.327 7      -106.437          45.750
G04  23094661.020   121363263.299 7      5489.526          43.125    23094660.460   121363263.307 5      5489.526          33.125    23094677.680    94568778.224 5      4277.553          32.812    23094678.160    94568850.232 8      4277.553          48.062
R23  22313338.500   119361325.517 7      4752.631          43.250    22313337.320   119361325.524 7      4752.631          43.312
R21  22432341.140   120039976.721 7       978.587          44.812    22432343.200   120039976.747 7       978.587          43.937    22432359.520    93364502.895 7       761.123          46.750    22432359.680    93364502.895 7       761.123          46.500
R22  20550047.480   109697560.178 8      2955.949          48.875    20550047.100   109697560.174 8      2955.949          48.250    20550056.220    85320411.767 8      2299.071          50.312    20550056.380    85320402.762 8      2299.071          50.312
R07  19800789.920   105995185.275 8      2240.633          50.625    19800790.480   105995185.295 8      2240.633          48.562    19800802.380    82440760.016 8      1742.714          50.562    19800802.420    82440760.015 8      1742.714          50.937
R08  20694614.600   110818732.628 7      5822.558          46.750    20694615.780   110818732.678 7      5822.558          45.687    20694635.060    86192433.381 8      4528.656          49.625    20694634.560    86192432.380 8      4528.656          49.500
G03  20092276.900   105585624.354 8      2590.212          51.062    20092276.460   105585624.353 8      2590.212          51.500    20092284.160    82274545.865 8      2018.347          51.312    20092284.840    82274552.863 8      2018.347          51.875
G02  21910440.020   115140141.211 7      1944.235          47.812    21910438.480   115140141.213 6      1944.235          39.125    21910442.940    89719598.498 6      1514.988          39.250
G22  23569709.820   123859661.175 6      3748.093          41.437    23569707.480   123859661.185 4      3748.093          24.250    23569715.360    96514046.460 4      2920.592          24.312
G17  23219765.900   122020707.216 7      5337.327          42.687    23219763.760   122020707.210 5      5337.327          33.375    23219771.840    95081081.298 5      4158.956          33.062    23219772.640    95081086.302 7      4158.956          45.875
G21  22518206.360   118333965.157 7      1212.195          46.187    22518204.240   118333965.167 6      1212.195          36.062    22518211.460    92208305.604 6       944.568          36.250
> 2024 05 08 16 01 40.0000000  0 12
G08  22505276.820   118266019.056 7      -136.735          42.437    22505275.000   118266019.059 6      -136.735          40.500    22505293.160    92155403.791 6      -106.547          39.750    22505294.300    92155408.785 7      -106.547          45.937
G04  23093616.540   121357773.984 7      5489.406          44.375    23093615.760   121357773.994 5      5489.406          33.125    23093633.060    94564500.838 5      4277.459          32.812    23093633.340    94564572.848 8      4277.459          48.187
R23  22312450.620   119356572.973 7      4752.528          44.687    22312448.860   119356572.982 7      4752.528          44.000
R21  22432158.260   120038998.238 7       978.332          45.187    22432160.020   120038998.266 7       978.332          43.937    22432176.380    93363741.850 7       760.925          46.875    22432176.660    93363741.853 7       760.925          46.250
R22  20549493.940   109694604.418 8      2955.689          49.312    20549493.640   109694604.411 8      2955.689          48.562    20549502.560    85318112.830 8      2298.869          50.312    20549502.760    85318103.827 8      2298.869          50.437
R07  19800371.300   105992945.188 8      2239.682          50.312    19800371.740   105992945.209 8      2239.682          49.062    19800383.800    82439017.731 8      1741.975          51.000    19800384.060    82439017.733 8      1741.975          50.437
R08  20693527.460   110812910.438 7      5821.952          47.312    20693528.460   110812910.482 7      5821.952          46.812    20693547.780    86187905.021 8      4528.185          49.687    20693547.120    86187904.020 8      4528.185          48.812
G03  20091784.160   105583034.575 8      2589.554          50.937    20091783.540   105583034.575 8      2589.554          52.187    20091791.220    82272527.857 8      2017.834          51.437    20091791.880    82272534.858 8      2017.834          51.250
G02  21910070.340   115138197.010 8      1944.206          48.062    21910068.480   115138197.015 6      1944.206          39.187    21910073.020    89718083.537 6      1514.966          39.125
G22  23568996.640   123855913.294 6      3747.666          40.375    23568994.300   123855913.307 4      3747.666          24.250    23569002.100    96511126.036 4      2920.259          24.312
G17  23218750.340   122015370.078 7      5337.121          43.750    23218748.200   122015370.078 5      5337.121          33.375    23218756.020    95076922.496 5      4158.796          33.062    23218756.860    95076927.504 7      4158.796          45.875
G21  22517975.680   118332753.023 7      1212.169          46.000    22517973.360   118332753.030 6      1212.169          36.312    22517980.820    92207361.081 6       944.548          36.062
> 2024 05 08 16 01 41.0000000  0 12
G08  22505302.980   118266155.995 6      -137.133          41.500    22505300.980   118266156.002 6      -137.133          39.875    22505319.040    92155510.490 6      -106.857          39.562    22505320.560    92155515.484 7      -106.857          45.750
G04  23092571.920   121352284.765 7      5489.254          44.687    23092571.080   121352284.770 5      5489.254          33.250    23092588.500    94560223.523 5      4277.341          33.187    23092589.040    94560295.529 7      4277.341          47.812
R23  22311561.880   119351820.303 7      4752.690          44.750    22311560.220   119351820.310 7      4752.690          43.812
R21  22431975.400   120038019.942 7       978.198          45.375    22431977.480   120038019.967 7       978.198          44.500    22431993.880    93362980.947 7       760.821          46.937    22431993.760    93362980.948 7       760.821          46.937
R22  20548940.400   109691648.770 7      2955.575          47.750    20548939.760   109691648.766 8      2955.575          48.750    20548948.800    85315814.011 8      2298.781          50.125    20548948.740    85315805.010 8      2298.781          50.312
R07  19799952.900   105990705.990 8      2238.775          49.625    19799953.600   105990706.011 8      2238.775          48.937    19799965.480    82437276.135 8      1741.270          50.687    19799965.760    82437276.137 8      1741.270          50.437
R08  20692440.060   110807088.751 7      5821.460          47.812    20692441.360   110807088.798 7      5821.460          46.812    20692460.720    86183377.059 8      4527.802          49.437    20692459.920    86183376.060 8      4527.802          48.625
G03  20091291.360   105580445.306 8      2589.022          51.312    20091290.760   105580445.311 8      2589.022          51.687    20091298.560    82270510.255 8      2017.419          51.437    20091299.320    82270517.254 8      2017.419          51.500
G02  21909700.160   115136252.826 8      1944.193          48.437    21909698.600   115136252.836 6      1944.193          39.437    21909702.780    89716568.590 6      1514.955          39.000
G22  23568283.380   123852165.899 6      3747.193          40.500    23568281.160   123852165.915 4      3747.193          24.250    23568289.140    96508205.988 4      2919.891          24.312
G17  23217734.640   122010032.962 7      5337.082          43.187    23217732.440   122010032.959 5      5337.082          33.437    23217740.380    95072763.706 5      4158.765          33.125    23217741.180    95072768.720 7      4158.765          46.250
G21  22517744.800   118331540.867 7      1212.179          46.312    22517743.040   118331540.877 6      1212.179          36.375    22517750.080    92206416.545 6       944.555          36.250
> 2024 05 08 16 01 42.0000000  0 12
G08  22505328.980   118266293.411 6      -138.089          40.812    22505327.200   118266293.416 6      -138.089          39.687    22505345.220    92155617.551 6      -107.602          39.312    22505346.620    92155622.545 7      -107.602          45.687
G04  23091527.660   121346795.810 7      5488.358          44.375    23091526.660   121346795.807 5      5488.358          33.250    23091543.960    94555946.419 5      4276.643          33.187    23091544.460    94556018.416 8      4276.643          48.500
R23  22310673.260   119347067.729 7      4752.094          43.437    22310671.880   119347067.733 7      4752.094          43.812
R21  22431792.460   120037041.996 7       977.355          45.375    22431794.600   120037042.022 7       977.355          44.000    22431811.120    93362220.308 7       760.165          46.062    22431811.120    93362220.313 7       760.165          45.750
R22  20548386.680   109688693.413 7      2954.879          47.687    20548386.060   109688693.403 7      2954.879          47.687    20548395.260    85313515.397 8      2298.239          48.687    20548395.300    85313506.395 8      2298.239          48.687
R07  19799534.960   105988467.860 8      2237.208          49.125    19799535.680   105988467.883 7      2237.208          47.937    19799547.400    82435535.367 8      1740.051          49.437    19799547.500    82435535.369 8      1740.051          48.937
R08  20691353.300   110801267.813 7      5820.217          45.750    20691354.180   110801267.855 7      5820.217          46.312    20691373.740    86178849.676 8      4526.835          48.500    20691373.180    86178848.676 8      4526.835          48.437
G03  20090798.780   105577856.752 8      2587.842          50.062    20090798.160   105577856.757 8      2587.842          49.625    20090805.960    82268493.200 8      2016.500          49.500    20090806.640    82268500.198 8      2016.500          50.875
G02  21909330.220   115134308.849 7      1943.464          47.062    21909328.720   115134308.854 6      1943.464          39.375    21909332.860    89715053.800 6      1514.387          38.812
G22  23567569.940   123848419.151 6      3746.128          41.500    23567568.100   123848419.166 4      3746.128          24.250    23567576.220    96505286.442 4      2919.061          24.312
G17  23216718.780   122004696.079 7      5336.283          43.500    23216716.840   122004696.076 5      5336.283          33.437    23216724.980    95068605.098 5      4158.143          33.125    23216725.820    95068610.104 7      4158.143          45.312
G21  22517514.340   118330328.859 7      1211.542          45.937    22517512.420   118330328.869 5      1211.542          35.875    22517519.540    92205472.121 6       944.059          36.375
> 2024 05 08 16 01 43.0000000  0 12
G08  22505355.540   118266431.233 6      -138.064          41.125    22505353.620   118266431.232 6      -138.064          39.437    22505371.500    92155724.932 6      -107.583          39.937    22505372.520    92155729.922 7      -107.583          46.000
G04  23090483.120   121341307.031 7      5488.653          44.125    23090482.180   121341307.028 5      5488.653          33.250    23090499.580    94551669.444 5      4276.872          33.312    23090500.000    94551741.445 8      4276.872          48.250
R23  22309784.980   119342315.182 7      4752.399          43.437    22309783.580   119342315.184 7      4752.399          42.812
R21  22431610.020   120036064.361 7       977.462          43.312    22431611.020   120036064.387 7       977.462          43.375    22431628.480    93361459.915 7       760.248          47.562    22431628.300    93361459.915 7       760.248          47.250
R22  20547833.160   109685738.309 7      2954.946          47.250    20547832.420   109685738.302 7      2954.946          47.812    20547841.800    85311216.975 8      2298.291          50.500    20547841.700    85311207.973 8      2298.291          50.375
R07  19799117.200   105986230.737 8      2236.583          48.562    19799117.660   105986230.765 7      2236.583          47.687    19799129.620    82433795.390 8      1739.565          50.500    19799129.440    82433795.388 8      1739.565          50.312
R08  20690266.220   110795447.535 7      5819.924          46.750    20690267.520   110795447.576 7      5819.924          45.750    20690286.820    86174322.801 8      4526.607          49.812    20690286.080    86174321.801 8      4526.607          49.375
G03  20090306.360   105575268.865 8      2587.497          50.187    20090305.720   105575268.870 8      2587.497          50.750    20090313.520    82266476.667 8      2016.231          51.062    20090314.300    82266483.663 8      2016.231          51.687
G02  21908960.440   115132365.006 8      1943.705          48.125    21908958.920   115132365.011 6      1943.705          38.875    21908962.840    89713539.118 6      1514.575          38.875
G22  23566857.100   123844673.007 6      3745.755          41.937    23566855.200   123844673.025 4      3745.755          24.250    23566863.440    96502367.368 4      2918.770          24.312
G17  23215703.040   121999359.325 7      5336.648          43.312    23215701.240   121999359.325 5      5336.648          33.250    23215709.360    95064446.589 5      4158.427          33.125    23215709.620    95064451.593 7      4158.427          45.937
G21  22517283.820   118329116.961 7      1211.818          45.750    22517281.680   118329116.969 6      1211.818          36.187    22517288.940    92204527.779 6       944.273          36.125
> 2024 05 08 16 01 44.0000000  0 12
G08  22505381.820   118266569.372 7      -138.505          42.812    22505380.020   118266569.377 6      -138.505          40.875    22505397.840    92155832.567 6      -107.926          40.187    22505399.120    92155837.559 7      -107.926          45.937
G04  23089438.540   121335818.359 7      5488.492          43.125    23089437.720   121335818.361 5      5488.492          33.250    23089454.940    94547392.563 5      4276.747          33.312    23089455.900    94547464.575 8      4276.747          48.187
R23  22308896.280   119337562.518 7      4752.542          43.375    22308894.580   119337562.530 7      4752.542          42.750
R21  22431427.460   120035086.943 7       977.326          43.312    22431428.900   120035086.976 7       977.326          43.375    22431445.760    93360699.699 7       760.143          47.187    22431445.700    93360699.699 7       760.143          47.250
R22  20547279.600   109682783.328 7      2954.866          47.562    20547278.620   109682783.324 7      2954.866          47.562    20547288.080    85308918.659 8      2298.229          50.125    20547288.340    85308909.658 8      2298.229          50.125
R07  19798699.480   105983994.488 8      2235.778          48.562    19798700.360   105983994.511 7      2235.778          47.500    19798711.780    82432056.084 8      1738.939          50.937    19798711.720    82432056.084 8      1738.939          50.812
R08  20689179.600   110789627.783 7      5819.394          46.500    20689180.820   110789627.822 7      5819.394          45.687    20689200.000    86169796.340 8      4526.195          49.937    20689199.620    86169795.343 8      4526.195          49.375
G03  20089814.000   105572681.519 8      2586.977          49.875    20089813.420   105572681.524 8      2586.977          51.000    20089821.120    82264460.555 8      2015.826          51.000    20089821.860    82264467.554 8      2015.826          51.500
G02  21908590.520   115130421.195 8      1943.734          48.187    21908589.000   115130421.197 6      1943.734          39.375    21908593.000    89712024.459 6      1514.598          39.062
G22  23566144.840   123840927.339 6      3745.228          40.625    23566142.460   123840927.354 4      3745.228          24.250    23566150.600    96499448.666 4      2918.360          24.312
G17  23214687.460   121994022.629 7      5336.633          43.875    23214685.680   121994022.623 5      5336.633          33.250    23214693.940    95060288.122 5      4158.415          33.187    23214694.280    95060293.130 7      4158.415          45.875
G21  22517053.160   118327905.053 7      1211.764          44.875    22517051.080   118327905.063 6      1211.764          36.125    22517058.340    92203583.434 6       944.231          36.437
> 2024 05 08 16 01 45.0000000  0 12
G08  22505407.980   118266707.745 7      -138.729          42.562    22505406.340   118266707.752 6      -138.729          40.062    22505424.220    92155940.378 6      -108.100          39.812    22505425.420    92155945.372 7      -108.100          45.625
G04  23088394.180   121330329.750 7      5488.300          43.875    23088393.260   121330329.755 5      5488.300          33.375    23088410.380    94543115.727 5      4276.598          33.125    23088411.260    94543187.733 8      4276.598          48.250
R23  22308007.840   119332809.722 7      4752.707          43.500    22308006.500   119332809.734 7      4752.707          42.750
R21  22431244.780   120034109.722 7       977.003          43.562    22431246.580   120034109.748 7       977.003          43.625    22431263.280    93359939.620 7       759.892          47.500    22431263.200    93359939.618 7       759.892          47.000
R22  20546725.920   109679828.443 7      2954.674          46.250    20546725.480   109679828.442 7      2954.674          47.625    20546734.640    85306620.419 8      2298.080          50.750    20546734.840    85306611.417 8      2298.080          50.687
R07  19798281.620   105981759.053 8      2234.903          49.312    19798282.800   105981759.079 8      2234.903          48.000    19798294.240    82430317.418 8      1738.258          51.000    19798294.260    82430317.419 8      1738.258          50.812
R08  20688092.600   110783808.479 7      5818.992          46.375    20688094.260   110783808.516 7      5818.992          46.000    20688113.380    86165270.225 8      4525.882          49.625    20688112.800    86165269.228 8      4525.882          48.937
G03  20089321.800   105570094.657 8      2586.460          50.312    20089321.200   105570094.662 8      2586.460          50.937    20089328.780    82262444.821 8      2015.423          51.687    20089329.560    82262451.819 8      2015.423          51.312
G02  21908220.720   115128477.363 7      1943.645          47.875    21908219.200   115128477.367 6      1943.645          39.250    21908223.200    89710509.787 6      1514.529          39.062
G22  23565432.280   123837182.083 6      3744.920          41.875    23565429.900   123837182.095 4      3744.920          24.250    23565438.040    96496530.278 4      2918.119          24.312
G17  23213672.040   121988685.925 7      5336.591          43.375    23213670.120   121988685.919 5      5336.591          33.500    23213678.360    95056129.651 5      4158.383          33.187    23213678.940    95056134.664 7      4158.383          46.125
G21  22516822.340   118326693.073 7      1211.893          46.125    22516820.380   118326693.083 6      1211.893          36.125    22516827.500    92202639.033 6       944.332          36.125
> 2024 05 08 16 01 46.0000000  0 12
G08  22505434.360   118266846.488 7      -138.742          42.812    22505432.820   118266846.498 6      -138.742          39.937    22505450.680    92156048.483 6      -108.110          39.562    22505451.480    92156053.481 7      -108.110          46.062
G04  23087349.540   121324841.255 7      5488.611          44.125    23087348.740   121324841.257 5      5488.611          33.375    23087366.160    94538838.979 5      4276.840          33.125    23087366.800    94538910.983 7      4276.840          47.937
R23  22307118.980   119328056.905 7      4752.942          43.062    22307118.100   119328056.912 7      4752.942          42.875
R21  22431062.380   120033132.791 7       976.880          43.562    22431063.640   120033132.824 7       976.880          43.312    22431080.740    93359179.782 7       759.796          46.875    22431080.560    93359179.778 7       759.796          46.437
R22  20546172.580   109676873.764 7      2954.684          47.187    20546171.980   109676873.760 7      2954.684          47.750    20546181.140    85304322.329 8      2298.087          50.125    20546181.300    85304313.329 8      2298.087          49.500
R07  19797864.200   105979524.563 8      2234.181          48.687    19797865.320   105979524.592 7      2234.181          47.812    19797876.680    82428579.484 8      1737.696          50.125    19797876.760    82428579.482 8      1737.696          50.250
R08  20687006.320   110777989.820 7      5818.470          46.375    20687007.660   110777989.865 7      5818.470          46.125    20687026.840    86160744.620 8      4525.477          49.062    20687026.300    86160743.623 8      4525.477          49.062
G03  20088829.540   105567508.423 8      2586.048          49.500    20088829.080   105567508.425 8      2586.048          50.437    20088836.720    82260429.573 8      2015.102          51.000    20088837.460    82260436.570 8      2015.102          50.687
G02  21907850.960   115126533.620 7      1943.869          47.500    21907849.300   115126533.627 6      1943.869          39.812    21907853.100    89708995.180 6      1514.703          39.250
G22  23564719.640   123833437.368 6      3744.600          40.875    23564717.320   123833437.381 4      3744.600          24.250    23564725.280    96493612.321 4      2917.870          24.312
G17  23212656.760   121983349.334 7      5336.741          42.937    23212654.680   121983349.328 5      5336.741          33.500    23212662.840    95051971.273 5      4158.500          33.375    23212663.140    95051976.281 7      4158.500          45.625
G21  22516591.820   118325481.162 7      1212.027          46.500    22516589.840   118325481.172 6      1212.027          36.062    22516596.960    92201694.680 6       944.436          36.312
> 2024 05 08 16 01 47.0000000  0 12
G08  22505460.580   118266985.366 7      -138.998          43.062    22505459.340   118266985.373 6      -138.998          40.500    22505476.920    92156156.683 6      -108.310          40.062    22505477.640    92156161.679 7      -108.310          45.875
G04  23086305.240   121319352.683 7      5488.657          43.187    23086304.340   121319352.688 5      5488.657          33.437    23086321.740    94534562.172 5      4276.875          33.125    23086322.500    94534634.180 8      4276.875          48.375
R23  22306231.020   119323303.778 7      4753.104          43.062    22306229.440   119323303.793 7      4753.104          42.437
R21  22430879.760   120032155.862 7       976.918          42.937    22430881.000   120032155.882 7       976.918          43.312    22430898.120    93358419.928 7       759.825          47.500    22430897.960    93358419.924 7       759.825          46.687
R22  20545619.140   109673919.029 7      2954.603          47.250    20545618.260   109673919.019 7      2954.603          47.000    20545627.720    85302024.199 8      2298.025          50.437    20545627.920    85302015.201 8      2298.025          50.187
R07  19797446.800   105977290.740 8      2233.328          49.375    19797447.960   105977290.768 7      2233.328          47.875    19797459.320    82426842.070 8      1737.033          50.687    19797459.520    82426842.072 8      1737.033          50.875
R08  20685919.720   110772171.461 7      5818.046          46.687    20685921.300   110772171.511 7      5818.046          46.187    20685940.240    86156219.246 8      4525.147          49.625    20685939.780    86156218.247 8      4525.147          49.125
G03  20088337.480   105564922.528 8      2585.594          50.000    20088337.000   105564922.533 8      2585.594          50.062    20088344.580    82258414.594 8      2014.749          51.125    20088345.580    82258421.588 8      2014.749          51.500
G02  21907481.000   115124589.732 7      1943.876          47.062    21907479.500   115124589.737 6      1943.876          39.125    21907483.120    89707480.464 6      1514.708          38.937
G22  23564007.080   123829692.969 6      3744.104          41.000    23564004.960   123829692.981 4      3744.104          24.250    23564012.800    96490694.601 4      2917.484          24.312
G17  23211641.200   121978012.619 7      5336.669          44.125    23211639.200   121978012.616 5      5336.669          33.750    23211647.260    95047812.794 5      4158.443          33.375    23211647.600    95047817.798 7      4158.443          45.687
G21  22516361.100   118324269.025 7      1212.194          45.562    22516359.240   118324269.035 6      1212.194          36.187    22516366.260    92200750.158 5       944.567          35.937
> 2024 05 08 16 01 48.0000000  0 12
G08  22505487.120   118267124.532 7      -139.429          42.562    22505485.900   118267124.540 6      -139.429          40.250    22505503.480    92156265.112 6      -108.646          39.875    22505504.280    92156270.110 7      -108.646          45.562
G04  23085260.620   121313864.240 7      5488.267          44.000    23085260.080   121313864.244 5      5488.267          33.437    23085277.440    94530285.465 5      4276.572          33.000    23085277.900    94530357.473 8      4276.572          48.125
R23  22305342.100   119318550.565 7      4753.061          42.937    22305340.480   119318550.585 7      4753.061          42.437
R21  22430697.500   120031179.142 7       976.542          44.125    22430698.620   120031179.157 7       976.542          42.875    22430715.520    93357660.248 7       759.532          46.875    22430715.320    93357660.248 7       759.532          46.125
R22  20545065.600   109670964.432 7      2954.366          47.437    20545065.100   109670964.422 8      2954.366          48.312    20545074.260    85299726.188 8      2297.840          50.187    20545074.180    85299717.188 8      2297.840          50.125
R07  19797029.960   105975057.813 8      2232.348          49.062    19797031.020   105975057.844 7      2232.348          47.312    19797042.280    82425105.353 8      1736.271          50.875    19797042.340    82425105.355 8      1736.271          50.000
R08  20684833.340   110766353.649 7      5817.474          46.000    20684835.100   110766353.696 7      5817.474          45.812    20684853.800    86151694.289 8      4524.702          50.187    20684853.080    86151693.290 8      4524.702          49.062
G03  20087845.520   105562337.169 8      2585.011          50.000    20087845.040   105562337.174 8      2585.011          50.687    20087852.580    82256400.031 8      2014.294          51.437    20087853.320    82256407.029 8      2014.294          51.437
G02  21907111.040   115122645.871 7      1943.750          46.562    21907109.540   115122645.876 6      1943.750          39.000    21907113.200    89705965.761 6      1514.610          39.000
G22  23563294.620   123825949.040 6      3743.503          40.937    23563292.460   123825949.050 4      3743.503          24.250    23563300.300    96487777.254 4      2917.015          24.312
G17  23210625.540   121972675.923 7      5336.578          43.750    23210623.640   121972675.920 5      5336.578          33.750    23210631.580    95043654.332 5      4158.372          33.812    23210631.900    95043659.336 7      4158.372          45.875
G21  22516130.180   118323056.901 7      1212.000          45.000    22516128.660   118323056.909 6      1212.000          36.187    22516135.620    92199805.644 5       944.415          35.937
> 2024 05 08 16 01 49.0000000  0 12
G08  22505513.880   118267264.072 7      -139.920          42.625    22505512.480   118267264.079 6      -139.920          40.375    22505530.080    92156373.834 6      -109.029          39.875    22505531.140    92156378.828 7      -109.029          45.625
G04  23084216.540   121308375.880 7      5488.345          43.812    23084215.440   121308375.885 5      5488.345          33.187    23084233.060    94526008.828 5      4276.632          33.000    23084233.440    94526080.834 8      4276.632          48.250
R23  22304453.300   119313797.293 7      4753.216          42.937    22304452.500   119313797.300 7      4753.216          42.562
R21  22430514.900   120030202.649 7       976.416          43.687    22430516.260   120030202.653 7       976.416          43.187    22430533.140    93356900.733 7       759.435          46.937    22430532.980    93356900.731 7       759.435          46.937
R22  20544512.300   109668009.988 7      2954.325          46.500    20544511.520   109668009.978 7      2954.325          47.937    20544520.880    85297428.285 8      2297.809          50.625    20544520.580    85297419.285 8      2297.809          50.062
R07  19796612.780   105972825.815 8      2231.529          48.625    19796613.920   105972825.843 8      2231.529          48.062    19796625.180    82423369.357 8      1735.634          50.625    19796625.380    82423369.359 8      1735.634          50.812
R08  20683746.720   110760536.433 7      5816.894          47.437    20683748.740   110760536.480 7      5816.894          46.000    20683767.460    86147169.801 8      4524.251          49.937    20683766.900    86147168.801 8      4524.251          49.437
G03  20087353.680   105559752.395 8      2584.553          50.375    20087353.220   105559752.400 8      2584.553          51.000    20087360.720    82254385.924 8      2013.938          51.125    20087361.560    82254392.920 8      2013.938          51.312
G02  21906741.120   115120702.067 7      1943.728          46.937    21906739.700   115120702.072 6      1943.728          39.312    21906743.420    89704451.107 6      1514.593          38.812
G22  23562582.040   123822205.615 6      3743.115          41.125    23562580.160   123822205.625 4      3743.115          24.250    23562587.920    96484860.298 4      2916.713          24.312
G17  23209610.160   121967339.327 7      5336.388          43.500    23209608.320   121967339.324 5      5336.388          33.812    23209616.120    95039495.945 5      4158.224          33.812    23209616.940    95039500.945 7      4158.224          45.750
G21  22515899.720   118321844.785 7      1212.050          45.187    22515898.060   118321844.796 6      1212.050          36.687    22515904.960    92198861.136 6       944.455          36.625
> 2024 05 08 16 01 50.0000000  0 12
G08  22505540.280   118267403.795 7      -139.995          43.312    22505539.060   118267403.805 6      -139.995          40.125    22505556.680    92156482.704 6      -109.087          40.000    22505557.900    92156487.699 7      -109.087          45.812
G04  23083171.900   121302887.592 7      5488.165          43.375    23083171.060   121302887.597 5      5488.165          33.187    23083188.800    94521732.242 5      4276.492          33.312    23083189.200    94521804.252 8      4276.492          48.312
R23  22303564.800   119309043.832 7      4753.508          42.875    22303563.900   119309043.846 7      4753.508          43.125
R21  22430332.700   120029226.314 7       976.247          43.687    22430333.840   120029226.321 7       976.247          43.187    22430350.620    93356141.351 7       759.303          47.375    22430350.480    93356141.347 7       759.303          46.937
R22  20543958.900   109665055.613 7      2954.250          45.937    20543958.060   109665055.608 7      2954.250          47.750    20543967.340    85295130.434 8      2297.750          50.750    20543967.160    85295121.435 8      2297.750          50.437
R07  19796196.240   105970594.636 8      2230.738          49.312    19796196.920   105970594.659 7      2230.738          47.750    19796208.400    82421633.993 8      1735.019          51.187    19796208.500    82421633.993 8      1735.019          50.125
R08  20682660.780   110754719.680 7      5816.537          46.875    20682662.480   110754719.728 7      5816.537          46.187    20682680.980    86142645.672 8      4523.973          49.437    20682680.780    86142644.677 8      4523.973          49.750
G03  20086861.700   105557168.113 8      2583.978          50.562    20086861.360   105557168.124 8      2583.978          50.937    20086868.960    82252372.204 8      2013.489          51.000    20086869.740    82252379.202 8      2013.489          51.812
G02  21906371.100   115118758.222 7      1943.834          47.687    21906369.900   115118758.229 6      1943.834          39.187    21906373.520    89702936.424 6      1514.676          39.187
G22  23561870.100   123818462.614 6      3742.730          40.562    23561868.020   123818462.626 4      3742.730          24.250    23561875.740    96481943.673 4      2916.413          24.312
G17  23208594.480   121962002.668 7      5336.722          42.875    23208592.740   121962002.665 5      5336.722          33.812    23208600.460    95035337.513 5      4158.485          33.437    23208601.320    95035342.517 7      4158.485          45.875
G21  22515668.960   118320632.601 7      1212.117          45.437    22515667.360   118320632.611 6      1212.117          36.562    22515674.380    92197916.575 6       944.506          36.312
> 2024 05 08 16 01 51.0000000  0 12
G08  22505567.400   118267543.960 7      -140.469          42.000    22505565.700   118267543.970 6      -140.469          40.437    22505583.380    92156591.909 6      -109.456          39.937    22505584.620    92156596.909 7      -109.456          45.875
G04  23082127.400   121297399.496 7      5487.916          43.375    23082126.760   121297399.504 5      5487.916          33.250    23082144.480    94517455.803 5      4276.298          33.312    23082144.880    94517527.813 7      4276.298          47.937
R23  22302676.560   119304290.415 7      4753.358          42.875    22302675.080   119304290.428 7      4753.358          43.250
R21  22430150.880   120028250.311 7       975.830          44.125    22430151.400   120028250.318 7       975.830          43.062    22430168.160    93355382.225 7       758.979          47.125    22430168.120    93355382.225 7       758.979          46.500
R22  20543404.760   109662101.480 7      2953.951          46.562    20543404.700   109662101.473 8      2953.951          48.062    20543413.940    85292832.781 8      2297.517          50.437    20543413.920    85292823.783 8      2297.517          50.875
R07  19795779.860   105968364.402 8      2229.644          48.812    19795780.320   105968364.430 7      2229.644          47.125    19795791.880    82419899.373 8      1734.168          50.625    19795791.840    82419899.375 8      1734.168          50.500
R08  20681574.120   110748903.621 7      5815.639          47.000    20681576.200   110748903.671 7      5815.639          46.375    20681595.180    86138122.092 8      4523.275          49.812    20681594.800    86138121.092 8      4523.275          49.875
G03  20086370.160   105554584.499 8      2583.214          49.750    20086369.740   105554584.501 8      2583.214          51.312    20086377.320    82250358.993 8      2012.894          51.625    20086378.140    82250365.990 8      2012.894          51.875
G02  21906001.040   115116814.550 7      1943.483          46.812    21906000.140   115116814.557 6      1943.483          39.375    21906003.600    89701421.877 6      1514.402          39.062
G22  23561157.820   123814720.227 6      3741.876          40.687    23561155.920   123814720.240 4      3741.876          24.250    23561163.680    96479027.528 4      2915.747          24.312
G17  23207579.120   121956666.229 7      5336.230          42.812    23207577.180   121956666.226 5      5336.230          33.500    23207584.960    95031179.252 5      4158.102          33.437    23207585.680    95031184.254 7      4158.102          45.562
G21  22515438.460   118319420.517 7      1211.954          46.062    22515436.740   118319420.527 6      1211.954          36.375    22515443.720    92196972.093 6       944.380          36.625
> 2024 05 08 16 01 52.0000000  0 12
G08  22505594.060   118267684.669 7      -140.971          43.125    22505592.500   118267684.682 6      -140.971          40.312    22505610.020    92156701.544 6      -109.848          40.125    22505611.340    92156706.540 7      -109.848          45.750
G04  23081083.100   121291911.749 7      5487.498          43.312    23081082.460   121291911.754 5      5487.498          33.250    23081100.180    94513179.641 5      4275.973          33.062    23081100.660    94513251.651 8      4275.973          48.000
R23  22301788.280   119299537.157 7      4753.239          43.062    22301787.000   119299537.161 7      4753.239          43.250
R21  22429968.400   120027274.739 7       975.451          43.437    22429968.920   120027274.751 7       975.451          43.000    22429985.580    93354623.444 7       758.684          46.687    22429985.860    93354623.447 7       758.684          46.625
R22  20542851.760   109659147.738 7      2953.666          47.125    20542851.440   109659147.736 7      2953.666          47.937    20542860.700    85290535.422 8      2297.296          50.375    20542860.620    85290526.424 8      2297.296          50.562
R07  19795363.480   105966135.262 8      2228.667          48.875    19795363.800   105966135.285 7      2228.667          47.750    19795375.460    82418165.597 8      1733.407          50.937    19795375.540    82418165.600 8      1733.407          50.562
R08  20680488.300   110743088.347 7      5814.935          47.125    20680490.440   110743088.397 7      5814.935          45.937    20680509.200    86133599.107 8      4522.727          49.875    20680508.860    86133598.111 8      4522.727          49.750
G03  20085878.620   105552001.646 8      2582.512          50.437    20085878.240   105552001.654 8      2582.512          50.687    20085885.760    82248346.389 8      2012.347          51.187    20085886.560    82248353.387 8      2012.347          51.375
G02  21905631.420   115114871.122 7      1943.318          47.187    21905630.280   115114871.129 6      1943.318          38.875    21905633.860    89699907.515 6      1514.274          38.875
G22  23560445.560   123810978.534 6      3741.449          41.062    23560443.840   123810978.547 4      3741.449          24.625    23560451.680    96476111.923 4      2915.415          24.437
G17  23206563.480   121951330.048 7      5336.007          42.875    23206561.480   121951330.045 5      5336.007          33.500    23206569.500    95027021.188 5      4157.927          33.312    23206569.800    95027026.188 7      4157.927          45.875
G21  22515207.860   118318208.653 7      1211.855          45.812    22515206.220   118318208.666 6      1211.855          36.187    22515213.120    92196027.782 6       944.303          36.375
> 2024 05 08 16 01 53.0000000  0 12
G08  22505620.960   118267825.562 7      -141.149          43.187    22505619.400   118267825.574 6      -141.149          40.062    22505636.920    92156811.322 6      -109.986          40.000    22505637.920    92156816.318 7      -109.986          45.500
G04  23080039.040   121286423.955 7      5487.615          42.937    23080038.000   121286423.957 5      5487.615          33.250    23080055.840    94508903.442 5      4276.064          33.062    23080056.140    94508975.441 8      4276.064          48.250
R23  22300899.540   119294783.666 7      4753.474          43.062    22300898.200   119294783.673 7      4753.474          42.875
R21  22429785.840   120026299.274 7       975.229          43.437    22429786.820   120026299.286 7       975.229          43.000    22429803.480    93353864.741 7       758.511          46.625    22429803.580    93353864.739 7       758.511          46.500
R22  20542298.220   109656194.017 7      2953.543          45.750    20542298.140   109656194.012 7      2953.543          47.687    20542307.320    85288238.079 8      2297.200          50.187    20542307.380    85288229.081 8      2297.200          50.562
R07  19794947.080   105963906.848 8      2227.902          49.437    19794947.300   105963906.868 7      2227.902          47.812    19794959.120    82416432.384 8      1732.812          51.000    19794959.160    82416432.391 8      1732.812          50.812
R08  20679402.240   110737273.477 7      5814.476          46.437    20679404.380   110737273.532 7      5814.476          46.187    20679423.100    86129076.451 8      4522.370          49.437    20679422.820    86129075.453 8      4522.370          49.687
G03  20085387.300   105549419.230 8      2582.028          50.125    20085386.760   105549419.235 8      2582.028          50.000    20085394.320    82246334.117 8      2011.970          51.125    20085395.040    82246341.115 8      2011.970          51.562
G02  21905261.600   115112927.618 7      1943.370          47.937    21905260.420   115112927.623 6      1943.370          39.500    21905264.020    89698393.095 6      1514.314          39.062
G22  23559733.980   123807237.235 6      3740.939          41.250    23559731.880   123807237.248 4      3740.939          24.625    23559739.820    96473196.619 4      2915.018          24.437
G17  23205548.300   121945993.799 7      5336.019          42.625    23205546.100   121945993.796 5      5336.019          33.562    23205554.120    95022863.076 5      4157.937          33.312    23205554.620    95022868.074 7      4157.937          46.125
G21  22514977.140   118316996.697 7      1211.766          46.562    22514975.580   118316996.710 6      1211.766          36.687    22514982.480    92195083.399 6       944.234          36.750
> 2024 05 08 16 01 54.0000000  0 12
G08  22505647.760   118267966.938 7      -141.485          42.437    22505646.360   118267966.951 6      -141.485          40.312    22505663.760    92156921.471 6      -110.248          40.000    22505665.080    92156926.473 7      -110.248          46.125
G04  23078994.640   121280936.455 7      5487.357          43.937    23078993.660   121280936.465 5      5487.357          33.250    23079011.520    94504627.472 5      4275.862          33.187    23079012.140    94504699.474 8      4275.862          48.375
R23  22300010.900   119290030.277 7      4753.529          43.937    22300009.540   119290030.283 7      4753.529          42.812
R21  22429603.540   120025324.204 7       974.870          43.062    22429604.100   120025324.222 7       974.870          42.875    22429621.280    93353106.350 7       758.232          47.000    22429621.220    93353106.348 7       758.232          46.500
R22  20541745.160   109653240.645 7      2953.172          47.562    20541744.940   109653240.641 8      2953.172          48.312    20541754.120    85285941.008 8      2296.911          50.375    20541754.020    85285932.012 8      2296.911          50.375
R07  19794530.920   105961679.499 8      2226.799          48.437    19794530.980   105961679.516 7      2226.799          47.125    19794543.020    82414700.006 8      1731.955          50.625    19794543.100    82414700.010 8      1731.955          50.812
R08  20678316.680   110731459.335 7      5813.786          46.812    20678318.680   110731459.379 7      5813.786          45.562    20678337.420    86124554.344 8      4521.834          49.250    20678337.060    86124553.349 8      4521.834          49.750
G03  20084895.940   105546837.544 8      2581.352          50.062    20084895.520   105546837.554 8      2581.352          50.562    20084903.060    82244322.417 8      2011.443          50.750    20084903.920    82244329.416 8      2011.443          51.562
G02  21904891.800   115110984.319 7      1943.239          47.625    21904890.620   115110984.327 6      1943.239          39.250    21904894.080    89696878.838 6      1514.212          38.687
G22  23559022.140   123803496.585 6      3740.371          41.062    23559019.940   123803496.598 4      3740.371          24.625    23559028.080    96470281.825 4      2914.575          24.437
G17  23204532.980   121940657.781 7      5335.879          43.375    23204530.700   121940657.780 5      5335.879          33.562    23204538.820    95018705.140 5      4157.828          33.750    23204539.720    95018710.152 7      4157.828          46.062
G21  22514746.620   118315784.899 7      1211.778          46.187    22514745.140   118315784.909 6      1211.778          36.750    22514752.080    92194139.136 6       944.243          36.312
> 2024 05 08 16 01 55.0000000  0 12
G08  22505674.820   118268108.687 7      -141.917          42.250    22505673.440   118268108.700 6      -141.917          40.312    22505690.780    92157031.915 6      -110.584          39.875    22505691.920    92157036.913 7      -110.584          45.875
G04  23077950.540   121275449.074 7      5487.404          42.562    23077949.480   121275449.081 5      5487.404          33.125    23077967.380    94500351.588 5      4275.899          33.187    23077967.780    94500423.596 8      4275.899          48.437
R23  22299122.140   119285276.858 7      4753.388          43.937    22299120.820   119285276.875 7      4753.388          42.812
R21  22429421.840   120024349.379 7       974.713          43.312    22429422.320   120024349.396 7       974.713          43.000    22429439.040    93352348.141 7       758.110          47.062    22429439.300    93352348.140 7       758.110          45.937
R22  20541192.200   109650287.407 7      2953.188          46.812    20541191.720   109650287.403 7      2953.188          47.375    20541200.900    85283644.052 8      2296.924          50.500    20541200.640    85283635.056 8      2296.924          50.312
R07  19794114.840   105959453.068 8      2225.961          49.125    19794115.280   105959453.083 7      2225.961          47.812    19794127.120    82412968.337 8      1731.303          50.812    19794127.420    82412968.344 8      1731.303          50.625
R08  20677230.920   110725645.725 7      5813.322          46.000    20677232.800   110725645.765 7      5813.322          46.250    20677251.740    86120032.661 8      4521.473          49.375    20677251.320    86120031.661 8      4521.473          49.500
G03  20084404.940   105544256.441 8      2580.759          49.875    20084404.380   105544256.449 8      2580.759          50.875    20084411.860    82242311.169 8      2010.981          51.125    20084412.680    82242318.169 8      2010.981          51.687
G02  21904521.940   115109041.088 8      1943.192          48.062    21904520.800   115109041.098 6      1943.192          39.312    21904524.220    89695364.634 6      1514.176          39.187
G22  23558310.760   123799756.458 6      3739.896          40.750    23558308.240   123799756.468 4      3739.896          24.625    23558316.260    96467367.440 4      2914.205          24.437
G17  23203517.560   121935321.844 7      5335.874          42.937    23203515.280   121935321.841 5      5335.874          33.500    23203523.540    95014547.271 5      4157.824          33.750    23203524.180    95014552.275 7      4157.824          46.312
G21  22514515.840   118314573.133 7      1211.754          45.687    22514514.300   118314573.143 6      1211.754          36.062    22514521.440    92193194.901 6       944.224          36.250
> 2024 05 08 16 01 56.0000000  0 12
G08  22505701.960   118268250.896 7      -142.254          42.812    22505700.500   118268250.906 6      -142.254          40.687    22505717.980    92157142.715 6      -110.847          40.375    22505718.980    92157147.717 7      -110.847          45.750
G04  23076906.500   121269961.994 7      5487.169          43.125    23076905.300   121269962.002 5      5487.169          33.125    23076923.180    94496075.946 5      4275.716          33.250    23076923.500    94496147.952 7      4275.716          47.937
R23  22298233.620   119280523.527 7      4753.481          43.562    22298232.520   119280523.534 7      4753.481          43.000
R21  22429239.520   120023374.970 7       974.389          43.687    22429240.140   120023374.980 7       974.389          43.000    22429257.080    93351590.254 7       757.858          47.125    22429257.320    93351590.254 7       757.858          46.562
R22  20540638.840   109647334.508 7      2952.915          46.125    20540638.420   109647334.507 7      2952.915          47.687    20540647.700    85281347.359 8      2296.712          50.437    20540647.760    85281338.360 8      2296.712          50.687
R07  19793699.120   105957227.742 8      2224.965          48.500    19793699.520   105957227.755 7      2224.965          47.375    19793711.420    82411237.533 8      1730.529          50.750    19793711.740    82411237.537 8      1730.529          49.812
R08  20676145.500   110719832.858 7      5812.678          47.187    20676147.360   110719832.905 7      5812.678          46.000    20676166.260    86115511.556 8      4520.972          49.750    20676165.840    86115510.559 8      4520.972          48.812
G03  20083913.920   105541676.059 8      2580.224          50.250    20083913.280   105541676.066 8      2580.224          50.875    20083920.900    82240300.487 8      2010.564          51.000    20083921.460    82240307.485 8      2010.564          51.625
G02  21904152.220   115107098.092 7      1943.031          46.562    21904150.980   115107098.099 6      1943.031          38.812    21904154.520    89693850.607 6      1514.050          39.312
G22  23557598.800   123796017.022 6      3739.089          41.312    23557596.720   123796017.035 4      3739.089          24.625    23557604.740    96464453.598 4      2913.576          24.437
G17  23202502.200   121929986.149 7      5335.697          43.437    23202500.020   121929986.146 5      5335.697          33.500    23202508.120    95010389.591 5      4157.686          33.687    23202508.760    95010394.591 7      4157.686          45.937
G21  22514285.500   118313361.558 7      1211.581          46.375    22514283.760   118313361.566 6      1211.581          36.375    22514290.980    92192250.814 6       944.089          36.437
> 2024 05 08 16 01 57.0000000  0 12
G08  22505728.960   118268393.444 7      -142.570          42.687    22505727.660   118268393.457 6      -142.570          40.562    22505745.060    92157253.785 6      -111.093          40.187    22505746.020    92157258.777 7      -111.093          45.687
G04  23075862.400   121264475.036 7      5487.024          43.375    23075861.180   121264475.046 5      5487.024          33.437    23075878.980    94491800.400 5      4275.603          33.250    23075879.480    94491872.399 8      4275.603          48.312
R23  22297344.880   119275770.124 7      4753.512          43.812    22297344.040   119275770.128 7      4753.512          42.937
R21  22429057.560   120022400.795 7       974.075          43.687    22429058.040   120022400.796 7       974.075          42.937    22429074.920    93350832.553 7       757.614          47.187    22429075.200    93350832.551 7       757.614          46.625
R22  20540085.800   109644381.767 7      2952.735          47.562    20540085.700   109644381.765 7      2952.735          47.500    20540094.660    85279050.778 8      2296.572          50.500    20540094.740    85279041.779 8      2296.572          51.312
R07  19793283.680   105955003.346 8      2224.020          49.187    19793283.840   105955003.363 7      2224.020          47.687    19793295.900    82409507.451 8      1729.793          51.437    19793296.140    82409507.457 8      1729.793          49.750
R08  20675060.200   110714020.588 7      5812.085          47.000    20675061.840   110714020.643 7      5812.085          45.875    20675080.720    86110990.920 8      4520.511          49.375    20675080.160    86110989.923 8      4520.511          49.187
G03  20083422.920   105539096.254 8      2579.660          50.562    20083422.320   105539096.259 8      2579.660          50.625    20083429.900    82238290.249 8      2010.124          50.875    20083430.860    82238297.246 8      2010.124          51.562
G02  21903782.420   115105155.132 7      1943.017          47.375    21903781.200   115105155.136 6      1943.017          39.000    21903784.760    89692336.612 6      1514.039          38.875
G22  23556887.360   123792278.075 6      3738.737          41.187    23556885.220   123792278.088 4      3738.737          24.625    23556893.380    96461540.132 4      2913.301          24.437
G17  23201486.880   121924650.525 7      5335.619          43.437    23201484.720   121924650.522 5      5335.619          34.062    23201492.740    95006231.962 5      4157.626          33.687    23201493.860    95006236.970 7      4157.626          46.375
G21  22514054.960   118312149.973 7      1211.653          46.375    22514053.180   118312149.980 6      1211.653          36.250    22514060.320    92191306.718 5       944.145          35.750
> 2024 05 08 16 01 58.0000000  0 12
G08  22505756.240   118268536.358 7      -143.065          42.750    22505754.840   118268536.368 6      -143.065          40.187    22505772.200    92157365.134 6      -111.480          39.625    22505773.360    92157370.130 7      -111.480          45.937
G04  23074818.140   121258988.219 7      5486.855          44.062    23074817.120   121258988.226 5      5486.855          33.437    23074834.880    94487524.960 5      4275.472          33.250    23074835.480    94487596.960 8      4275.472          48.187
R23  22296456.260   119271016.655 7      4753.699          43.750    22296455.420   119271016.664 7      4753.699          43.312
R21  22428875.180   120021426.849 7       973.917          43.125    22428876.100   120021426.861 7       973.917          42.812    22428892.800    93350075.032 7       757.491          46.750    22428893.260    93350075.032 7       757.491          46.687
R22  20539532.520   109641429.212 7      2952.489          46.875    20539532.600   109641429.210 7      2952.489          47.750    20539541.640    85276754.338 8      2296.380          50.625    20539541.460    85276745.342 8      2296.380          50.875
R07  19792868.340   105952779.899 7      2223.078          47.875    19792868.320   105952779.925 7      2223.078          47.250    19792880.680    82407778.114 8      1729.061          51.125    19792880.580    82407778.120 8      1729.061          50.125
R08  20673974.440   110708208.928 7      5811.494          46.562    20673976.380   110708208.986 7      5811.494          45.937    20673995.320    86106470.755 8      4520.051          49.375    20673995.000    86106469.758 8      4520.051          49.562
G03  20082932.200   105536517.054 8      2578.963          50.812    20082931.580   105536517.059 8      2578.963          50.750    20082939.140    82236280.485 8      2009.582          51.250    20082939.920    82236287.481 8      2009.582          51.687
G02  21903412.880   115103212.248 7      1943.035          46.937    21903411.560   115103212.250 6      1943.035          39.375    21903415.060    89690822.674 6      1514.053          39.000
G22  23556176.020   123788539.667 6      3738.147          41.562    23556174.020   123788539.679 4      3738.147          24.937    23556181.880    96458627.085 4      2912.842          24.437
G17  23200471.480   121919314.990 7      5335.564          43.375    23200469.280   121919314.990 5      5335.564          34.062    23200477.500    95002074.408 5      4157.583          33.500    23200478.320    95002079.418 7      4157.583          46.187
G21  22513824.500   118310938.432 7      1211.615          44.875    22513822.720   118310938.440 5      1211.615          35.937    22513829.620    92190362.660 6       944.116          36.125
