     3.05           OBSERVATION DATA    MIXED               RINEX VERSION / TYPE
TPS2RIN 1.0.29.3920 TPS-USER            20240511 191602 UTC PGM / RUN BY / DATE
Win64 build Feb 23, 2024 (c) Topcon Positioning Systems     COMMENT
SRC: 20240508_GUI13.tps                                     COMMENT
OPT: -S -v 3.05                                             COMMENT
Observer            Agency                                  OBSERVER / AGENCY
O0M3X53SBGM         TPS HIPER_SR        4.8 HSR Jul,08,2022 REC # / TYPE / VERS
FW: 4.8 HSR Jul,08,2022 p3                                  COMMENT
SN: HiPer SR 1212-12575                                     COMMENT
000                 TPSHIPER_SR     NONE                    ANT # / TYPE
        1.8000        0.0000        0.0000                  ANTENNA: DELTA H/E/N
GUI13                                                       MARKER NAME
  5388144.9222 -1586590.4582  3013280.8403                  APPROX POSITION XYZ
  2024     5     8    12    45   55.0000000     GPS         TIME OF FIRST OBS
  2024     5     8    13     0   55.0000000     GPS         TIME OF LAST OBS
     1.000                                                  INTERVAL
   900 EPOCHS                                               COMMENT
G   16 C1C L1C D1C S1C C1W L1W D1W S1W C2W L2W D2W S2W C2X  SYS / # / OBS TYPES
       L2X D2X S2X                                          SYS / # / OBS TYPES
R   16 C1C L1C D1C S1C C1P L1P D1P S1P C2P L2P D2P S2P C2C  SYS / # / OBS TYPES
       L2C D2C S2C                                          SYS / # / OBS TYPES
    11                                                      # OF SATELLITES
   G02   900   900   900   900   900   900   900   900   900PRN / # OF OBS
         900   900   900     0     0     0     0            PRN / # OF OBS
   G08   900   900   900   900   900   900   900   900   900PRN / # OF OBS
         900   900   900   900   900   900   900            PRN / # OF OBS
   G10   900   900   900   900   900   900   900   900   900PRN / # OF OBS
         900   900   900   900   900   900   900            PRN / # OF OBS
   G16   900   900   900   900   900   900   900   900   900PRN / # OF OBS
         900   900   900     0     0     0     0            PRN / # OF OBS
   G21   900   900   900   900   900   900   900   900   900PRN / # OF OBS
         900   900   900     0     0     0     0            PRN / # OF OBS
   G26   670   670   670   670   665   665   665   665   665PRN / # OF OBS
         665   665   665   661   661   661   661            PRN / # OF OBS
   G27   900   900   900   900   900   900   900   900   900PRN / # OF OBS
         900   900   900   900   900   900   900            PRN / # OF OBS
   R05   900   900   900   900   900   900   900   900   900PRN / # OF OBS
         900   900   900   900   900   900   900            PRN / # OF OBS
   R10   900   900   900   900   900   900   900   900     0PRN / # OF OBS
           0     0     0     0     0     0     0            PRN / # OF OBS
   R11   900   900   900   900   900   900   900   900   900PRN / # OF OBS
         900   900   900   900   900   900   900            PRN / # OF OBS
   R21   900   900   900   900   900   900   900   900   900PRN / # OF OBS
         900   900   900   900   900   900   900            PRN / # OF OBS
G L1C                                                       SYS / PHASE SHIFT
G L1W -0.25000                                              SYS / PHASE SHIFT
G L2W  0.00000                                              SYS / PHASE SHIFT
G L2X  0.25000                                              SYS / PHASE SHIFT
R L1C                                                       SYS / PHASE SHIFT
R L1P -0.25000                                              SYS / PHASE SHIFT
R L2P -0.25000                                              SYS / PHASE SHIFT
R L2C                                                       SYS / PHASE SHIFT
  4 R05  1 R10 -7 R11  0 R21  4                             GLONASS SLOT / FRQ #
                                                            GLONASS COD/PHS/BIS
    18    18  1929     7GPS                                 LEAP SECONDS
                                                            END OF HEADER
> 2024 05 08 12 45 55.0000000  0 11
G27  21181479.600   111309422.933 7      1618.259          46.750    21181478.840   111309422.935 7      1618.259          45.687    21181484.580    86734633.660 7      1260.981          45.937    21181484.880    86734639.664 7      1260.981          46.500
R21  20478165.500   109582819.569 5      2178.680          34.500    20478166.920   109582819.600 5      2178.680          34.687    20478179.540    85231119.056 5      1694.529          35.750    20478177.940    85231131.058 6      1694.529          36.187
R11  20004475.920   106897836.571 6      3758.881          41.812    20004471.600   106897836.556 6      3758.881          41.437    20004483.360    83142829.446 8      2923.574          49.000    20004483.640    83142814.445 8      2923.574          49.437
R05  23233379.960   124195729.413 7      3825.643          47.812    23233379.300   124195729.427 7      3825.643          46.625    23233392.740    96596744.539 6      2975.500          37.875    23233393.340    96596756.542 6      2975.500          37.875
G10  22301156.480   117193374.580 8      1628.263          48.375    22301155.260   117193374.580 7      1628.263          46.375    22301163.300    91319547.585 7      1268.776          46.000    22301163.880    91319545.589 7      1268.776          47.500
G08  21194532.280   111378024.560 7      3245.869          47.625    21194535.480   111378024.557 5      3245.869          34.937    21194542.120    86788093.163 5      2529.248          35.000    21194542.920    86788106.176 7      2529.248          47.500
R10  20323413.640   108335222.966 7      -523.921          46.312    20323413.500   108335222.977 7      -523.921          45.437
G26  23540509.300   123706208.918 6      -931.193          36.312    23540507.980   123706208.920 5      -931.193          34.062    23540526.860    96394509.193 5      -725.605          33.562    23540527.460    96394518.181 7      -725.605          44.937
G16  21173306.000   111266474.887 7       440.622          46.687    21173305.480   111266474.894 6       440.622          38.250    21173310.160    86701163.600 6       343.342          38.312
G02  22264778.820   117002201.030 7      3979.160          46.500    22264776.880   117002201.035 6      3979.160          39.187    22264782.960    91170561.738 6      3100.644          39.125
G21  20860223.760   109621215.686 7      3170.034          47.562    20860222.140   109621215.693 6      3170.034          40.625    20860227.320    85419142.375 6      2470.156          40.750
> 2024 05 08 12 45 57.0000000  0 11
G27  21180863.520   111306186.609 8      1618.067          48.062    21180863.120   111306186.609 7      1618.067          45.187    21180868.660    86732111.845 7      1260.832          45.687    21180868.960    86732117.840 7      1260.832          46.562
R21  20477350.720   109578462.380 5      2178.383          34.500    20477352.800   109578462.403 5      2178.383          34.687    20477365.440    85227730.123 5      1694.298          35.750    20477363.740    85227742.120 6      1694.298          36.187
R11  20003069.420   106890320.234 6      3757.371          41.437    20003065.420   106890320.206 6      3757.371          40.937    20003076.980    83136983.392 8      2922.400          49.562    20003077.360    83136968.393 8      2922.400          49.937
R05  23231948.400   124188079.123 7      3824.551          47.812    23231947.600   124188079.137 7      3824.551          46.562    23231962.980    96590794.302 6      2974.651          37.937    23231962.460    96590806.300 6      2974.651          37.687
G10  22300536.820   117190119.107 8      1627.140          48.437    22300535.920   117190119.106 7      1627.140          46.062    22300543.740    91317010.856 7      1267.901          46.250    22300544.140    91317008.856 7      1267.901          47.437
G08  21193297.000   111371532.880 7      3245.726          47.250    21193300.040   111371532.875 5      3245.726          34.750    21193306.700    86783034.707 5      2529.137          34.875    21193307.740    86783047.719 7      2529.137          47.250
R10  20323610.460   108336271.978 7      -525.161          46.375    20323610.120   108336271.995 7      -525.161          45.375
G26  23540864.260   123708071.558 6      -931.635          37.125    23540862.520   123708071.555 5      -931.635          34.250    23540881.340    96395960.551 5      -725.949          34.250    23540881.520    96395969.540 7      -725.949          44.687
G16  21173138.540   111265594.471 7       439.668          47.000    21173138.140   111265594.479 6       439.668          38.687    21173142.600    86700477.558 6       342.599          38.312
G02  22263264.460   116994243.375 7      3978.378          46.625    22263262.440   116994243.379 6      3978.378          38.750    22263268.540    91164360.973 6      3100.035          38.750
G21  20859017.520   109614876.416 7      3169.104          47.187    20859015.780   109614876.423 6      3169.104          40.437    20859020.880    85414202.688 6      2469.432          40.687
> 2024 05 08 12 45 58.0000000  0 11
G27  21180555.660   111304568.794 7      1617.669          47.375    21180555.140   111304568.796 7      1617.669          45.625    21180560.800    86730851.210 7      1260.521          46.187    21180561.480    86730857.207 7      1260.521          46.500
R21  20476943.400   109576284.347 5      2177.583          34.500    20476945.940   109576284.354 5      2177.583          34.687    20476959.220    85226036.072 5      1693.676          35.562    20476956.740    85226048.080 6      1693.676          36.187
R11  20002366.380   106886563.415 6      3756.326          41.437    20002362.220   106886563.389 6      3756.326          40.937    20002374.040    83134061.427 8      2921.587          50.125    20002374.340    83134046.428 8      2921.587          49.687
R05  23231233.340   124184254.921 7      3823.842          47.437    23231232.320   124184254.930 7      3823.842          46.625    23231247.440    96587819.936 6      2974.099          37.937    23231246.980    96587831.925 6      2974.099          37.687
G10  22300227.300   117188492.350 8      1626.375          48.250    22300226.200   117188492.350 7      1626.375          45.937    22300234.320    91315743.250 7      1267.305          46.375    22300234.740    91315741.249 7      1267.305          47.812
G08  21192679.280   111368287.326 7      3245.389          47.312    21192682.380   111368287.320 5      3245.389          34.750    21192688.980    86780505.702 5      2528.875          34.687    21192690.140    86780518.723 7      2528.875          47.562
R10  20323708.820   108336797.550 7      -525.995          46.312    20323708.460   108336797.567 7      -525.995          46.000
G26  23541041.440   123709003.220 6      -931.920          37.500    23541040.060   123709003.222 5      -931.920          34.250    23541058.520    96396686.504 5      -726.172          34.250    23541058.600    96396695.502 7      -726.172          45.062
G16  21173054.920   111265155.042 7       439.084          46.625    21173054.640   111265155.050 6       439.084          38.937    21173058.840    86700135.140 6       342.144          38.625
G02  22262507.460   116990265.168 7      3977.966          46.187    22262505.420   116990265.178 6      3977.966          39.437    22262511.560    91161261.072 6      3099.714          38.687
G21  20858414.540   109611707.582 7      3168.529          47.562    20858412.580   109611707.590 6      3168.529          40.562    20858417.880    85411733.461 6      2468.984          40.937
> 2024 05 08 12 45 59.0000000  0 11
G27  21180247.980   111302951.149 7      1617.657          47.375    21180247.380   111302951.152 7      1617.657          45.750    21180253.120    86729590.706 7      1260.512          45.625    21180253.500    86729596.703 7      1260.512          46.625
R21  20476536.800   109574106.560 5      2177.519          34.500    20476538.560   109574106.578 5      2177.519          34.687    20476552.500    85224342.255 5      1693.626          35.562    20476549.540    85224354.262 6      1693.626          36.125
R11  20001663.380   106882807.456 6      3755.578          41.250    20001659.120   106882807.430 6      3755.578          40.500    20001671.280    83131140.128 8      2921.005          50.000    20001671.420    83131125.129 8      2921.005          49.687
R05  23230518.100   124180431.297 7      3823.445          47.812    23230516.960   124180431.301 7      3823.445          47.000    23230531.840    96584846.008 6      2973.790          37.937    23230531.880    96584858.012 6      2973.790          38.312
G10  22299917.760   117186866.177 8      1626.015          48.500    22299916.820   117186866.174 7      1626.015          46.625    22299924.760    91314476.093 7      1267.024          46.312    22299925.460    91314474.091 8      1267.024          48.000
G08  21192061.440   111365041.897 7      3245.437          47.625    21192064.860   111365041.897 5      3245.437          34.812    21192071.340    86777976.803 5      2528.912          34.937    21192072.560    86777989.822 7      2528.912          47.000
R10  20323807.560   108337323.768 7      -526.460          46.687    20323807.440   108337323.779 7      -526.460          45.562
G26  23541218.600   123709935.088 6      -931.774          37.562    23541217.440   123709935.090 5      -931.774          34.250    23541235.920    96397412.612 5      -726.057          33.750    23541236.060    96397421.606 7      -726.057          44.437
G16  21172971.400   111264716.071 7       438.887          47.687    21172970.980   111264716.076 6       438.887          38.625    21172975.320    86699793.078 6       341.990          38.687
G02  22261750.700   116986287.366 7      3977.737          45.812    22261748.420   116986287.377 6      3977.737          38.625    22261754.620    91158161.493 6      3099.535          38.687
G21  20857811.360   109608539.224 7      3168.239          47.500    20857809.780   109608539.232 6      3168.239          40.562    20857814.820    85409264.615 6      2468.758          40.312
> 2024 05 08 12 46  0.0000000  0 11
G27  21179940.300   111301333.770 7      1617.191          47.625    21179939.660   111301333.775 7      1617.191          45.500    21179945.280    86728330.406 7      1260.149          45.562    21179945.960    86728336.401 7      1260.149          46.687
R21  20476130.180   109571929.161 5      2177.072          34.500    20476132.960   109571929.184 5      2177.072          34.687    20476145.020    85222648.712 5      1693.278          35.562    20476142.720    85222660.715 6      1693.278          36.125
R11  20000960.600   106879052.448 6      3754.403          41.250    20000956.580   106879052.425 6      3754.403          40.500    20000968.820    83128219.558 8      2920.092          50.062    20000968.740    83128204.559 8      2920.092          49.937
R05  23229802.660   124176608.386 7      3822.505          46.875    23229801.780   124176608.390 7      3822.505          47.125    23229816.120    96581872.641 6      2973.059          38.125    23229816.640    96581884.645 6      2973.059          38.312
G10  22299608.300   117185240.697 8      1625.072          48.062    22299607.360   117185240.697 7      1625.072          45.937    22299615.420    91313209.486 7      1266.290          45.812    22299616.240    91313207.484 7      1266.290          47.812
G08  21191444.160   111361796.708 7      3244.994          47.500    21191447.320   111361796.708 5      3244.994          34.812    21191453.820    86775448.086 5      2528.567          34.937    21191455.160    86775461.103 7      2528.567          47.437
R10  20323906.420   108337850.718 7      -527.386          46.750    20323906.160   108337850.734 7      -527.386          45.812
G26  23541396.300   123710867.255 6      -932.223          37.562    23541394.880   123710867.252 5      -932.223          34.250    23541413.380    96398138.955 5      -726.407          33.500    23541413.940    96398147.954 7      -726.407          44.437
G16  21172887.960   111264277.698 7       437.997          47.062    21172887.740   111264277.701 6       437.997          38.875    21172892.100    86699451.487 6       341.297          38.937
G02  22260993.920   116982310.051 7      3977.015          45.187    22260991.640   116982310.058 6      3977.015          38.937    22260997.660    91155062.286 6      3098.973          38.562
G21  20857208.520   109605371.465 7      3167.375          46.687    20857206.800   109605371.470 6      3167.375          40.062    20857212.120    85406796.233 6      2468.084          39.750
> 2024 05 08 12 46  1.0000000  0 11
G27  21179632.740   111299716.362 7      1617.444          47.062    21179631.460   111299716.365 7      1617.444          45.312    21179637.580    86727070.088 7      1260.346          45.312    21179637.860    86727076.082 7      1260.346          46.687
R21  20475722.560   109569751.822 6      2177.166          36.812    20475727.040   109569751.855 6      2177.166          36.625    20475738.020    85220955.225 5      1693.351          35.562    20475735.960    85220967.237 6      1693.351          36.125
R11  20000258.080   106875298.033 6      3754.140          41.187    20000254.220   106875298.016 6      3754.140          40.812    20000266.300    83125299.468 8      2919.887          50.437    20000266.440    83125284.469 8      2919.887          50.125
R05  23229087.640   124172785.890 7      3822.246          46.687    23229086.560   124172785.891 7      3822.246          46.500    23229102.000    96578899.595 6      2972.858          38.125    23229101.840    96578911.588 6      2972.858          38.687
G10  22299299.240   117183615.593 8      1624.925          48.812    22299298.340   117183615.593 7      1624.925          46.250    22299306.420    91311943.173 7      1266.176          46.125    22299306.660    91311941.173 7      1266.176          47.812
G08  21190826.820   111358551.435 8      3245.308          48.312    21190829.840   111358551.437 5      3245.308          35.062    21190836.220    86772919.301 5      2528.811          34.875    21190837.300    86772932.321 7      2528.811          47.375
R10  20324005.300   108338378.105 7      -527.619          46.562    20324005.040   108338378.121 7      -527.619          45.437
G26  23541574.360   123711799.419 6      -932.082          38.312    23541572.180   123711799.414 5      -932.082          34.250    23541590.520    96398865.301 5      -726.297          33.500    23541591.420    96398874.297 7      -726.297          44.562
G16  21172804.560   111263839.570 7       438.002          47.687    21172804.340   111263839.575 6       438.002          39.000    21172808.540    86699110.085 6       341.300          38.687
G02  22260236.820   116978332.909 7      3977.069          46.375    22260234.660   116978332.913 6      3977.069          38.625    22260240.780    91151963.216 6      3099.015          38.562
G21  20856605.880   109602203.969 7      3167.388          47.625    20856604.120   109602203.974 6      3167.388          40.187    20856609.360    85404328.052 6      2468.094          40.187
> 2024 05 08 12 46  2.0000000  0 11
G27  21179324.920   111298099.178 7      1617.120          47.750    21179324.180   111298099.177 7      1617.120          45.875    21179329.700    86725809.945 7      1260.093          45.750    21179330.360    86725815.936 7      1260.093          46.625
R21  20475316.800   109567574.792 6      2176.707          36.812    20475319.400   109567574.836 6      2176.707          36.625    20475330.200    85219261.995 5      1692.994          35.562    20475328.960    85219274.013 6      1692.994          36.125
R11  19999556.080   106871544.570 6      3752.939          41.187    19999551.900   106871544.550 6      3752.939          40.812    19999564.140    83122380.110 8      2918.952          50.625    19999563.840    83122365.109 8      2918.952          50.125
R05  23228372.460   124168964.035 7      3821.590          46.750    23228371.560   124168964.039 7      3821.590          46.250    23228385.960    96575927.049 6      2972.348          38.312    23228386.680    96575939.045 6      2972.348          38.687
G10  22298990.100   117181991.157 8      1624.183          48.250    22298989.220   117181991.156 7      1624.183          46.125    22298996.940    91310677.372 7      1265.597          46.562    22298997.720    91310675.372 7      1265.597          47.750
G08  21190209.280   111355306.371 7      3245.009          47.875    21190212.240   111355306.368 5      3245.009          34.500    21190218.820    86770390.685 5      2528.579          34.875    21190219.840    86770403.696 7      2528.579          46.875
R10  20324104.480   108338906.204 7      -528.473          46.625    20324104.040   108338906.220 7      -528.473          45.562
G26  23541751.200   123712731.844 6      -932.397          38.562    23541749.820   123712731.838 5      -932.397          34.000    23541768.000    96399591.845 5      -726.543          33.500    23541768.560    96399600.842 7      -726.543          44.312
G16  21172721.620   111263401.981 7       437.373          47.375    21172720.920   111263401.981 6       437.373          39.312    21172725.300    86698769.100 6       340.810          39.062
G02  22259480.180   116974356.200 7      3976.536          45.562    22259477.920   116974356.205 6      3976.536          38.125    22259483.980    91148864.486 6      3098.600          38.125
G21  20856003.500   109599037.011 7      3166.700          46.562    20856001.340   109599037.016 6      3166.700          40.187    20856006.500    85401860.295 6      2467.558          39.937
> 2024 05 08 12 46  3.0000000  0 11
G27  21179017.040   111296482.224 7      1616.849          47.500    21179016.300   111296482.224 7      1616.849          45.187    21179022.020    86724549.973 7      1259.883          45.500    21179022.800    86724555.970 7      1259.883          46.625
R21  20474909.720   109565398.110 6      2176.425          36.812    20474913.680   109565398.144 6      2176.425          36.625    20474923.180    85217569.005 6      1692.775          36.000    20474921.900    85217581.017 6      1692.775          36.062
R11  19998853.580   106867791.959 6      3752.150          41.750    19998850.240   106867791.941 6      3752.150          40.937    19998861.800    83119461.406 8      2918.339          50.250    19998861.520    83119446.405 8      2918.339          50.125
R05  23227657.740   124165142.856 7      3820.800          46.562    23227656.520   124165142.860 7      3820.800          46.687    23227671.800    96572955.019 6      2971.733          38.312    23227671.800    96572967.013 6      2971.733          38.687
G10  22298681.280   117180367.343 8      1623.531          48.812    22298680.120   117180367.342 7      1623.531          46.375    22298688.080    91309412.059 7      1265.089          46.500    22298688.800    91309410.058 7      1265.089          47.875
G08  21189591.780   111352061.476 8      3244.745          48.000    21189595.020   111352061.473 5      3244.745          34.500    21189601.240    86767862.195 5      2528.373          34.875    21189602.600    86767875.204 7      2528.373          47.250
R10  20324203.640   108339434.966 7      -529.109          46.875    20324203.340   108339434.980 7      -529.109          45.562
G26  23541928.220   123713664.502 6      -932.700          38.562    23541927.380   123713664.497 5      -932.700          34.000    23541945.540    96400318.573 5      -726.779          33.500    23541946.440    96400327.566 7      -726.779          44.250
G16  21172638.340   111262964.907 7       436.812          47.375    21172637.680   111262964.911 6       436.812          39.187    21172642.180    86698428.516 6       340.373          38.812
G02  22258723.500   116970379.933 7      3975.997          45.562    22258721.260   116970379.940 6      3975.997          38.687    22258727.360    91145766.100 6      3098.179          38.312
G21  20855400.900   109595870.584 7      3166.160          47.562    20855398.960   109595870.592 6      3166.160          39.875    20855404.000    85399392.947 6      2467.138          39.500
> 2024 05 08 12 46  4.0000000  0 11
G27  21178709.380   111294865.515 7      1616.450          47.062    21178708.540   111294865.512 7      1616.450          45.375    21178714.300    86723290.199 7      1259.571          45.500    21178715.160    86723296.190 7      1259.571          46.875
R21  20474503.520   109563221.843 6      2175.871          36.812    20474506.820   109563221.890 6      2175.871          36.625    20474516.620    85215876.358 6      1692.344          36.000    20474515.360    85215888.372 6      1692.344          36.062
R11  19998151.520   106864040.304 6      3750.991          41.750    19998148.120   106864040.290 6      3750.991          40.937    19998159.880    83116543.455 8      2917.437          50.437    19998159.720    83116528.456 8      2917.437          50.437
R05  23226943.080   124161322.330 7      3820.066          46.875    23226942.060   124161322.331 7      3820.066          46.187    23226955.980    96569983.515 6      2971.162          38.312    23226957.420    96569995.507 6      2971.162          38.187
G10  22298372.560   117178744.223 8      1622.599          48.687    22298371.440   117178744.225 7      1622.599          46.437    22298379.200    91308147.294 7      1264.363          46.187    22298379.700    91308145.294 7      1264.363          47.875
G08  21188974.320   111348816.791 8      3244.449          48.250    21188977.340   111348816.788 5      3244.449          34.687    21188983.780    86765333.873 5      2528.142          34.562    21188985.140    86765346.883 7      2528.142          46.937
R10  20324302.760   108339964.443 7      -529.929          46.437    20324302.620   108339964.462 7      -529.929          45.437
G26  23542106.080   123714597.426 6      -933.254          37.812    23542104.700   123714597.434 5      -933.254          34.000    23542122.840    96401045.513 5      -727.211          33.437    23542124.040    96401054.517 7      -727.211          44.375
G16  21172555.200   111262528.381 8       436.154          48.187    21172554.760   111262528.383 6       436.154          38.937    21172559.200    86698088.362 6       339.860          38.437
G02  22257967.040   116966404.117 7      3975.432          46.687    22257964.620   116966404.122 6      3975.432          38.312    22257970.760    91142668.062 6      3097.740          38.187
G21  20854798.320   109592704.722 7      3165.417          47.937    20854796.540   109592704.727 6      3165.417          40.312    20854801.460    85396926.042 6      2466.559          40.187
> 2024 05 08 12 46  5.0000000  0 11
G27  21178401.860   111293248.906 7      1616.599          47.875    21178400.920   111293248.908 7      1616.599          45.125    21178406.980    86722030.504 7      1259.688          44.937    21178407.680    86722036.499 7      1259.688          46.875
R21  20474097.180   109561045.807 6      2175.970          36.812    20474099.940   109561045.840 6      2175.970          36.625    20474109.800    85214183.868 6      1692.421          36.000    20474108.880    85214195.878 6      1692.421          36.062
R11  19997449.500   106860289.403 7      3750.643          42.312    19997445.840   106860289.391 6      3750.643          40.937    19997457.940    83113626.098 8      2917.167          50.250    19997457.480    83113611.099 8      2917.167          50.187
R05  23226228.260   124157502.281 7      3819.866          47.250    23226227.060   124157502.291 7      3819.866          46.937    23226240.680    96567012.371 6      2971.007          38.437    23226242.340    96567024.364 6      2971.007          38.187
G10  22298063.500   117177121.604 8      1622.431          49.437    22298062.400   117177121.606 7      1622.431          46.000    22298070.340    91306882.916 7      1264.232          46.437    22298070.980    91306880.916 7      1264.232          47.812
G08  21188356.880   111345572.183 8      3244.660          48.187    21188359.980   111345572.180 5      3244.660          34.687    21188366.380    86762805.609 5      2528.307          34.562    21188367.820    86762818.620 7      2528.307          46.750
R10  20324402.340   108340494.490 7      -530.262          46.312    20324402.020   108340494.512 7      -530.262          45.312
G26  23542283.560   123715530.513 6      -932.950          38.125    23542282.360   123715530.518 5      -932.950          34.000    23542300.420    96401772.571 5      -726.974          33.437    23542301.400    96401781.557 7      -726.974          44.375
G16  21172472.180   111262092.263 7       436.038          47.562    21172471.760   111262092.268 6       436.038          38.875    21172476.120    86697748.526 6       339.769          39.000
G02  22257210.140   116962428.615 7      3975.511          45.750    22257208.300   116962428.620 6      3975.511          38.812    22257214.180    91139570.268 6      3097.801          38.500
G21  20854195.800   109589539.257 7      3165.399          47.625    20854194.120   109589539.259 6      3165.399          40.062    20854199.100    85394459.444 6      2466.545          40.250
> 2024 05 08 12 46  6.0000000  0 11
G27  21178094.160   111291632.305 7      1616.546          47.437    21178093.060   111291632.307 7      1616.546          45.312    21178099.220    86720770.811 7      1259.646          45.125    21178099.920    86720776.800 7      1259.646          47.000
R21  20473690.720   109558869.829 6      2175.841          38.062    20473693.440   109558869.867 6      2175.841          37.687    20473703.600    85212491.455 6      1692.321          36.000    20473702.280    85212503.471 6      1692.321          36.062
R11  19996748.160   106856539.210 6      3749.887          41.812    19996745.000   106856539.190 6      3749.887          40.937    19996756.440    83110709.264 8      2916.578          50.437    19996756.080    83110694.265 8      2916.578          50.812
R05  23225513.680   124153682.661 7      3819.320          46.875    23225512.480   124153682.660 7      3819.320          46.562    23225526.960    96564041.553 6      2970.582          38.437    23225527.800    96564053.540 6      2970.582          38.000
G10  22297754.860   117175499.419 8      1621.972          48.687    22297753.900   117175499.419 7      1621.972          46.000    22297761.720    91305618.872 7      1263.874          46.437    22297762.200    91305616.863 8      1263.874          48.062
G08  21187739.540   111342327.532 7      3244.588          47.625    21187742.540   111342327.526 5      3244.588          34.562    21187748.880    86760277.311 5      2528.250          34.500    21187750.260    86760290.327 7      2528.250          47.312
R10  20324501.840   108341024.999 7      -530.819          45.937    20324501.560   108341025.023 7      -530.819          45.937
G26  23542461.320   123716463.608 6      -933.032          38.125    23542460.060   123716463.605 5      -933.032          34.125    23542477.980    96402499.635 5      -727.038          33.375    23542478.920    96402508.617 7      -727.038          44.375
G16  21172389.360   111261656.447 8       435.644          48.500    21172388.880   111261656.450 6       435.644          38.875    21172392.960    86697408.929 6       339.463          38.812
G02  22256453.960   116958453.327 7      3975.183          45.500    22256451.700   116958453.335 6      3975.183          38.625    22256457.580    91136472.647 6      3097.545          38.500
G21  20853593.600   109586374.115 8      3164.975          48.062    20853591.820   109586374.117 6      3164.975          39.812    20853596.840    85391993.101 6      2466.214          40.187
> 2024 05 08 12 46  7.0000000  0 11
G27  21177786.780   111290015.995 7      1616.212          47.437    21177785.460   111290015.995 7      1616.212          45.000    21177791.700    86719511.346 7      1259.386          45.062    21177792.400    86719517.337 7      1259.386          46.875
R21  20473284.740   109556694.260 6      2175.324          38.062    20473286.960   109556694.299 6      2175.324          37.687    20473296.700    85210799.340 6      1691.918          36.375    20473295.700    85210811.352 6      1691.918          36.625
R11  19996046.760   106852789.952 6      3748.852          41.812    19996043.380   106852789.943 6      3748.852          41.437    19996054.780    83107793.187 8      2915.774          50.375    19996054.320    83107778.186 8      2915.774          50.875
R05  23224799.140   124149863.743 7      3818.591          46.937    23224797.860   124149863.755 7      3818.591          46.437    23224813.000    96561071.307 6      2970.015          38.437    23224813.440    96561083.298 6      2970.015          38.000
G10  22297446.200   117173877.962 8      1621.162          48.937    22297445.420   117173877.959 7      1621.162          46.125    22297453.260    91304355.399 7      1263.243          46.562    22297454.080    91304353.397 8      1263.243          48.000
G08  21187122.360   111339083.136 7      3244.331          47.875    21187125.080   111339083.136 5      3244.331          34.500    21187131.520    86757749.213 5      2528.050          34.437    21187132.520    86757762.222 7      2528.050          47.000
R10  20324601.700   108341556.272 7      -531.649          46.500    20324601.420   108341556.288 7      -531.649          46.000
G26  23542638.940   123717397.010 6      -933.503          37.875    23542637.580   123717397.007 5      -933.503          34.125    23542655.740    96403226.939 5      -727.405          33.375    23542656.540    96403235.939 7      -727.405          44.375
G16  21172306.380   111261221.223 8       435.019          48.187    21172306.200   111261221.228 6       435.019          39.062    21172310.220    86697069.787 6       338.975          38.687
G02  22255697.620   116954478.571 7      3974.532          46.437    22255695.320   116954478.576 6      3974.532          38.437    22255701.240    91133375.433 6      3097.038          38.062
G21  20852991.380   109583209.575 8      3164.281          48.437    20852989.640   109583209.577 6      3164.281          40.250    20852994.600    85389527.228 6      2465.674          40.312
> 2024 05 08 12 46  8.0000000  0 11
G27  21177479.100   111288399.972 7      1615.824          47.312    21177477.900   111288399.974 7      1615.824          44.937    21177484.220    86718252.108 7      1259.084          45.062    21177484.900    86718258.101 7      1259.084          47.312
R21  20472878.200   109554519.044 6      2175.160          38.062    20472880.320   109554519.094 6      2175.160          37.687    20472890.060    85209107.499 6      1691.791          36.375    20472888.980    85209119.526 6      1691.791          36.625
R11  19995344.680   106849041.659 7      3747.853          42.250    19995342.180   106849041.657 6      3747.853          41.437    19995353.500    83104877.852 8      2914.997          50.625    19995353.200    83104862.853 8      2914.997          51.125
R05  23224085.080   124146045.553 7      3817.875          45.937    23224083.740   124146045.565 7      3817.875          46.562    23224098.340    96558101.601 6      2969.459          38.062    23224099.600    96558113.590 6      2969.459          38.000
G10  22297137.900   117172257.191 8      1620.396          48.312    22297137.020   117172257.188 7      1620.396          45.812    22297144.880    91303092.460 7      1262.646          46.500    22297145.440    91303090.458 7      1262.646          47.812
G08  21186504.900   111335838.985 7      3244.083          46.875    21186507.540   111335838.990 5      3244.083          34.500    21186514.020    86755221.303 5      2527.857          34.437    21186515.300    86755234.310 7      2527.857          47.062
R10  20324701.660   108342088.289 7      -532.360          46.812    20324701.180   108342088.292 7      -532.360          45.375
G26  23542816.440   123718330.698 6      -933.683          37.875    23542815.220   123718330.698 5      -933.683          33.875    23542833.300    96403954.468 5      -727.545          33.687    23542834.060    96403963.456 7      -727.545          44.375
G16  21172223.920   111260786.573 7       434.412          47.812    21172223.480   111260786.581 6       434.412          38.687    21172227.540    86696731.097 6       338.503          38.375
G02  22254941.240   116950504.269 7      3974.101          46.312    22254938.960   116950504.274 6      3974.101          37.937    22254945.020    91130278.580 6      3096.702          37.750
G21  20852389.300   109580045.610 8      3163.727          48.375    20852387.620   109580045.615 6      3163.727          40.562    20852392.400    85387061.801 6      2465.242          40.437
> 2024 05 08 12 46  9.0000000  0 11
G27  21177171.700   111286784.041 7      1615.886          47.250    21177170.400   111286784.040 7      1615.886          45.375    21177176.660    86716992.938 7      1259.132          45.312    21177177.720    86716998.931 7      1259.132          47.125
R21  20472471.780   109552344.081 6      2174.874          38.062    20472473.680   109552344.146 6      2174.874          37.687    20472482.180    85207415.879 6      1691.568          36.375    20472482.360    85207427.893 6      1691.568          36.625
R11  19994642.860   106845294.162 7      3746.993          42.250    19994641.060   106845294.166 6      3746.993          41.562    19994652.300    83101963.132 8      2914.328          50.875    19994651.680    83101948.133 8      2914.328          50.437
R05  23223370.980   124142227.918 7      3817.358          46.250    23223369.400   124142227.922 7      3817.358          46.375    23223383.940    96555132.327 6      2969.056          38.062    23223385.080    96555144.306 6      2969.056          38.375
G10  22296829.220   117170636.948 8      1619.965          48.125    22296828.640   117170636.943 7      1619.965          46.125    22296836.480    91301829.923 7      1262.310          46.312    22296837.140    91301827.921 7      1262.310          47.687
G08  21185887.520   111332594.912 7      3243.995          46.937    21185890.260   111332594.912 5      3243.995          34.312    21185896.460    86752693.454 5      2527.788          34.437    21185897.980    86752706.467 7      2527.788          46.625
R10  20324801.580   108342620.886 7      -532.879          46.500    20324800.700   108342620.906 7      -532.879          45.937
G26  23542994.120   123719264.576 6      -934.018          37.750    23542992.920   123719264.575 5      -934.018          33.875    23543011.080    96404682.144 5      -727.806          33.687    23543012.120    96404691.136 7      -727.806          44.250
G16  21172141.140   111260352.334 7       434.024          47.500    21172140.820   111260352.344 6       434.024          38.750    21172144.860    86696392.725 6       338.201          38.812
G02  22254184.960   116946530.298 7      3973.814          45.937    22254182.640   116946530.301 6      3973.814          38.562    22254188.640    91127181.982 6      3096.478          37.750
G21  20851787.420   109576882.073 8      3163.355          48.250    20851785.640   109576882.078 6      3163.355          40.312    20851790.520    85384596.711 6      2464.952          39.875
> 2024 05 08 12 46 10.0000000  0 11
G27  21176864.260   111285168.372 7      1615.524          46.437    21176862.820   111285168.374 7      1615.524          44.500    21176869.260    86715733.972 7      1258.850          44.625    21176870.040    86715739.969 7      1258.850          47.125
R21  20472065.540   109550169.531 6      2174.357          37.750    20472066.920   109550169.578 6      2174.357          38.250    20472075.920    85205724.545 6      1691.166          36.375    20472076.220    85205736.554 6      1691.166          36.625
R11  19993941.820   106841547.557 7      3746.178          42.000    19993940.100   106841547.556 6      3746.178          41.562    19993951.180    83099049.100 8      2913.694          51.375    19993950.700    83099034.101 8      2913.694          51.375
R05  23222656.840   124138410.941 7      3816.706          47.187    23222655.560   124138410.943 7      3816.706          46.000    23222669.280    96552163.574 6      2968.549          38.062    23222671.000    96552175.550 6      2968.549          38.375
G10  22296521.140   117169017.362 8      1619.280          48.437    22296520.480   117169017.356 7      1619.280          46.312    22296528.360    91300567.914 7      1261.777          46.687    22296529.040    91300565.916 8      1261.777          48.312
G08  21185270.200   111329351.047 7      3243.718          47.062    21185273.120   111329351.049 5      3243.718          34.312    21185279.240    86750165.769 5      2527.573          34.437    21185280.720    86750178.780 7      2527.573          46.750
R10  20324901.580   108343154.217 7      -533.633          46.062    20324901.040   108343154.239 7      -533.633          45.875
G26  23543172.440   123720198.690 6      -934.366          37.625    23543170.400   123720198.689 5      -934.366          33.937    23543188.840    96405410.007 5      -728.077          33.312    23543189.560    96405418.995 7      -728.077          44.250
G16  21172058.720   111259918.649 7       433.374          47.312    21172058.360   111259918.654 6       433.374          39.250    21172062.320    86696054.778 6       337.694          38.562
G02  22253428.820   116942556.803 7      3973.206          46.125    22253426.660   116942556.803 6      3973.206          37.687    22253432.420    91124085.754 6      3096.005          37.687
G21  20851185.560   109573719.096 7      3162.688          47.875    20851183.700   109573719.101 6      3162.688          40.312    20851188.540    85382132.052 6      2464.432          40.187
> 2024 05 08 12 46 11.0000000  0 11
G27  21176556.900   111283552.943 7      1615.214          46.687    21176555.520   111283552.947 7      1615.214          45.000    21176561.900    86714475.198 7      1258.609          45.125    21176562.580    86714481.193 7      1258.609          47.250
R21  20471659.360   109547995.303 6      2174.071          37.750    20471660.320   109547995.342 6      2174.071          38.250    20471670.340    85204033.476 6      1690.944          36.187    20471669.340    85204045.488 6      1690.944          36.250
R11  19993240.940   106837801.901 7      3745.044          42.000    19993239.460   106837801.899 6      3745.044          41.500    19993250.200    83096135.814 8      2912.812          50.562    19993249.620    83096120.817 8      2912.812          51.187
R05  23221942.700   124134594.616 7      3815.998          46.500    23221941.620   124134594.623 7      3815.998          46.187    23221954.180    96549195.336 6      2967.998          37.375    23221957.120    96549207.316 6      2967.998          38.375
G10  22296213.220   117167398.477 8      1618.452          48.500    22296212.260   117167398.469 7      1618.452          46.562    22296220.280    91299306.441 7      1261.131          46.750    22296221.180    91299304.443 8      1261.131          48.187
G08  21184652.860   111326107.374 7      3243.538          47.875    21184655.800   111326107.371 5      3243.538          34.437    21184661.860    86747638.235 5      2527.432          34.500    21184663.240    86747651.247 7      2527.432          46.750
R10  20325001.900   108343688.297 7      -534.516          46.125    20325001.100   108343688.319 7      -534.516          45.750
G26  23543349.760   123721133.080 6      -934.628          37.625    23543348.160   123721133.077 5      -934.628          33.937    23543366.600    96406138.078 5      -728.282          33.312    23543367.660    96406147.067 7      -728.282          44.250
G16  21171976.140   111259485.487 7       432.894          47.312    21171975.840   111259485.492 6       432.894          38.687    21171979.900    86695717.245 6       337.320          38.437
G02  22252672.980   116938583.731 7      3972.817          45.500    22252670.560   116938583.731 6      3972.817          38.375    22252676.360    91120989.851 6      3095.702          38.125
G21  20850583.680   109570556.679 7      3162.036          47.750    20850581.840   109570556.684 6      3162.036          39.875    20850586.720    85379667.833 6      2463.924          40.125
> 2024 05 08 12 46 12.0000000  0 11
G27  21176249.600   111281937.763 7      1615.124          46.500    21176248.020   111281937.760 7      1615.124          45.375    21176254.580    86713216.614 7      1258.538          45.125    21176255.320    86713222.607 7      1258.538          47.000
R21  20471253.240   109545821.484 6      2173.691          37.750    20471253.580   109545821.521 6      2173.691          38.250    20471262.420    85202342.732 6      1690.648          36.187    20471263.080    85202354.753 6      1690.648          36.250
R11  19992540.480   106834057.129 7      3744.407          42.500    19992539.060   106834057.127 6      3744.407          41.500    19992549.520    83093223.205 8      2912.317          50.750    19992549.020    83093208.206 8      2912.317          51.062
R05  23221228.640   124130778.960 7      3815.395          47.062    23221227.900   124130778.964 7      3815.395          46.375    23221241.000    96546227.611 6      2967.530          37.375    23221242.600    96546239.606 6      2967.530          36.687
G10  22295905.260   117165780.216 7      1618.032          47.937    22295904.160   117165780.215 7      1618.032          46.812    22295912.320    91298045.460 7      1260.804          46.875    22295913.280    91298043.466 8      1260.804          48.562
G08  21184035.540   111322863.924 7      3243.400          47.375    21184038.600   111322863.921 5      3243.400          34.500    21184044.560    86745110.872 5      2527.325          34.437    21184046.420    86745123.881 7      2527.325          46.312
R10  20325101.980   108344223.075 7      -535.036          46.312    20325101.500   108344223.094 7      -535.036          45.875
G26  23543527.780   123722067.711 6      -934.586          37.562    23543525.820   123722067.703 5      -934.586          33.437    23543544.580    96406866.334 5      -728.249          33.312    23543545.360    96406875.320 7      -728.249          44.062
G16  21171893.780   111259052.893 7       432.401          47.562    21171893.600   111259052.897 6       432.401          38.750    21171897.560    86695380.159 6       336.936          38.625
G02  22251916.840   116934611.134 7      3972.431          44.875    22251914.600   116934611.137 6      3972.431          37.875    22251920.520    91117894.325 6      3095.400          37.937
G21  20849981.860   109567394.795 8      3161.669          48.187    20849980.140   109567394.800 6      3161.669          40.250    20849985.100    85377204.027 6      2463.638          39.875
> 2024 05 08 12 46 13.0000000  0 11
G27  21175942.140   111280322.699 7      1614.979          46.687    21175940.860   111280322.698 7      1614.979          44.625    21175947.280    86711958.116 7      1258.425          45.125    21175948.000    86711964.113 7      1258.425          46.937
R21  20470846.440   109543647.839 6      2173.527          37.750    20470846.840   109543647.881 6      2173.527          38.250    20470856.080    85200652.120 6      1690.521          36.187    20470856.740    85200664.142 6      1690.521          36.250
R11  19991839.520   106830313.145 7      3743.614          42.750    19991838.340   106830313.146 7      3743.614          42.000    19991848.900    83090311.218 8      2911.699          51.062    19991848.360    83090296.217 8      2911.699          50.812
R05  23220515.300   124126963.843 7      3814.714          47.000    23220514.160   124126963.847 7      3814.714          46.250    23220527.480    96543260.304 6      2967.000          37.375    23220529.040    96543272.291 6      2967.000          36.687
G10  22295597.480   117164162.534 7      1617.335          47.812    22295596.400   117164162.534 7      1617.335          46.687    22295604.540    91296784.933 7      1260.261          47.062    22295605.520    91296782.933 7      1260.261          47.812
G08  21183418.320   111319620.561 7      3243.210          46.562    21183421.480   111319620.558 5      3243.210          34.500    21183427.420    86742583.576 5      2527.177          34.437    21183429.040    86742596.585 7      2527.177          46.687
R10  20325202.760   108344758.455 7      -535.684          46.062    20325201.900   108344758.469 7      -535.684          45.750
G26  23543705.700   123723002.509 6      -934.897          37.562    23543703.780   123723002.503 5      -934.897          33.437    23543722.300    96407594.729 5      -728.491          33.312    23543723.260    96407603.719 7      -728.491          43.750
G16  21171811.600   111258620.708 8       431.964          48.000    21171811.420   111258620.710 6       431.964          39.250    21171815.140    86695043.383 6       336.595          38.625
G02  22251160.760   116930638.869 7      3971.941          46.187    22251158.540   116930638.874 6      3971.941          38.000    22251164.420    91114799.060 6      3095.019          37.625
G21  20849380.420   109564233.358 8      3161.175          48.062    20849378.640   109564233.360 6      3161.175          40.375    20849383.440    85374740.569 6      2463.253          40.250
> 2024 05 08 12 46 14.0000000  0 11
G27  21175634.880   111278707.808 7      1615.013          46.625    21175633.660   111278707.810 7      1615.013          45.187    21175639.920    86710699.766 7      1258.452          45.437    21175640.580    86710705.761 7      1258.452          46.937
R21  20470440.660   109541474.484 6      2173.472          37.750    20470440.340   109541474.525 6      2173.472          38.250    20470448.860    85198961.728 6      1690.478          36.187    20470450.800    85198973.742 6      1690.478          36.250
R11  19991139.000   106826570.051 7      3742.857          42.750    19991138.540   106826570.058 7      3742.857          42.000    19991148.640    83087399.922 8      2911.111          50.875    19991148.040    83087384.921 8      2911.111          51.250
R05  23219801.600   124123149.309 7      3814.397          47.000    23219800.420   124123149.307 7      3814.397          45.875    23219813.440    96540293.450 6      2966.753          37.375    23219815.520    96540305.429 6      2966.753          36.687
G10  22295289.680   117162545.418 8      1617.032          48.875    22295288.700   117162545.415 7      1617.032          46.500    22295296.920    91295524.836 7      1260.025          46.562    22295297.640    91295522.842 8      1260.025          48.437
G08  21182801.140   111316377.318 7      3243.356          47.312    21182804.360   111316377.315 5      3243.356          34.062    21182810.260    86740056.374 5      2527.290          33.937    21182811.460    86740069.377 7      2527.290          46.375
R10  20325302.960   108345294.470 7      -536.074          46.062    20325302.400   108345294.481 7      -536.074          45.250
G26  23543883.160   123723937.506 6      -934.932          37.312    23543881.780   123723937.505 5      -934.932          32.937    23543900.260    96408323.286 5      -728.518          32.375    23543900.800    96408332.264 7      -728.518          43.750
G16  21171729.500   111258188.996 7       431.646          46.875    21171729.120   111258189.004 6       431.646          39.312    21171733.240    86694706.983 6       336.348          38.937
G02  22250404.860   116926666.987 7      3971.761          45.437    22250402.520   116926666.989 6      3971.761          37.625    22250408.700    91111704.087 6      3094.879          37.312
G21  20848778.900   109561072.391 7      3160.912          47.750    20848777.160   109561072.396 6      3160.912          40.125    20848781.920    85372277.482 6      2463.049          40.312
> 2024 05 08 12 46 15.0000000  0 11
G27  21175327.520   111277092.838 7      1615.039          46.875    21175326.240   111277092.840 7      1615.039          45.187    21175332.520    86709441.340 7      1258.472          45.562    21175333.400    86709447.341 7      1258.472          46.625
R21  20470035.100   109539301.160 6      2173.239          37.750    20470033.940   109539301.204 6      2173.239          37.875    20470042.400    85197271.365 6      1690.297          36.187    20470043.860    85197283.381 6      1690.297          36.250
R11  19990438.800   106822827.532 7      3742.204          43.187    19990438.020   106822827.538 7      3742.204          42.062    19990448.320    83084489.080 8      2910.603          50.687    19990447.720    83084474.083 8      2910.603          51.125
R05  23219088.060   124119335.106 7      3813.974          46.000    23219087.060   124119335.105 7      3813.974          45.437    23219101.380    96537326.846 6      2966.424          36.812    23219102.300    96537338.827 6      2966.424          36.812
G10  22294982.360   117160928.649 8      1616.589          48.250    22294981.300   117160928.648 7      1616.589          46.500    22294988.980    91294265.032 7      1259.679          46.875    22294989.900    91294263.030 8      1259.679          48.250
G08  21182184.080   111313133.952 7      3243.448          47.812    21182187.100   111313133.952 5      3243.448          34.062    21182192.980    86737529.080 5      2527.362          33.937    21182194.100    86737542.087 7      2527.362          46.125
R10  20325403.680   108345830.879 7      -536.607          46.250    20325402.880   108345830.896 7      -536.607          45.250
G26  23544060.900   123724872.432 6      -934.961          37.312    23544059.680   123724872.434 5      -934.961          32.937    23544078.200    96409051.785 5      -728.541          32.375    23544078.740    96409060.769 7      -728.541          43.687
G16  21171647.660   111257757.516 8       431.308          48.812    21171647.160   111257757.526 6       431.308          38.937    21171651.100    86694370.762 6       336.084          38.875
G02  22249649.140   116922695.223 7      3971.690          44.937    22249646.520   116922695.228 6      3971.690          37.375    22249652.660    91108609.206 6      3094.823          37.125
G21  20848177.440   109557911.666 8      3160.596          48.375    20848175.600   109557911.671 6      3160.596          39.562    20848180.500    85369814.578 6      2462.802          40.187
> 2024 05 08 12 46 16.0000000  0 11
G27  21175020.080   111275477.953 7      1614.558          47.125    21175018.640   111275477.955 7      1614.558          45.875    21175025.120    86708182.994 7      1258.097          45.750    21175026.040    86708188.989 7      1258.097          46.437
R21  20469628.740   109537128.066 6      2172.447          37.375    20469629.160   109537128.102 6      2172.447          37.875    20469636.420    85195581.179 5      1689.681          35.500    20469637.940    85195593.201 5      1689.681          35.125
R11  19989738.980   106819085.784 7      3740.940          43.687    19989738.180   106819085.788 7      3740.940          42.000    19989748.080    83081578.826 8      2909.620          50.875    19989747.740    83081563.827 8      2909.620          51.062
R05  23218374.900   124115521.430 7      3813.005          46.687    23218373.460   124115521.420 7      3813.005          46.125    23218387.960    96534360.652 6      2965.670          36.812    23218389.020    96534372.643 6      2965.670          36.812
G10  22294674.680   117159312.397 8      1615.621          48.250    22294673.320   117159312.396 7      1615.621          46.500    22294681.420    91293005.603 7      1258.925          46.937    22294682.300    91293003.601 8      1258.925          48.250
G08  21181567.000   111309890.671 7      3242.905          46.875    21181569.780   111309890.668 5      3242.905          33.875    21181575.760    86735001.843 5      2526.939          33.875    21181577.380    86735014.842 7      2526.939          45.875
R10  20325504.140   108346367.827 7      -537.535          46.937    20325503.800   108346367.846 7      -537.535          45.875
G26  23544238.640   123725807.455 6      -935.543          37.375    23544237.640   123725807.465 5      -935.543          33.250    23544256.240    96409780.358 5      -728.995          32.812    23544256.680    96409789.355 7      -728.995          43.750
G16  21171565.600   111257326.403 7       430.564          47.125    21171565.160   111257326.411 6       430.564          38.625    21171568.860    86694034.824 6       335.505          38.812
G02  22248893.880   116918723.749 7      3971.028          45.375    22248890.840   116918723.753 6      3971.028          37.250    22248896.720    91105514.557 6      3094.307          37.000
G21  20847576.040   109554751.324 8      3159.880          48.062    20847574.180   109554751.324 6      3159.880          39.687    20847579.080    85367351.972 6      2462.244          39.750
> 2024 05 08 12 46 17.0000000  0 11
G27  21174712.880   111273863.629 7      1614.485          46.937    21174711.440   111273863.624 7      1614.485          45.000    21174718.020    86706925.073 7      1258.040          44.875    21174718.880    86706931.064 7      1258.040          46.687
R21  20469222.740   109534955.604 6      2172.625          37.375    20469222.680   109534955.616 6      2172.625          37.875    20469230.200    85193891.467 5      1689.819          35.500    20469232.140    85193903.479 5      1689.819          35.125
R11  19989038.460   106815345.226 7      3740.352          43.562    19989038.400   106815345.230 7      3740.352          42.000    19989048.100    83078669.505 8      2909.162          51.062    19989047.720    83078654.504 8      2909.162          50.875
R05  23217661.860   124111708.743 7      3812.561          47.187    23217660.320   124111708.736 7      3812.561          46.375    23217674.380    96531395.241 6      2965.325          36.812    23217676.040    96531407.230 6      2965.325          36.812
G10  22294367.200   117157697.117 7      1615.153          47.812    22294366.040   117157697.122 7      1615.153          46.500    22294374.040    91291746.946 7      1258.561          46.062    22294374.840    91291744.950 8      1258.561          48.750
G08  21180949.920   111306647.875 7      3242.863          47.562    21180952.800   111306647.872 5      3242.863          33.875    21180958.660    86732474.989 5      2526.906          33.875    21180959.900    86732487.999 7      2526.906          46.125
R10  20325604.900   108346905.822 7      -538.138          46.500    20325604.620   108346905.833 7      -538.138          45.687
G26  23544416.920   123726743.085 6      -935.506          37.375    23544415.780   123726743.092 5      -935.506          33.250    23544434.260    96410509.400 5      -728.965          32.812    23544434.900    96410518.387 7      -728.965          43.812
G16  21171483.720   111256896.155 7       430.118          47.625    21171483.200   111256896.165 6       430.118          38.500    21171486.960    86693699.566 6       335.157          38.562
G02  22248137.840   116914753.073 7      3970.663          45.250    22248135.300   116914753.077 6      3970.663          37.375    22248141.220    91102420.521 6      3094.023          37.250
G21  20846974.820   109551591.860 8      3159.385          48.312    20846972.960   109551591.860 6      3159.385          40.250    20846977.840    85364890.054 6      2461.858          39.750
> 2024 05 08 12 46 18.0000000  0 11
G27  21174405.840   111272249.367 7      1614.169          46.687    21174404.440   111272249.369 7      1614.169          45.375    21174410.840    86705667.208 7      1257.794          45.500    21174411.180    86705673.205 7      1257.794          46.812
R21  20468816.520   109532783.348 6      2172.068          37.375    20468817.000   109532783.362 6      2172.068          37.875    20468823.800    85192201.926 5      1689.386          35.500    20468826.120    85192213.923 5      1689.386          35.125
R11  19988338.760   106811605.434 7      3739.347          43.812    19988338.800   106811605.436 7      3739.347          42.687    19988348.340    83075760.774 8      2908.381          50.750    19988347.680    83075745.773 8      2908.381          51.562
R05  23216948.840   124107896.544 7      3811.982          47.250    23216947.200   124107896.540 7      3811.982          46.250    23216960.900    96528430.223 6      2964.875          38.125    23216962.340    96528442.197 6      2964.875          38.000
G10  22294059.940   117156082.326 8      1614.468          48.312    22294058.720   117156082.323 7      1614.468          46.125    22294066.800    91290488.665 7      1258.027          46.625    22294067.660    91290486.661 8      1258.027          48.000
G08  21180333.020   111303405.111 7      3242.702          46.687    21180335.580   111303405.105 5      3242.702          34.125    21180341.520    86729948.160 5      2526.781          34.250    21180342.660    86729961.170 7      2526.781          46.375
R10  20325706.280   108347444.329 7      -538.849          46.562    20325705.880   108347444.340 7      -538.849          45.875
G26  23544595.160   123727678.794 6      -935.729          37.687    23544593.960   123727678.801 5      -935.729          33.625    23544612.380    96411238.500 5      -729.140          33.312    23544613.060    96411247.482 7      -729.140          43.875
G16  21171401.900   111256466.264 7       429.613          47.750    21171401.300   111256466.272 6       429.613          38.812    21171405.220    86693364.582 6       334.763          38.687
G02  22247382.380   116910782.649 7      3970.247          44.937    22247379.720   116910782.649 6      3970.247          37.750    22247385.780    91099326.679 6      3093.699          37.437
G21  20846373.820   109548432.759 8      3158.869          48.562    20846371.920   109548432.761 6      3158.869          40.312    20846376.600    85362428.416 6      2461.456          40.562
> 2024 05 08 12 46 19.0000000  0 11
G27  21174098.780   111270635.456 7      1613.832          46.437    21174097.200   111270635.463 7      1613.832          45.062    21174103.720    86704409.615 7      1257.532          45.125    21174104.120    86704415.612 7      1257.532          46.750
R21  20468410.480   109530611.487 6      2171.703          37.375    20468411.440   109530611.491 6      2171.703          37.875    20468417.280    85190512.697 5      1689.102          35.500    20468419.680    85190524.705 5      1689.102          35.125
R11  19987639.080   106807866.653 7      3738.496          43.812    19987639.300   106807866.649 7      3738.496          42.875    19987648.580    83072852.822 8      2907.719          51.500    19987648.180    83072837.819 8      2907.719          51.375
R05  23216235.620   124104085.148 7      3811.188          46.562    23216234.060   124104085.144 7      3811.188          46.375    23216248.340    96525465.803 6      2964.258          38.125    23216249.320    96525477.794 6      2964.258          38.000
G10  22293752.480   117154468.302 8      1613.754          48.312    22293751.620   117154468.291 7      1613.754          46.312    22293759.820    91289230.972 7      1257.471          46.687    22293760.520    91289228.976 8      1257.471          48.750
G08  21179715.840   111300162.665 7      3242.360          46.937    21179718.760   111300162.659 5      3242.360          34.125    21179724.500    86727421.577 5      2526.514          34.250    21179725.680    86727434.580 7      2526.514          46.000
R10  20325807.680   108347983.659 7      -539.621          47.062    20325807.380   108347983.678 7      -539.621          46.312
G26  23544774.100   123728614.894 6      -936.126          37.812    23544772.240   123728614.897 5      -936.126          33.625    23544790.680    96411967.902 5      -729.449          33.312    23544791.280    96411976.880 7      -729.449          44.187
G16  21171320.380   111256037.009 7       429.040          47.250    21171319.760   111256037.017 6       429.040          39.000    21171323.400    86693030.091 6       334.317          38.687
G02  22246626.760   116906812.764 7      3969.689          45.937    22246624.340   116906812.769 6      3969.689          37.250    22246630.120    91096233.268 6      3093.264          37.500
G21  20845772.720   109545274.309 8      3158.251          48.062    20845770.780   109545274.309 6      3158.251          40.562    20845775.620    85359967.287 6      2460.975          39.875
> 2024 05 08 12 46 20.0000000  0 11
G27  21173791.780   111269021.839 7      1613.346          46.812    21173790.140   111269021.842 7      1613.346          45.125    21173796.700    86703152.248 7      1257.152          44.562    21173796.980    86703158.249 7      1257.152          46.812
R21  20468005.200   109528440.042 6      2171.227          37.375    20468004.940   109528440.054 6      2171.227          37.625    20468011.820    85188823.789 5      1688.732          35.500    20468013.740    85188835.797 5      1688.732          35.125
R11  19986939.660   106804128.833 7      3737.355          43.812    19986939.700   106804128.834 7      3737.355          42.875    19986948.920    83069945.642 8      2906.831          51.125    19986948.540    83069930.641 8      2906.831          50.937
R05  23215522.340   124100274.441 7      3810.356          47.312    23215521.080   124100274.440 7      3810.356          46.437    23215535.660    96522501.943 6      2963.611          38.125    23215536.380    96522513.926 6      2963.611          38.000
G10  22293445.280   117152854.985 8      1612.852          48.500    22293444.520   117152854.980 7      1612.852          46.375    22293452.860    91287973.854 7      1256.767          46.500    22293453.640    91287971.852 8      1256.767          48.187
G08  21179098.880   111296920.457 7      3242.092          47.187    21179101.860   111296920.449 5      3242.092          33.812    21179107.440    86724895.184 5      2526.305          33.812    21179108.400    86724908.189 7      2526.305          45.875
R10  20325908.820   108348523.778 7      -540.570          46.562    20325908.620   108348523.792 7      -540.570          45.687
G26  23544952.300   123729551.279 6      -936.499          37.812    23544950.440   123729551.273 5      -936.499          34.250    23544968.820    96412697.529 5      -729.739          33.812    23544969.660    96412706.506 7      -729.739          44.187
G16  21171238.760   111255608.359 8       428.309          48.875    21171238.360   111255608.366 6       428.309          38.937    21171241.820    86692696.074 6       333.748          38.562
G02  22245871.260   116902843.391 7      3969.093          45.062    22245868.880   116902843.396 6      3969.093          37.375    22245874.800    91093140.254 6      3092.800          37.187
G21  20845171.660   109542116.459 8      3157.512          48.625    20845169.980   109542116.463 6      3157.512          40.125    20845174.640    85357506.630 6      2460.399          40.437
> 2024 05 08 12 46 21.0000000  0 11
G27  21173484.640   111267408.586 7      1613.160          45.875    21173482.960   111267408.585 7      1613.160          44.687    21173489.660    86701895.169 7      1257.008          44.500    21173490.100    86701901.170 7      1257.008          46.500
R21  20467599.140   109526269.094 6      2170.949          37.312    20467599.880   109526269.106 6      2170.949          37.625    20467606.560    85187135.270 5      1688.516          35.500    20467608.020    85187147.267 5      1688.516          35.125
R11  19986240.500   106800392.071 7      3736.326          44.562    19986240.520   106800392.075 7      3736.326          42.937    19986249.980    83067039.290 8      2906.031          51.250    19986249.200    83067024.289 8      2906.031          51.500
R05  23214809.720   124096464.537 7      3809.622          46.625    23214808.600   124096464.538 7      3809.622          46.062    23214822.760    96519538.686 6      2963.039          38.062    23214823.680    96519550.683 6      2963.039          37.812
G10  22293138.800   117151242.457 8      1612.199          49.250    22293137.680   117151242.454 7      1612.199          46.875    22293145.980    91286717.336 7      1256.259          47.250    22293146.720    91286715.334 8      1256.259          48.375
G08  21178481.780   111293678.610 7      3241.733          47.312    21178485.000   111293678.610 5      3241.733          33.812    21178490.400    86722369.071 5      2526.026          33.812    21178491.360    86722382.078 7      2526.026          46.000
R10  20326010.240   108349064.748 7      -541.263          46.437    20326009.900   108349064.767 7      -541.263          45.625
G26  23545129.900   123730488.081 6      -936.920          38.437    23545128.500   123730488.080 5      -936.920          34.250    23545146.960    96413427.487 5      -730.067          33.812    23545147.940    96413436.467 7      -730.067          44.062
G16  21171157.320   111255180.368 8       427.768          48.187    21171157.020   111255180.378 6       427.768          38.500    21171160.300    86692362.572 6       333.326          38.812
G02  22245116.060   116898874.599 7      3968.609          44.875    22245113.660   116898874.604 6      3968.609          37.000    22245119.400    91090047.689 6      3092.423          37.187
G21  20844570.780   109538959.296 8      3156.936          48.375    20844569.100   109538959.299 6      3156.936          40.437    20844573.800    85355046.504 6      2459.950          40.125
> 2024 05 08 12 46 22.0000000  0 11
G27  21173177.780   111265795.379 7      1613.295          46.187    21173175.760   111265795.379 7      1613.295          45.500    21173182.600    86700638.123 7      1257.113          45.062    21173183.320    86700644.120 7      1257.113          46.562
R21  20467193.780   109524098.363 6      2170.704          37.312    20467194.120   109524098.372 6      2170.704          37.625    20467200.900    85185446.923 5      1688.325          34.625    20467202.340    85185458.919 5      1688.325          35.125
R11  19985541.220   106796656.023 7      3735.814          44.062    19985541.760   106796656.027 7      3735.814          43.187    19985550.800    83064133.467 8      2905.633          51.000    19985550.200    83064118.465 8      2905.633          51.500
R05  23214097.080   124092655.081 7      3809.366          46.625    23214095.540   124092655.079 7      3809.366          46.187    23214110.060    96516575.765 6      2962.840          38.062    23214111.240    96516587.755 6      2962.840          37.812
G10  22292832.200   117149630.385 7      1611.951          47.937    22292831.140   117149630.385 7      1611.951          46.750    22292839.240    91285461.183 7      1256.066          46.625    22292840.020    91285459.181 8      1256.066          48.437
G08  21177864.980   111290436.740 7      3242.035          47.000    21177868.020   111290436.739 5      3242.035          33.812    21177873.180    86719842.942 5      2526.261          33.687    21177874.160    86719855.947 7      2526.261          45.437
R10  20326111.960   108349606.245 7      -541.608          46.562    20326111.440   108349606.254 7      -541.608          45.812
G26  23545307.940   123731424.925 6      -936.855          37.375    23545306.680   123731424.935 5      -936.855          34.250    23545325.100    96414157.481 5      -730.017          33.000    23545326.180    96414166.467 7      -730.017          43.562
G16  21171075.840   111254752.726 8       427.604          48.250    21171075.680   111254752.733 6       427.604          38.187    21171078.820    86692029.335 6       333.198          38.562
G02  22244360.860   116894906.070 7      3968.515          44.875    22244358.420   116894906.075 6      3968.515          36.812    22244364.160    91086955.333 6      3092.349          36.625
G21  20843969.980   109535802.494 8      3156.744          48.312    20843968.320   109535802.496 6      3156.744          40.125    20843973.040    85352586.658 6      2459.801          40.000
> 2024 05 08 12 46 23.0000000  0 11
G27  21172870.620   111264182.285 7      1613.034          45.937    21172868.600   111264182.290 7      1613.034          44.750    21172875.560    86699381.161 7      1256.909          44.750    21172876.080    86699387.164 7      1256.909          46.375
R21  20466788.440   109521927.771 6      2170.478          37.312    20466788.080   109521927.802 6      2170.478          37.625    20466795.580    85183758.696 5      1688.150          34.625    20466797.080    85183770.676 5      1688.150          34.125
R11  19984842.180   106792920.758 7      3734.850          44.375    19984842.920   106792920.756 7      3734.850          43.062    19984851.900    83061228.258 8      2904.883          51.312    19984850.940    83061213.255 8      2904.883          51.250
R05  23213384.780   124088846.141 7      3808.656          46.125    23213383.180   124088846.147 7      3808.656          45.812    23213397.700    96513613.275 6      2962.288          38.125    23213398.920    96513625.268 6      2962.288          37.812
G10  22292525.320   117148018.863 7      1611.312          47.875    22292524.540   117148018.863 7      1611.312          46.875    22292532.440    91284205.449 7      1255.568          46.750    22292533.200    91284203.449 8      1255.568          48.125
G08  21177247.980   111287194.984 7      3241.669          47.250    21177250.960   111287194.984 5      3241.669          33.812    21177256.380    86717316.899 5      2525.976          33.687    21177257.640    86717329.900 7      2525.976          45.625
R10  20326213.340   108350148.315 7      -542.327          46.125    20326213.480   108350148.324 7      -542.327          45.812
G26  23545486.180   123732361.892 6      -936.863          37.375    23545485.220   123732361.902 5      -936.863          33.250    23545503.380    96414887.563 5      -730.023          33.000    23545503.880    96414896.557 7      -730.023          43.437
G16  21170994.520   111254325.492 8       427.002          48.312    21170994.220   111254325.504 6       427.002          38.250    21170997.580    86691696.425 6       332.729          38.187
G02  22243605.760   116890937.840 7      3968.100          46.062    22243603.320   116890937.845 6      3968.100          36.687    22243609.240    91083863.208 6      3092.026          36.687
G21  20843369.740   109532646.096 7      3156.253          47.437    20843367.760   109532646.099 6      3156.253          40.000    20843372.500    85350127.127 6      2459.418          39.750
> 2024 05 08 12 46 24.0000000  0 11
G27  21172563.700   111262569.286 7      1612.848          46.000    21172561.840   111262569.289 7      1612.848          44.625    21172568.680    86698124.278 7      1256.765          44.812    21172569.100    86698130.273 7      1256.765          46.625
R21  20466383.660   109519757.433 6      2169.845          37.312    20466381.780   109519757.453 6      2169.845          37.625    20466390.040    85182070.657 5      1687.658          34.625    20466391.120    85182082.646 5      1687.658          34.125
R11  19984143.500   106789186.262 7      3733.999          44.437    19984144.140   106789186.258 7      3733.999          43.062    19984153.100    83058323.648 8      2904.221          51.250    19984152.600    83058308.643 8      2904.221          51.625
R05  23212671.680   124085037.722 7      3808.054          46.312    23212670.460   124085037.726 7      3808.054          45.250    23212686.700    96510651.165 6      2961.820          38.125    23212686.340    96510663.152 6      2961.820          37.875
G10  22292218.960   117146407.845 7      1610.634          47.812    22292217.700   117146407.847 7      1610.634          46.312    22292225.680    91282950.110 7      1255.040          47.000    22292226.520    91282948.106 7      1255.040          47.875
G08  21176631.480   111283953.248 7      3241.560          47.000    21176634.180   111283953.247 5      3241.560          33.250    21176639.440    86714790.868 5      2525.891          33.687    21176640.420    86714803.870 7      2525.891          45.000
R10  20326315.140   108350690.932 7      -543.092          46.750    20326314.980   108350690.940 7      -543.092          46.000
G26  23545664.880   123733299.015 6      -937.145          37.937    23545663.580   123733299.020 5      -937.145          33.250    23545681.620    96415617.764 5      -730.243          33.437    23545681.760    96415626.740 7      -730.243          43.437
G16  21170913.360   111253898.657 8       426.464          48.062    21170913.060   111253898.667 6       426.464          38.500    21170916.400    86691363.816 6       332.309          38.500
G02  22242850.840   116886969.947 7      3967.612          45.062    22242848.280   116886969.952 6      3967.612          37.062    22242854.000    91080771.343 6      3091.646          36.625
G21  20842769.120   109529490.116 8      3155.599          48.062    20842767.220   109529490.121 6      3155.599          40.625    20842771.880    85347667.926 6      2458.909          40.062
> 2024 05 08 12 46 25.0000000  0 11
G27  21172257.000   111260956.495 7      1612.857          45.812    21172254.740   111260956.497 7      1612.857          45.187    21172261.800    86696867.558 7      1256.772          45.000    21172262.060    86696873.559 7      1256.772          46.750
R21  20465977.820   109517587.341 6      2170.105          37.312    20465977.280   109517587.353 6      2170.105          37.500    20465984.460    85180382.804 5      1687.860          34.625    20465985.760    85180394.778 5      1687.860          34.125
R11  19983444.900   106785452.682 7      3733.233          44.625    19983445.400   106785452.675 7      3733.233          43.062    19983454.200    83055419.749 8      2903.626          51.125    19983453.680    83055404.747 8      2903.626          51.312
R05  23211959.340   124081229.950 7      3807.672          45.812    23211958.000   124081229.954 7      3807.672          45.375    23211974.180    96507689.584 6      2961.523          38.125    23211974.300    96507701.581 6      2961.523          37.875
G10  22291912.580   117144797.482 8      1610.181          48.125    22291911.440   117144797.481 7      1610.181          46.437    22291919.260    91281695.284 7      1254.687          47.000    22291919.900    91281693.284 8      1254.687          48.187
G08  21176014.400   111280711.700 7      3241.631          45.625    21176017.040   111280711.697 5      3241.631          33.250    21176022.420    86712264.987 5      2525.946          33.125    21176023.480    86712278.005 7      2525.946          45.000
R10  20326417.200   108351234.231 7      -543.514          46.500    20326417.120   108351234.247 7      -543.514          45.500
G26  23545843.840   123734236.340 6      -937.100          37.937    23545841.560   123734236.345 5      -937.100          33.687    23545860.000    96416348.128 5      -730.208          33.437    23545860.660    96416357.110 7      -730.208          43.625
G16  21170832.220   111253472.321 8       426.268          48.000    21170831.860   111253472.326 6       426.268          38.500    21170835.300    86691031.600 6       332.157          38.375
G02  22242096.020   116883002.474 7      3967.398          45.250    22242093.340   116883002.482 6      3967.398          37.187    22242099.060    91077679.803 6      3091.479          37.000
G21  20842168.800   109526334.662 7      3155.348          47.812    20842166.560   109526334.662 6      3155.348          39.875    20842171.380    85345209.126 6      2458.713          39.687
> 2024 05 08 12 46 26.0000000  0 11
G27  21171950.000   111259343.767 7      1612.662          46.250    21171948.020   111259343.769 7      1612.662          45.375    21171955.080    86695610.884 7      1256.620          45.250    21171955.140    86695616.885 7      1256.620          46.875
R21  20465572.040   109515417.472 6      2169.829          37.312    20465571.360   109515417.473 6      2169.829          37.500    20465579.120    85178695.111 5      1687.645          34.625    20465580.500    85178707.081 5      1687.645          34.125
R11  19982746.320   106781719.789 7      3732.430          44.250    19982746.660   106781719.785 7      3732.430          43.125    19982755.620    83052516.388 8      2903.001          51.375    19982755.000    83052501.384 8      2903.001          50.812
R05  23211247.480   124077422.662 7      3806.919          46.250    23211246.040   124077422.663 7      3806.919          45.437    23211261.440    96504728.376 6      2960.937          38.875    23211262.300    96504740.376 6      2960.937          39.062
G10  22291605.940   117143187.565 7      1609.587          47.937    22291604.860   117143187.567 7      1609.587          46.687    22291613.060    91280440.801 7      1254.223          46.437    22291613.560    91280438.801 8      1254.223          48.000
G08  21175397.500   111277470.165 7      3241.439          45.875    21175400.340   111277470.168 5      3241.439          33.187    21175405.620    86709739.118 5      2525.796          33.125    21175406.700    86709752.125 7      2525.796          45.125
R10  20326518.980   108351778.020 7      -544.178          46.250    20326518.820   108351778.047 7      -544.178          45.625
G26  23546021.720   123735173.793 6      -937.629          37.625    23546019.880   123735173.804 5      -937.629          33.687    23546038.340    96417078.593 5      -730.620          32.687    23546038.660    96417087.573 7      -730.620          43.437
G16  21170751.100   111253046.335 7       425.733          47.125    21170750.720   111253046.345 6       425.733          38.437    21170754.000    86690699.665 6       331.740          38.812
G02  22241341.060   116879035.225 7      3967.073          44.937    22241338.420   116879035.240 6      3967.073          36.687    22241344.100    91074588.444 6      3091.226          36.250
G21  20841568.420   109523179.560 7      3154.811          47.375    20841566.220   109523179.565 6      3154.811          40.250    20841571.040    85342750.607 6      2458.294          39.875
> 2024 05 08 12 46 27.0000000  0 11
G27  21171643.020   111257731.154 7      1612.472          45.250    21171641.160   111257731.161 7      1612.472          45.562    21171648.100    86694354.301 7      1256.472          44.812    21171648.280    86694360.300 7      1256.472          46.875
R21  20465166.300   109513247.864 6      2169.313          36.500    20465165.640   109513247.871 6      2169.313          37.500    20465173.580    85177007.647 5      1687.243          35.250    20465175.620    85177019.623 5      1687.243          34.125
R11  19982047.780   106777987.669 7      3731.710          44.250    19982048.760   106777987.673 7      3731.710          43.125    19982057.260    83049613.635 8      2902.441          51.250    19982056.580    83049598.632 8      2902.441          51.000
R05  23210535.400   124073615.900 7      3806.432          46.187    23210534.540   124073615.904 7      3806.432          45.125    23210550.100    96501767.578 6      2960.558          38.875    23210550.300    96501779.569 6      2960.558          39.062
G10  22291299.960   117141578.202 8      1609.061          48.375    22291298.740   117141578.197 7      1609.061          46.437    22291306.680    91279186.746 7      1253.814          46.437    22291307.160    91279184.744 8      1253.814          48.187
G08  21174780.600   111274228.705 7      3241.416          45.750    21174783.420   111274228.702 5      3241.416          33.187    21174788.820    86707213.308 5      2525.779          33.125    21174789.780    86707226.316 7      2525.779          45.312
R10  20326621.120   108352322.415 7      -544.685          46.625    20326621.320   108352322.426 7      -544.685          45.187
G26  23546200.260   123736111.331 6      -937.501          37.875    23546198.440   123736111.344 5      -937.501          33.000    23546216.700    96417809.117 5      -730.520          32.687    23546217.480    96417818.089 7      -730.520          43.250
G16  21170670.120   111252620.761 7       425.313          47.187    21170669.620   111252620.773 6       425.313          38.625    21170672.960    86690368.044 6       331.413          38.500
G02  22240585.960   116875068.340 7      3966.673          45.187    22240583.560   116875068.350 6      3966.673          37.000    22240589.140    91071497.367 6      3090.914          36.687
G21  20840967.980   109520024.875 7      3154.360          47.312    20840965.680   109520024.880 6      3154.360          39.750    20840970.800    85340292.415 6      2457.943          39.812
> 2024 05 08 12 46 28.0000000  0 11
G27  21171336.100   111256118.862 7      1612.142          45.562    21171334.160   111256118.880 7      1612.142          45.125    21171341.340    86693097.971 7      1256.215          44.875    21171341.620    86693103.972 7      1256.215          46.812
R21  20464761.240   109511078.690 6      2168.987          36.500    20464759.820   109511078.703 6      2168.987          37.500    20464769.120    85175320.505 5      1686.990          35.250    20464770.060    85175332.484 5      1686.990          34.875
R11  19981349.380   106774256.612 7      3730.480          44.500    19981350.300   106774256.610 7      3730.480          42.937    19981359.000    83046711.706 8      2901.484          50.750    19981358.420    83046696.705 8      2901.484          51.437
R05  23209823.260   124069809.921 7      3805.607          46.250    23209822.020   124069809.928 7      3805.607          45.375    23209837.880    96498807.381 6      2959.916          39.125    23209838.060    96498819.372 6      2959.916          39.062
G10  22290993.800   117139969.583 8      1608.246          48.812    22290992.680   117139969.575 7      1608.246          46.125    22291000.400    91277933.281 7      1253.179          46.500    22291001.060    91277931.277 7      1253.179          47.750
G08  21174163.700   111270987.567 7      3241.025          45.750    21174166.560   111270987.561 5      3241.025          33.062    21174171.960    86704687.745 5      2525.474          33.125    21174172.540    86704700.740 7      2525.474          44.750
R10  20326723.680   108352867.611 7      -545.608          46.750    20326723.760   108352867.625 7      -545.608          45.625
G26  23546378.680   123737049.260 6      -938.020          37.875    23546377.060   123737049.263 5      -938.020          33.000    23546395.140    96418539.947 5      -730.924          32.687    23546395.600    96418548.911 7      -730.924          43.250
G16  21170589.120   111252195.831 8       424.608          48.750    21170588.620   111252195.841 6       424.608          38.750    21170592.100    86690036.926 6       330.863          38.500
G02  22239831.300   116871101.992 7      3966.056          45.437    22239828.860   116871101.997 6      3966.056          37.187    22239834.540    91068406.702 6      3090.433          37.187
G21  20840367.860   109516870.850 7      3153.646          47.562    20840365.540   109516870.858 6      3153.646          40.000    20840370.480    85337834.734 6      2457.387          39.375
> 2024 05 08 12 46 29.0000000  0 11
G27  21171029.600   111254506.835 7      1611.932          46.500    21171027.500   111254506.842 7      1611.932          44.812    21171034.480    86691841.840 7      1256.051          44.937    21171034.960    86691847.833 7      1256.051          46.687
R21  20464355.560   109508909.840 6      2168.560          36.500    20464354.400   109508909.839 6      2168.560          37.500    20464363.700    85173633.620 5      1686.658          35.250    20464364.100    85173645.596 5      1686.658          34.875
R11  19980651.580   106770526.449 7      3729.629          44.937    19980652.920   106770526.448 7      3729.629          43.000    19980660.800    83043810.473 8      2900.823          51.375    19980660.320    83043795.470 8      2900.823          50.812
R05  23209111.280   124066004.590 7      3804.923          46.437    23209110.140   124066004.596 7      3804.923          45.250    23209126.180    96495847.714 6      2959.385          39.125    23209126.480    96495859.705 6      2959.385          39.062
G10  22290687.760   117138361.634 8      1607.573          48.812    22290686.720   117138361.626 7      1607.573          46.875    22290694.500    91276680.336 7      1252.654          46.687    22290695.100    91276678.336 8      1252.654          48.500
G08  21173547.080   111267746.616 7      3240.771          45.312    21173549.740   111267746.610 5      3240.771          33.062    21173555.360    86702162.326 5      2525.276          33.562    21173555.800    86702175.327 7      2525.276          44.937
R10  20326826.060   108353413.514 7      -546.352          46.562    20326826.040   108353413.528 7      -546.352          45.312
G26  23546557.880   123737987.439 6      -938.353          37.937    23546555.440   123737987.434 5      -938.353          33.000    23546573.740    96419270.971 5      -731.184          32.562    23546574.420    96419279.957 7      -731.184          43.187
G16  21170508.440   111251771.426 8       424.085          48.062    21170507.740   111251771.439 6       424.085          38.062    21170511.380    86689706.221 6       330.456          38.062
G02  22239076.740   116867136.098 7      3965.523          44.500    22239074.340   116867136.098 6      3965.523          37.000    22239079.940    91065316.397 6      3090.018          36.562
G21  20839767.820   109513717.377 7      3153.083          46.375    20839765.420   109513717.382 6      3153.083          39.437    20839770.280    85335377.482 6      2456.947          39.875
> 2024 05 08 12 46 30.0000000  0 11
G27  21170722.840   111252895.066 7      1611.561          47.125    21170721.080   111252895.073 7      1611.561          45.062    21170727.820    86690585.914 7      1255.762          45.312    21170728.160    86690591.913 7      1255.762          46.750
R21  20463949.900   109506741.351 6      2168.210          36.500    20463949.280   109506741.342 6      2168.210          37.500    20463958.300    85171947.007 5      1686.386          35.250    20463958.740    85171958.973 5      1686.386          34.875
R11  19979953.760   106766797.233 7      3728.575          45.062    19979954.840   106766797.229 7      3728.575          43.937    19979963.160    83040909.967 8      2900.003          50.875    19979962.460    83040894.962 8      2900.003          51.187
R05  23208399.220   124062199.956 7      3804.211          46.250    23208398.620   124062199.962 7      3804.211          45.375    23208413.100    96492888.562 6      2958.831          39.687    23208414.720    96492900.560 6      2958.831          39.437
G10  22290382.100   117136754.374 8      1606.836          48.187    22290380.520   117136754.374 7      1606.836          46.125    22290388.820    91275427.915 7      1252.080          45.750    22290389.340    91275425.909 7      1252.080          47.875
G08  21172930.500   111264505.888 7      3240.598          45.937    21172932.860   111264505.882 5      3240.598          33.437    21172938.720    86699637.086 5      2525.141          33.562    21172939.300    86699650.089 7      2525.141          45.312
R10  20326928.580   108353960.131 7      -547.088          46.812    20326928.360   108353960.151 7      -547.088          45.750
G26  23546735.700   123738925.884 6      -938.672          37.937    23546733.880   123738925.883 5      -938.672          33.000    23546752.380    96420002.212 5      -731.433          32.562    23546753.240    96420011.192 7      -731.433          43.750
G16  21170427.720   111251347.610 7       423.470          47.562    21170427.000   111251347.620 6       423.470          38.625    21170430.780    86689375.969 6       329.977          38.375
G02  22238322.180   116863170.669 7      3964.968          45.312    22238319.760   116863170.671 6      3964.968          37.375    22238325.280    91062226.461 6      3089.586          37.125
G21  20839167.660   109510564.471 7      3152.455          47.250    20839165.420   109510564.476 6      3152.455          39.437    20839170.160    85332920.672 6      2456.459          39.312
> 2024 05 08 12 46 31.0000000  0 11
G27  21170416.220   111251283.659 7      1611.335          46.875    21170414.600   111251283.669 7      1611.335          44.750    21170421.120    86689330.268 7      1255.586          44.687    21170421.720    86689336.266 7      1255.586          46.687
R21  20463544.900   109504573.306 6      2167.840          36.500    20463543.460   109504573.310 6      2167.840          37.250    20463553.200    85170260.770 5      1686.098          35.875    20463553.640    85170272.720 5      1686.098          34.875
R11  19979255.960   106763069.026 7      3727.850          45.125    19979257.220   106763069.014 7      3727.850          43.562    19979265.520    83038010.251 8      2899.439          51.187    19979265.040    83037995.246 8      2899.439          50.875
R05  23207687.860   124058396.088 7      3803.687          45.312    23207687.000   124058396.095 7      3803.687          44.750    23207702.600    96489929.993 6      2958.423          39.687    23207703.320    96489941.988 6      2958.423          39.437
G10  22290076.240   117135147.891 7      1606.213          47.937    22290074.860   117135147.888 7      1606.213          45.375    22290083.340    91274176.120 7      1251.595          45.250    22290083.500    91274174.116 7      1251.595          47.500
G08  21172313.920   111261265.507 7      3240.323          45.312    21172316.400   111261265.507 5      3240.323          33.437    21172322.220    86697112.115 5      2524.927          33.187    21172322.700    86697125.111 7      2524.927          44.937
R10  20327031.180   108354507.591 7      -547.728          47.125    20327031.400   108354507.605 7      -547.728          45.625
G26  23546914.420   123739864.769 6      -938.916          37.687    23546912.400   123739864.764 5      -938.916          33.000    23546930.940    96420733.784 5      -731.623          32.437    23546932.100    96420742.742 7      -731.623          43.750
G16  21170347.300   111250924.446 7       422.961          47.625    21170346.540   111250924.456 6       422.961          38.125    21170350.400    86689046.226 6       329.580          38.187
G02  22237567.640   116859205.803 7      3964.662          46.500    22237565.200   116859205.808 6      3964.662          37.562    22237570.940    91059136.951 6      3089.347          37.312
G21  20838567.780   109507412.225 7      3152.052          47.812    20838565.640   109507412.228 6      3152.052          39.437    20838570.420    85330464.372 6      2456.144          40.187
> 2024 05 08 12 46 32.0000000  0 11
G27  21170109.500   111249672.407 7      1611.189          47.437    21170107.940   111249672.415 7      1611.189          44.625    21170114.480    86688074.744 7      1255.472          44.625    21170114.960    86688080.743 7      1255.472          46.562
R21  20463140.260   109502405.641 6      2167.389          36.500    20463139.360   109502405.640 6      2167.389          37.250    20463148.740    85168574.798 5      1685.747          35.875    20463148.480    85168586.769 5      1685.747          34.875
R11  19978558.640   106759341.670 7      3727.022          45.125    19978559.660   106759341.663 7      3727.022          43.562    19978567.860    83035111.194 8      2898.795          51.000    19978567.440    83035096.190 8      2898.795          51.000
R05  23206976.080   124054592.801 7      3803.068          46.437    23206975.640   124054592.808 7      3803.068          44.937    23206990.200    96486971.908 6      2957.942          39.625    23206991.620    96486983.897 6      2957.942          39.562
G10  22289770.520   117133541.987 7      1605.587          46.937    22289769.340   117133541.981 7      1605.587          45.500    22289777.680    91272924.766 7      1251.107          45.875    22289778.020    91272922.758 7      1251.107          47.937
G08  21171697.360   111258025.226 7      3240.168          46.125    21171699.760   111258025.223 5      3240.168          32.937    21171705.380    86694587.217 5      2524.806          33.187    21171705.980    86694600.216 7      2524.806          44.937
R10  20327134.040   108355055.677 7      -548.347          47.062    20327134.160   108355055.688 7      -548.347          45.687
G26  23547093.180   123740803.805 6      -939.313          37.687    23547091.120   123740803.802 5      -939.313          32.812    23547109.720    96421465.478 5      -731.932          32.437    23547110.420    96421474.456 7      -731.932          43.375
G16  21170266.860   111250501.744 8       422.501          48.250    21170266.000   111250501.751 6       422.501          38.125    21170270.020    86688716.842 6       329.222          38.125
G02  22236813.240   116855241.294 7      3964.391          45.750    22236810.740   116855241.298 6      3964.391          37.750    22236816.400    91056047.727 6      3089.136          37.750
G21  20837968.080   109504260.457 7      3151.491          47.500    20837966.020   109504260.460 6      3151.491          39.750    20837970.700    85328008.451 6      2455.707          39.875
> 2024 05 08 12 46 33.0000000  0 11
G27  21169802.940   111248061.510 7      1610.551          46.250    21169801.380   111248061.515 7      1610.551          44.937    21169808.100    86686819.503 7      1254.975          44.500    21169808.300    86686825.496 7      1254.975          47.062
R21  20462735.260   109500238.378 6      2166.926          36.562    20462733.480   109500238.366 6      2166.926          37.250    20462744.180    85166889.151 5      1685.387          35.875    20462743.640    85166901.123 5      1685.387          35.250
R11  19977861.780   106755615.344 7      3725.692          44.875    19977862.260   106755615.345 7      3725.692          43.625    19977870.760    83032212.943 8      2897.761          51.250    19977870.180    83032197.937 8      2897.761          50.937
R05  23206265.040   124050790.273 7      3802.034          46.125    23206264.260   124050790.272 7      3802.034          44.937    23206280.080    96484014.371 6      2957.137          39.625    23206280.280    96484026.362 6      2957.137          39.562
G10  22289465.040   117131936.844 7      1604.670          47.562    22289464.100   117131936.838 7      1604.670          45.750    22289472.100    91271674.008 7      1250.392          45.687    22289472.420    91271672.005 7      1250.392          47.625
G08  21171080.760   111254785.255 7      3239.670          46.187    21171083.140   111254785.249 5      3239.670          32.937    21171088.780    86692062.560 5      2524.418          33.187    21171089.320    86692075.561 7      2524.418          44.750
R10  20327236.920   108355604.591 7      -549.512          46.750    20327237.260   108355604.608 7      -549.512          45.750
G26  23547272.240   123741743.189 6      -939.719          37.375    23547270.140   123741743.186 5      -939.719          32.812    23547288.520    96422197.445 5      -732.249          32.625    23547289.360    96422206.426 7      -732.249          43.625
G16  21170186.600   111250079.665 7       421.663          47.375    21170185.820   111250079.677 6       421.663          38.312    21170189.540    86688387.949 6       328.568          38.062
G02  22236059.020   116851277.368 7      3963.564          45.937    22236056.440   116851277.367 6      3963.564          37.437    22236061.900    91052958.958 6      3088.491          37.125
G21  20837368.260   109501109.325 7      3150.731          47.437    20837366.220   109501109.325 6      3150.731          39.875    20837371.120    85325553.026 6      2455.115          39.562
> 2024 05 08 12 46 34.0000000  0 11
G27  21169496.460   111246450.971 7      1610.300          47.062    21169495.080   111246450.970 7      1610.300          44.937    21169501.640    86685564.535 7      1254.779          44.875    21169501.780    86685570.526 7      1254.779          46.937
R21  20462330.460   109498071.596 6      2166.519          36.562    20462329.280   109498071.584 6      2166.519          37.250    20462339.520    85165203.882 5      1685.070          35.875    20462338.480    85165215.855 5      1685.070          35.250
R11  19977164.860   106751890.058 7      3724.844          45.125    19977165.080   106751890.049 7      3724.844          43.187    19977173.420    83029315.500 8      2897.101          51.062    19977172.900    83029300.493 8      2897.101          50.750
R05  23205553.720   124046988.513 7      3801.316          46.562    23205553.020   124046988.516 7      3801.316          44.937    23205568.020    96481057.467 6      2956.579          38.937    23205569.120    96481069.454 6      2956.579          39.000
G10  22289159.660   117130332.476 7      1604.012          47.437    22289158.520   117130332.476 7      1604.012          45.750    22289166.680    91270423.851 7      1249.879          45.625    22289167.320    91270421.845 7      1249.879          47.625
G08  21170464.400   111251545.594 7      3239.573          46.187    21170466.500   111251545.591 5      3239.573          32.937    21170472.180    86689538.155 5      2524.342          32.937    21170472.860    86689551.150 7      2524.342          44.625
R10  20327340.260   108356154.335 7      -550.179          46.625    20327340.500   108356154.349 7      -550.179          46.000
G26  23547451.680   123742682.929 6      -939.774          37.625    23547449.000   123742682.929 5      -939.774          33.062    23547467.480    96422929.696 5      -732.291          32.625    23547468.500    96422938.678 7      -732.291          43.500
G16  21170106.540   111249658.279 7       420.999          47.750    21170105.580   111249658.292 6       420.999          37.875    21170109.260    86688059.589 6       328.051          37.812
G02  22235304.380   116847313.989 7      3963.107          45.312    22235302.400   116847313.993 6      3963.107          37.187    22235307.800    91049870.612 6      3088.136          36.875
G21  20836768.880   109497958.887 7      3150.117          47.312    20836766.680   109497958.889 6      3150.117          40.125    20836771.520    85323098.137 6      2454.637          39.750
> 2024 05 08 12 46 35.0000000  0 11
G27  21169190.160   111244840.599 7      1610.230          46.500    21169188.580   111244840.604 7      1610.230          44.875    21169194.900    86684309.692 7      1254.725          44.687    21169195.220    86684315.683 7      1254.725          47.125
R21  20461925.100   109495905.052 6      2166.206          36.562    20461924.840   109495905.054 6      2166.206          37.250    20461933.800    85163518.803 5      1684.827          35.875    20461933.840    85163530.784 5      1684.827          35.250
R11  19976467.880   106748165.608 7      3723.907          44.625    19976468.300   106748165.610 7      3723.907          43.312    19976476.580    83026418.710 8      2896.372          50.937    19976476.060    83026403.705 8      2896.372          51.562
R05  23204842.380   124043187.396 7      3800.648          46.187    23204842.180   124043187.402 7      3800.648          45.500    23204856.940    96478101.047 6      2956.060          38.937    23204857.700    96478113.036 6      2956.060          39.000
G10  22288854.580   117128728.724 7      1603.370          47.250    22288853.260   117128728.715 7      1603.370          45.687    22288861.520    91269174.171 7      1249.379          46.312    22288861.940    91269172.167 7      1249.379          47.687
G08  21169847.720   111248306.098 7      3239.454          45.187    21169850.000   111248306.092 5      3239.454          32.687    21169855.800    86687013.869 5      2524.250          32.937    21169856.600    86687026.866 7      2524.250          44.875
R10  20327443.260   108356704.740 7      -550.818          46.812    20327443.540   108356704.756 7      -550.818          46.125
G26  23547630.040   123743622.934 6      -940.228          37.625    23547628.000   123743622.942 5      -940.228          33.062    23547646.380    96423662.147 5      -732.646          32.750    23547646.920    96423671.125 7      -732.646          43.500
G16  21170026.540   111249237.351 7       420.537          47.937    21170025.560   111249237.364 6       420.537          38.312    21170029.160    86687731.588 6       327.691          38.375
G02  22234550.220   116843351.024 7      3962.701          44.500    22234548.040   116843351.032 6      3962.701          37.000    22234553.520    91046782.588 6      3087.819          36.687
G21  20836169.320   109494808.919 7      3149.712          47.062    20836167.320   109494808.921 6      3149.712          39.500    20836172.000    85320643.616 6      2454.321          39.750
> 2024 05 08 12 46 36.0000000  0 11
G27  21168883.540   111243230.470 7      1609.608          46.500    21168882.140   111243230.477 7      1609.608          45.000    21168888.640    86683055.056 7      1254.240          44.812    21168889.240    86683061.051 7      1254.240          46.812
R21  20461519.500   109493738.856 6      2165.549          36.562    20461520.460   109493738.866 6      2165.549          37.437    20461528.100    85161833.994 6      1684.316          36.312    20461529.500    85161845.977 5      1684.316          35.250
R11  19975770.760   106744442.094 7      3722.557          45.250    19975771.500   106744442.090 7      3722.557          44.250    19975779.560    83023522.649 8      2895.322          50.687    19975779.200    83023507.646 8      2895.322          50.937
R05  23204131.780   124039386.950 7      3799.679          44.812    23204131.420   124039386.946 7      3799.679          45.000    23204145.980    96475145.159 6      2955.306          39.000    23204146.520    96475157.150 6      2955.306          39.062
G10  22288549.500   117127125.628 7      1602.392          47.750    22288548.320   117127125.622 7      1602.392          46.000    22288556.360    91267925.004 7      1248.617          46.312    22288557.080    91267922.996 7      1248.617          47.875
G08  21169231.220   111245066.813 7      3238.751          45.312    21169233.520   111245066.807 5      3238.751          32.687    21169239.580    86684489.750 5      2523.702          32.687    21169240.160    86684502.749 7      2523.702          44.937
R10  20327546.960   108357255.837 7      -551.779          46.750    20327547.040   108357255.848 7      -551.779          45.187
G26  23547808.620   123744563.165 6      -940.675          38.125    23547807.020   123744563.175 5      -940.675          33.250    23547825.360    96424394.776 5      -732.994          32.750    23547826.060    96424403.739 7      -732.994          43.500
G16  21169946.680   111248816.948 8       419.760          48.062    21169945.480   111248816.961 6       419.760          38.000    21169949.040    86687403.998 6       327.086          37.937
G02  22233796.220   116839388.481 7      3961.937          44.625    22233793.840   116839388.488 6      3961.937          36.375    22233799.540    91043694.898 6      3087.223          36.312
G21  20835570.060   109491659.523 7      3148.724          47.062    20835568.040   109491659.526 6      3148.724          39.312    20835572.580    85318189.540 6      2453.552          39.437
> 2024 05 08 12 46 37.0000000  0 11
G27  21168577.340   111241620.710 7      1609.776          46.187    21168575.840   111241620.720 7      1609.776          44.875    21168582.260    86681800.700 7      1254.371          44.750    21168582.640    86681806.691 7      1254.371          47.375
R21  20461115.420   109491573.158 6      2165.792          36.562    20461114.920   109491573.151 6      2165.792          37.437    20461124.820    85160149.546 6      1684.505          36.312    20461125.080    85160161.541 5      1684.505          35.812
R11  19975074.060   106740719.616 7      3722.118          45.125    19975074.660   106740719.609 7      3722.118          44.250    19975083.080    83020627.389 8      2894.980          50.937    19975082.540    83020612.385 8      2894.980          50.625
R05  23203420.680   124035587.319 7      3799.381          45.937    23203420.180   124035587.318 7      3799.381          45.000    23203435.060    96472189.903 6      2955.074          39.000    23203436.140    96472201.901 6      2955.074          39.062
G10  22288244.540   117125523.333 8      1602.046          48.000    22288243.400   117125523.335 7      1602.046          45.562    22288251.560    91266676.467 7      1248.347          46.000    22288252.140    91266674.463 8      1248.347          48.187
G08  21168615.020   111241827.843 7      3238.983          46.125    21168617.320   111241827.834 5      3238.983          33.125    21168623.300    86681965.875 5      2523.883          32.687    21168624.140    86681978.871 7      2523.883          45.312
R10  20327650.500   108357807.798 7      -552.160          46.750    20327650.740   108357807.807 7      -552.160          46.000
G26  23547988.300   123745503.819 6      -940.666          38.125    23547985.640   123745503.819 5      -940.666          33.250    23548004.260    96425127.728 5      -732.986          32.750    23548005.640    96425136.700 7      -732.986          43.375
G16  21169866.520   111248397.226 8       419.557          48.562    21169865.620   111248397.238 6       419.557          38.500    21169869.040    86687076.937 6       326.928          38.437
G02  22233042.520   116835426.547 7      3961.862          45.000    22233040.040   116835426.557 6      3961.862          36.562    22233045.480    91040607.677 6      3087.166          36.250
G21  20834970.940   109488510.801 7      3148.541          47.375    20834968.720   109488510.803 6      3148.541          39.937    20834973.440    85315735.992 6      2453.409          39.500
> 2024 05 08 12 46 38.0000000  0 11
G27  21168271.120   111240011.124 7      1609.696          46.812    21168269.700   111240011.132 7      1609.696          45.500    21168275.940    86680546.465 7      1254.308          45.312    21168276.460    86680552.460 7      1254.308          47.000
R21  20460710.140   109489407.751 6      2165.574          37.625    20460710.700   109489407.742 6      2165.574          37.437    20460719.920    85158465.357 6      1684.335          36.312    20460720.540    85158477.338 5      1684.335          35.812
R11  19974377.240   106736997.990 7      3721.456          45.125    19974378.720   106736997.978 7      3721.456          43.875    19974386.440    83017732.776 8      2894.466          51.125    19974386.160    83017717.771 8      2894.466          51.375
R05  23202709.800   124031788.266 7      3798.956          46.500    23202709.280   124031788.270 7      3798.956          45.437    23202725.120    96469235.101 6      2954.743          39.562    23202725.400    96469247.096 6      2954.743          39.687
G10  22287939.740   117123921.588 7      1601.665          47.937    22287938.480   117123921.585 7      1601.665          45.625    22287946.580    91265428.351 7      1248.050          45.437    22287947.400    91265426.343 7      1248.050          47.625
G08  21167998.720   111238588.991 7      3238.948          46.062    21168001.180   111238588.983 5      3238.948          33.125    21168006.880    86679442.095 5      2523.856          33.125    21168007.940    86679455.098 7      2523.856          45.250
R10  20327754.300   108358360.356 7      -552.661          46.562    20327754.180   108358360.365 7      -552.661          45.437
G26  23548167.100   123746444.641 6      -940.895          37.687    23548164.800   123746444.635 5      -940.895          33.250    23548183.380    96425860.814 5      -733.165          32.562    23548184.740    96425869.780 7      -733.165          43.375
G16  21169786.740   111247977.940 8       419.268          48.375    21169785.840   111247977.950 6       419.268          38.312    21169789.460    86686750.215 6       326.702          38.375
G02  22232288.500   116831464.957 7      3961.654          46.125    22232286.220   116831464.964 6      3961.654          36.750    22232291.740    91037520.727 6      3087.003          36.562
G21  20834371.760   109485362.517 7      3148.292          46.562    20834369.540   109485362.522 6      3148.292          39.312    20834374.220    85313282.781 6      2453.214          39.437
> 2024 05 08 12 46 39.0000000  0 11
G27  21167964.880   111238401.420 7      1609.598          46.750    21167963.360   111238401.428 7      1609.598          44.750    21167969.540    86679292.154 7      1254.232          44.500    21167970.340    86679298.147 7      1254.232          47.125
R21  20460306.240   109487242.360 6      2165.271          37.625    20460306.500   109487242.370 6      2165.271          37.437    20460315.840    85156781.175 6      1684.099          36.812    20460315.620    85156793.160 5      1684.099          35.812
R11  19973681.060   106733276.907 7      3720.597          45.812    19973682.220   106733276.905 7      3720.597          44.250    19973690.160    83014838.621 8      2893.798          50.687    19973689.980    83014823.618 8      2893.798          51.187
R05  23201999.260   124027989.533 7      3798.505          45.250    23201998.900   124027989.540 7      3798.505          45.500    23202014.460    96466280.552 6      2954.392          39.562    23202014.900    96466292.543 6      2954.392          39.687
G10  22287635.060   117122320.179 7      1601.067          47.812    22287633.740   117122320.178 7      1601.067          45.687    22287641.900    91264180.500 7      1247.584          46.000    22287642.900    91264178.492 7      1247.584          47.625
G08  21167382.380   111235349.984 7      3238.964          46.375    21167384.820   111235349.979 5      3238.964          33.062    21167390.540    86676918.195 5      2523.868          33.125    21167391.700    86676931.199 7      2523.868          45.250
R10  20327858.000   108358913.264 7      -553.210          46.562    20327857.940   108358913.272 7      -553.210          45.875
G26  23548346.540   123747385.313 6      -940.689          37.437    23548343.880   123747385.313 5      -940.689          32.875    23548362.380    96426593.789 5      -733.004          32.562    23548363.980    96426602.773 7      -733.004          43.562
G16  21169707.100   111247558.848 7       418.900          47.937    21169706.080   111247558.861 6       418.900          38.000    21169709.760    86686423.648 6       326.415          38.250
G02  22231534.440   116827503.474 7      3961.312          46.250    22231532.400   116827503.484 6      3961.312          36.750    22231537.820    91034433.862 6      3086.737          36.750
G21  20833772.840   109482214.459 7      3147.893          46.312    20833770.620   109482214.464 6      3147.893          39.687    20833775.220    85310829.751 6      2452.904          39.312
> 2024 05 08 12 46 40.0000000  0 11
G27  21167658.380   111236791.955 7      1609.316          47.000    21167657.120   111236791.963 7      1609.316          45.375    21167663.220    86678038.022 7      1254.012          45.250    21167664.100    86678044.017 7      1254.012          47.250
R21  20459901.860   109485077.299 6      2164.876          37.625    20459902.580   109485077.306 6      2164.876          37.437    20459911.020    85155097.232 6      1683.792          36.812    20459911.740    85155109.219 5      1683.792          35.812
R11  19972985.200   106729556.716 7      3719.836          45.000    19972985.860   106729556.709 7      3719.836          43.750    19972993.880    83011945.133 8      2893.206          51.000    19972993.560    83011930.130 8      2893.206          50.875
R05  23201288.880   124024191.439 7      3797.709          45.562    23201288.180   124024191.446 7      3797.709          44.937    23201304.480    96463326.489 6      2953.774          39.562    23201304.380    96463338.482 6      2953.774          39.937
G10  22287330.420   117120719.403 7      1600.447          47.812    22287329.120   117120719.405 7      1600.447          46.125    22287337.360    91262933.147 7      1247.102          45.562    22287338.200    91262931.145 7      1247.102          47.437
G08  21166766.100   111232111.203 7      3238.644          46.312    21166768.340   111232111.195 5      3238.644          33.062    21166774.360    86674394.472 5      2523.619          33.125    21166775.260    86674407.467 7      2523.619          45.062
R10  20327961.860   108359466.869 7      -553.954          46.625    20327961.840   108359466.883 7      -553.954          45.687
G26  23548525.620   123748326.330 6      -941.172          37.437    23548522.860   123748326.330 5      -941.172          32.875    23548541.540    96427327.026 5      -733.381          32.812    23548542.300    96427335.996 7      -733.381          43.562
G16  21169627.460   111247140.308 8       418.250          48.187    21169626.460   111247140.323 6       418.250          37.562    21169630.020    86686097.509 6       325.909          38.000
G02  22230780.840   116823542.457 7      3960.808          46.125    22230778.820   116823542.459 6      3960.808          36.875    22230784.200    91031347.351 6      3086.344          36.687
G21  20833173.860   109479066.929 7      3147.287          47.500    20833171.440   109479066.939 6      3147.287          39.687    20833176.240    85308377.135 6      2452.431          39.375
> 2024 05 08 12 46 41.0000000  0 11
G27  21167352.240   111235182.659 7      1609.164          47.187    21167351.040   111235182.669 7      1609.164          45.437    21167357.020    86676784.024 7      1253.894          45.062    21167357.820    86676790.019 7      1253.894          47.062
R21  20459496.520   109482912.513 6      2164.582          37.625    20459498.260   109482912.509 6      2164.582          37.875    20459507.060    85153413.505 6      1683.564          36.812    20459507.040    85153425.484 6      1683.564          36.875
R11  19972288.900   106725837.409 7      3718.844          44.875    19972289.600   106725837.403 7      3718.844          43.437    19972297.920    83009052.337 8      2892.434          50.375    19972297.440    83009037.336 8      2892.434          50.937
R05  23200578.500   124020393.877 7      3797.288          45.000    23200577.600   124020393.884 7      3797.288          45.000    23200594.340    96460372.832 6      2953.446          39.562    23200594.100    96460384.825 6      2953.446          40.562
G10  22287026.100   117119119.245 8      1599.830          48.062    22287024.560   117119119.244 7      1599.830          45.250    22287032.740    91261686.266 7      1246.621          45.937    22287033.700    91261684.260 8      1246.621          48.000
G08  21166149.820   111228872.543 7      3238.525          45.875    21166152.060   111228872.535 5      3238.525          33.250    21166158.120    86671870.833 5      2523.526          32.937    21166159.020    86671883.832 7      2523.526          45.437
R10  20328065.920   108360021.144 7      -554.636          46.812    20328066.020   108360021.152 7      -554.636          45.750
G26  23548704.920   123749267.507 6      -941.361          37.000    23548701.980   123749267.504 5      -941.361          33.062    23548720.800    96428060.386 5      -733.528          32.812    23548721.220    96428069.354 7      -733.528          43.375
G16  21169547.660   111246722.225 8       417.839          48.937    21169546.980   111246722.235 6       417.839          38.562    21169550.460    86685771.724 6       325.589          38.250
G02  22230027.300   116819581.800 7      3960.453          45.437    22230025.120   116819581.805 6      3960.453          36.875    22230030.560    91028261.125 6      3086.067          37.125
G21  20832574.920   109475919.901 7      3146.764          47.562    20832572.620   109475919.909 6      3146.764          38.750    20832577.540    85305924.907 6      2452.024          38.937
> 2024 05 08 12 46 42.0000000  0 11
G27  21167046.240   111233573.609 7      1609.218          47.562    21167044.940   111233573.619 7      1609.218          45.250    21167050.860    86675530.217 7      1253.936          45.187    21167051.840    86675536.214 7      1253.936          47.250
R21  20459092.720   109480748.059 6      2164.650          39.187    20459093.960   109480748.060 6      2164.650          37.875    20459102.300    85151730.031 6      1683.617          36.812    20459102.700    85151742.009 6      1683.617          36.875
R11  19971593.240   106722119.006 7      3718.236          45.125    19971593.780   106722118.999 7      3718.236          44.875    19971601.960    83006160.246 8      2891.962          50.437    19971601.680    83006145.244 8      2891.962          51.312
R05  23199868.040   124016597.005 7      3796.767          46.562    23199867.300   124016597.012 7      3796.767          46.062    23199883.920    96457419.709 6      2953.041          40.312    23199884.300    96457431.698 6      2953.041          40.562
G10  22286721.520   117117519.754 8      1599.320          48.000    22286720.100   117117519.756 7      1599.320          45.625    22286728.520    91260439.914 7      1246.223          45.562    22286729.320    91260437.905 7      1246.223          47.625
G08  21165533.600   111225634.107 7      3238.502          46.187    21165535.860   111225634.098 5      3238.502          33.250    21165541.720    86669347.378 5      2523.508          32.937    21165542.940    86669360.369 7      2523.508          45.437
R10  20328169.860   108360576.122 7      -555.041          47.375    20328169.960   108360576.125 7      -555.041          45.625
G26  23548883.980   123750208.952 6      -941.425          37.000    23548881.180   123750208.949 5      -941.425          33.062    23548899.900    96428793.957 5      -733.578          32.437    23548900.560    96428802.925 7      -733.578          43.375
G16  21169468.240   111246304.705 8       417.489          49.312    21169467.400   111246304.712 6       417.489          38.187    21169470.960    86685446.377 6       325.316          38.187
G02  22229273.800   116815621.603 7      3960.248          45.750    22229271.680   116815621.610 6      3960.248          37.375    22229277.020    91025175.259 6      3085.908          36.875
G21  20831976.180   109472773.425 7      3146.493          47.062    20831973.660   109472773.427 6      3146.493          39.062    20831978.860    85303473.102 6      2451.813          39.125
> 2024 05 08 12 46 43.0000000  0 11
G27  21166739.880   111231964.761 7      1608.678          47.437    21166738.840   111231964.769 7      1608.678          45.687    21166744.620    86674276.570 7      1253.516          45.500    21166745.440    86674282.567 7      1253.516          47.125
R21  20458687.960   109478583.926 6      2163.903          39.187    20458690.000   109478583.932 6      2163.903          37.875    20458697.640    85150046.833 6      1683.036          37.625    20458698.360    85150058.805 6      1683.036          36.875
R11  19970897.400   106718401.484 7      3716.996          45.437    19970898.280   106718401.483 7      3716.996          44.875    19970906.360    83003268.848 8      2890.997          50.812    19970905.680    83003253.845 8      2890.997          50.500
R05  23199157.480   124012800.742 7      3795.827          46.562    23199157.360   124012800.754 7      3795.827          45.812    23199173.860    96454467.074 6      2952.310          40.312    23199174.260    96454479.059 6      2952.310          40.687
G10  22286417.240   117115920.857 8      1598.488          48.187    22286415.900   117115920.856 7      1598.488          46.125    22286424.220    91259194.016 7      1245.575          45.937    22286425.040    91259192.009 7      1245.575          47.750
G08  21164917.400   111222395.817 7      3238.032          46.375    21164919.740   111222395.809 5      3238.032          33.250    21164925.520    86666824.033 5      2523.142          33.375    21164926.820    86666837.033 7      2523.142          45.437
R10  20328274.240   108361131.761 7      -556.066          46.812    20328273.960   108361131.775 7      -556.066          46.125
G26  23549062.540   123751150.615 6      -941.940          37.750    23549060.360   123751150.612 5      -941.940          32.875    23549079.140    96429527.700 5      -733.979          32.437    23549080.180    96429536.674 7      -733.979          43.562
G16  21169389.040   111245887.660 8       416.729          48.625    21169387.980   111245887.670 6       416.729          38.312    21169391.560    86685121.403 6       324.724          38.437
G02  22228519.760   116811661.818 7      3959.523          45.812    22228518.020   116811661.828 6      3959.523          36.750    22228523.300    91022089.718 6      3085.343          36.875
G21  20831377.620   109469627.451 7      3145.629          46.937    20831375.160   109469627.451 6      3145.629          39.062    20831380.020    85301021.693 6      2451.140          39.000
> 2024 05 08 12 46 44.0000000  0 11
G27  21166433.840   111230356.037 7      1608.494          47.250    21166432.800   111230356.042 7      1608.494          45.437    21166438.560    86673023.021 7      1253.372          45.437    21166439.180    86673029.020 7      1253.372          47.437
R21  20458283.040   109476420.017 6      2163.715          39.187    20458286.160   109476420.011 6      2163.715          37.875    20458293.420    85148363.778 6      1682.889          37.625    20458294.020    85148375.744 6      1682.889          37.625
R11  19970201.800   106714684.748 7      3716.108          45.437    19970202.300   106714684.741 7      3716.108          44.500    19970210.820    83000378.049 8      2890.306          50.812    19970210.340    83000363.046 8      2890.306          50.687
R05  23198447.520   124009005.046 7      3795.197          46.312    23198447.160   124009005.060 7      3795.197          46.250    23198463.740    96451514.870 6      2951.820          40.562    23198463.760    96451526.857 6      2951.820          40.687
G10  22286113.060   117114322.501 7      1597.966          47.375    22286111.580   117114322.498 7      1597.966          45.937    22286120.000    91257948.535 7      1245.168          45.812    22286120.720    91257946.533 7      1245.168          47.875
G08  21164301.220   111219157.596 7      3238.030          46.375    21164303.560   111219157.585 5      3238.030          33.312    21164309.500    86664300.748 5      2523.140          33.375    21164310.880    86664313.741 7      2523.140          45.562
R10  20328378.240   108361688.008 7      -556.804          46.875    20328378.520   108361688.019 7      -556.804          45.687
G26  23549242.000   123752092.388 6      -941.994          37.812    23549239.680   123752092.390 5      -941.994          32.875    23549258.300    96430261.531 5      -734.021          32.625    23549259.360    96430270.497 7      -734.021          43.875
G16  21169309.820   111245471.043 8       416.196          49.062    21169308.780   111245471.056 6       416.196          38.750    21169312.300    86684796.764 6       324.308          38.437
G02  22227766.640   116807702.354 7      3959.162          44.500    22227764.500   116807702.361 6      3959.162          36.687    22227769.820    91019004.422 6      3085.061          36.437
G21  20830779.000   109466481.894 7      3145.123          46.437    20830776.500   109466481.899 6      3145.123          39.125    20830781.360    85298570.614 6      2450.745          39.625
> 2024 05 08 12 46 45.0000000  0 11
G27  21166127.680   111228747.584 7      1608.400          47.000    21166126.860   111228747.594 7      1608.400          45.500    21166132.480    86671769.680 7      1253.299          45.312    21166133.160    86671775.679 7      1253.299          46.937
R21  20457879.360   109474256.532 6      2163.543          40.687    20457882.060   109474256.530 6      2163.543          39.875    20457888.880    85146681.075 6      1682.756          38.312    20457889.320    85146693.046 6      1682.756          37.625
R11  19969506.760   106710968.963 7      3715.447          44.625    19969507.240   106710968.954 7      3715.447          44.250    19969515.380    82997487.986 8      2889.792          50.062    19969514.960    82997472.981 8      2889.792          51.125
R05  23197737.680   124005210.092 7      3794.757          45.187    23197737.300   124005210.099 7      3794.757          44.875    23197753.520    96448563.236 6      2951.478          40.562    23197754.040    96448575.223 6      2951.478          40.625
G10  22285808.960   117112724.868 8      1597.361          48.125    22285807.700   117112724.870 7      1597.361          45.750    22285815.920    91256703.628 7      1244.697          46.000    22285816.760    91256701.624 7      1244.697          47.500
G08  21163684.880   111215919.643 7      3237.912          46.625    21163687.440   111215919.635 5      3237.912          33.312    21163693.460    86661777.666 5      2523.049          32.937    21163694.560    86661790.665 7      2523.049          45.500
R10  20328482.460   108362244.972 7      -557.227          46.437    20328482.500   108362244.986 7      -557.227          45.062
G26  23549421.340   123753034.519 6      -942.213          37.812    23549418.860   123753034.518 5      -942.213          32.937    23549437.560    96430995.634 5      -734.192          32.625    23549438.540    96431004.598 7      -734.192          43.687
G16  21169230.520   111245054.999 7       415.868          47.750    21169229.580   111245055.012 6       415.868          38.062    21169233.140    86684472.568 6       324.053          37.750
G02  22227013.460   116803743.386 7      3958.895          44.187    22227011.140   116803743.391 6      3958.895          36.500    22227016.520    91015919.514 6      3084.853          36.187
G21  20830180.580   109463336.921 7      3144.834          46.437    20830178.100   109463336.926 6      3144.834          39.312    20830182.840    85296119.984 6      2450.520          39.062
> 2024 05 08 12 46 46.0000000  0 11
G27  21165821.720   111227139.322 7      1608.067          46.875    21165820.720   111227139.332 7      1608.067          45.312    21165826.340    86670516.485 7      1253.039          45.125    21165827.100    86670522.484 7      1253.039          47.125
R21  20457475.240   109472093.343 6      2163.066          40.687    20457478.580   109472093.355 6      2163.066          39.875    20457484.940    85144998.600 6      1682.385          38.312    20457484.680    85145010.564 6      1682.385          37.625
R11  19968811.520   106707254.031 7      3714.506          44.375    19968812.080   106707254.026 7      3714.506          43.812    19968820.280    82994598.596 8      2889.060          50.500    19968819.720    82994583.593 8      2889.060          50.687
R05  23197027.960   124001415.762 7      3794.039          44.625    23197027.520   124001415.766 7      3794.039          44.875    23197043.920    96445612.096 6      2950.919          40.375    23197044.440    96445624.085 6      2950.919          40.562
G10  22285505.080   117111127.807 7      1596.719          47.687    22285503.680   117111127.809 7      1596.719          45.687    22285512.140    91255459.172 7      1244.196          46.000    22285513.080    91255457.170 7      1244.196          47.625
G08  21163068.700   111212681.805 7      3237.780          46.000    21163071.280   111212681.797 5      3237.780          33.250    21163077.280    86659254.675 5      2522.945          32.937    21163078.460    86659267.675 7      2522.945          45.437
R10  20328587.180   108362802.597 7      -557.907          46.687    20328587.540   108362802.608 7      -557.907          45.500
G26  23549600.660   123753976.794 6      -942.368          37.500    23549598.240   123753976.791 5      -942.368          32.937    23549616.960    96431729.850 5      -734.312          32.750    23549618.140    96431738.818 7      -734.312          43.687
G16  21169151.820   111244639.434 8       415.272          48.375    21169150.580   111244639.444 6       415.272          37.937    21169153.960    86684148.745 6       323.589          37.937
G02  22226260.000   116799784.825 7      3958.258          45.000    22226257.840   116799784.836 6      3958.258          36.437    22226263.140    91012834.923 6      3084.357          36.125
G21  20829582.020   109460192.463 7      3144.116          46.062    20829579.740   109460192.468 6      3144.116          39.375    20829584.400    85293669.754 6      2449.961          39.312
> 2024 05 08 12 46 47.0000000  0 11
G27  21165515.580   111225531.184 7      1608.116          47.500    21165514.840   111225531.194 7      1608.116          45.250    21165520.280    86669263.397 7      1253.078          44.875    21165521.060    86669269.402 7      1253.078          46.937
R21  20457071.480   109469930.417 6      2162.858          39.937    20457074.300   109469930.418 6      2162.858          39.875    20457081.160    85143316.317 6      1682.223          38.312    20457080.220    85143328.281 6      1682.223          37.625
R11  19968116.280   106703539.902 7      3713.883          44.375    19968116.700   106703539.903 7      3713.883          43.625    19968125.040    82991709.827 8      2888.576          50.312    19968124.740    82991694.822 8      2888.576          50.187
R05  23196318.340   123997622.003 7      3793.534          45.187    23196318.140   123997622.015 7      3793.534          44.687    23196334.100    96442661.405 6      2950.527          40.250    23196334.600    96442673.392 6      2950.527          40.562
G10  22285201.180   117109531.322 7      1596.262          47.625    22285200.080   117109531.324 7      1596.262          45.750    22285208.260    91254215.153 7      1243.840          45.812    22285209.420    91254213.149 7      1243.840          47.312
G08  21162452.580   111209444.083 7      3237.756          45.875    21162455.320   111209444.080 5      3237.756          33.250    21162461.300    86656731.779 5      2522.927          32.937    21162462.500    86656744.783 7      2522.927          45.500
R10  20328692.280   108363360.827 7      -558.478          46.437    20328692.160   108363360.840 7      -558.478          45.187
G26  23549780.200   123754919.284 6      -942.419          37.500    23549777.540   123754919.281 5      -942.419          32.937    23549796.240    96432464.238 5      -734.353          32.750    23549797.280    96432473.193 7      -734.353          43.500
G16  21169072.640   111244224.304 7       414.993          47.500    21169071.500   111244224.317 6       414.993          37.687    21169075.120    86683825.267 6       323.371          38.062
G02  22225506.820   116795826.588 7      3958.142          44.375    22225504.620   116795826.596 6      3958.142          36.500    22225509.820    91009750.581 6      3084.266          36.125
G21  20828983.480   109457048.425 7      3143.869          46.875    20828981.500   109457048.427 6      3143.869          39.562    20828986.100    85291219.853 6      2449.768          38.812
> 2024 05 08 12 46 48.0000000  0 11
G27  21165209.840   111223923.519 7      1607.633          46.625    21165208.940   111223923.527 7      1607.633          45.687    21165214.260    86668010.663 7      1252.701          45.937    21165214.800    86668016.664 7      1252.701          46.750
R21  20456666.600   109467767.977 6      2162.304          39.937    20456670.520   109467767.989 6      2162.304          39.500    20456677.320    85141634.424 6      1681.792          38.125    20456676.680    85141646.399 6      1681.792          37.562
R11  19967421.040   106699826.949 7      3712.541          44.375    19967422.500   106699826.958 7      3712.541          43.625    19967430.200    82988821.981 8      2887.532          51.062    19967429.940    82988806.978 8      2887.532          50.875
R05  23195608.460   123993829.105 7      3792.674          45.187    23195608.420   123993829.123 7      3792.674          45.500    23195624.120    96439711.380 6      2949.857          40.250    23195625.340    96439723.363 6      2949.857          40.437
G10  22284897.620   117107935.712 7      1595.280          47.625    22284896.340   117107935.714 7      1595.280          45.750    22284904.620    91252971.825 7      1243.076          45.937    22284905.420    91252969.821 7      1243.076          47.875
G08  21161836.460   111206206.806 7      3237.207          46.187    21161839.340   111206206.803 5      3237.207          33.000    21161845.320    86654209.225 5      2522.499          33.000    21161846.220    86654222.222 7      2522.499          45.437
R10  20328797.360   108363919.981 7      -559.450          46.750    20328796.840   108363919.987 7      -559.450          45.562
G26  23549959.260   123755862.216 6      -942.986          37.687    23549957.040   123755862.213 5      -942.986          33.250    23549975.800    96433198.969 5      -734.795          32.750    23549976.840    96433207.943 7      -734.795          43.750
G16  21168993.880   111243809.942 8       414.139          48.187    21168992.640   111243809.952 6       414.139          37.937    21168996.240    86683502.382 6       322.706          38.000
G02  22224753.800   116791869.026 7      3957.482          45.125    22224751.580   116791869.031 6      3957.482          37.000    22224756.940    91006666.762 6      3083.752          36.625
G21  20828385.320   109453905.163 7      3142.991          46.562    20828383.300   109453905.165 6      3142.991          38.625    20828388.060    85288770.561 6      2449.084          38.687
> 2024 05 08 12 46 49.0000000  0 11
G27  21164903.920   111222316.117 7      1607.261          47.750    21164902.880   111222316.127 7      1607.261          45.187    21164908.360    86666758.141 7      1252.412          45.312    21164908.820    86666764.153 7      1252.412          47.125
R21  20456262.240   109465605.968 6      2161.684          39.937    20456266.200   109465605.959 6      2161.684          39.500    20456272.600    85139952.847 6      1681.310          38.125    20456272.620    85139964.811 6      1681.310          37.562
R11  19966726.700   106696114.956 7      3711.392          44.125    19966727.280   106696114.962 7      3711.392          43.625    19966735.680    82985934.875 8      2886.639          50.437    19966735.420    82985919.872 8      2886.639          50.687
R05  23194899.160   123990036.897 7      3791.867          44.750    23194899.020   123990036.914 7      3791.867          44.875    23194914.880    96436761.891 6      2949.230          39.937    23194915.840    96436773.876 6      2949.230          40.437
G10  22284594.420   117106340.798 7      1594.552          47.875    22284593.000   117106340.801 7      1594.552          45.312    22284600.960    91251729.027 7      1242.508          45.562    22284601.860    91251727.027 7      1242.508          47.875
G08  21161220.440   111202969.727 7      3237.017          45.375    21161223.360   111202969.724 5      3237.017          33.000    21161229.340    86651686.829 5      2522.351          33.000    21161230.160    86651699.824 7      2522.351          45.562
R10  20328902.100   108364479.880 7      -560.312          46.437    20328901.780   108364479.883 7      -560.312          45.125
G26  23550138.860   123756805.466 6      -943.314          37.687    23550136.360   123756805.463 5      -943.314          33.250    23550155.260    96433933.943 5      -735.050          33.000    23550156.100    96433942.886 7      -735.050          43.625
G16  21168915.040   111243396.137 7       413.471          47.812    21168913.840   111243396.150 6       413.471          38.062    21168917.620    86683179.932 6       322.185          38.250
G02  22224000.800   116787911.950 7      3956.756          45.000    22223998.420   116787911.963 6      3956.756          36.437    22224003.980    91003583.336 6      3083.186          36.125
G21  20827787.360   109450762.465 7      3142.399          46.687    20827785.360   109450762.470 6      3142.399          39.375    20827790.160    85286321.708 6      2448.623          39.062
> 2024 05 08 12 46 50.0000000  0 11
G27  21164598.180   111220708.809 7      1607.190          46.875    21164597.040   111220708.814 7      1607.190          45.250    21164602.420    86665505.685 7      1252.356          44.750    21164603.240    86665511.695 7      1252.356          46.937
R21  20455858.280   109463444.088 6      2161.730          41.125    20455862.980   109463444.087 6      2161.730          39.500    20455868.840    85138271.395 6      1681.345          38.125    20455868.640    85138283.353 6      1681.345          37.562
R11  19966032.560   106692403.675 7      3711.012          44.437    19966033.040   106692403.677 7      3711.012          43.437    19966041.240    82983048.311 8      2886.343          50.312    19966040.760    82983033.310 8      2886.343          50.937
R05  23194189.780   123986245.191 7      3791.400          44.812    23194189.160   123986245.200 7      3791.400          45.375    23194205.540    96433812.784 6      2948.867          39.937    23194205.960    96433824.769 6      2948.867          40.062
G10  22284291.000   117104746.360 7      1594.192          47.625    22284289.800   117104746.365 7      1594.192          46.187    22284297.320    91250486.618 7      1242.227          46.125    22284298.020    91250484.611 7      1242.227          47.812
G08  21160604.480   111199732.712 7      3236.912          45.437    21160607.320   111199732.709 5      3236.912          33.000    21160613.500    86649164.479 5      2522.269          33.062    21160614.020    86649177.491 7      2522.269          45.500
R10  20329007.140   108365040.284 7      -560.697          46.312    20329007.020   108365040.288 7      -560.697          45.312
G26  23550318.440   123757748.790 6      -943.383          37.062    23550315.580   123757748.790 5      -943.383          32.687    23550334.720    96434668.975 5      -735.104          33.000    23550335.740    96434677.935 7      -735.104          43.625
G16  21168836.360   111242982.697 7       413.253          47.187    21168835.220   111242982.707 6       413.253          38.250    21168838.900    86682857.763 6       322.016          38.187
G02  22223247.760   116783955.153 7      3956.619          45.375    22223245.700   116783955.166 6      3956.619          36.437    22223251.020    91000500.116 6      3083.080          36.250
G21  20827189.380   109447620.172 7      3142.010          46.875    20827187.340   109447620.174 6      3142.010          38.812    20827192.140    85283873.168 6      2448.319          39.187
> 2024 05 08 12 46 51.0000000  0 11
G27  21164292.160   111219101.738 7      1607.177          46.625    21164291.240   111219101.745 7      1607.177          45.250    21164296.500    86664253.424 7      1252.346          45.062    21164297.200    86664259.434 7      1252.346          46.625
R21  20455454.280   109461282.620 6      2161.532          41.125    20455458.700   109461282.632 6      2161.532          40.062    20455465.440    85136590.257 6      1681.192          38.375    20455464.600    85136602.226 6      1681.192          37.750
R11  19965337.820   106688693.386 7      3709.947          44.687    19965338.400   106688693.379 7      3709.947          43.625    19965346.600    82980162.529 8      2885.514          50.062    19965346.560    82980147.526 8      2885.514          50.875
R05  23193480.540   123982454.164 7      3790.854          44.312    23193480.480   123982454.171 7      3790.854          44.687    23193496.100    96430864.209 6      2948.442          40.125    23193496.660    96430876.190 6      2948.442          40.250
G10  22283987.700   117103152.621 8      1593.596          48.500    22283986.520   117103152.621 7      1593.596          45.625    22283993.940    91249244.741 7      1241.763          46.062    22283994.800    91249242.733 7      1241.763          47.500
G08  21159988.480   111196495.889 7      3236.972          46.187    21159991.400   111196495.883 5      3236.972          33.125    21159997.620    86646642.279 5      2522.316          33.062    21159998.420    86646655.278 7      2522.316          45.875
R10  20329112.260   108365601.401 7      -561.255          45.875    20329112.380   108365601.415 7      -561.255          45.312
G26  23550498.220   123758692.413 6      -943.785          37.062    23550495.240   123758692.421 5      -943.785          32.687    23550514.480    96435404.250 5      -735.417          31.875    23550515.460    96435413.226 7      -735.417          43.375
G16  21168757.640   111242569.812 8       412.872          48.437    21168756.520   111242569.822 6       412.872          38.437    21168760.320    86682536.030 6       321.718          38.250
G02  22222495.000   116779998.821 7      3956.309          45.250    22222492.680   116779998.828 6      3956.309          36.375    22222498.020    90997417.259 6      3082.838          36.250
G21  20826591.780   109444478.417 7      3141.688          46.187    20826589.560   109444478.422 6      3141.688          39.187    20826594.220    85281425.052 6      2448.069          39.187
> 2024 05 08 12 46 52.0000000  0 11
G27  21163986.380   111217494.824 7      1606.819          46.625    21163985.320   111217494.834 7      1606.819          45.562    21163990.640    86663001.280 7      1252.067          45.875    21163991.620    86663007.293 7      1252.067          46.625
R21  20455050.440   109459121.443 6      2160.985          41.250    20455055.220   109459121.456 6      2160.985          40.062    20455061.200    85134909.340 6      1680.766          38.375    20455061.060    85134921.306 6      1680.766          37.750
R11  19964643.740   106684983.888 7      3708.939          44.125    19964644.160   106684983.876 7      3708.939          43.375    19964652.680    82977277.368 8      2884.730          50.750    19964652.240    82977262.365 8      2884.730          50.875
R05  23192771.460   123978663.730 7      3790.020          45.125    23192771.100   123978663.742 7      3790.020          45.437    23192788.720    96427916.103 6      2947.793          40.125    23192787.920    96427928.082 6      2947.793          40.250
G10  22283684.560   117101559.447 7      1592.781          47.937    22283683.080   117101559.454 7      1592.781          45.687    22283690.500    91248003.306 7      1241.128          45.562    22283691.520    91248001.300 7      1241.128          47.250
G08  21159372.620   111193259.207 7      3236.530          46.625    21159375.480   111193259.204 5      3236.530          33.125    21159381.880    86644120.192 5      2521.972          33.062    21159382.760    86644133.205 7      2521.972          45.875
R10  20329217.780   108366163.159 7      -562.122          46.250    20329217.760   108366163.165 7      -562.122          44.937
G26  23550677.840   123759636.186 6      -943.954          37.250    23550674.780   123759636.188 5      -943.954          32.687    23550694.040    96436139.630 5      -735.549          31.875    23550694.900    96436148.602 7      -735.549          43.812
G16  21168679.360   111242157.391 7       412.110          47.812    21168677.980   111242157.401 6       412.110          37.500    21168681.900    86682214.657 6       321.125          37.562
G02  22221742.200   116776042.870 7      3955.630          46.375    22221739.980   116776042.877 6      3955.630          36.562    22221745.160    90994334.702 6      3082.309          36.375
G21  20825993.820   109441337.154 7      3140.955          46.062    20825991.780   109441337.159 6      3140.955          38.812    20825996.420    85278977.312 6      2447.497          39.187
> 2024 05 08 12 46 53.0000000  0 11
G27  21163680.520   111215888.307 7      1606.326          47.125    21163680.040   111215888.317 7      1606.326          45.187    21163685.100    86661749.446 7      1251.682          45.375    21163685.740    86661755.460 7      1251.682          46.687
R21  20454646.180   109456960.727 6      2160.467          41.250    20454651.300   109456960.739 6      2160.467          40.062    20454657.000    85133228.793 6      1680.363          38.375    20454656.940    85133240.770 6      1680.363          37.750
R11  19963949.720   106681275.445 7      3707.884          43.812    19963950.260   106681275.441 7      3707.884          43.250    19963958.600    82974393.023 8      2883.910          50.500    19963958.480    82974378.018 8      2883.910          51.187
R05  23192062.260   123974874.061 7      3789.297          44.625    23192062.420   123974874.079 7      3789.297          45.062    23192079.620    96424968.611 6      2947.231          40.687    23192079.180    96424980.596 6      2947.231          40.875
G10  22283381.560   117099967.079 7      1591.999          47.750    22283379.900   117099967.086 7      1591.999          45.062    22283387.220    91246762.500 7      1240.519          45.125    22283388.460    91246760.488 7      1240.519          46.500
G08  21158756.880   111190022.878 7      3236.172          45.812    21158759.620   111190022.872 5      3236.172          32.937    21158765.960    86641598.377 5      2521.692          33.062    21158766.760    86641611.380 7      2521.692          45.750
R10  20329323.360   108366725.763 7      -563.119          46.312    20329323.100   108366725.766 7      -563.119          44.625
G26  23550857.500   123760580.366 6      -944.408          37.250    23550854.460   123760580.366 5      -944.408          32.687    23550873.820    96436875.339 5      -735.903          32.812    23550874.720    96436884.301 7      -735.903          44.187
G16  21168600.840   111241745.643 7       411.327          47.937    21168599.440   111241745.654 6       411.327          37.687    21168603.500    86681893.817 6       320.514          37.687
G02  22220989.320   116772087.488 7      3955.071          45.250    22220987.520   116772087.491 6      3955.071          36.750    22220992.480    90991252.589 6      3081.874          36.375
G21  20825396.280   109438196.571 7      3140.171          46.437    20825394.180   109438196.576 6      3140.171          39.375    20825398.780    85276530.109 6      2446.886          38.812
> 2024 05 08 12 46 54.0000000  0 11
G27  21163375.100   111214282.042 7      1605.890          47.250    21163374.180   111214282.050 7      1605.890          45.812    21163379.360    86660497.807 7      1251.343          45.562    21163380.220    86660503.819 7      1251.343          46.812
R21  20454242.620   109454800.364 7      2160.007          42.000    20454248.320   109454800.381 6      2160.007          40.312    20454253.920    85131548.501 6      1680.006          38.687    20454253.400    85131560.485 6      1680.006          37.625
R11  19963256.300   106677567.924 7      3706.961          44.000    19963256.300   106677567.918 7      3706.961          43.250    19963264.960    82971509.400 8      2883.192          50.625    19963264.820    82971494.397 8      2883.192          50.687
R05  23191353.380   123971085.114 7      3788.493          45.875    23191353.080   123971085.142 7      3788.493          44.937    23191370.920    96422021.646 6      2946.606          40.937    23191370.740    96422033.627 6      2946.606          41.250
G10  22283078.660   117098375.384 8      1591.181          48.250    22283077.280   117098375.391 7      1591.181          45.500    22283084.480    91245522.223 7      1239.881          45.250    22283085.760    91245520.214 7      1239.881          46.812
G08  21158141.180   111186786.738 7      3235.890          46.187    21158143.840   111186786.732 5      3235.890          32.937    21158150.360    86639076.709 5      2521.473          33.062    21158150.980    86639089.720 7      2521.473          46.062
R10  20329429.220   108367289.081 7      -563.925          45.875    20329428.480   108367289.092 7      -563.925          44.750
G26  23551037.260   123761524.825 6      -944.767          37.375    23551034.420   123761524.827 5      -944.767          32.687    23551053.560    96437611.260 5      -736.182          32.812    23551054.920    96437620.222 7      -736.182          44.187
G16  21168522.660   111241334.445 8       410.761          48.125    21168521.320   111241334.452 6       410.761          37.875    21168525.120    86681573.394 6       320.074          37.375
G02  22220236.780   116768132.578 7      3954.585          45.562    22220234.920   116768132.580 6      3954.585          36.562    22220239.880    90988170.840 6      3081.495          36.937
G21  20824798.660   109435056.546 7      3139.640          46.187    20824796.520   109435056.553 6      3139.640          38.875    20824801.300    85274083.332 6      2446.473          38.875
> 2024 05 08 12 46 55.0000000  0 11
G27  21163069.400   111212675.967 7      1605.918          46.875    21163068.540   111212675.977 7      1605.918          45.875    21163073.720    86659246.316 7      1251.365          45.937    21163074.360    86659252.327 7      1251.365          47.000
R21  20453838.600   109452640.292 7      2159.800          42.000    20453844.220   109452640.326 6      2159.800          40.312    20453850.200    85129868.468 6      1679.845          38.687    20453850.020    85129880.444 6      1679.845          37.625
R11  19962562.500   106673861.299 7      3706.174          44.000    19962562.880   106673861.289 7      3706.174          42.750    19962571.080    82968626.465 8      2882.580          50.562    19962571.000    82968611.462 8      2882.580          50.937
R05  23190644.880   123967296.800 7      3788.027          44.312    23190644.620   123967296.817 7      3788.027          44.437    23190662.340    96419075.188 6      2946.243          40.937    23190661.800    96419087.166 6      2946.243          41.125
G10  22282776.000   117096784.304 8      1590.719          48.062    22282774.200   117096784.311 7      1590.719          44.750    22282781.420    91244282.416 7      1239.522          45.437    22282782.620    91244280.411 7      1239.522          46.312
G08  21157525.520   111183550.790 7      3235.757          46.062    21157528.180   111183550.786 5      3235.757          33.062    21157534.520    86636555.191 5      2521.369          33.125    21157535.240    86636568.200 7      2521.369          45.937
R10  20329534.760   108367853.057 7      -564.314          46.312    20329534.640   108367853.071 7      -564.314          44.750
G26  23551216.780   123762469.483 6      -944.696          37.375    23551214.300   123762469.483 5      -944.696          33.375    23551233.600    96438347.335 5      -736.127          32.812    23551234.640    96438356.289 7      -736.127          43.750
G16  21168444.300   111240923.735 7       410.429          47.500    21168443.060   111240923.745 6       410.429          38.125    21168447.160    86681253.356 6       319.815          37.437
G02  22219484.480   116764178.071 7      3954.352          45.250    22219482.520   116764178.074 6      3954.352          36.750    22219487.440    90985089.407 6      3081.314          36.562
G21  20824201.240   109431917.019 7      3139.303          46.875    20824199.160   109431917.024 6      3139.303          38.687    20824203.780    85271636.945 6      2446.210          38.875
> 2024 05 08 12 46 56.0000000  0 11
G27  21162763.840   111211070.128 7      1605.728          47.687    21162763.460   111211070.143 7      1605.728          46.062    21162768.120    86657995.019 7      1251.216          46.000    21162769.080    86658001.026 7      1251.216          46.625
R21  20453435.560   109450480.625 7      2159.538          42.187    20453440.840   109450480.645 6      2159.538          41.187    20453446.480    85128188.706 6      1679.641          38.625    20453446.440    85128200.680 6      1679.641          37.625
R11  19961868.700   106670155.581 7      3705.222          43.937    19961869.740   106670155.588 7      3705.222          43.062    19961877.620    82965744.257 8      2881.839          50.812    19961877.420    82965729.256 8      2881.839          50.812
R05  23189936.380   123963509.167 7      3787.246          44.937    23189935.840   123963509.195 7      3787.246          44.500    23189952.400    96416129.264 6      2945.636          40.687    23189952.740    96416141.238 6      2945.636          41.125
G10  22282473.300   117095193.883 7      1590.130          47.500    22282471.740   117095193.890 7      1590.130          45.437    22282479.040    91243043.133 7      1239.062          45.500    22282479.840    91243041.127 7      1239.062          46.437
G08  21156909.620   111180315.036 7      3235.579          46.125    21156912.240   111180315.030 5      3235.579          33.062    21156918.740    86634033.824 5      2521.231          33.125    21156919.600    86634046.834 7      2521.231          46.000
R10  20329640.460   108368417.780 7      -565.058          46.187    20329640.400   108368417.785 7      -565.058          44.750
G26  23551396.180   123763414.422 6      -945.021          38.062    23551394.260   123763414.422 5      -945.021          33.375    23551413.600    96439083.637 5      -736.380          33.187    23551414.640    96439092.599 7      -736.380          44.062
G16  21168366.280   111240513.564 7       410.031          47.812    21168365.000   111240513.571 6       410.031          37.750    21168369.140    86680933.736 6       319.505          37.562
G02  22218731.980   116760224.065 7      3953.690          45.750    22218730.080   116760224.075 6      3953.690          36.812    22218735.060    90982008.371 6      3080.798          36.312
G21  20823603.800   109428778.061 7      3138.785          46.687    20823601.980   109428778.066 6      3138.785          39.062    20823606.460    85269191.003 6      2445.806          38.937
> 2024 05 08 12 46 57.0000000  0 11
G27  21162458.240   111209464.533 7      1605.410          47.375    21162457.740   111209464.546 7      1605.410          45.437    21162462.660    86656743.902 7      1250.969          45.562    21162463.440    86656749.911 7      1250.969          46.750
R21  20453032.660   109448321.294 7      2159.180          42.187    20453037.540   109448321.320 6      2159.180          41.187    20453043.100    85126509.222 6      1679.362          38.625    20453042.680    85126521.195 6      1679.362          38.062
R11  19961175.460   106666450.775 7      3704.250          44.312    19961176.060   106666450.779 7      3704.250          43.062    19961184.340    82962862.734 8      2881.084          49.812    19961183.900    82962847.735 8      2881.084          50.687
R05  23189227.620   123959722.189 7      3786.609          45.000    23189227.440   123959722.204 7      3786.609          44.812    23189244.260    96413183.835 6      2945.141          40.687    23189243.960    96413195.813 6      2945.141          39.937
G10  22282170.600   117093604.114 7      1589.470          47.750    22282169.460   117093604.116 7      1589.470          45.000    22282176.300    91241804.350 7      1238.548          45.437    22282177.560    91241802.346 7      1238.548          46.312
G08  21156293.880   111177079.445 7      3235.534          45.437    21156296.600   111177079.436 5      3235.534          33.062    21156302.980    86631512.584 5      2521.196          33.000    21156304.040    86631525.592 7      2521.196          45.812
R10  20329746.300   108368983.184 7      -565.812          46.625    20329746.780   108368983.188 7      -565.812          45.250
G26  23551576.420   123764359.617 6      -945.255          38.375    23551574.400   123764359.614 5      -945.255          34.062    23551593.500    96439820.128 5      -736.562          33.312    23551594.560    96439829.081 7      -736.562          44.312
G16  21168288.420   111240103.926 7       409.482          47.687    21168287.080   111240103.933 6       409.482          37.937    21168291.420    86680614.536 6       319.077          38.000
G02  22217979.440   116756270.433 7      3953.385          45.875    22217977.740   116756270.449 6      3953.385          36.437    22217982.720    90978927.619 6      3080.560          36.437
G21  20823006.620   109425639.630 7      3138.155          47.250    20823004.780   109425639.637 6      3138.155          38.750    20823009.160    85266745.475 6      2445.316          38.875
> 2024 05 08 12 46 58.0000000  0 11
G27  21162152.880   111207859.070 7      1605.502          46.875    21162152.180   111207859.086 7      1605.502          46.000    21162156.920    86655492.894 7      1251.041          46.125    21162157.660    86655498.907 7      1251.041          46.625
R21  20452628.700   109446162.183 7      2159.142          42.562    20452634.100   109446162.220 6      2159.142          41.187    20452639.840    85124829.918 6      1679.333          38.625    20452639.280    85124841.896 6      1679.333          38.062
R11  19960482.440   106662746.746 7      3703.772          43.812    19960483.200   106662746.752 7      3703.772          43.187    19960491.300    82959981.829 8      2880.712          50.750    19960491.280    82959966.826 8      2880.712          50.812
R05  23188519.740   123955935.757 7      3786.365          44.687    23188519.380   123955935.769 7      3786.365          44.625    23188534.920    96410238.840 6      2944.951          40.437    23188535.560    96410250.823 6      2944.951          39.937
G10  22281868.240   117092014.904 8      1589.079          48.562    22281867.200   117092014.907 7      1589.079          45.250    22281874.080    91240566.011 7      1238.243          45.750    22281875.240    91240563.999 7      1238.243          46.750
G08  21155678.000   111173843.980 7      3235.650          45.750    21155680.920   111173843.969 5      3235.650          33.062    21155687.480    86628991.441 5      2521.286          33.000    21155688.560    86629004.454 7      2521.286          46.125
R10  20329852.840   108369549.170 7      -566.169          46.375    20329852.960   108369549.176 7      -566.169          45.250
G26  23551756.760   123765304.956 6      -945.323          38.375    23551754.360   123765304.953 5      -945.323          34.062    23551773.460    96440556.735 5      -736.615          33.312    23551774.520    96440565.705 7      -736.615          44.500
G16  21168210.880   111239694.735 7       409.131          47.000    21168209.220   111239694.739 6       409.131          38.312    21168213.560    86680295.677 6       318.804          37.875
G02  22217226.960   116752317.186 7      3953.202          46.562    22217225.580   116752317.196 6      3953.202          36.437    22217230.560    90975847.164 6      3080.418          36.625
G21  20822409.540   109422501.641 7      3137.971          47.187    20822407.760   109422501.646 6      3137.971          38.812    20822412.160    85264300.285 6      2445.172          38.625
> 2024 05 08 12 46 59.0000000  0 11
G27  21161847.320   111206253.828 7      1605.190          46.750    21161846.800   111206253.838 7      1605.190          45.875    21161851.660    86654242.049 7      1250.798          45.625    21161852.320    86654248.055 7      1250.798          46.625
R21  20452225.120   109444003.369 7      2158.824          42.562    20452230.720   109444003.408 6      2158.824          40.937    20452236.420    85123150.832 6      1679.085          38.625    20452236.140    85123162.813 6      1679.085          38.375
R11  19959789.580   106659043.650 7      3702.690          44.312    19959790.160   106659043.645 7      3702.690          43.625    19959798.280    82957101.639 8      2879.870          50.062    19959797.980    82957086.638 8      2879.870          50.812
R05  23187811.440   123952149.993 7      3785.586          45.312    23187811.120   123952150.002 7      3785.586          44.625    23187826.860    96407294.361 6      2944.345          40.187    23187827.200    96407306.342 6      2944.345          39.375
G10  22281566.260   117090426.331 8      1588.351          48.750    22281565.120   117090426.338 7      1588.351          45.687    22281571.680    91239328.157 7      1237.676          46.125    22281572.840    91239326.157 7      1237.676          46.500
G08  21155062.340   111170608.701 7      3235.277          45.250    21155065.220   111170608.696 5      3235.277          33.062    21155071.860    86626470.449 5      2520.995          33.000    21155072.820    86626483.458 7      2520.995          45.750
R10  20329959.100   108370115.833 7      -566.953          46.500    20329959.480   108370115.844 7      -566.953          45.312
G26  23551936.440   123766250.523 6      -945.536          38.500    23551934.640   123766250.528 5      -945.536          34.000    23551953.420    96441293.524 5      -736.781          33.812    23551954.860    96441302.494 7      -736.781          44.375
G16  21168133.120   111239286.040 7       408.576          47.625    21168131.620   111239286.045 6       408.576          38.000    21168135.720    86679977.210 6       318.371          37.875
G02  22216475.040   116748364.356 7      3952.732          46.187    22216473.420   116748364.358 6      3952.732          36.875    22216478.260    90972767.033 6      3080.051          36.625
G21  20821812.400   109419364.182 7      3137.264          46.937    20821810.480   109419364.187 6      3137.264          39.125    20821815.220    85261855.514 6      2444.622          38.687
> 2024 05 08 12 47  0.0000000  0 11
G27  21161541.940   111204648.948 7      1604.568          47.187    21161541.540   111204648.955 7      1604.568          46.312    21161546.160    86652991.489 7      1250.312          46.562    21161547.020    86652997.497 7      1250.312          46.562
R21  20451822.260   109441845.042 7      2157.975          42.875    20451827.640   109441845.081 6      2157.975          40.937    20451833.700    85121472.127 6      1678.425          38.625    20451832.560    85121484.114 6      1678.425          38.375
R11  19959096.380   106655341.579 7      3701.362          44.375    19959097.040   106655341.562 7      3701.362          43.125    19959105.520    82954222.245 8      2878.837          50.187    19959105.160    82954207.244 8      2878.837          50.625
R05  23187103.360   123948365.001 7      3784.498          44.875    23187103.420   123948365.013 7      3784.498          44.812    23187118.140    96404350.482 6      2943.498          40.187    23187118.700    96404362.471 6      2943.498          39.375
G10  22281264.020   117088838.545 8      1587.274          48.250    22281262.620   117088838.548 7      1587.274          45.312    22281269.880    91238090.918 7      1236.837          45.812    22281270.540    91238088.916 7      1236.837          46.437
G08  21154446.780   111167373.746 7      3234.583          44.375    21154449.540   111167373.743 5      3234.583          32.687    21154456.260    86623949.702 5      2520.455          32.562    21154457.280    86623962.712 7      2520.455          45.812
R10  20330065.420   108370683.311 7      -568.043          46.312    20330065.740   108370683.312 7      -568.043          44.812
G26  23552117.000   123767196.524 6      -946.408          38.750    23552114.940   123767196.521 5      -946.408          34.000    23552133.640    96442030.639 5      -737.461          33.812    23552134.380    96442039.601 7      -737.461          44.625
G16  21168055.320   111238878.023 8       407.591          48.375    21168054.020   111238878.028 6       407.591          38.500    21168058.160    86679659.270 6       317.603          38.312
G02  22215723.100   116744412.096 7      3951.834          45.875    22215721.260   116744412.101 6      3951.834          37.000    22215726.180    90969687.348 6      3079.351          36.687
G21  20821215.640   109416227.389 7      3136.293          46.812    20821213.760   109416227.396 6      3136.293          38.687    20821218.300    85259411.259 6      2443.865          39.562
> 2024 05 08 12 47  1.0000000  0 11
G27  21161236.700   111203044.315 7      1604.594          47.562    21161236.180   111203044.317 7      1604.594          46.062    21161240.820    86651741.122 7      1250.333          46.187    21161241.480    86651747.127 7      1250.333          46.562
R21  20451418.600   109439687.125 7      2157.657          42.375    20451424.180   109439687.155 6      2157.657          41.437    20451430.060    85119793.746 6      1678.178          39.000    20451429.560    85119805.744 6      1678.178          38.375
R11  19958403.380   106651640.441 7      3700.623          44.187    19958404.400   106651640.426 7      3700.623          43.000    19958412.940    82951343.572 8      2878.262          50.125    19958412.520    82951328.570 8      2878.262          50.437
R05  23186395.580   123944580.656 7      3784.043          44.562    23186395.200   123944580.662 7      3784.043          44.062    23186410.140    96401407.103 6      2943.144          39.750    23186410.540    96401419.088 6      2943.144          39.375
G10  22280961.900   117087251.409 8      1586.891          49.125    22280961.020   117087251.411 7      1586.891          45.625    22280967.820    91236854.182 7      1236.538          45.312    22280968.440    91236852.180 7      1236.538          46.687
G08  21153831.260   111164138.996 7      3234.631          45.312    21153833.880   111164138.993 5      3234.631          32.687    21153840.860    86621429.114 5      2520.492          32.562    21153841.640    86621442.125 7      2520.492          45.875
R10  20330171.960   108371251.488 7      -568.504          46.750    20330172.280   108371251.486 7      -568.504          44.750
G26  23552296.480   123768142.751 6      -946.321          38.750    23552294.940   123768142.753 5      -946.321          34.250    23552313.640    96442767.938 5      -737.393          33.875    23552314.460    96442776.898 7      -737.393          44.562
G16  21167977.880   111238470.540 7       407.222          47.812    21167976.620   111238470.545 6       407.222          38.625    21167980.740    86679341.747 6       317.315          38.687
G02  22214971.060   116740460.283 7      3951.612          46.187    22214969.400   116740460.291 6      3951.612          36.750    22214974.220    90966608.018 6      3079.178          36.875
G21  20820618.780   109413091.147 7      3135.998          46.937    20820616.900   109413091.154 6      3135.998          38.687    20820621.400    85256967.436 6      2443.635          38.687
> 2024 05 08 12 47  2.0000000  0 11
G27  21160931.300   111201439.853 7      1604.405          47.562    21160930.820   111201439.857 7      1604.405          45.750    21160935.540    86650490.898 7      1250.185          46.000    21160936.220    86650496.907 7      1250.185          46.312
R21  20451015.880   109437529.466 7      2157.454          42.375    20451020.780   109437529.495 6      2157.454          41.437    20451027.040    85118115.559 6      1678.019          39.000    20451026.400    85118127.553 6      1678.019          39.062
R11  19957711.240   106647940.142 7      3699.712          43.750    19957711.780   106647940.135 7      3699.712          43.000    19957720.340    82948465.576 8      2877.554          50.812    19957720.060    82948450.575 8      2877.554          50.625
R05  23185687.580   123940796.923 7      3783.385          44.500    23185687.440   123940796.921 7      3783.385          44.437    23185702.320    96398464.212 6      2942.632          39.750    23185702.420    96398476.193 6      2942.632          38.375
G10  22280660.080   117085664.898 8      1586.218          48.562    22280659.120   117085664.900 7      1586.218          45.875    22280665.840    91235617.934 7      1236.014          46.437    22280666.440    91235615.929 7      1236.014          46.812
G08  21153215.880   111160904.382 7      3234.512          45.562    21153218.220   111160904.379 5      3234.512          32.562    21153225.260    86618908.638 5      2520.399          32.625    21153226.060    86618921.651 7      2520.399          46.062
R10  20330278.960   108371820.294 7      -569.105          46.187    20330278.960   108371820.302 7      -569.105          45.000
G26  23552477.200   123769089.170 6      -946.540          38.500    23552475.220   123769089.180 5      -946.540          34.250    23552493.880    96443505.389 5      -737.564          33.875    23552494.500    96443514.355 7      -737.564          44.312
G16  21167900.240   111238063.527 7       406.800          47.375    21167899.240   111238063.532 6       406.800          38.250    21167903.300    86679024.590 6       316.987          38.500
G02  22214219.060   116736508.870 7      3951.291          45.937    22214217.540   116736508.877 6      3951.291          37.000    22214222.260    90963528.996 6      3078.928          36.500
G21  20820021.920   109409955.399 7      3135.448          46.875    20820020.240   109409955.406 6      3135.448          38.625    20820024.560    85254523.998 6      2443.206          38.437
> 2024 05 08 12 47  3.0000000  0 11
G27  21160626.020   111199835.700 7      1604.037          47.312    21160625.680   111199835.705 7      1604.037          45.875    21160630.260    86649240.903 7      1249.899          45.937    21160630.700    86649246.908 7      1249.899          46.062
R21  20450612.560   109435372.185 7      2157.002          42.750    20450617.880   109435372.222 6      2157.002          41.875    20450624.120    85116437.681 6      1677.669          39.562    20450623.680    85116449.674 6      1677.669          39.062
R11  19957019.340   106644240.810 7      3698.851          43.750    19957019.020   106644240.801 7      3698.851          42.875    19957028.220    82945588.309 8      2876.884          50.312    19957027.780    82945573.310 8      2876.884          50.687
R05  23184980.020   123937013.879 7      3782.700          44.750    23184979.720   123937013.889 7      3782.700          43.625    23184994.580    96395521.843 6      2942.100          39.875    23184994.820    96395533.830 6      2942.100          38.375
G10  22280358.220   117084079.076 8      1585.441          49.125    22280357.420   117084079.080 7      1585.441          45.812    22280364.160    91234382.232 7      1235.409          46.312    22280364.680    91234380.230 7      1235.409          47.187
G08  21152600.220   111157670.031 7      3234.173          45.562    21152602.760   111157670.031 5      3234.173          32.562    21152609.840    86616388.366 5      2520.135          32.625    21152610.700    86616401.378 7      2520.135          45.750
R10  20330385.700   108372389.886 7      -570.020          46.625    20330386.160   108372389.897 7      -570.020          45.062
G26  23552657.000   123770035.943 6      -947.059          38.312    23552655.340   123770035.951 5      -947.059          34.312    23552674.020    96444243.108 5      -737.968          34.000    23552674.840    96444252.070 7      -737.968          44.312
G16  21167823.060   111237657.110 7       406.131          47.500    21167821.860   111237657.118 6       406.131          38.750    21167825.940    86678707.897 6       316.466          38.562
G02  22213466.900   116732557.963 7      3950.654          45.500    22213465.660   116732557.966 6      3950.654          36.437    22213470.480    90960450.366 6      3078.431          36.500
G21  20819425.520   109406820.231 7      3134.905          47.000    20819423.740   109406820.239 6      3134.905          38.937    20819428.100    85252081.011 6      2442.783          39.125
> 2024 05 08 12 47  4.0000000  0 11
G27  21160320.880   111198231.766 8      1604.100          48.000    21160320.500   111198231.774 7      1604.100          46.500    21160325.020    86647991.084 7      1249.948          46.375    21160325.300    86647997.088 7      1249.948          46.437
R21  20450209.860   109433215.271 7      2156.985          42.750    20450214.420   109433215.302 6      2156.985          41.875    20450221.340    85114760.070 6      1677.655          39.562    20450220.680    85114772.072 6      1677.655          39.500
R11  19956326.860   106640542.433 7      3698.064          43.937    19956327.120   106640542.412 7      3698.064          42.937    19956335.980    82942711.785 8      2876.272          50.375    19956335.860    82942696.784 8      2876.272          50.562
R05  23184272.520   123933231.571 7      3782.037          44.625    23184272.440   123933231.578 7      3782.037          44.125    23184286.880    96392580.051 6      2941.584          39.875    23184287.160    96392592.039 6      2941.584          38.250
G10  22280056.640   117082493.923 8      1585.044          49.312    22280055.880   117082493.925 7      1585.044          45.750    22280062.320    91233147.044 7      1235.099          46.312    22280063.080    91233145.042 7      1235.099          46.562
G08  21151984.980   111154435.870 7      3234.207          45.250    21151987.300   111154435.872 5      3234.207          32.562    21151994.540    86613868.242 5      2520.161          32.625    21151995.200    86613881.260 7      2520.161          45.625
R10  20330492.420   108372960.173 7      -570.457          46.187    20330492.880   108372960.179 7      -570.457          45.000
G26  23552836.960   123770982.937 6      -947.047          38.312    23552835.580   123770982.937 5      -947.047          34.125    23552854.260    96444980.997 5      -737.959          34.000    23552854.800    96444989.955 7      -737.959          44.125
G16  21167745.760   111237251.224 8       405.787          48.375    21167744.600   111237251.232 6       405.787          38.187    21167748.840    86678391.621 6       316.198          38.500
G02  22212715.340   116728607.475 7      3950.506          46.187    22212713.760   116728607.485 6      3950.506          37.000    22212718.680    90957372.067 6      3078.317          36.750
G21  20818829.100   109403685.629 7      3134.502          47.187    20818827.460   109403685.634 6      3134.502          39.125    20818831.660    85249638.461 6      2442.469          38.812
> 2024 05 08 12 47  5.0000000  0 11
G27  21160015.700   111196628.229 8      1603.439          48.437    21160015.120   111196628.234 7      1603.439          46.187    21160020.100    86646741.571 7      1249.433          46.500    21160020.400    86646747.570 7      1249.433          46.750
R21  20449806.800   109431058.846 7      2156.255          42.187    20449811.620   109431058.875 6      2156.255          41.437    20449818.340    85113082.847 6      1677.088          40.000    20449817.440    85113094.844 6      1677.088          39.500
R11  19955634.960   106636845.083 7      3696.888          43.125    19955634.960   106636845.063 7      3696.888          42.937    19955644.060    82939836.069 8      2875.357          49.812    19955643.660    82939821.066 8      2875.357          50.437
R05  23183565.040   123929450.019 7      3781.246          44.625    23183564.360   123929450.039 7      3781.246          44.125    23183579.860    96389638.846 6      2940.969          39.625    23183579.520    96389650.836 6      2940.969          38.250
G10  22279755.120   117080909.548 8      1584.113          49.062    22279754.040   117080909.550 7      1584.113          46.250    22279760.680    91231912.464 7      1234.374          46.312    22279761.580    91231910.460 7      1234.374          46.437
G08  21151369.600   111151202.052 7      3233.647          45.250    21151372.080   111151202.052 5      3233.647          32.562    21151379.180    86611348.387 5      2519.725          32.750    21151379.820    86611361.402 7      2519.725          46.062
R10  20330599.740   108373531.322 7      -571.485          46.312    20330600.000   108373531.325 7      -571.485          44.687
G26  23553017.420   123771930.307 6      -947.570          37.750    23553015.380   123771930.309 5      -947.570          34.125    23553034.380    96445719.191 5      -738.366          34.000    23553035.480    96445728.159 7      -738.366          44.250
G16  21167668.620   111236846.006 8       404.966          48.687    21167667.520   111236846.008 6       404.966          38.312    21167671.760    86678075.856 6       315.558          38.312
G02  22211963.840   116724657.593 7      3949.716          45.437    22211962.080   116724657.606 6      3949.716          36.125    22211967.080    90954294.243 6      3077.701          36.187
G21  20818232.760   109400551.702 7      3133.632          47.750    20818230.940   109400551.709 6      3133.632          39.687    20818235.340    85247196.440 6      2441.791          39.312
> 2024 05 08 12 47  6.0000000  0 11
G27  21159710.680   111195025.057 7      1603.225          47.312    21159710.260   111195025.070 7      1603.225          46.312    21159714.800    86645492.344 7      1249.266          46.562    21159715.460    86645498.347 7      1249.266          46.750
R21  20449403.940   109428902.927 7      2156.000          42.187    20449408.100   109428902.958 6      2156.000          41.437    20449415.640    85111406.033 6      1676.889          40.000    20449414.560    85111418.031 6      1676.889          39.875
R11  19954943.200   106633148.811 7      3695.950          43.000    19954943.320   106633148.799 7      3695.950          42.875    19954952.280    82936961.194 8      2874.628          50.000    19954952.140    82936946.195 8      2874.628          50.562
R05  23182857.720   123925669.333 7      3780.440          44.187    23182858.000   123925669.353 7      3780.440          44.125    23182872.380    96386698.336 6      2940.342          39.625    23182872.240    96386710.319 6      2940.342          38.250
G10  22279453.680   117079325.993 8      1583.387          48.875    22279452.840   117079325.998 7      1583.387          45.375    22279459.400    91230678.527 7      1233.808          46.000    22279460.080    91230676.523 7      1233.808          46.562
G08  21150754.280   111147968.563 7      3233.591          45.375    21150756.820   111147968.563 5      3233.591          32.562    21150763.780    86608828.787 5      2519.681          32.750    21150764.420    86608841.803 7      2519.681          46.000
R10  20330706.900   108374103.310 7      -572.141          46.375    20330707.420   108374103.318 7      -572.141          44.750
G26  23553197.520   123772878.071 6      -947.726          37.750    23553195.780   123772878.081 5      -947.726          34.125    23553214.980    96446457.696 5      -738.488          33.125    23553215.820    96446466.672 7      -738.488          43.937
G16  21167591.600   111236441.458 8       404.438          48.500    21167590.620   111236441.465 6       404.438          39.062    21167594.840    86677760.621 6       315.147          39.250
G02  22211212.280   116720708.308 7      3949.294          45.312    22211210.460   116720708.318 6      3949.294          36.125    22211215.680    90951216.878 6      3077.372          36.062
G21  20817636.640   109397418.463 7      3133.082          47.125    20817634.780   109397418.468 6      3133.082          39.062    20817639.060    85244754.955 6      2441.363          38.750
> 2024 05 08 12 47  7.0000000  0 11
G27  21159405.600   111193421.974 7      1602.986          47.250    21159404.900   111193421.979 7      1602.986          45.687    21159409.780    86644243.178 7      1249.080          45.687    21159410.440    86644249.179 7      1249.080          46.625
R21  20449001.420   109426747.188 6      2155.529          41.812    20449004.700   109426747.219 6      2155.529          41.500    20449013.180    85109729.343 6      1676.523          40.375    20449011.840    85109741.342 6      1676.523          39.875
R11  19954252.120   106629453.281 7      3695.147          43.000    19954251.300   106629453.264 7      3695.147          42.437    19954260.740    82934086.877 8      2874.003          49.812    19954260.600    82934071.876 8      2874.003          50.000
R05  23182150.640   123921889.128 7      3779.938          45.375    23182151.000   123921889.143 7      3779.938          44.812    23182165.840    96383758.170 6      2939.952          40.125    23182165.700    96383770.159 6      2939.952          38.625
G10  22279152.500   117077742.911 8      1582.838          48.562    22279151.560   117077742.916 7      1582.838          45.500    22279158.080    91229444.951 7      1233.380          45.812    22279158.860    91229442.944 7      1233.380          45.937
G08  21150138.920   111144735.124 7      3233.410          45.312    21150141.420   111144735.121 5      3233.410          32.250    21150148.580    86606309.224 5      2519.540          32.250    21150149.100    86606322.240 7      2519.540          46.062
R10  20330814.520   108374675.860 7      -572.865          46.125    20330815.060   108374675.869 7      -572.865          44.687
G26  23553378.060   123773825.975 6      -948.000          37.500    23553375.980   123773825.979 5      -948.000          33.500    23553395.260    96447196.299 5      -738.701          33.125    23553396.540    96447205.259 7      -738.701          44.000
G16  21167514.480   111236037.277 7       404.000          47.937    21167513.680   111236037.279 6       404.000          38.312    21167518.060    86677445.671 6       314.805          38.125
G02  22210460.840   116716759.288 7      3948.863          45.312    22210459.100   116716759.293 6      3948.863          36.250    22210464.300    90948139.720 5      3077.036          35.812
G21  20817040.200   109394285.592 7      3132.653          46.750    20817038.740   109394285.600 6      3132.653          39.125    20817043.000    85242313.757 6      2441.028          38.937
> 2024 05 08 12 47  8.0000000  0 11
G27  21159100.620   111191819.078 7      1602.812          47.000    21159100.020   111191819.083 7      1602.812          46.187    21159104.640    86642994.166 7      1248.944          46.000    21159105.580    86643000.173 7      1248.944          46.937
R21  20448598.320   109424591.683 6      2155.449          41.812    20448602.000   109424591.717 6      2155.449          41.500    20448610.680    85108052.846 6      1676.461          40.375    20448609.480    85108064.839 6      1676.461          40.125
R11  19953560.380   106625758.646 7      3694.131          42.750    19953559.940   106625758.637 7      3694.131          42.437    19953569.520    82931213.274 8      2873.213          50.187    19953569.060    82931198.271 8      2873.213          49.937
R05  23181443.480   123918109.543 7      3779.240          45.187    23181443.740   123918109.563 7      3779.240          44.562    23181459.320    96380818.510 6      2939.409          40.125    23181458.580    96380830.499 6      2939.409          38.625
G10  22278851.320   117076160.473 7      1582.131          47.187    22278850.360   117076160.478 7      1582.131          45.187    22278856.800    91228211.888 7      1232.829          45.875    22278857.580    91228209.882 7      1232.829          46.437
G08  21149523.420   111141501.869 7      3233.174          45.062    21149526.040   111141501.866 5      3233.174          32.250    21149533.260    86603789.804 5      2519.356          32.250    21149533.980    86603802.822 7      2519.356          45.437
R10  20330922.000   108375249.085 7      -573.543          46.500    20330922.520   108375249.085 7      -573.543          45.312
G26  23553558.400   123774774.085 6      -948.268          37.500    23553556.420   123774774.085 5      -948.268          34.187    23553575.840    96447935.063 5      -738.910          33.562    23553576.800    96447944.022 7      -738.910          44.750
G16  21167437.500   111235633.619 7       403.394          47.625    21167436.680   111235633.624 6       403.394          39.125    21167441.280    86677131.127 6       314.333          39.312
G02  22209709.280   116712810.688 7      3948.464          44.875    22209707.660   116712810.693 6      3948.464          36.062    22209712.900    90945062.895 6      3076.725          36.312
G21  20816444.160   109391153.244 7      3132.071          47.437    20816442.740   109391153.252 6      3132.071          39.000    20816446.880    85239872.967 6      2440.575          39.562
> 2024 05 08 12 47  9.0000000  0 11
G27  21158795.680   111190216.266 7      1602.632          47.562    21158794.920   111190216.271 7      1602.632          46.125    21158799.760    86641745.209 7      1248.804          46.500    21158800.560    86641751.212 7      1248.804          47.437
R21  20448195.640   109422436.401 6      2154.979          40.812    20448199.480   109422436.435 6      2154.979          40.812    20448207.520    85106376.513 6      1676.095          41.000    20448206.800    85106388.500 6      1676.095          40.812
R11  19952869.100   106622064.739 7      3693.362          42.937    19952868.280   106622064.734 7      3693.362          42.062    19952878.260    82928340.237 8      2872.615          50.687    19952877.720    82928325.234 8      2872.615          50.250
R05  23180736.660   123914330.416 7      3778.778          45.437    23180736.540   123914330.433 7      3778.778          44.937    23180753.020    96377879.192 6      2939.050          40.312    23180751.880    96377891.186 6      2939.050          39.625
G10  22278550.260   117074578.515 8      1581.533          48.437    22278549.260   117074578.520 7      1581.533          45.125    22278555.660    91226979.190 7      1232.364          45.562    22278556.360    91226977.179 7      1232.364          45.750
G08  21148908.280   111138268.614 7      3233.135          45.437    21148910.740   111138268.611 5      3233.135          32.250    21148917.920    86601270.381 5      2519.326          32.250    21148918.440    86601283.398 7      2519.326          45.937
R10  20331029.980   108375822.805 7      -574.085          46.750    20331030.160   108375822.809 7      -574.085          44.937
G26  23553739.000   123775722.280 6      -948.460          37.437    23553736.800   123775722.283 5      -948.460          34.187    23553756.400    96448673.893 5      -739.060          33.562    23553757.360    96448682.855 7      -739.060          44.500
G16  21167360.820   111235230.306 7       402.992          47.875    21167359.900   111235230.308 6       402.992          39.000    21167364.500    86676816.846 6       314.020          38.687
G02  22208957.960   116708862.359 7      3948.132          45.312    22208956.480   116708862.364 6      3948.132          36.687    22208961.480    90941986.271 6      3076.466          36.375
G21  20815848.040   109388021.256 7      3131.661          47.625    20815846.560   109388021.264 6      3131.661          39.062    20815851.020    85237432.459 6      2440.255          38.812
> 2024 05 08 12 47 10.0000000  0 11
G27  21158490.800   111188613.803 7      1602.488          47.875    21158490.040   111188613.803 7      1602.488          46.437    21158495.020    86640496.539 7      1248.692          46.187    21158495.840    86640502.538 7      1248.692          47.187
R21  20447793.280   109420281.566 6      2154.559          40.812    20447796.240   109420281.594 6      2154.559          40.812    20447805.240    85104700.515 6      1675.768          40.687    20447804.540    85104712.502 6      1675.768          40.812
R11  19952178.040   106618371.907 7      3692.399          42.937    19952177.280   106618371.895 7      3692.399          42.062    19952187.240    82925468.025 8      2871.866          49.500    19952186.860    82925453.019 8      2871.866          50.500
R05  23180029.580   123910552.098 7      3778.092          45.375    23180029.960   123910552.115 7      3778.092          45.187    23180045.800    96374940.499 6      2938.516          40.687    23180044.940    96374952.482 6      2938.516          40.187
G10  22278249.360   117072997.341 8      1580.839          48.312    22278248.460   117072997.343 7      1580.839          45.437    22278255.120    91225747.108 7      1231.823          45.750    22278255.600    91225745.106 7      1231.823          45.687
G08  21148292.740   111135035.721 7      3232.730          45.125    21148295.600   111135035.716 5      3232.730          31.750    21148302.740    86598751.246 5      2519.010          31.937    21148303.400    86598764.263 7      2519.010          46.000
R10  20331137.480   108376397.387 7      -574.855          46.437    20331138.080   108376397.390 7      -574.855          45.375
G26  23553919.320   123776670.822 6      -948.528          37.000    23553917.480   123776670.822 5      -948.528          34.000    23553937.020    96449412.994 5      -739.113          33.750    23553937.800    96449421.970 7      -739.113          44.562
G16  21167284.500   111234827.663 7       402.411          47.875    21167283.440   111234827.667 6       402.411          39.250    21167288.000    86676503.100 6       313.567          39.125
G02  22208206.900   116704914.643 7      3947.491          44.812    22208205.240   116704914.648 6      3947.491          36.937    22208210.280    90938910.136 6      3075.967          36.875
G21  20815252.180   109384889.962 7      3131.078          47.375    20815250.780   109384889.969 6      3131.078          38.687    20815255.020    85234992.487 6      2439.801          38.500
> 2024 05 08 12 47 11.0000000  0 11
G27  21158185.720   111187011.375 8      1602.339          48.750    21158185.560   111187011.377 7      1602.339          46.812    21158189.980    86639247.889 7      1248.576          46.625    21158190.640    86639253.891 7      1248.576          47.500
R21  20447390.220   109418126.867 6      2154.598          40.562    20447393.380   109418126.887 6      2154.598          40.812    20447402.760    85103024.632 6      1675.799          40.687    20447401.680    85103036.629 6      1675.799          41.000
R11  19951487.140   106614679.758 7      3691.704          43.125    19951486.220   106614679.743 7      3691.704          42.062    19951496.360    82922596.350 8      2871.325          49.937    19951495.880    82922581.347 8      2871.325          50.437
R05  23179322.800   123906774.232 7      3777.555          45.625    23179323.120   123906774.249 7      3777.555          45.250    23179339.040    96372002.171 6      2938.099          40.687    23179338.500    96372014.160 6      2938.099          40.187
G10  22277948.640   117071416.600 7      1580.440          47.312    22277947.540   117071416.602 7      1580.440          45.187    22277954.180    91224515.362 7      1231.511          45.500    22277954.460    91224513.359 7      1231.511          45.875
G08  21147677.440   111131802.771 7      3232.907          45.375    21147680.280   111131802.765 5      3232.907          31.750    21147687.700    86596232.064 5      2519.148          31.937    21147688.440    86596245.077 7      2519.148          46.250
R10  20331245.460   108376972.442 7      -575.416          46.437    20331245.740   108376972.440 7      -575.416          45.125
G26  23554100.660   123777619.456 6      -948.708          37.000    23554098.320   123777619.456 5      -948.708          34.000    23554117.800    96450152.171 5      -739.253          33.750    23554118.640    96450161.145 7      -739.253          45.000
G16  21167207.940   111234425.340 7       402.077          47.875    21167206.640   111234425.342 6       402.077          39.250    21167211.540    86676189.594 6       313.307          39.312
G02  22207455.720   116700967.123 7      3947.308          46.125    22207453.980   116700967.128 6      3947.308          37.375    22207459.200    90935834.143 6      3075.824          37.312
G21  20814656.460   109381758.986 7      3130.737          47.812    20814655.040   109381758.990 6      3130.737          38.750    20814659.060    85232552.769 6      2439.535          38.687
> 2024 05 08 12 47 12.0000000  0 11
G27  21157881.180   111185409.359 7      1601.895          47.937    21157880.620   111185409.361 7      1601.895          46.562    21157885.020    86637999.569 7      1248.230          46.375    21157885.920    86638005.571 7      1248.230          47.875
R21  20446987.920   109415972.748 6      2153.966          40.562    20446990.180   109415972.782 6      2153.966          40.937    20447000.340    85101349.198 6      1675.307          40.875    20446999.700    85101361.187 6      1675.307          41.750
R11  19950796.060   106610988.677 7      3690.671          43.062    19950795.440   106610988.656 7      3690.671          42.437    19950805.520    82919725.512 8      2870.522          50.250    19950805.240    82919710.510 8      2870.522          50.625
R05  23178616.060   123902997.221 7      3776.707          45.375    23178616.580   123902997.238 7      3776.707          45.125    23178632.100    96369064.496 6      2937.439          40.750    23178632.040    96369076.489 6      2937.439          40.375
G10  22277648.060   117069836.700 7      1579.640          47.625    22277646.960   117069836.699 7      1579.640          45.625    22277653.800    91223284.264 7      1230.889          45.625    22277653.680    91223282.260 7      1230.889          45.875
G08  21147062.500   111128570.220 7      3232.533          44.687    21147065.180   111128570.217 5      3232.533          31.750    21147072.620    86593713.189 5      2518.857          31.937    21147073.240    86593726.206 7      2518.857          45.875
R10  20331353.260   108377548.372 7      -576.266          46.562    20331353.460   108377548.368 7      -576.266          45.000
G26  23554280.600   123778568.492 6      -949.017          38.500    23554279.200   123778568.489 5      -949.017          35.125    23554298.580    96450891.657 5      -739.494          34.562    23554299.220    96450900.629 7      -739.494          44.937
G16  21167131.480   111234023.724 7       401.387          47.562    21167130.300   111234023.726 6       401.387          39.312    21167135.220    86675876.640 6       312.769          39.062
G02  22206704.480   116697020.224 7      3946.727          46.437    22206702.960   116697020.229 6      3946.727          37.437    22206708.200    90932758.641 6      3075.371          37.250
G21  20814060.700   109378628.753 7      3129.982          47.250    20814059.260   109378628.763 6      3129.982          38.625    20814063.360    85230113.629 6      2438.947          38.437
> 2024 05 08 12 47 13.0000000  0 11
G27  21157576.360   111183807.551 8      1601.738          48.000    21157576.020   111183807.555 7      1601.738          46.187    21157580.340    86636751.403 7      1248.107          46.437    21157581.360    86636757.404 7      1248.107          47.875
R21  20446586.160   109413818.935 6      2153.703          40.375    20446587.560   109413818.958 6      2153.703          40.937    20446598.020    85099674.008 6      1675.102          41.437    20446597.200    85099685.993 6      1675.102          41.750
R11  19950105.740   106607298.493 7      3689.755          43.062    19950104.840   106607298.462 7      3689.755          42.437    19950114.780    82916855.363 8      2869.809          49.687    19950114.540    82916840.357 8      2869.809          50.187
R05  23177909.580   123899220.862 7      3776.083          44.750    23177910.100   123899220.879 7      3776.083          44.937    23177925.980    96366127.326 6      2936.953          40.750    23177925.620    96366139.317 6      2936.953          40.375
G10  22277347.500   117068257.420 7      1579.060          47.437    22277346.580   117068257.422 7      1579.060          45.375    22277353.200    91222053.657 7      1230.436          45.437    22277353.140    91222051.656 7      1230.436          46.062
G08  21146447.560   111125337.858 7      3232.179          44.875    21146450.020   111125337.858 5      3232.179          32.250    21146457.580    86591194.473 5      2518.581          32.125    21146458.240    86591207.491 7      2518.581          46.125
R10  20331461.940   108378124.971 7      -576.855          46.062    20331461.620   108378124.967 7      -576.855          44.937
G26  23554461.220   123779517.764 6      -949.245          38.875    23554460.060   123779517.763 5      -949.245          35.250    23554479.260    96451631.331 5      -739.671          34.812    23554480.140    96451640.305 7      -739.671          44.937
G16  21167055.180   111233622.617 7       400.925          47.875    21167054.040   111233622.619 6       400.925          39.375    21167059.020    86675564.083 6       312.409          38.937
G02  22205953.260   116693073.747 7      3946.386          45.875    22205952.060   116693073.757 6      3946.386          37.375    22205957.280    90929683.467 6      3075.106          37.312
G21  20813465.000   109375499.024 7      3129.529          47.750    20813463.940   109375499.032 6      3129.529          39.125    20813467.840    85227674.882 6      2438.594          38.937
> 2024 05 08 12 47 14.0000000  0 11
G27  21157271.680   111182205.868 7      1601.622          47.812    21157271.140   111182205.876 7      1601.622          46.875    21157275.580    86635503.339 7      1248.017          46.625    21157276.640    86635509.340 7      1248.017          47.687
R21  20446183.740   109411665.304 6      2153.594          40.375    20446184.860   109411665.327 6      2153.594          40.937    20446195.740    85097998.978 6      1675.018          41.437    20446194.680    85098010.967 6      1675.018          41.750
R11  19949415.720   106603609.069 7      3689.006          42.625    19949413.900   106603609.059 6      3689.006          41.812    19949424.320    82913985.831 8      2869.227          49.437    19949424.120    82913970.832 8      2869.227          50.375
R05  23177203.040   123895445.032 7      3775.556          45.250    23177203.560   123895445.052 7      3775.556          44.125    23177219.540    96363190.603 6      2936.543          40.250    23177219.280    96363202.600 6      2936.543          40.062
G10  22277047.100   117066678.684 8      1578.516          48.187    22277046.220   117066678.686 7      1578.516          45.625    22277052.800    91220823.477 7      1230.013          45.687    22277052.760    91220821.468 7      1230.013          45.437
G08  21145832.380   111122105.570 7      3232.267          44.875    21145834.860   111122105.572 5      3232.267          32.250    21145842.440    86588675.807 5      2518.650          32.125    21145843.020    86588688.819 7      2518.650          45.812
R10  20331570.000   108378702.181 7      -577.486          46.187    20331569.920   108378702.187 7      -577.486          45.062
G26  23554642.120   123780467.194 6      -949.404          38.875    23554640.700   123780467.193 5      -949.404          35.250    23554659.940    96452371.130 5      -739.795          34.812    23554661.180    96452380.108 7      -739.795          45.000
G16  21166979.000   111233221.934 7       400.550          47.875    21166977.700   111233221.936 6       400.550          39.312    21166982.640    86675251.859 6       312.117          39.125
G02  22205202.680   116689127.610 7      3946.089          46.750    22205200.980   116689127.620 6      3946.089          37.750    22205206.440    90926608.554 6      3074.875          36.875
G21  20812869.520   109372369.743 7      3129.118          47.812    20812868.500   109372369.750 6      3129.118          38.937    20812872.200    85225236.482 6      2438.274          38.875
> 2024 05 08 12 47 15.0000000  0 11
G27  21156966.820   111180604.501 7      1601.072          47.625    21156966.520   111180604.506 7      1601.072          46.375    21156970.860    86634255.516 7      1247.588          46.312    21156971.920    86634261.515 7      1247.588          47.750
R21  20445781.820   109409512.106 6      2152.814          40.375    20445781.960   109409512.123 6      2152.814          40.312    20445793.280    85096324.250 6      1674.411          41.625    20445792.480    85096336.241 6      1674.411          41.875
R11  19948725.540   106599920.681 7      3687.703          42.625    19948723.820   106599920.658 6      3687.703          41.812    19948734.440    82911117.081 8      2868.214          49.437    19948733.760    82911102.075 8      2868.214          50.000
R05  23176496.700   123891669.978 7      3774.584          44.125    23176497.600   123891669.995 7      3774.584          44.500    23176513.460    96360254.449 6      2935.788          40.250    23176512.600    96360266.440 6      2935.788          40.062
G10  22276746.780   117065100.686 8      1577.547          48.437    22276745.940   117065100.691 7      1577.547          45.875    22276752.720    91219593.864 7      1229.257          45.750    22276752.720    91219591.849 7      1229.257          46.375
G08  21145217.400   111118873.545 7      3231.741          45.125    21145219.860   111118873.547 5      3231.741          32.250    21145227.380    86586157.346 5      2518.240          32.125    21145228.260    86586170.361 7      2518.240          45.750
R10  20331678.580   108379280.142 7      -578.457          46.250    20331678.360   108379280.142 7      -578.457          44.687
G26  23554822.700   123781416.968 6      -949.980          38.625    23554821.620   123781416.965 5      -949.980          35.375    23554840.760    96453111.187 5      -740.244          34.750    23554841.300    96453120.151 7      -740.244          45.125
G16  21166902.800   111232821.847 8       399.658          48.250    21166901.560   111232821.852 6       399.658          39.187    21166906.660    86674940.100 6       311.422          38.937
G02  22204452.020   116685182.000 7      3945.220          45.625    22204450.040   116685182.011 6      3945.220          36.812    22204455.580    90923534.053 6      3074.197          36.375
G21  20812274.360   109369241.060 7      3128.270          47.625    20812273.040   109369241.065 6      3128.270          39.000    20812276.980    85222798.542 6      2437.613          39.062
> 2024 05 08 12 47 16.0000000  0 11
G27  21156661.980   111179003.347 7      1601.028          47.625    21156661.700   111179003.352 7      1601.028          45.937    21156666.100    86633007.872 7      1247.555          46.125    21156667.160    86633013.869 7      1247.555          47.750
R21  20445378.920   109407359.221 6      2152.651          40.375    20445379.480   109407359.249 6      2152.651          40.312    20445391.120    85094649.790 6      1674.284          41.500    20445390.240    85094661.777 7      1674.284          42.437
R11  19948035.160   106596233.183 7      3687.001          42.500    19948033.760   106596233.160 6      3687.001          41.875    19948044.260    82908249.021 8      2867.667          50.000    19948043.600    82908234.019 8      2867.667          50.250
R05  23175790.540   123887895.576 7      3774.079          44.312    23175791.320   123887895.588 7      3774.079          44.312    23175806.580    96357318.799 6      2935.395          40.687    23175806.520    96357330.798 6      2935.395          40.500
G10  22276446.680   117063523.345 8      1576.981          49.000    22276446.040   117063523.350 7      1576.981          45.875    22276452.460    91218364.765 7      1228.817          46.187    22276452.420    91218362.755 7      1228.817          46.312
G08  21144602.540   111115641.711 7      3231.730          45.312    21144604.740   111115641.710 5      3231.730          31.937    21144612.480    86583639.030 5      2518.231          31.750    21144613.200    86583652.049 7      2518.231          46.062
R10  20331787.280   108379858.788 7      -578.967          46.250    20331786.600   108379858.796 7      -578.967          45.125
G26  23555003.640   123782366.950 6      -950.162          38.437    23555002.520   123782366.944 5      -950.162          35.312    23555021.800    96453851.412 5      -740.386          34.812    23555022.640    96453860.390 7      -740.386          45.312
G16  21166826.820   111232422.286 7       399.319          47.562    21166825.640   111232422.293 6       399.319          38.937    21166830.760    86674628.750 6       311.158          38.562
G02  22203701.300   116681236.814 7      3944.943          46.625    22203699.200   116681236.827 6      3944.943          36.312    22203704.840    90920459.884 6      3073.981          36.062
G21  20811678.860   109366112.919 8      3127.849          48.062    20811677.740   109366112.926 6      3127.849          38.562    20811681.760    85220361.033 6      2437.285          39.000
> 2024 05 08 12 47 17.0000000  0 11
G27  21156357.360   111177402.366 7      1600.758          47.750    21156357.020   111177402.369 7      1600.758          46.187    21156361.480    86631760.344 7      1247.344          46.250    21156362.520    86631766.341 7      1247.344          47.687
R21  20444976.900   109405206.646 6      2152.337          40.375    20444977.380   109405206.653 6      2152.337          40.312    20444988.940    85092975.555 6      1674.040          41.875    20444988.140    85092987.542 7      1674.040          42.687
R11  19947345.340   106592546.556 7      3685.993          42.312    19947343.420   106592546.527 6      3685.993          41.875    19947354.320    82905381.631 8      2866.883          49.375    19947353.720    82905366.630 8      2866.883          49.812
R05  23175085.040   123884121.772 7      3773.295          44.875    23175085.260   123884121.776 7      3773.295          44.562    23175100.660    96354383.629 6      2934.785          40.250    23175100.820    96354395.626 6      2934.785          40.500
G10  22276146.660   117061946.574 8      1576.263          49.187    22276145.920   117061946.579 7      1576.263          45.875    22276152.620    91217136.108 7      1228.257          45.750    22276152.740    91217134.104 7      1228.257          46.375
G08  21143987.660   111112410.045 7      3231.266          45.000    21143989.600   111112410.048 5      3231.266          31.937    21143997.560    86581120.853 5      2517.869          31.750    21143998.540    86581133.868 7      2517.869          45.687
R10  20331895.640   108380438.076 7      -579.802          46.000    20331895.500   108380438.084 7      -579.802          44.625
G26  23555184.260   123783317.139 6      -950.477          38.687    23555183.540   123783317.138 5      -950.477          35.312    23555202.580    96454591.803 5      -740.631          34.812    23555203.740    96454600.773 7      -740.631          45.312
G16  21166750.880   111232023.197 7       398.665          47.250    21166749.820   111232023.200 6       398.665          39.187    21166754.880    86674317.764 6       310.648          39.500
G02  22202950.600   116677292.001 7      3944.459          45.812    22202948.660   116677292.011 6      3944.459          36.562    22202954.280    90917386.000 6      3073.604          36.437
G21  20811083.980   109362985.240 7      3127.258          47.687    20811082.500   109362985.245 6      3127.258          38.875    20811086.560    85217923.881 6      2436.825          38.687
> 2024 05 08 12 47 18.0000000  0 11
G27  21156052.920   111175801.654 7      1600.508          47.875    21156052.500   111175801.656 7      1600.508          46.312    21156056.980    86630513.034 7      1247.149          46.312    21156058.000    86630519.035 7      1247.149          47.562
R21  20444574.780   109403054.422 6      2151.922          40.375    20444574.180   109403054.429 6      2151.922          40.000    20444586.620    85091301.601 6      1673.717          41.875    20444585.920    85091313.596 7      1673.717          42.625
R11  19946655.600   106588860.807 7      3685.277          42.312    19946653.480   106588860.785 6      3685.277          41.625    19946664.620    82902514.945 8      2866.327          50.000    19946664.180    82902499.946 8      2866.327          50.062
R05  23174379.180   123880348.631 7      3772.807          44.250    23174379.040   123880348.633 7      3772.807          44.375    23174394.560    96351448.953 6      2934.406          40.250    23174394.600    96351460.949 6      2934.406          39.562
G10  22275846.520   117060370.455 8      1575.778          48.375    22275846.180   117060370.460 7      1575.778          45.625    22275852.500    91215907.968 7      1227.879          46.125    22275852.860    91215905.961 7      1227.879          46.250
G08  21143372.360   111109178.540 7      3231.350          44.937    21143374.700   111109178.537 5      3231.350          31.937    21143382.560    86578602.795 5      2517.935          31.750    21143382.900    86578615.817 7      2517.935          45.625
R10  20332004.600   108381018.046 7      -580.329          45.687    20332004.060   108381018.055 7      -580.329          45.250
G26  23555365.660   123784267.572 6      -950.726          38.687    23555364.340   123784267.580 5      -950.726          35.437    23555383.300    96455332.382 5      -740.825          35.312    23555384.720    96455341.369 7      -740.825          45.125
G16  21166674.860   111231624.640 8       398.305          48.250    21166674.120   111231624.642 6       398.305          39.250    21166679.200    86674007.195 6       310.368          39.125
G02  22202199.860   116673347.653 7      3944.064          46.312    22202198.280   116673347.665 6      3944.064          37.000    22202203.640    90914312.482 6      3073.297          36.812
G21  20810488.980   109359858.126 7      3126.779          47.687    20810487.440   109359858.133 6      3126.779          38.625    20810491.540    85215487.171 6      2436.451          38.750
> 2024 05 08 12 47 19.0000000  0 11
G27  21155748.460   111174201.183 8      1600.327          48.375    21155747.900   111174201.185 7      1600.327          46.500    21155752.480    86629265.913 7      1247.008          46.562    21155753.520    86629271.914 7      1247.008          47.687
R21  20444172.620   109400902.562 6      2151.626          40.375    20444172.060   109400902.577 6      2151.626          40.000    20444184.640    85089627.947 6      1673.487          41.687    20444183.800    85089639.936 7      1673.487          42.437
R11  19945966.060   106585176.005 7      3684.402          42.250    19945964.140   106585175.988 6      3684.402          41.625    19945974.940    82899648.994 8      2865.646          49.875    19945974.420    82899633.992 8      2865.646          49.937
R05  23173673.700   123876576.188 7      3772.058          44.812    23173673.240   123876576.192 7      3772.058          44.437    23173687.580    96348514.850 6      2933.823          40.000    23173688.940    96348526.843 6      2933.823          39.562
G10  22275546.900   117058795.050 7      1575.022          47.937    22275546.440   117058795.058 7      1575.022          45.750    22275552.840    91214680.378 7      1227.290          46.125    22275553.300    91214678.371 7      1227.290          46.437
G08  21142757.700   111105947.271 7      3231.209          44.875    21142759.820   111105947.274 5      3231.209          31.437    21142767.560    86576084.927 5      2517.825          31.250    21142768.480    86576097.947 7      2517.825          45.312
R10  20332113.840   108381598.761 7      -581.020          45.812    20332112.740   108381598.769 7      -581.020          44.875
G26  23555546.640   123785218.316 6      -950.797          38.687    23555545.180   123785218.318 5      -950.797          35.187    23555564.240    96456073.195 5      -740.881          35.187    23555565.340    96456082.159 7      -740.881          45.312
G16  21166599.240   111231226.655 8       397.739          48.812    21166598.360   111231226.657 6       397.739          39.812    21166603.300    86673697.075 6       309.926          39.812
G02  22201449.180   116669403.767 7      3943.690          45.625    22201447.640   116669403.777 6      3943.690          36.437    22201453.180    90911239.328 6      3073.005          36.812
G21  20809894.020   109356731.561 7      3126.393          47.687    20809892.460   109356731.566 6      3126.393          39.250    20809896.460    85213050.888 6      2436.151          39.125
> 2024 05 08 12 47 20.0000000  0 11
G27  21155443.880   111172600.972 7      1600.055          47.687    21155443.420   111172600.972 7      1600.055          46.500    21155447.960    86628018.994 7      1246.796          46.687    21155448.960    86628024.995 7      1246.796          47.937
R21  20443769.980   109398751.053 6      2151.233          40.375    20443769.440   109398751.065 6      2151.233          40.000    20443783.080    85087954.542 7      1673.181          42.000    20443781.660    85087966.537 7      1673.181          42.437
R11  19945277.000   106581492.154 7      3683.374          42.250    19945274.860   106581492.131 6      3683.374          41.125    19945285.600    82896783.787 8      2864.846          49.687    19945285.220    82896768.787 8      2864.846          50.000
R05  23172968.260   123872804.435 7      3771.313          43.625    23172967.620   123872804.433 7      3771.313          44.062    23172983.140    96345581.253 6      2933.243          40.000    23172983.500    96345593.248 6      2933.243          38.937
G10  22275247.140   117057220.311 8      1574.295          48.312    22275246.720   117057220.318 7      1574.295          45.937    22275253.140    91213453.308 7      1226.723          46.125    22275253.400    91213451.302 7      1226.723          46.562
G08  21142142.540   111102716.242 7      3230.889          45.062    21142144.860   111102716.241 5      3230.889          31.437    21142152.600    86573567.240 5      2517.576          31.250    21142152.920    86573580.255 7      2517.576          45.437
R10  20332222.760   108382180.186 7      -581.840          45.812    20332221.860   108382180.195 7      -581.840          44.812
G26  23555727.800   123786169.288 6      -950.982          38.437    23555726.100   123786169.290 5      -950.982          35.187    23555745.320    96456814.186 5      -741.025          34.812    23555746.400    96456823.158 7      -741.025          45.125
G16  21166523.440   111230829.222 8       397.094          48.125    21166522.680   111230829.224 6       397.094          39.187    21166527.660    86673387.377 6       309.424          39.375
G02  22200698.800   116665460.375 7      3943.056          46.000    22200697.060   116665460.385 6      3943.056          36.687    22200702.620    90908166.555 6      3072.511          36.125
G21  20809299.120   109353605.585 7      3125.681          47.562    20809297.780   109353605.590 6      3125.681          38.250    20809301.680    85210615.067 6      2435.596          39.125
> 2024 05 08 12 47 21.0000000  0 11
G27  21155139.380   111171001.113 7      1599.636          47.812    21155138.840   111171001.113 7      1599.636          46.750    21155143.540    86626772.351 7      1246.469          46.750    21155144.460    86626778.354 7      1246.469          47.875
R21  20443368.660   109396599.998 6      2150.773          40.375    20443367.720   109396600.010 6      2150.773          39.687    20443380.700    85086281.493 7      1672.823          42.375    20443379.540    85086293.482 7      1672.823          42.437
R11  19944587.440   106577809.332 7      3682.336          42.187    19944585.180   106577809.309 6      3682.336          41.125    19944596.620    82893919.359 8      2864.039          49.937    19944595.880    82893904.357 8      2864.039          50.000
R05  23172262.460   123869033.456 7      3770.543          45.062    23172262.640   123869033.460 7      3770.543          44.625    23172277.160    96342648.272 6      2932.645          39.750    23172278.060    96342660.261 6      2932.645          38.937
G10  22274947.640   117055646.325 8      1573.629          48.875    22274947.140   117055646.327 7      1573.629          45.500    22274953.460    91212226.817 7      1226.204          46.250    22274953.700    91212224.803 7      1226.204          46.937
G08  21141527.760   111099485.504 7      3230.576          44.375    21141530.020   111099485.503 5      3230.576          31.437    21141537.640    86571049.781 5      2517.332          31.250    21141538.300    86571062.801 7      2517.332          45.187
R10  20332332.080   108382762.433 7      -582.683          45.500    20332330.760   108382762.450 7      -582.683          44.375
G26  23555908.840   123787120.697 6      -951.646          38.437    23555907.020   123787120.691 5      -951.646          35.062    23555926.340    96457555.516 5      -741.542          34.812    23555927.280    96457564.484 7      -741.542          45.125
G16  21166448.140   111230432.422 8       396.424          48.937    21166447.240   111230432.424 6       396.424          39.625    21166452.200    86673078.176 6       308.902          39.375
G02  22199948.440   116661517.509 7      3942.570          46.187    22199946.920   116661517.519 6      3942.570          36.687    22199952.460    90905094.192 6      3072.133          36.312
G21  20808704.500   109350480.273 7      3124.964          47.812    20808703.080   109350480.273 6      3124.964          39.375    20808707.120    85208179.759 6      2435.037          38.937
> 2024 05 08 12 47 22.0000000  0 11
G27  21154834.880   111169401.630 7      1599.357          47.875    21154834.380   111169401.630 7      1599.357          46.750    21154839.300    86625525.996 7      1246.253          46.812    21154840.260    86625531.997 8      1246.253          48.000
R21  20442966.420   109394449.395 6      2150.316          39.562    20442965.040   109394449.405 6      2150.316          39.687    20442978.640    85084608.804 7      1672.468          42.187    20442977.600    85084620.802 7      1672.468          42.437
R11  19943898.680   106574127.573 7      3681.252          42.187    19943895.660   106574127.563 6      3681.252          40.687    19943907.600    82891055.773 8      2863.196          49.875    19943906.840    82891040.769 8      2863.196          50.000
R05  23171557.160   123865263.269 7      3769.747          44.875    23171556.980   123865263.276 7      3769.747          44.375    23171572.980    96339715.912 6      2932.025          39.750    23171572.420    96339727.906 6      2932.025          39.625
G10  22274648.280   117054073.130 8      1572.870          49.562    22274647.840   117054073.138 7      1572.870          46.125    22274653.840    91211000.953 7      1225.613          46.125    22274654.580    91210998.943 7      1225.613          46.000
G08  21140913.260   111096255.115 7      3230.284          44.312    21140915.160   111096255.117 5      3230.284          30.937    21140922.860    86568532.600 5      2517.105          30.937    21140923.600    86568545.611 7      2517.105          45.375
R10  20332441.240   108383345.538 7      -583.503          45.062    20332440.420   108383345.541 7      -583.503          44.625
G26  23556089.520   123788072.436 6      -951.907          38.062    23556088.040   123788072.428 5      -951.907          34.500    23556107.640    96458297.107 5      -741.746          34.187    23556108.540    96458306.085 7      -741.746          45.125
G16  21166372.600   111230036.289 8       395.799          48.687    21166371.960   111230036.294 6       395.799          39.187    21166376.840    86672769.495 6       308.414          39.312
G02  22199198.240   116657575.234 7      3942.016          45.937    22199196.640   116657575.239 6      3942.016          36.875    22199202.300    90902022.293 6      3071.701          36.687
G21  20808109.760   109347355.648 7      3124.262          47.250    20808108.360   109347355.650 6      3124.262          38.875    20808112.480    85205744.986 6      2434.490          38.937
> 2024 05 08 12 47 23.0000000  0 11
G27  21154530.620   111167802.349 7      1599.218          47.750    21154530.080   111167802.354 7      1599.218          46.875    21154535.000    86624279.801 7      1246.144          46.812    21154536.000    86624285.804 8      1246.144          48.312
R21  20442565.180   109392299.165 6      2150.109          39.562    20442563.100   109392299.169 6      2150.109          39.687    20442577.140    85082936.396 7      1672.307          42.750    20442576.020    85082948.385 7      1672.307          42.687
R11  19943209.340   106570446.703 6      3680.361          41.625    19943206.840   106570446.681 6      3680.361          40.687    19943218.520    82888192.870 8      2862.503          49.687    19943217.900    82888177.869 8      2862.503          49.812
R05  23170852.340   123861493.731 7      3769.268          45.187    23170852.100   123861493.735 7      3769.268          44.687    23170867.500    96336784.052 6      2931.653          40.187    23170867.600    96336796.041 6      2931.653          39.625
G10  22274349.180   117052500.582 8      1572.234          48.437    22274348.360   117052500.590 7      1572.234          45.125    22274354.640    91209775.595 7      1225.117          45.687    22274355.200    91209773.589 7      1225.117          46.187
G08  21140298.620   111093024.903 7      3230.124          44.062    21140300.300   111093024.900 5      3230.124          30.937    21140308.160    86566015.551 5      2516.980          30.937    21140308.740    86566028.558 7      2516.980          45.375
R10  20332550.820   108383929.323 7      -584.219          45.312    20332549.880   108383929.336 7      -584.219          44.687
G26  23556270.540   123789024.423 6      -952.030          38.125    23556269.080   123789024.414 5      -952.030          34.500    23556288.760    96459038.896 5      -741.842          34.187    23556289.400    96459047.880 7      -741.842          44.937
G16  21166297.500   111229640.661 8       395.388          48.187    21166296.620   111229640.666 6       395.388          39.500    21166301.440    86672461.209 6       308.094          39.187
G02  22198448.060   116653633.384 7      3941.635          45.687    22198446.540   116653633.387 6      3941.635          36.937    22198452.340    90898950.720 6      3071.404          36.500
G21  20807515.260   109344231.513 8      3123.866          48.000    20807513.800   109344231.513 6      3123.866          39.062    20807517.940    85203310.598 6      2434.181          38.625
> 2024 05 08 12 47 24.0000000  0 11
G27  21154226.140   111166203.224 8      1598.854          48.375    21154225.760   111166203.223 7      1598.854          46.687    21154230.740    86623033.723 7      1245.861          46.625    21154231.940    86623039.726 8      1245.861          48.000
R21  20442162.980   109390149.167 6      2149.601          39.562    20442160.420   109390149.179 6      2149.601          39.687    20442174.960    85081264.180 7      1671.912          42.750    20442174.120    85081276.171 7      1671.912          42.500
R11  19942520.940   106566766.638 6      3679.386          41.625    19942518.140   106566766.621 6      3679.386          40.937    19942530.040    82885330.601 8      2861.744          49.500    19942529.220    82885315.604 8      2861.744          49.500
R05  23170147.240   123857724.750 7      3768.434          45.812    23170147.240   123857724.743 7      3768.434          45.312    23170161.780    96333852.636 6      2931.004          40.187    23170162.360    96333864.631 6      2931.004          40.375
G10  22274050.020   117050928.578 8      1571.539          48.187    22274049.300   117050928.583 7      1571.539          45.562    22274055.440    91208550.655 7      1224.576          45.812    22274056.120    91208548.648 7      1224.576          45.812
G08  21139683.820   111089794.764 7      3229.986          44.062    21139685.460   111089794.758 5      3229.986          30.937    21139693.500    86563498.555 5      2516.872          30.937    21139693.880    86563511.569 7      2516.872          45.312
R10  20332660.360   108384513.672 7      -584.837          45.437    20332659.480   108384513.689 7      -584.837          44.750
G26  23556451.220   123789976.564 6      -952.495          38.125    23556450.300   123789976.558 5      -952.495          34.687    23556469.940    96459780.802 5      -742.204          34.375    23556471.180    96459789.790 7      -742.204          44.750
G16  21166222.380   111229245.480 8       394.633          48.812    21166221.400   111229245.488 6       394.633          40.125    21166226.500    86672153.274 6       307.506          39.875
G02  22197698.080   116649691.874 7      3941.137          45.000    22197696.660   116649691.874 6      3941.137          37.125    22197702.280    90895879.416 6      3071.016          36.937
G21  20806920.880   109341107.826 7      3123.246          47.187    20806919.300   109341107.831 6      3123.246          39.125    20806923.540    85200876.559 6      2433.698          39.000
> 2024 05 08 12 47 25.0000000  0 11
G27  21153921.920   111164604.471 7      1598.562          47.875    21153921.460   111164604.473 7      1598.562          47.562    21153926.540    86621787.938 7      1245.633          47.375    21153927.440    86621793.939 7      1245.633          47.937
R21  20441761.860   109387999.656 6      2149.269          39.250    20441759.260   109387999.655 6      2149.269          39.000    20441773.000    85079592.323 7      1671.653          42.500    20441772.400    85079604.317 7      1671.653          42.625
R11  19941832.440   106563087.642 6      3678.481          40.625    19941829.380   106563087.611 6      3678.481          40.937    19941841.240    82882469.147 8      2861.041          49.875    19941840.860    82882454.148 8      2861.041          50.125
R05  23169442.400   123853956.543 7      3767.777          45.687    23169442.000   123853956.536 7      3767.777          44.812    23169457.180    96330921.825 6      2930.493          40.562    23169457.700    96330933.816 6      2930.493          40.375
G10  22273751.000   117049357.377 7      1570.781          47.625    22273750.280   117049357.385 7      1570.781          45.625    22273756.460    91207326.345 7      1223.985          45.812    22273757.000    91207324.338 7      1223.985          46.125
G08  21139069.100   111086564.998 7      3229.616          43.812    21139070.960   111086564.997 5      3229.616          30.812    21139078.800    86560981.853 5      2516.584          30.937    21139079.420    86560994.860 7      2516.584          45.375
R10  20332770.040   108385098.891 7      -585.614          45.000    20332769.400   108385098.910 7      -585.614          44.437
G26  23556632.840   123790929.087 6      -952.704          38.875    23556631.700   123790929.084 5      -952.704          34.687    23556651.360    96460523.011 5      -742.366          34.562    23556652.380    96460531.991 7      -742.366          44.937
G16  21166147.220   111228850.966 8       394.135          48.187    21166146.380   111228850.968 6       394.135          39.562    21166151.380    86671845.852 6       307.118          39.750
G02  22196948.080   116645750.942 7      3940.646          45.500    22196946.580   116645750.949 6      3940.646          36.812    22196952.360    90892808.561 6      3070.634          36.750
G21  20806326.740   109337984.826 7      3122.651          47.687    20806325.200   109337984.829 6      3122.651          39.250    20806329.280    85198443.051 6      2433.235          39.187
> 2024 05 08 12 47 26.0000000  0 11
G27  21153617.800   111163005.992 8      1598.426          48.125    21153617.140   111163005.989 7      1598.426          46.812    21153622.320    86620542.365 7      1245.527          46.812    21153623.300    86620548.369 8      1245.527          48.250
R21  20441360.700   109385850.522 6      2148.849          39.250    20441357.900   109385850.524 6      2148.849          39.000    20441371.720    85077920.760 7      1671.327          42.750    20441370.920    85077932.758 7      1671.327          42.687
R11  19941144.000   106559409.632 6      3677.609          40.625    19941141.240   106559409.603 6      3677.609          40.937    19941153.300    82879608.468 8      2860.363          49.812    19941152.560    82879593.467 8      2860.363          49.687
R05  23168737.620   123850189.058 7      3767.147          45.437    23168737.780   123850189.059 7      3767.147          45.062    23168752.020    96327991.569 6      2930.003          40.812    23168753.220    96328003.563 6      2930.003          40.375
G10  22273451.880   117047786.870 8      1570.204          48.812    22273451.500   117047786.875 7      1570.204          45.750    22273457.660    91206102.575 7      1223.536          46.000    22273458.160    91206100.569 7      1223.536          46.250
G08  21138454.340   111083335.458 7      3229.550          44.687    21138456.480   111083335.455 5      3229.550          30.812    21138464.280    86558465.320 5      2516.532          30.750    21138464.900    86558478.332 7      2516.532          45.750
R10  20332879.880   108385684.845 7      -586.282          45.437    20332879.320   108385684.856 7      -586.282          44.937
G26  23556814.700   123791881.930 6      -952.974          38.375    23556812.980   123791881.927 5      -952.974          34.875    23556832.760    96461265.465 5      -742.577          34.562    23556833.820    96461274.448 7      -742.577          45.312
G16  21166072.440   111228457.025 8       393.661          48.500    21166071.540   111228457.027 6       393.661          39.625    21166076.460    86671538.881 6       306.749          39.562
G02  22196198.460   116641810.508 7      3940.252          45.750    22196196.680   116641810.516 6      3940.252          37.062    22196202.500    90889738.096 6      3070.326          36.812
G21  20805732.360   109334862.405 7      3122.211          47.375    20805730.800   109334862.405 6      3122.211          38.500    20805735.280    85196009.990 6      2432.892          38.687
> 2024 05 08 12 47 27.0000000  0 11
G27  21153313.780   111161407.620 8      1598.202          48.312    21153312.940   111161407.620 7      1598.202          46.562    21153318.220    86619296.875 7      1245.352          46.437    21153319.020    86619302.880 8      1245.352          48.250
R21  20440959.280   109383701.519 6      2148.797          39.250    20440955.720   109383701.537 6      2148.797          39.000    20440970.240    85076249.333 7      1671.286          42.750    20440969.460    85076261.328 7      1671.286          42.687
R11  19940456.060   106555732.372 6      3676.716          40.625    19940452.640   106555732.352 6      3676.716          40.437    19940464.920    82876748.386 8      2859.668          49.250    19940464.440    82876733.389 8      2859.668          49.625
R05  23168033.040   123846422.105 7      3766.591          44.937    23168033.100   123846422.092 7      3766.591          44.687    23168047.900    96325061.709 6      2929.571          40.812    23168048.860    96325073.702 6      2929.571          40.937
G10  22273153.220   117046216.871 8      1569.677          49.062    22273152.620   117046216.878 7      1569.677          45.312    22273159.160    91204879.195 7      1223.125          45.500    22273159.520    91204877.193 7      1223.125          46.187
G08  21137839.880   111080105.989 7      3229.351          44.687    21137841.960   111080105.986 5      3229.351          30.812    21137849.440    86555948.851 5      2516.378          30.750    21137850.020    86555961.868 7      2516.378          45.375
R10  20332989.980   108386271.343 7      -586.903          45.750    20332989.320   108386271.348 7      -586.903          45.000
G26  23556996.100   123792834.857 6      -952.941          37.875    23556994.560   123792834.851 5      -952.941          35.187    23557013.960    96462007.979 5      -742.552          34.812    23557015.120    96462016.972 7      -742.552          45.250
G16  21165997.460   111228063.468 7       393.300          47.875    21165996.620   111228063.470 6       393.300          39.750    21166001.400    86671232.211 6       306.468          39.750
G02  22195448.720   116637870.383 7      3939.943          46.062    22195446.980   116637870.393 6      3939.943          37.187    22195452.700    90886667.866 6      3070.086          36.687
G21  20805138.220   109331740.386 7      3121.714          47.312    20805136.560   109331740.386 6      3121.714          38.312    20805140.960    85193577.247 6      2432.504          38.750
> 2024 05 08 12 47 28.0000000  0 11
G27  21153009.760   111159809.598 7      1597.719          46.937    21153008.760   111159809.603 7      1597.719          46.500    21153014.120    86618051.667 7      1244.976          46.187    21153014.740    86618057.668 8      1244.976          48.375
R21  20440557.300   109381553.114 6      2147.966          39.250    20440554.860   109381553.110 6      2147.966          39.125    20440568.900    85074578.330 7      1670.640          42.875    20440568.060    85074590.321 7      1670.640          43.375
R11  19939768.640   106552056.155 6      3675.595          40.187    19939764.500   106552056.142 6      3675.595          40.437    19939777.160    82873889.120 8      2858.796          49.687    19939776.840    82873874.123 8      2858.796          50.125
R05  23167328.500   123842655.942 7      3765.636          44.625    23167328.520   123842655.938 7      3765.636          45.000    23167342.720    96322132.496 6      2928.828          41.312    23167344.280    96322144.494 6      2928.828          41.187
G10  22272854.500   117044647.691 7      1568.680          47.500    22272854.060   117044647.691 7      1568.680          45.250    22272860.480    91203656.455 7      1222.348          45.250    22272860.960    91203654.443 7      1222.348          46.250
G08  21137225.520   111076876.849 7      3228.919          45.062    21137227.280   111076876.846 5      3228.919          30.812    21137234.880    86553432.637 5      2516.041          30.750    21137235.660    86553445.655 7      2516.041          45.125
R10  20333100.420   108386858.677 7      -587.937          45.250    20333099.280   108386858.678 7      -587.937          44.750
G26  23557177.420   123793788.215 6      -953.707          37.875    23557176.220   123793788.217 5      -953.707          35.187    23557195.580    96462750.839 5      -743.148          34.937    23557196.620    96462759.828 7      -743.148          44.687
G16  21165923.000   111227670.596 8       392.417          48.312    21165921.940   111227670.598 6       392.417          39.687    21165926.900    86670926.069 6       305.779          39.437
G02  22194699.180   116633930.843 7      3939.106          45.375    22194697.240   116633930.853 6      3939.106          37.062    22194703.200    90883598.095 6      3069.433          36.875
G21  20804544.260   109328619.040 7      3120.882          47.625    20804542.720   109328619.042 6      3120.882          38.875    20804546.960    85191145.031 6      2431.856          38.937
> 2024 05 08 12 47 29.0000000  0 11
G27  21152705.660   111158211.907 7      1597.472          47.187    21152704.800   111158211.912 7      1597.472          46.750    21152710.140    86616806.711 7      1244.783          46.750    21152711.040    86616812.714 8      1244.783          48.312
R21  20440155.800   109379405.096 6      2147.649          38.875    20440152.960   109379405.105 6      2147.649          39.125    20440167.620    85072907.657 7      1670.394          43.250    20440166.420    85072919.650 7      1670.394          43.187
R11  19939080.700   106548380.974 6      3674.490          40.187    19939076.980   106548380.951 6      3674.490          39.687    19939089.280    82871030.625 8      2857.937          49.312    19939088.760    82871015.626 8      2857.937          49.500
R05  23166624.040   123838890.553 7      3764.873          45.750    23166624.560   123838890.554 7      3764.873          44.437    23166638.200    96319203.868 6      2928.235          40.937    23166639.720    96319215.860 6      2928.235          41.187
G10  22272556.060   117043079.226 7      1568.003          47.437    22272555.480   117043079.228 7      1568.003          45.562    22272562.140    91202434.272 7      1221.821          45.750    22272562.520    91202432.262 7      1221.821          46.500
G08  21136611.040   111073647.979 7      3228.672          44.812    21136612.960   111073647.978 5      3228.672          30.687    21136620.520    86550916.637 5      2515.848          30.750    21136621.280    86550929.657 7      2515.848          45.187
R10  20333210.760   108387446.769 7      -588.608          45.500    20333209.640   108387446.778 7      -588.608          44.625
G26  23557358.720   123794741.864 6      -953.860          38.312    23557357.740   123794741.875 5      -953.860          35.437    23557377.260    96463493.927 5      -743.267          35.250    23557377.880    96463502.917 7      -743.267          45.125
G16  21165848.320   111227278.326 8       391.851          48.062    21165847.260   111227278.328 6       391.851          40.125    21165852.240    86670620.402 6       305.338          40.312
G02  22193949.260   116629991.818 7      3938.669          45.687    22193947.740   116629991.823 6      3938.669          36.750    22193953.480    90880528.727 6      3069.093          36.500
G21  20803950.460   109325498.321 8      3120.284          48.312    20803948.780   109325498.321 6      3120.284          38.937    20803953.280    85188713.303 6      2431.390          39.125
> 2024 05 08 12 47 30.0000000  0 11
G27  21152401.840   111156614.463 7      1597.368          47.562    21152400.700   111156614.465 7      1597.368          47.125    21152406.300    86615561.941 7      1244.702          46.937    21152406.940    86615567.940 8      1244.702          48.562
R21  20439754.440   109377257.455 6      2147.287          38.875    20439751.440   109377257.472 6      2147.287          39.125    20439766.220    85071237.268 7      1670.112          43.312    20439765.100    85071249.261 7      1670.112          43.062
R11  19938392.500   106544706.690 6      3673.727          40.187    19938389.260   106544706.668 6      3673.727          39.687    19938401.520    82868172.847 8      2857.343          49.562    19938401.340    82868157.846 8      2857.343          49.750
R05  23165919.780   123835125.837 7      3764.340          45.687    23165920.780   123835125.833 7      3764.340          44.625    23165933.940    96316275.768 6      2927.820          40.937    23165935.660    96316287.766 6      2927.820          41.312
G10  22272257.900   117041511.420 7      1567.478          47.437    22272257.020   117041511.425 7      1567.478          45.312    22272263.720    91201212.610 7      1221.411          45.625    22272264.040    91201210.603 7      1221.411          46.187
G08  21135996.900   111070419.345 7      3228.549          44.500    21135998.540   111070419.342 5      3228.549          30.687    21136006.100    86548400.819 5      2515.753          30.562    21136007.180    86548413.824 7      2515.753          45.125
R10  20333321.020   108388035.572 7      -589.095          45.000    20333320.120   108388035.573 7      -589.095          44.750
G26  23557540.060   123795695.800 6      -954.068          38.062    23557539.420   123795695.811 6      -954.068          36.000    23557558.740    96464237.239 5      -743.430          35.250    23557559.380    96464246.232 7      -743.430          44.875
G16  21165773.680   111226886.595 7       391.440          47.562    21165772.820   111226886.594 6       391.440          39.875    21165777.660    86670315.151 6       305.018          39.875
G02  22193199.840   116626053.240 7      3938.389          44.875    22193198.360   116626053.247 6      3938.389          36.312    22193204.140    90877459.705 6      3068.875          36.187
G21  20803356.840   109322378.141 7      3119.861          47.687    20803355.020   109322378.143 6      3119.861          38.875    20803359.520    85186281.998 6      2431.060          38.437
> 2024 05 08 12 47 31.0000000  0 11
G27  21152097.800   111155017.242 8      1597.108          48.375    21152096.840   111155017.247 7      1597.108          46.625    21152102.320    86614317.358 7      1244.499          46.750    21152102.960    86614323.359 8      1244.499          48.125
R21  20439353.280   109375110.111 6      2147.002          38.875    20439350.560   109375110.107 6      2147.002          39.125    20439365.520    85069567.101 7      1669.890          43.375    20439364.200    85069579.095 7      1669.890          43.750
R11  19937705.800   106541033.326 6      3672.884          39.750    19937701.940   106541033.309 6      3672.884          39.687    19937714.220    82865315.784 8      2856.688          49.562    19937713.900    82865300.785 8      2856.688          49.437
R05  23165215.660   123831361.805 7      3763.633          45.250    23165216.380   123831361.801 7      3763.633          45.000    23165230.060    96313348.184 6      2927.270          40.812    23165231.620    96313360.177 6      2927.270          41.250
G10  22271959.640   117039944.274 7      1566.778          47.937    22271958.760   117039944.279 7      1566.778          45.750    22271965.500    91199991.453 7      1220.866          45.250    22271965.920    91199989.442 7      1220.866          46.437
G08  21135382.320   111067190.891 7      3228.265          44.625    21135384.120   111067190.885 5      3228.265          30.687    21135391.680    86545885.142 5      2515.531          30.562    21135392.840    86545898.155 7      2515.531          45.187
R10  20333431.720   108388625.085 7      -589.920          45.187    20333430.780   108388625.090 7      -589.920          44.750
G26  23557721.640   123796650.005 6      -954.356          39.062    23557720.880   123796650.007 5      -954.356          35.500    23557740.320    96464980.748 5      -743.654          35.187    23557741.320    96464989.734 7      -743.654          44.875
G16  21165699.340   111226495.386 8       390.938          49.125    21165698.480   111226495.388 6       390.938          39.750    21165703.140    86670010.309 6       304.627          40.062
G02  22192450.620   116622115.116 7      3937.847          45.312    22192448.920   116622115.124 6      3937.847          36.687    22192454.600    90874391.039 6      3068.452          36.187
G21  20802763.060   109319258.497 7      3119.344          47.937    20802761.400   109319258.497 6      3119.344          38.312    20802765.880    85183851.106 6      2430.658          38.437
> 2024 05 08 12 47 32.0000000  0 11
G27  21151793.740   111153420.347 7      1596.747          47.937    21151792.860   111153420.352 7      1596.747          46.750    21151798.560    86613073.018 7      1244.219          46.625    21151799.360    86613079.015 8      1244.219          48.250
R21  20438951.600   109372963.166 6      2146.728          38.875    20438948.660   109372963.152 6      2146.728          38.687    20438964.240    85067897.243 7      1669.677          43.562    20438962.980    85067909.230 7      1669.677          43.875
R11  19937018.460   106537360.930 6      3671.884          39.750    19937014.660   106537360.909 6      3671.884          39.750    19937026.860    82862459.476 8      2855.910          48.500    19937026.440    82862444.477 8      2855.910          49.750
R05  23164511.580   123827598.519 7      3762.902          44.687    23164512.560   123827598.504 7      3762.902          44.500    23164526.300    96310421.183 6      2926.702          41.062    23164527.320    96310433.177 6      2926.702          41.562
G10  22271661.580   117038377.842 8      1566.127          48.062    22271660.460   117038377.853 7      1566.127          45.375    22271667.540    91198770.861 7      1220.359          45.562    22271667.880    91198768.853 7      1220.359          46.500
G08  21134768.020   111063962.704 7      3228.026          44.562    21134769.940   111063962.698 5      3228.026          30.187    21134777.300    86543369.672 5      2515.345          30.562    21134778.540    86543382.683 7      2515.345          44.937
R10  20333542.780   108389215.351 7      -590.699          45.500    20333541.140   108389215.354 7      -590.699          44.937
G26  23557903.260   123797604.521 6      -954.810          39.000    23557902.640   123797604.521 5      -954.810          35.500    23557922.100    96465724.505 5      -744.008          35.062    23557922.780    96465733.487 7      -744.008          44.687
G16  21165624.760   111226104.790 8       390.348          48.437    21165624.220   111226104.789 6       390.348          40.062    21165628.920    86669705.940 6       304.168          39.750
G02  22191701.000   116618177.492 7      3937.406          45.875    22191699.560   116618177.502 6      3937.406          36.687    22191705.220    90871322.760 6      3068.108          36.687
G21  20802169.640   109316139.460 7      3118.741          46.562    20802167.940   109316139.462 6      3118.741          38.500    20802172.520    85181420.694 6      2430.188          38.375
> 2024 05 08 12 47 33.0000000  0 11
G27  21151489.800   111151823.439 8      1596.848          48.062    21151489.000   111151823.439 7      1596.848          47.187    21151494.680    86611828.668 7      1244.297          46.812    21151495.540    86611834.663 8      1244.297          48.187
R21  20438551.080   109370816.301 6      2146.689          38.000    20438547.500   109370816.292 6      2146.689          38.687    20438562.940    85066227.461 7      1669.647          43.937    20438562.060    85066239.450 7      1669.647          44.312
R11  19936331.500   106533689.182 6      3671.444          39.812    19936327.800   106533689.167 6      3671.444          39.750    19936339.700    82859603.678 8      2855.567          49.187    19936339.380    82859588.683 8      2855.567          50.000
R05  23163807.740   123823835.591 7      3762.804          45.562    23163809.060   123823835.584 7      3762.804          44.687    23163822.400    96307494.474 6      2926.625          41.062    23163823.460    96307506.467 6      2926.625          41.562
G10  22271363.720   117036811.821 7      1565.820          47.687    22271362.540   117036811.828 7      1565.820          44.875    22271369.400    91197550.584 7      1220.120          45.187    22271369.720    91197548.576 7      1220.120          46.375
G08  21134153.740   111060734.457 7      3228.260          44.000    21134155.540   111060734.446 5      3228.260          30.187    21134162.960    86540854.150 5      2515.527          30.250    21134163.920    86540867.162 7      2515.527          44.937
R10  20333653.100   108389806.041 7      -590.941          44.812    20333652.280   108389806.047 7      -590.941          44.250
G26  23558085.060   123798558.975 6      -954.338          39.000    23558084.140   123798558.985 5      -954.338          35.625    23558103.980    96466468.217 5      -743.640          35.062    23558104.840    96466477.209 7      -743.640          44.937
G16  21165550.580   111225714.472 8       390.195          48.125    21165549.820   111225714.474 6       390.195          40.312    21165554.740    86669401.792 6       304.048          39.812
G02  22190951.900   116614240.067 7      3937.317          44.937    22190950.480   116614240.077 6      3937.317          36.937    22190955.880    90868254.637 6      3068.040          36.875
G21  20801576.020   109313020.720 7      3118.649          47.875    20801574.420   109313020.722 6      3118.649          39.125    20801579.120    85178990.503 6      2430.116          39.312
> 2024 05 08 12 47 34.0000000  0 11
G27  21151186.200   111150226.799 7      1596.757          47.812    21151185.120   111150226.801 7      1596.757          47.250    21151190.760    86610584.539 7      1244.226          47.250    21151191.500    86610590.540 8      1244.226          48.312
R21  20438149.700   109368669.857 6      2146.386          38.000    20438146.220   109368669.850 6      2146.386          38.687    20438162.280    85064558.010 7      1669.411          44.250    20438161.040    85064570.004 7      1669.411          44.187
R11  19935644.900   106530018.415 6      3670.559          39.812    19935640.820   106530018.416 6      3670.559          39.750    19935652.820    82856748.650 8      2854.879          48.625    19935652.460    82856733.653 8      2854.879          49.687
R05  23163103.720   123820073.419 7      3762.142          45.875    23163104.960   123820073.412 7      3762.142          44.812    23163118.860    96304568.337 6      2926.110          41.562    23163119.840    96304580.326 6      2926.110          41.750
G10  22271065.800   117035246.519 7      1565.164          47.812    22271064.680   117035246.521 7      1565.164          45.187    22271071.380    91196330.863 7      1219.608          45.500    22271071.540    91196328.854 7      1219.608          46.125
G08  21133539.580   111057506.457 7      3228.178          43.437    21133541.300   111057506.449 5      3228.178          30.187    21133548.800    86538338.826 5      2515.464          30.250    21133549.380    86538351.845 7      2515.464          44.625
R10  20333763.860   108390397.494 7      -591.522          45.562    20333763.760   108390397.497 7      -591.522          44.562
G26  23558267.380   123799513.823 6      -954.694          39.250    23558266.000   123799513.830 5      -954.694          35.437    23558285.700    96467212.231 5      -743.918          35.250    23558285.960    96467221.218 7      -743.918          44.812
G16  21165476.560   111225324.748 8       389.630          48.625    21165475.640   111225324.750 6       389.630          40.500    21165480.600    86669098.107 6       303.608          40.187
G02  22190202.760   116610303.150 7      3936.896          46.312    22190201.240   116610303.160 6      3936.896          36.875    22190206.800    90865186.911 6      3067.711          36.750
G21  20800982.600   109309902.587 8      3118.084          48.312    20800981.120   109309902.584 6      3118.084          38.500    20800985.680    85176560.789 6      2429.676          38.812
> 2024 05 08 12 47 35.0000000  0 11
G27  21150882.180   111148630.367 7      1596.247          47.625    21150881.300   111148630.369 7      1596.247          46.562    21150887.120    86609340.557 7      1243.829          47.062    21150887.480    86609346.556 8      1243.829          48.437
R21  20437748.740   109366523.720 6      2145.942          38.000    20437745.320   109366523.724 6      2145.942          38.687    20437761.200    85062888.797 7      1669.066          44.500    20437760.260    85062900.786 7      1669.066          44.375
R11  19934957.620   106526348.564 6      3669.130          39.812    19934954.600   106526348.563 6      3669.130          39.625    19934966.060    82853894.315 8      2853.768          48.875    19934965.800    82853879.312 8      2853.768          49.437
R05  23162400.360   123816311.849 7      3761.209          45.937    23162401.720   123816311.848 7      3761.209          45.187    23162415.160    96301642.690 7      2925.385          42.000    23162415.880    96301654.681 7      2925.385          42.000
G10  22270768.140   117033681.814 7      1564.375          47.500    22270766.840   117033681.814 7      1564.375          45.625    22270773.820    91195111.608 7      1218.993          45.437    22270774.060    91195109.599 7      1218.993          46.187
G08  21132925.640   111054278.635 7      3227.668          44.437    21132927.080   111054278.630 5      3227.668          30.187    21132934.480    86535823.640 5      2515.066          30.250    21132935.640    86535836.652 7      2515.066          44.750
R10  20333875.120   108390989.629 7      -592.635          45.375    20333874.620   108390989.632 7      -592.635          44.500
G26  23558448.620   123800468.852 6      -955.175          39.062    23558447.640   123800468.852 5      -955.175          35.437    23558467.480    96467956.385 5      -744.292          35.000    23558467.840    96467965.374 7      -744.292          44.750
G16  21165402.440   111224935.479 8       389.032          49.187    21165401.680   111224935.484 6       389.032          40.500    21165406.580    86668794.776 6       303.141          40.187
G02  22189453.740   116606366.629 7      3936.225          45.812    22189452.280   116606366.634 6      3936.225          37.000    22189457.680    90862119.491 6      3067.188          36.812
G21  20800389.360   109306784.940 8      3117.317          48.062    20800387.800   109306784.940 6      3117.317          38.812    20800392.440    85174131.456 6      2429.078          38.750
> 2024 05 08 12 47 36.0000000  0 11
G27  21150578.340   111147034.268 7      1595.915          46.937    21150577.520   111147034.268 7      1595.915          46.875    21150583.500    86608096.842 7      1243.570          46.875    21150583.880    86608102.839 8      1243.570          48.375
R21  20437347.540   109364378.027 6      2145.345          38.000    20437343.300   109364378.036 6      2145.345          38.687    20437360.660    85061219.925 7      1668.602          44.125    20437359.080    85061231.920 7      1668.602          45.000
R11  19934270.960   106522679.670 6      3668.291          40.062    19934267.740   106522679.671 6      3668.291          39.625    19934279.420    82851040.733 8      2853.115          49.500    19934279.100    82851025.732 8      2853.115          48.937
R05  23161696.600   123812551.065 7      3760.382          45.500    23161698.480   123812551.063 7      3760.382          45.312    23161711.700    96298717.641 6      2924.741          41.937    23161712.420    96298729.630 7      2924.741          42.437
G10  22270470.360   117032117.873 7      1563.529          46.875    22270469.240   117032117.876 7      1563.529          44.687    22270476.380    91193892.953 7      1218.334          45.375    22270476.680    91193890.949 7      1218.334          46.312
G08  21132311.460   111051051.108 7      3227.333          45.062    21132313.020   111051051.100 5      3227.333          30.187    21132320.360    86533308.682 5      2514.805          30.250    21132321.540    86533321.693 7      2514.805          45.125
R10  20333986.320   108391582.547 7      -593.336          45.312    20333985.900   108391582.543 7      -593.336          44.750
G26  23558630.740   123801424.238 6      -955.671          39.875    23558629.700   123801424.238 5      -955.671          35.312    23558649.260    96468700.820 5      -744.679          35.000    23558649.740    96468709.812 7      -744.679          44.687
G16  21165328.440   111224546.877 8       388.322          49.062    21165327.820   111224546.879 6       388.322          40.250    21165332.620    86668491.967 6       302.588          40.187
G02  22188704.660   116602430.657 7      3935.625          45.937    22188703.440   116602430.665 6      3935.625          37.062    22188708.820    90859052.504 6      3066.721          37.312
G21  20799796.040   109303667.939 8      3116.673          48.562    20799794.700   109303667.936 6      3116.673          39.312    20799799.060    85171702.624 6      2428.576          39.187
> 2024 05 08 12 47 37.0000000  0 11
G27  21150274.640   111145438.251 7      1595.891          46.375    21150273.760   111145438.248 7      1595.891          46.687    21150279.760    86606853.188 7      1243.552          46.812    21150280.140    86606859.183 8      1243.552          48.562
R21  20436946.540   109362232.470 6      2145.136          38.000    20436942.620   109362232.493 6      2145.136          38.375    20436959.920    85059551.167 7      1668.439          44.250    20436958.360    85059563.166 7      1668.439          44.500
R11  19933584.560   106519011.580 6      3667.616          40.062    19933581.940   106519011.566 6      3667.616          39.625    19933592.900    82848187.762 8      2852.590          48.687    19933592.760    82848172.761 8      2852.590          49.625
R05  23160993.260   123808790.780 7      3759.821          46.375    23160995.080   123808790.787 7      3759.821          44.875    23161008.420    96295792.982 6      2924.305          41.875    23161009.000    96295804.969 7      2924.305          42.312
G10  22270172.980   117030554.414 7      1563.067          47.875    22270171.580   117030554.416 7      1563.067          44.625    22270178.700    91192674.676 7      1217.974          44.750    22270178.940    91192672.670 7      1217.974          45.937
G08  21131697.180   111047823.615 7      3227.295          44.625    21131698.900   111047823.610 5      3227.295          30.187    21131706.180    86530793.756 5      2514.775          30.250    21131707.600    86530806.766 7      2514.775          45.125
R10  20334097.660   108392175.999 7      -593.809          45.687    20334097.340   108392175.999 7      -593.809          44.437
G26  23558812.560   123802379.698 6      -955.656          39.875    23558811.620   123802379.701 5      -955.656          35.250    23558831.080    96469445.318 5      -744.667          34.937    23558831.780    96469454.306 7      -744.667          44.687
G16  21165254.520   111224158.640 8       387.931          49.375    21165254.000   111224158.645 6       387.931          40.375    21165258.660    86668189.439 6       302.284          40.312
G02  22187955.980   116598494.967 7      3935.375          45.687    22187954.460   116598494.974 6      3935.375          37.125    22187959.800    90855985.728 6      3066.526          37.062
G21  20799203.120   109300551.320 7      3116.330          47.187    20799201.580   109300551.319 6      3116.330          38.812    20799206.020    85169274.089 6      2428.309          38.937
> 2024 05 08 12 47 38.0000000  0 11
G27  21149971.200   111143842.467 7      1595.661          46.125    21149970.020   111143842.469 7      1595.661          47.250    21149976.220    86605609.720 7      1243.372          47.125    21149976.680    86605615.717 8      1243.372          48.812
R21  20436545.800   109360087.259 6      2145.066          38.375    20436541.240   109360087.263 6      2145.066          38.375    20436558.600    85057882.659 7      1668.385          44.375    20436557.760    85057894.654 7      1668.385          44.875
R11  19932897.740   106515344.394 6      3666.662          40.062    19932895.640   106515344.400 6      3666.662          39.375    19932906.500    82845335.522 8      2851.848          49.500    19932906.720    82845320.523 8      2851.848          49.562
R05  23160290.020   123805031.150 7      3759.327          46.062    23160291.940   123805031.154 7      3759.327          45.375    23160305.280    96292868.831 7      2923.921          42.562    23160305.840    96292880.816 7      2923.921          42.125
G10  22269875.420   117028991.616 8      1562.418          48.000    22269874.140   117028991.624 7      1562.418          44.875    22269881.380    91191456.910 7      1217.468          45.312    22269881.520    91191454.902 7      1217.468          46.375
G08  21131082.940   111044596.303 7      3227.341          44.437    21131085.000   111044596.295 5      3227.341          30.187    21131091.800    86528278.972 5      2514.811          30.250    21131092.940    86528291.981 7      2514.811          44.562
R10  20334209.000   108392770.162 7      -594.464          45.750    20334208.480   108392770.165 7      -594.464          44.750
G26  23558994.500   123803335.427 6      -955.919          38.625    23558993.260   123803335.431 5      -955.919          35.250    23559012.920    96470190.022 5      -744.872          34.937    23559013.720    96470199.021 7      -744.872          44.687
G16  21165180.620   111223770.923 8       387.455          49.250    21165180.080   111223770.928 6       387.455          40.187    21165184.940    86667887.318 6       301.913          40.187
G02  22187207.040   116594559.715 7      3935.024          46.250    22187205.520   116594559.723 6      3935.024          37.062    22187210.900    90852919.300 6      3066.252          36.812
G21  20798610.140   109297435.247 7      3115.797          47.687    20798608.700   109297435.243 6      3115.797          39.062    20798613.160    85166845.980 6      2427.894          39.187
> 2024 05 08 12 47 39.0000000  0 11
G27  21149667.440   111142246.952 7      1595.357          46.500    21149666.240   111142246.957 7      1595.357          46.750    21149672.600    86604366.461 7      1243.136          46.875    21149673.220    86604372.452 8      1243.136          49.000
R21  20436144.360   109357942.441 6      2144.709          38.375    20436140.260   109357942.448 6      2144.709          38.375    20436157.680    85056214.465 7      1668.107          44.625    20436156.740    85056226.462 7      1668.107          44.375
R11  19932211.280   106511678.177 6      3665.775          39.937    19932209.660   106511678.165 6      3665.775          39.375    19932220.500    82842484.008 8      2851.158          48.875    19932220.260    82842469.004 8      2851.158          49.437
R05  23159586.660   123801272.250 7      3758.482          45.625    23159588.580   123801272.246 7      3758.482          45.250    23159602.020    96289945.245 7      2923.264          42.562    23159602.520    96289957.236 7      2923.264          42.375
G10  22269578.260   117027429.512 7      1561.709          47.562    22269576.900   117027429.517 7      1561.709          44.812    22269584.220    91190239.684 7      1216.916          45.125    22269584.580    91190237.676 7      1216.916          45.875
G08  21130468.760   111041369.252 7      3227.040          44.187    21130470.700   111041369.244 5      3227.040          30.062    21130477.660    86525764.386 5      2514.577          30.250    21130478.340    86525777.394 7      2514.577          44.562
R10  20334321.040   108393365.072 7      -595.313          45.687    20334319.960   108393365.077 7      -595.313          44.500
G26  23559175.780   123804291.441 6      -956.262          38.750    23559175.280   123804291.438 5      -956.262          35.500    23559194.820    96470934.938 5      -745.139          35.375    23559195.720    96470943.935 7      -745.139          44.750
G16  21165107.060   111223383.795 7       386.775          47.875    21165106.400   111223383.798 6       386.775          40.562    21165111.260    86667585.654 6       301.383          40.000
G02  22186458.200   116590624.942 7      3934.534          45.625    22186456.660   116590624.949 6      3934.534          36.687    22186462.160    90849853.245 6      3065.871          36.562
G21  20798017.500   109294319.741 7      3115.174          47.437    20798015.860   109294319.738 6      3115.174          39.312    20798020.160    85164418.313 6      2427.408          39.375
> 2024 05 08 12 47 40.0000000  0 11
G27  21149363.820   111140651.812 7      1594.998          46.812    21149362.680   111140651.819 7      1594.998          47.000    21149369.160    86603123.491 7      1242.856          46.562    21149369.880    86603129.484 8      1242.856          48.812
R21  20435743.660   109355798.107 6      2144.043          38.375    20435739.260   109355798.128 6      2144.043          38.375    20435757.020    85054546.669 7      1667.589          44.500    20435756.280    85054558.664 7      1667.589          44.937
R11  19931525.540   106508012.991 6      3664.697          39.937    19931524.720   106508012.984 6      3664.697          39.375    19931534.360    82839633.299 8      2850.320          49.437    19931534.360    82839618.300 8      2850.320          49.000
R05  23158883.580   123797514.160 7      3757.688          45.562    23158885.720   123797514.158 7      3757.688          44.812    23158899.400    96287022.283 7      2922.646          42.375    23158899.760    96287034.275 7      2922.646          42.437
G10  22269281.080   117025868.183 7      1561.019          47.500    22269279.760   117025868.188 7      1561.019          44.750    22269286.860    91189023.064 7      1216.379          45.500    22269287.500    91189021.058 7      1216.379          46.312
G08  21129854.760   111038142.537 7      3226.552          44.375    21129856.660   111038142.531 5      3226.552          30.062    21129863.540    86523250.067 5      2514.196          30.250    21129864.560    86523263.076 7      2514.196          44.562
R10  20334432.620   108393960.810 7      -596.138          45.375    20334432.140   108393960.816 7      -596.138          44.437
G26  23559358.080   123805247.839 6      -956.664          39.437    23559357.240   123805247.841 5      -956.664          35.562    23559376.800    96471680.167 5      -745.452          35.375    23559377.340    96471689.166 7      -745.452          44.750
G16  21165033.580   111222997.317 8       386.172          49.312    21165033.020   111222997.319 6       386.172          40.500    21165037.640    86667284.491 6       300.914          40.312
G02  22185709.420   116586690.770 7      3933.836          45.875    22185707.920   116586690.777 6      3933.836          36.875    22185713.600    90846787.654 6      3065.327          36.812
G21  20797424.740   109291204.924 7      3114.450          47.562    20797423.060   109291204.921 6      3114.450          38.750    20797427.440    85161991.185 6      2426.844          39.000
> 2024 05 08 12 47 41.0000000  0 11
G27  21149060.260   111139056.798 7      1594.796          47.625    21149059.140   111139056.798 7      1594.796          47.062    21149065.680    86601880.615 7      1242.699          46.812    21149066.500    86601886.606 8      1242.699          48.812
R21  20435343.680   109353654.004 6      2143.867          38.375    20435339.060   109353654.000 6      2143.867          37.812    20435356.500    85052879.005 7      1667.452          44.437    20435355.580    85052891.007 7      1667.452          45.250
R11  19930840.160   106504348.615 6      3663.751          40.500    19930838.420   106504348.603 6      3663.751          39.812    19930848.700    82836783.231 8      2849.584          48.812    19930848.800    82836768.230 8      2849.584          49.375
R05  23158180.700   123793756.618 7      3757.095          45.000    23158182.860   123793756.616 7      3757.095          44.562    23158196.260    96284099.769 7      2922.185          42.437    23158196.780    96284111.756 7      2922.185          43.000
G10  22268984.320   117024307.409 7      1560.359          47.875    22268982.840   117024307.411 7      1560.359          44.500    22268990.020    91187806.872 7      1215.864          44.750    22268990.420    91187804.866 7      1215.864          46.125
G08  21129240.780   111034915.900 7      3226.395          44.437    21129242.600   111034915.895 5      3226.395          30.062    21129249.520    86520735.805 5      2514.074          30.250    21129250.520    86520748.812 7      2514.074          44.437
R10  20334544.720   108394557.113 7      -596.742          46.375    20334544.260   108394557.117 7      -596.742          44.187
G26  23559540.400   123806204.347 6      -956.711          39.125    23559539.520   123806204.347 6      -956.711          36.062    23559558.920    96472425.478 5      -745.489          35.687    23559559.120    96472434.478 7      -745.489          44.625
G16  21164960.160   111222611.250 8       385.682          49.062    21164959.640   111222611.260 6       385.682          40.812    21164964.300    86666983.660 6       300.532          41.062
G02  22184960.980   116582756.905 7      3933.457          45.375    22184959.360   116582756.916 6      3933.457          37.437    22184965.040    90843722.310 6      3065.031          37.250
G21  20796831.900   109288090.516 7      3113.998          47.625    20796830.280   109288090.519 6      3113.998          38.687    20796834.840    85159564.372 6      2426.492          38.500
> 2024 05 08 12 47 42.0000000  0 11
G27  21148756.980   111137462.079 7      1594.767          46.937    21148755.620   111137462.081 7      1594.767          47.500    21148762.220    86600637.975 7      1242.676          47.062    21148762.900    86600643.972 8      1242.676          49.125
R21  20434943.120   109351510.312 6      2143.607          38.625    20434938.280   109351510.303 6      2143.607          37.812    20434955.980    85051211.692 7      1667.250          44.250    20434955.000    85051223.689 7      1667.250          44.750
R11  19930154.420   106500685.191 6      3663.137          40.500    19930153.640   106500685.192 6      3663.137          39.812    19930163.000    82833933.907 8      2849.106          48.437    19930162.880    82833918.902 8      2849.106          49.687
R05  23157478.000   123789999.805 7      3756.718          46.000    23157479.660   123789999.801 7      3756.718          45.625    23157493.820    96281177.802 7      2921.892          42.812    23157494.140    96281189.797 7      2921.892          42.875
G10  22268687.440   117022747.352 7      1559.826          47.125    22268685.760   117022747.354 7      1559.826          44.625    22268693.200    91186591.247 7      1215.449          44.562    22268693.720    91186589.243 7      1215.449          46.125
G08  21128626.580   111031689.529 7      3226.374          44.562    21128628.660   111031689.523 5      3226.374          30.062    21128635.660    86518221.751 5      2514.058          30.250    21128636.640    86518234.759 7      2514.058          44.562
R10  20334656.540   108395154.198 7      -597.347          45.875    20334656.160   108395154.206 7      -597.347          44.875
G26  23559722.820   123807161.224 6      -956.868          39.812    23559721.900   123807161.226 6      -956.868          36.125    23559741.040    96473171.075 5      -745.611          35.875    23559741.080    96473180.068 7      -745.611          44.625
G16  21164886.920   111222225.791 8       385.355          49.125    21164886.400   111222225.793 6       385.355          40.750    21164890.940    86666683.294 6       300.277          40.937
G02  22184212.400   116578823.548 7      3933.270          46.000    22184210.900   116578823.558 6      3933.270          37.687    22184216.460    90840657.354 6      3064.886          37.437
G21  20796239.200   109284976.732 7      3113.660          47.625    20796237.800   109284976.726 6      3113.660          39.125    20796242.320    85157138.045 6      2426.229          39.062
> 2024 05 08 12 47 43.0000000  0 11
G27  21148453.540   111135867.594 7      1594.290          46.687    21148452.320   111135867.601 7      1594.290          47.375    21148458.740    86599395.525 7      1242.304          46.937    21148459.520    86599401.520 8      1242.304          49.187
R21  20434542.360   109349366.920 6      2143.042          38.625    20434538.620   109349366.909 6      2143.042          37.812    20434555.400    85049544.611 7      1666.810          44.125    20434554.360    85049556.611 7      1666.810          45.000
R11  19929469.400   106497022.706 6      3661.892          40.500    19929468.440   106497022.713 6      3661.892          40.687    19929477.120    82831085.308 8      2848.138          48.500    19929477.500    82831070.307 8      2848.138          48.750
R05  23156775.280   123786243.658 7      3755.710          46.562    23156777.220   123786243.662 7      3755.710          45.562    23156791.480    96278256.364 7      2921.108          42.687    23156791.640    96278268.356 7      2921.108          43.187
G10  22268390.740   117021187.944 8      1558.967          48.125    22268388.920   117021187.943 7      1558.967          44.750    22268396.600    91185376.120 7      1214.779          44.687    22268397.020    91185374.116 7      1214.779          46.562
G08  21128013.000   111028463.334 7      3226.015          44.562    21128014.720   111028463.331 4      3226.015          29.875    21128021.520    86515707.833 5      2513.778          30.250    21128022.860    86515720.843 7      2513.778          44.375
R10  20334768.800   108395751.924 7      -598.164          45.687    20334768.340   108395751.930 7      -598.164          44.812
G26  23559904.740   123808118.305 6      -957.298          39.937    23559904.140   123808118.310 6      -957.298          36.125    23559923.200    96473916.832 6      -745.947          36.125    23559923.440    96473925.837 7      -745.947          44.375
G16  21164813.640   111221840.851 8       384.593          50.000    21164812.960   111221840.856 6       384.593          40.562    21164817.720    86666383.337 6       299.683          40.625
G02  22183464.060   116574890.640 7      3932.572          46.062    22183462.460   116574890.650 6      3932.572          37.250    22183468.060    90837592.748 6      3064.342          37.312
G21  20795646.820   109281863.460 8      3112.918          48.500    20795645.500   109281863.457 6      3112.918          39.187    20795649.920    85154712.116 6      2425.651          39.312
> 2024 05 08 12 47 44.0000000  0 11
G27  21148150.040   111134273.161 7      1594.320          46.687    21148148.740   111134273.171 7      1594.320          47.812    21148155.440    86598153.111 7      1242.327          47.187    21148156.140    86598159.106 8      1242.327          49.125
R21  20434141.660   109347223.711 6      2142.882          38.625    20434137.240   109347223.712 6      2142.882          37.812    20434154.660    85047877.679 7      1666.686          44.437    20434154.000    85047889.678 7      1666.686          44.625
R11  19928784.120   106493360.885 6      3661.389          41.312    19928783.720   106493360.886 6      3661.389          40.687    19928792.300    82828237.219 8      2847.747          48.875    19928792.340    82828222.215 8      2847.747          48.937
R05  23156072.680   123782487.957 7      3755.374          46.437    23156074.140   123782487.958 7      3755.374          45.750    23156088.940    96275335.266 7      2920.847          43.062    23156088.920    96275347.259 7      2920.847          43.000
G10  22268093.940   117019629.006 8      1558.551          48.062    22268092.040   117019629.005 7      1558.551          44.562    22268099.860    91184161.361 7      1214.455          44.750    22268100.400    91184159.359 7      1214.455          46.187
G08  21127398.960   111025237.171 7      3226.137          44.375    21127400.800   111025237.165 4      3226.137          29.875    21127407.500    86513193.942 5      2513.873          30.250    21127408.840    86513206.945 7      2513.873          44.312
R10  20334880.820   108396350.181 7      -598.595          45.625    20334880.620   108396350.187 7      -598.595          44.562
G26  23560087.180   123809075.473 6      -957.265          40.562    23560086.460   123809075.478 6      -957.265          36.187    23560105.380    96474662.657 5      -745.921          35.625    23560105.560    96474671.655 7      -745.921          44.562
G16  21164740.340   111221456.254 8       384.378          49.312    21164739.600   111221456.261 6       384.378          40.937    21164744.440    86666083.647 6       299.515          40.375
G02  22182715.700   116570957.982 7      3932.431          46.687    22182714.100   116570957.989 6      3932.431          37.500    22182719.780    90834528.343 6      3064.232          37.187
G21  20795054.480   109278750.561 8      3112.570          48.687    20795053.180   109278750.560 6      3112.570          38.750    20795057.620    85152286.487 6      2425.380          39.125
> 2024 05 08 12 47 45.0000000  0 11
G27  21147846.860   111132678.996 7      1593.997          47.062    21147845.480   111132678.995 7      1593.997          46.812    21147852.300    86596910.893 7      1242.076          46.500    21147852.740    86596916.890 8      1242.076          49.500
R21  20433740.760   109345080.851 6      2142.654          38.625    20433737.360   109345080.842 6      2142.654          37.812    20433754.200    85046211.002 7      1666.509          44.375    20433753.540    85046223.001 7      1666.509          44.687
R11  19928098.680   106489700.046 6      3660.224          41.312    19928098.760   106489700.063 6      3660.224          40.687    19928107.060    82825389.912 8      2846.841          48.500    19928107.040    82825374.909 8      2846.841          48.875
R05  23155370.200   123778732.914 7      3754.615          45.937    23155372.080   123778732.915 7      3754.615          44.937    23155386.640    96272414.687 7      2920.256          42.937    23155386.620    96272426.680 7      2920.256          43.437
G10  22267797.120   117018070.733 7      1557.860          46.062    22267795.700   117018070.732 7      1557.860          44.625    22267803.380    91182947.127 7      1213.917          45.000    22267804.100    91182945.125 7      1213.917          46.750
G08  21126784.900   111022011.236 7      3225.728          44.250    21126786.900   111022011.233 4      3225.728          29.875    21126793.620    86510680.224 4      2513.554          29.687    21126794.860    86510693.227 7      2513.554          44.375
R10  20334993.200   108396949.129 7      -599.390          45.875    20334993.200   108396949.135 7      -599.390          44.875
G26  23560269.140   123810032.911 6      -957.620          40.562    23560268.680   123810032.916 6      -957.620          36.437    23560287.740    96475408.699 6      -746.197          36.125    23560288.100    96475417.699 7      -746.197          44.562
G16  21164667.380   111221072.231 8       383.654          48.812    21164666.660   111221072.239 6       383.654          40.437    21164671.460    86665784.404 6       298.951          40.750
G02  22181967.500   116567025.804 7      3931.853          46.500    22181965.760   116567025.812 6      3931.853          37.250    22181971.340    90831464.309 6      3063.781          37.125
G21  20794462.060   109275638.213 7      3111.971          47.187    20794460.780   109275638.216 6      3111.971          38.750    20794465.380    85149861.279 6      2424.912          38.812
> 2024 05 08 12 47 46.0000000  0 11
G27  21147543.720   111131084.994 7      1593.931          46.312    21147542.160   111131084.998 7      1593.931          47.125    21147548.880    86595668.817 7      1242.024          47.062    21147549.460    86595674.810 8      1242.024          49.375
R21  20433340.600   109342938.286 6      2142.448          39.437    20433336.980   109342938.293 6      2142.448          38.750    20433353.540    85044544.569 7      1666.348          44.375    20433353.220    85044556.572 7      1666.348          44.687
R11  19927414.060   106486040.063 6      3659.548          41.062    19927413.880   106486040.075 6      3659.548          40.312    19927422.240    82822543.246 8      2846.315          48.937    19927422.080    82822528.245 8      2846.315          48.625
R05  23154668.120   123774978.477 7      3754.147          45.750    23154669.460   123774978.484 7      3754.147          45.125    23154684.080    96269494.576 7      2919.892          42.750    23154684.300    96269506.575 7      2919.892          43.437
G10  22267500.800   117016513.069 7      1557.405          47.625    22267499.260   117016513.061 7      1557.405          44.812    22267506.900    91181733.357 7      1213.562          45.187    22267507.660    91181731.351 7      1213.562          46.500
G08  21126171.260   111018785.419 7      3225.831          44.062    21126173.280   111018785.416 4      3225.831          29.875    21126179.900    86508166.601 4      2513.634          29.687    21126181.000    86508179.600 7      2513.634          44.375
R10  20335106.080   108397548.729 7      -599.997          45.812    20335105.840   108397548.732 7      -599.997          44.500
G26  23560451.300   123810990.539 6      -957.621          39.750    23560450.780   123810990.541 5      -957.621          35.937    23560470.080    96476154.879 6      -746.198          36.125    23560469.880    96476163.882 7      -746.198          44.375
G16  21164594.200   111220688.664 8       383.348          49.062    21164593.660   111220688.671 6       383.348          40.500    21164598.440    86665485.514 6       298.713          40.062
G02  22181219.200   116563094.000 7      3931.604          46.437    22181217.620   116563094.007 6      3931.604          37.375    22181223.360    90828400.565 6      3063.588          37.375
G21  20793870.100   109272526.349 7      3111.640          47.687    20793868.740   109272526.349 6      3111.640          38.937    20793873.140    85147436.452 6      2424.654          38.812
> 2024 05 08 12 47 47.0000000  0 11
G27  21147240.160   111129491.252 7      1593.827          46.812    21147239.000   111129491.257 7      1593.827          47.312    21147245.660    86594426.938 7      1241.943          47.312    21147246.340    86594432.933 8      1241.943          49.750
R21  20432940.660   109340796.082 6      2142.274          39.437    20432936.840   109340796.070 6      2142.274          38.750    20432953.140    85042878.398 7      1666.213          44.312    20432952.860    85042890.397 7      1666.213          44.500
R11  19926729.100   106482380.990 6      3658.723          41.062    19926729.340   106482381.013 6      3658.723          40.312    19926737.500    82819697.315 8      2845.674          48.312    19926737.420    82819682.316 8      2845.674          48.812
R05  23153965.700   123771224.746 7      3753.611          46.250    23153967.020   123771224.753 7      3753.611          44.312    23153981.600    96266575.014 7      2919.475          43.312    23153981.720    96266587.015 7      2919.475          43.000
G10  22267204.600   117014956.065 7      1556.852          47.562    22267203.020   117014956.065 7      1556.852          44.500    22267210.480    91180520.107 7      1213.132          44.375    22267211.220    91180518.109 7      1213.132          46.437
G08  21125557.420   111015559.836 7      3225.671          44.250    21125559.520   111015559.833 4      3225.671          29.687    21125565.980    86505653.157 4      2513.510          29.687    21125567.380    86505666.165 7      2513.510          44.000
R10  20335218.660   108398149.028 7      -600.397          45.750    20335218.340   108398149.031 7      -600.397          44.750
G26  23560633.840   123811948.456 6      -957.847          39.750    23560633.080   123811948.458 6      -957.847          36.437    23560652.480    96476901.284 5      -746.374          35.750    23560652.540    96476910.284 7      -746.374          44.187
G16  21164521.360   111220305.653 8       382.918          49.250    21164520.780   111220305.658 6       382.918          40.687    21164525.480    86665187.060 6       298.378          40.812
G02  22180471.060   116559162.653 7      3931.353          45.562    22180469.580   116559162.660 6      3931.353          37.187    22180475.160    90825337.180 6      3063.392          36.812
G21  20793278.020   109269415.053 8      3111.251          48.000    20793276.540   109269415.050 6      3111.251          38.812    20793281.360    85145012.065 6      2424.351          38.937
> 2024 05 08 12 47 48.0000000  0 11
G27  21146936.860   111127897.660 7      1593.403          46.625    21146935.720   111127897.667 7      1593.403          47.187    21146942.380    86593185.178 7      1241.613          47.187    21146943.020    86593191.175 8      1241.613          49.875
R21  20432539.960   109338654.100 6      2141.764          39.437    20432536.600   109338654.102 6      2141.764          38.750    20432552.720    85041212.424 7      1665.817          44.437    20432552.460    85041224.426 7      1665.817          44.500
R11  19926044.260   106478722.781 6      3657.635          40.937    19926045.140   106478722.796 6      3657.635          40.375    19926052.860    82816852.041 8      2844.827          48.125    19926052.740    82816837.040 8      2844.827          49.187
R05  23153264.000   123767471.635 7      3752.673          45.437    23153264.840   123767471.647 7      3752.673          44.312    23153279.860    96263655.938 7      2918.746          42.937    23153279.820    96263667.939 7      2918.746          43.187
G10  22266908.480   117013399.634 7      1556.006          47.812    22266906.760   117013399.631 7      1556.006          44.937    22266914.580    91179307.299 7      1212.472          45.062    22266914.760    91179305.303 7      1212.472          46.375
G08  21124943.620   111012334.369 7      3225.238          44.500    21124945.780   111012334.369 4      3225.238          29.687    21124952.080    86503139.810 4      2513.173          29.687    21124953.300    86503152.812 7      2513.173          44.187
R10  20335331.380   108398749.939 7      -601.320          45.625    20335330.880   108398749.945 7      -601.320          44.562
G26  23560815.860   123812906.504 6      -958.223          38.812    23560815.400   123812906.509 6      -958.223          36.437    23560834.720    96477647.798 5      -746.667          35.312    23560834.860    96477656.801 7      -746.667          44.125
G16  21164448.440   111219923.076 8       382.243          49.062    21164448.220   111219923.081 6       382.243          40.875    21164452.660    86664888.942 6       297.852          40.500
G02  22179723.080   116555231.660 7      3930.701          45.937    22179721.500   116555231.673 6      3930.701          37.437    22179727.100    90822274.073 6      3062.884          37.000
G21  20792686.060   109266304.214 7      3110.459          47.875    20792684.580   109266304.208 6      3110.459          38.687    20792689.240    85142588.033 6      2423.734          38.937
> 2024 05 08 12 47 49.0000000  0 11
G27  21146633.700   111126304.456 7      1592.899          47.125    21146632.560   111126304.456 7      1592.899          46.562    21146639.180    86591943.715 7      1241.220          47.000    21146639.760    86591949.712 8      1241.220          49.500
R21  20432139.840   109336512.622 6      2141.008          39.187    20432136.540   109336512.636 6      2141.008          38.750    20432152.480    85039546.836 7      1665.229          44.312    20432152.140    85039558.839 7      1665.229          44.562
R11  19925359.940   106475065.651 6      3656.291          40.937    19925360.800   106475065.668 6      3656.291          40.375    19925368.780    82814007.603 8      2843.782          48.562    19925368.420    82813992.604 8      2843.782          49.187
R05  23152561.800   123763719.364 7      3751.640          44.937    23152562.700   123763719.370 7      3751.640          44.312    23152578.100    96260737.513 7      2917.942          43.437    23152577.820    96260749.514 7      2917.942          42.812
G10  22266612.320   117011844.018 7      1554.996          47.312    22266610.720   117011844.012 7      1554.996          44.687    22266618.460    91178095.135 7      1211.685          44.625    22266618.740    91178093.133 7      1211.685          46.375
G08  21124329.880   111009109.238 7      3224.810          44.312    21124332.260   111009109.238 4      3224.810          29.687    21124338.260    86500626.719 4      2512.839          29.750    21124339.380    86500639.715 7      2512.839          44.000
R10  20335444.380   108399351.701 7      -602.317          46.062    20335443.860   108399351.707 7      -602.317          44.937
G26  23560998.520   123813864.986 6      -958.702          39.562    23560997.700   123813864.993 5      -958.702          35.687    23561017.120    96478394.647 5      -747.041          35.375    23561016.960    96478403.639 7      -747.041          44.125
G16  21164375.760   111219541.193 8       381.346          49.250    21164375.480   111219541.198 6       381.346          40.812    21164379.940    86664591.365 6       297.153          40.812
G02  22178975.360   116551301.285 7      3929.869          45.937    22178973.480   116551301.298 6      3929.869          37.062    22178979.100    90819211.447 6      3062.236          37.000
G21  20792094.120   109263194.045 7      3109.658          47.875    20792092.880   109263194.045 6      3109.658          39.187    20792097.320    85140164.524 6      2423.110          39.000
> 2024 05 08 12 47 50.0000000  0 11
G27  21146330.540   111124711.737 7      1592.959          47.062    21146329.500   111124711.736 7      1592.959          47.125    21146336.200    86590702.633 7      1241.267          46.875    21146336.680    86590708.628 8      1241.267          50.125
R21  20431740.100   109334371.697 6      2141.072          39.187    20431737.200   109334371.698 6      2141.072          38.312    20431752.480    85037881.662 7      1665.278          44.187    20431752.040    85037893.657 7      1665.278          44.187
R11  19924676.040   106471409.641 6      3655.934          41.437    19924676.520   106471409.650 6      3655.934          40.375    19924684.280    82811164.041 8      2843.504          48.312    19924684.320    82811149.042 8      2843.504          48.750
R05  23151860.040   123759968.014 7      3751.350          45.875    23151861.000   123759968.021 7      3751.350          44.312    23151876.300    96257819.796 7      2917.717          43.375    23151876.360    96257831.800 7      2917.717          42.875
G10  22266316.560   117010289.286 7      1554.754          47.500    22266314.940   117010289.281 7      1554.754          44.625    22266322.520    91176883.652 7      1211.497          44.812    22266323.080    91176881.652 7      1211.497          46.750
G08  21123716.160   111005884.567 7      3224.913          44.562    21123718.560   111005884.564 4      3224.913          29.687    21123724.600    86498113.989 4      2512.920          29.750    21123725.900    86498126.978 7      2512.920          43.750
R10  20335557.200   108399954.407 7      -602.706          45.625    20335556.960   108399954.407 7      -602.706          44.750
G26  23561180.760   123814823.961 6      -958.760          38.875    23561180.000   123814823.966 5      -958.760          35.687    23561199.520    96479141.876 5      -747.086          35.375    23561199.460    96479150.868 7      -747.086          44.000
G16  21164303.460   111219160.076 8       381.151          49.812    21164302.900   111219160.081 6       381.151          40.687    21164307.420    86664294.387 6       297.001          40.437
G02  22178227.460   116547371.583 7      3929.805          45.312    22178225.680   116547371.590 6      3929.805          37.187    22178231.340    90816149.339 6      3062.186          37.250
G21  20791502.340   109260084.672 7      3109.415          47.562    20791501.060   109260084.677 6      3109.415          38.750    20791505.640    85137741.640 6      2422.921          38.812
