     3.05           OBSERVATION DATA    MIXED               RINEX VERSION / TYPE
TPS2RIN 1.0.28.3459 TPS-USER            20260427 162754 UTC PGM / RUN BY / DATE
Win64 build Jun 01, 2022 (c) Topcon Positioning Systems     COMMENT
SRC: 20240603_GUI23.tps                                     COMMENT
Observer            Agency                                  OBSERVER / AGENCY
O0M3X53SBGM         TPS HIPER_SR        4.8 HSR Jul,08,2022 REC # / TYPE / VERS
FW: 4.8 HSR Jul,08,2022 p3                                  COMMENT
SN: HiPer SR 1212-12575                                     COMMENT
000                 TPSHIPER_SR     NONE                    ANT # / TYPE
        1.8000        0.0000        0.0000                  ANTENNA: DELTA H/E/N
GUI23                                                       MARKER NAME
  5391008.9361 -1594270.2489  3006649.9811                  APPROX POSITION XYZ
  2024     6     3    13    30   27.0000000     GPS         TIME OF FIRST OBS
  2024     6     3    13    49   57.0000000     GPS         TIME OF LAST OBS
     1.000                                                  INTERVAL
  1171 EPOCHS                                               COMMENT
G   12 C1C L1C D1C C1W L1W D1W C2W L2W D2W C2X L2X D2X      SYS / # / OBS TYPES
R   12 C1C L1C D1C C1P L1P D1P C2P L2P D2P C2C L2C D2C      SYS / # / OBS TYPES
    18                                                      # OF SATELLITES
   G02  1171  1171  1171  1171  1171  1171  1171  1171  1171PRN / # OF OBS
           0     0     0                                    PRN / # OF OBS
   G03  1171  1171  1171  1171  1171  1171  1171  1171  1171PRN / # OF OBS
        1171  1171  1171                                    PRN / # OF OBS
   G04   354   354   354   354   354   354   354   354   354PRN / # OF OBS
         354   354   354                                    PRN / # OF OBS
   G08  1171  1171  1171  1171  1171  1171  1171  1171  1171PRN / # OF OBS
        1171  1171  1171                                    PRN / # OF OBS
   G14  1171  1171  1171  1171  1171  1171  1171  1171  1171PRN / # OF OBS
        1171  1171  1171                                    PRN / # OF OBS
   G17  1171  1171  1171  1171  1171  1171  1171  1171  1171PRN / # OF OBS
        1171  1171  1171                                    PRN / # OF OBS
   G21  1171  1171  1171  1171  1171  1171  1171  1171  1171PRN / # OF OBS
           0     0     0                                    PRN / # OF OBS
   G22  1171  1171  1171  1171  1171  1171  1171  1171  1171PRN / # OF OBS
           0     0     0                                    PRN / # OF OBS
   G27   613   613   613   613   613   613   613   613   613PRN / # OF OBS
         613   613   613                                    PRN / # OF OBS
   G32  1171  1171  1171  1171  1171  1171  1171  1171  1171PRN / # OF OBS
        1171  1171  1171                                    PRN / # OF OBS
   R01  1171  1171  1171  1171  1171  1171  1171  1171  1171PRN / # OF OBS
        1171  1171  1171                                    PRN / # OF OBS
   R02  1075  1075  1075  1070  1070  1070  1070  1070  1070PRN / # OF OBS
        1069  1069  1069                                    PRN / # OF OBS
   R08  1171  1171  1171  1171  1171  1171  1171  1171  1171PRN / # OF OBS
        1171  1171  1171                                    PRN / # OF OBS
   R14  1171  1171  1171  1171  1171  1171  1171  1171  1171PRN / # OF OBS
        1171  1171  1171                                    PRN / # OF OBS
   R15  1109  1109  1109  1104  1104  1104  1104  1104  1104PRN / # OF OBS
        1103  1103  1103                                    PRN / # OF OBS
   R17  1171  1171  1171  1171  1171  1171  1171  1171  1171PRN / # OF OBS
        1171  1171  1171                                    PRN / # OF OBS
   R23  1171  1171  1171  1171  1171  1171     0     0     0PRN / # OF OBS
           0     0     0                                    PRN / # OF OBS
   R24  1171  1171  1171  1171  1171  1171  1171  1171  1171PRN / # OF OBS
        1171  1171  1171                                    PRN / # OF OBS
G L1C                                                       SYS / PHASE SHIFT
G L1W -0.25000                                              SYS / PHASE SHIFT
G L2W  0.00000                                              SYS / PHASE SHIFT
G L2X  0.25000                                              SYS / PHASE SHIFT
R L1C                                                       SYS / PHASE SHIFT
R L1P -0.25000                                              SYS / PHASE SHIFT
R L2P -0.25000                                              SYS / PHASE SHIFT
R L2C                                                       SYS / PHASE SHIFT
  8 R01  1 R02 -4 R08  6 R14 -7 R15  0 R17  4 R23  3 R24  2 GLONASS SLOT / FRQ #
                                                            GLONASS COD/PHS/BIS
               *** Undefined LeapSeconds ***                COMMENT
                                                            END OF HEADER
> 2024 06 03 13 30 27.0000000  0 16
G02  21726879.060   114175522.425 7      2239.395    21726877.340   114175522.430 6      2239.395    21726880.200    88967943.510 6      1744.983
R17  23677558.960   126703390.995 7      4770.432    23677559.500   126703391.002 7      4770.432    23677576.380    98547164.803 6      3710.336    23677576.120    98547162.793 6      3710.336
G08  21495652.740   112960412.892 7       990.345    21495651.360   112960412.891 7       990.345    21495659.320    88021124.303 7       771.697    21495660.160    88021130.305 7       771.697
G17  24822681.060   130444054.857 5      5460.589    24822679.780   130444054.873 2      5460.589    24822691.100   101644729.790 3      4255.004    24822692.360   101644782.874 5      4255.004
G27  24203668.020   127191116.363 6      -194.017    24203667.360   127191116.362 5      -194.017    24203682.020    99110009.383 5      -151.182    24203682.560    99110013.364 6      -151.182
R08  21806215.820   116771276.590 7       553.751    21806216.440   116771276.621 7       553.751    21806228.600    90822171.159 7       430.695    21806228.560    90822169.160 7       430.695
G04  24757604.080   130102089.318 5      5580.631    24757603.000   130102089.323 1      5580.631    24757619.980   101378307.446 2      4348.544    24757619.760   101378316.486 6      4348.544
G14  22642468.180   118986975.791 7      4211.491    22642467.180   118986975.796 5      4211.491    22642473.520    92717149.170 5      3281.681    22642474.180    92717142.177 7      3281.681
G03  20637889.740   108452842.541 8      4379.922    20637888.640   108452842.540 7      4379.922    20637895.580    84508733.849 7      3412.926    20637896.180    84508736.855 8      3412.926
R24  20989802.760   112241903.630 7      3554.952    20989802.120   112241903.631 7      3554.952    20989811.600    87299304.605 7      2764.963    20989812.700    87299305.608 7      2764.963
G32  25284952.360   132873321.589 7      1425.348    25284949.980   132873321.596 6      1425.348    25284965.160   103537704.334 6      1110.660    25284966.700   103537712.334 7      1110.660
R01  20212630.160   108048085.215 7      4724.806    20212629.980   108048085.227 6      4724.806    20212641.200    84037456.685 6      3674.849    20212640.240    84037454.673 6      3674.849
R14  21775733.060   116076907.035 7       869.383    21775731.680   116076907.030 7       869.383    21775744.820    90282078.321 7       676.187    21775744.860    90282083.322 7       676.187
R23  22045263.860   117927289.025 7      1494.587    22045264.280   117927289.035 6      1494.587
G22  24638660.120   129477035.009 6      5100.218    24638659.160   129477035.020 3      5100.218    24638667.580   100891213.797 3      3974.196
G21  21930464.880   115245362.197 7      1391.308    21930462.740   115245362.202 6      1391.308    21930467.420    89801561.497 6      1084.136
> 2024 06 03 13 30 28.0000000  0 16
G02  21726453.040   114173283.034 7      2239.268    21726451.200   114173283.036 6      2239.268    21726453.960    88966198.530 6      1744.884
R17  23676667.520   126698620.583 7      4770.236    23676668.020   126698620.593 7      4770.236    23676684.900    98543454.485 6      3710.183    23676684.640    98543452.469 6      3710.183
G08  21495464.160   112959422.730 7       989.906    21495463.000   112959422.738 7       989.906    21495470.860    88020352.749 7       771.355    21495471.560    88020358.746 7       771.355
G17  24821643.000   130438594.279 5      5460.546    24821640.860   130438594.294 2      5460.546    24821652.220   101640474.806 2      4254.971    24821653.560   101640527.861 5      4254.971
G27  24203705.160   127191310.455 6      -194.305    24203704.360   127191310.455 5      -194.305    24203718.980    99110160.610 5      -151.407    24203719.060    99110164.576 6      -151.407
R08  21806112.140   116770723.238 7       552.952    21806112.900   116770723.283 7       552.952    21806125.040    90821740.785 7       430.073    21806124.960    90821738.786 7       430.073
G04  24756543.040   130096508.643 5      5580.397    24756540.860   130096508.648 1      5580.397    24756558.300   101373958.877 2      4348.362    24756557.940   101373967.914 6      4348.362
G14  22641666.940   118982764.629 7      4210.723    22641665.780   118982764.637 5      4210.723    22641672.180    92713867.756 5      3281.083    22641672.960    92713860.758 7      3281.083
G03  20637056.380   108448462.897 8      4379.252    20637055.220   108448462.899 7      4379.252    20637062.120    84505321.144 7      3412.404    20637062.880    84505324.149 8      3412.404
R24  20989138.140   112238348.608 7      3554.853    20989137.660   112238348.615 7      3554.853    20989146.920    87296539.596 7      2764.886    20989147.780    87296540.601 7      2764.886
G32  25284681.060   132871896.544 6      1424.729    25284678.440   132871896.554 6      1424.729    25284693.960   103536593.908 6      1110.179    25284695.680   103536601.932 7      1110.179
R01  20211746.160   108043360.690 7      4724.064    20211745.940   108043360.699 6      4724.064    20211757.360    84033782.059 6      3674.272    20211756.580    84033780.054 6      3674.272
R14  21775570.140   116076038.052 7       868.501    21775568.340   116076038.047 7       868.501    21775581.660    90281402.466 7       675.501    21775581.580    90281407.465 7       675.501
R23  22044984.640   117925794.359 7      1494.560    22044985.000   117925794.366 6      1494.560
G22  24637689.720   129471935.029 6      5099.742    24637688.740   129471935.039 3      5099.742    24637696.980   100887239.788 3      3973.825
G21  21930200.020   115243970.979 7      1391.174    21930198.160   115243970.987 6      1391.174    21930202.680    89800477.435 6      1084.032
> 2024 06 03 13 30 29.0000000  0 16
G02  21726026.760   114171043.866 7      2239.153    21726025.040   114171043.874 6      2239.153    21726027.760    88964453.725 6      1744.794
R17  23675776.360   126693850.217 7      4770.340    23675776.240   126693850.232 7      4770.340    23675793.380    98539744.202 6      3710.264    23675793.200    98539742.186 6      3710.264
G08  21495275.940   112958433.144 7       989.414    21495274.620   112958433.151 7       989.414    21495282.360    88019581.647 7       770.972    21495283.300    88019587.648 7       770.972
G17  24820604.460   130433133.782 5      5460.350    24820601.820   130433133.797 2      5460.350    24820613.380   101636219.882 2      4254.818    24820614.020   101636272.922 5      4254.818
G27  24203741.880   127191504.941 6      -194.719    24203741.540   127191504.946 5      -194.719    24203756.100    99110312.147 5      -151.729    24203756.560    99110316.121 6      -151.729
R08  21806009.240   116770170.829 7       551.948    21806010.020   116770170.871 7       551.948    21806022.300    90821311.138 7       429.293    21806021.900    90821309.139 7       429.293
G04  24755480.760   130090927.896 5      5580.648    24755478.940   130090927.903 1      5580.648    24755496.220   101369610.248 2      4348.557    24755496.100   101369619.331 6      4348.557
G14  22640865.880   118978554.208 7      4210.178    22640864.520   118978554.216 5      4210.178    22640871.180    92710586.914 5      3280.658    22640871.560    92710579.922 7      3280.658
G03  20636223.080   108444083.999 8      4378.626    20636221.980   108444083.999 6      4378.626    20636228.800    84501909.018 6      3411.916    20636229.700    84501912.021 8      3411.916
R24  20988473.100   112234793.888 7      3554.626    20988472.620   112234793.895 7      3554.626    20988482.140    87293774.825 7      2764.709    20988483.080    87293775.832 7      2764.709
G32  25284409.540   132870472.161 6      1424.013    25284407.340   132870472.169 6      1424.013    25284422.900   103535483.999 6      1109.621    25284424.400   103535492.019 7      1109.621
R01  20210862.300   108038637.133 7      4723.124    20210862.440   108038637.143 6      4723.124    20210873.800    84030108.184 6      3673.541    20210872.680    84030106.174 6      3673.541
R14  21775407.340   116075169.943 7       867.776    21775405.980   116075169.943 7       867.776    21775418.360    90280727.252 7       674.937    21775418.620    90280732.255 7       674.937
R23  22044704.560   117924299.977 7      1494.353    22044705.520   117924299.984 6      1494.353
G22  24636718.980   129466835.579 6      5099.171    24636718.200   129466835.592 3      5099.171    24636726.660   100883266.195 3      3973.380
G21  21929935.260   115242579.956 8      1391.046    21929933.440   115242579.960 6      1391.046    21929937.900    89799393.516 6      1083.932
> 2024 06 03 13 30 30.0000000  0 16
G02  21725600.700   114168804.598 7      2239.147    21725598.860   114168804.603 6      2239.147    21725601.600    88962708.848 6      1744.790
R17  23674884.480   126689079.593 7      4770.621    23674884.500   126689079.600 7      4770.621    23674902.060    98536033.721 6      3710.483    23674901.720    98536031.709 7      3710.483
G08  21495087.540   112957443.799 7       988.991    21495086.260   112957443.802 7       988.991    21495094.140    88018810.731 7       770.642    21495095.140    88018816.730 7       770.642
G17  24819565.300   130427673.015 5      5460.572    24819562.640   130427673.027 2      5460.572    24819574.180   101631964.744 2      4254.991    24819575.120   101632017.799 5      4254.991
G27  24203779.120   127191699.425 6      -194.542    24203778.500   127191699.430 5      -194.542    24203793.060    99110463.682 5      -151.591    24203792.980    99110467.665 6      -151.591
R08  21805906.260   116769619.014 7       551.237    21805907.400   116769619.045 7       551.237    21805919.220    90820881.926 7       428.740    21805918.920    90820879.929 7       428.740
G04  24754418.400   130085346.877 5      5581.356    24754417.260   130085346.887 2      5581.356    24754433.920   101365261.403 2      4349.108    24754434.380   101365270.397 6      4349.108
G14  22640064.540   118974344.200 7      4209.741    22640063.340   118974344.210 5      4209.741    22640070.140    92707306.396 5      3280.318    22640070.680    92707299.394 7      3280.318
G03  20635389.960   108439705.499 8      4378.135    20635388.880   108439705.498 6      4378.135    20635395.500    84498497.201 6      3411.534    20635396.260    84498500.205 8      3411.534
R24  20987808.300   112231239.040 7      3554.762    20987808.620   112231239.047 7      3554.762    20987817.440    87291009.935 7      2764.815    20987818.220    87291010.946 7      2764.815
G32  25284138.880   132869048.110 7      1423.748    25284136.520   132869048.107 6      1423.748    25284151.900   103534374.341 6      1109.414    25284152.980   103534382.334 7      1109.414
R01  20209978.860   108033914.156 7      4722.479    20209978.820   108033914.174 6      4722.479    20209990.440    84026434.778 6      3673.039    20209989.380    84026432.773 6      3673.039
R14  21775244.460   116074302.325 7       867.110    21775243.860   116074302.333 7       867.110    21775255.260    90280052.442 7       674.419    21775255.700    90280057.443 7       674.419
R23  22044425.720   117922805.536 7      1494.239    22044425.860   117922805.556 6      1494.239
G22  24635748.540   129461736.287 6      5099.009    24635747.820   129461736.295 3      5099.009    24635756.360   100879292.721 3      3973.254
G21  21929670.320   115241188.782 7      1391.032    21929668.720   115241188.787 6      1391.032    21929673.100    89798309.489 6      1083.921
> 2024 06 03 13 30 31.0000000  0 16
G02  21725174.600   114166565.428 7      2239.252    21725172.780   114166565.433 6      2239.252    21725175.460    88960964.041 6      1744.872
R17  23673992.720   126684308.893 7      4770.762    23673993.020   126684308.918 7      4770.762    23674010.440    98532323.187 7      3710.592    23674010.440    98532321.183 6      3710.592
G08  21494899.320   112956454.862 7       988.815    21494898.100   112956454.862 7       988.815    21494905.840    88018040.124 7       770.505    21494906.880    88018046.126 7       770.505
G17  24818525.760   130422212.202 5      5460.821    24818523.460   130422212.215 2      5460.821    24818534.980   101627709.572 2      4255.185    24818536.660   101627762.631 5      4255.185
G27  24203816.640   127191894.245 6      -194.879    24203815.640   127191894.247 5      -194.879    24203830.080    99110615.484 5      -151.854    24203829.740    99110619.477 6      -151.854
R08  21805803.040   116769067.949 7       550.760    21805804.640   116769067.988 7       550.760    21805816.420    90820453.326 7       428.369    21805816.020    90820451.327 7       428.369
G04  24753355.800   130079765.709 5      5581.351    24753355.360   130079765.714 2      5581.351    24753371.880   101360912.438 2      4349.105    24753372.240   101360921.468 6      4349.105
G14  22639263.840   118970134.840 7      4209.060    22639262.360   118970134.850 5      4209.060    22639269.340    92704026.378 5      3279.787    22639269.560    92704019.370 7      3279.787
G03  20634556.940   108435327.631 8      4377.564    20634555.800   108435327.631 7      4377.564    20634562.460    84495085.882 7      3411.089    20634563.140    84495088.885 8      3411.089
R24  20987143.460   112227684.283 7      3554.790    20987144.000   112227684.287 7      3554.790    20987152.760    87288245.130 7      2764.837    20987153.600    87288246.143 7      2764.837
G32  25283867.880   132867624.560 6      1423.483    25283865.780   132867624.557 6      1423.483    25283881.240   103533265.083 6      1109.208    25283881.900   103533273.093 7      1109.208
R01  20209095.060   108029192.024 6      4721.852    20209095.680   108029192.036 6      4721.852    20209107.060    84022762.011 6      3672.551    20209106.060    84022760.005 6      3672.551
R14  21775081.960   116073435.359 8       866.693    21775081.380   116073435.362 7       866.693    21775092.680    90279378.133 7       674.094    21775093.140    90279383.139 7       674.094
R23  22044146.340   117921311.239 6      1494.247    22044146.260   117921311.254 6      1494.247
G22  24634778.660   129456637.424 6      5098.837    24634777.460   129456637.431 3      5098.837    24634786.040   100875319.587 3      3973.120
G21  21929405.580   115239797.667 7      1391.188    21929404.040   115239797.671 6      1391.188    21929408.240    89797225.507 6      1084.042
> 2024 06 03 13 30 32.0000000  0 16
G02  21724748.560   114164326.501 7      2238.934    21724746.720   114164326.506 6      2238.934    21724749.440    88959219.426 6      1744.624
R17  23673101.060   126679538.224 7      4770.775    23673101.700   126679538.233 7      4770.775    23673118.800    98528612.679 7      3710.603    23673118.680    98528610.681 7      3710.603
G08  21494711.320   112955466.500 7       988.208    21494710.040   112955466.500 7       988.208    21494717.800    88017269.970 7       770.033    21494718.480    88017275.972 7       770.033
G17  24817486.040   130416751.498 5      5460.655    24817484.260   130416751.511 2      5460.655    24817495.900   101623454.482 2      4255.056    24817498.120   101623507.525 6      4255.056
G27  24203853.800   127192089.422 6      -195.338    24203852.700   127192089.424 5      -195.338    24203867.260    99110767.564 5      -152.211    24203867.200    99110771.555 6      -152.211
R08  21805700.420   116768517.883 7       549.553    21805701.760   116768517.911 7       549.553    21805713.600    90820025.493 7       427.430    21805713.480    90820023.500 7       427.430
G04  24752294.060   130074184.570 5      5581.156    24752293.060   130074184.580 2      5581.156    24752309.820   101356563.505 2      4348.953    24752309.880   101356572.553 6      4348.953
G14  22638462.960   118965926.184 7      4208.311    22638461.480   118965926.192 5      4208.311    22638468.300    92700746.900 5      3279.203    22638468.740    92700739.892 7      3279.203
G03  20633724.040   108430950.481 8      4376.837    20633722.920   108430950.483 7      4376.837    20633729.460    84491675.119 6      3410.523    20633730.080    84491678.121 8      3410.523
R24  20986478.680   112224129.697 7      3554.582    20986479.100   112224129.699 7      3554.582    20986488.020    87285480.458 7      2764.675    20986488.820    87285481.469 7      2764.675
G32  25283597.140   132866201.722 6      1422.473    25283595.000   132866201.727 6      1422.473    25283610.240   103532156.391 6      1108.420    25283611.480   103532164.413 7      1108.420
R01  20208212.040   108024470.806 6      4720.913    20208212.320   108024470.810 6      4720.913    20208223.520    84019089.940 6      3671.821    20208222.680    84019087.930 6      3671.821
R14  21774919.320   116072569.153 7       865.861    21774918.860   116072569.159 7       865.861    21774930.100    90278704.434 7       673.447    21774930.640    90278709.442 7       673.447
R23  22043866.900   117919817.186 6      1494.008    22043866.860   117919817.206 6      1494.008
G22  24633808.540   129451539.017 6      5098.298    24633807.360   129451539.025 3      5098.298    24633815.980   100871346.808 3      3972.700
G21  21929141.120   115238406.743 8      1390.900    21929139.340   115238406.745 6      1390.900    21929143.780    89796141.670 6      1083.818
> 2024 06 03 13 30 33.0000000  0 16
G02  21724322.500   114162087.620 7      2238.858    21724320.660   114162087.622 6      2238.858    21724323.440    88957474.838 6      1744.565
R17  23672209.660   126674767.496 7      4770.735    23672210.220   126674767.508 7      4770.735    23672227.480    98524902.119 7      3710.572    23672227.340    98524900.113 7      3710.572
G08  21494523.240   112954478.512 7       987.830    21494522.020   112954478.516 7       987.830    21494529.900    88016500.111 7       769.738    21494530.660    88016506.110 7       769.738
G17  24816446.960   130411290.723 5      5460.469    24816445.120   130411290.730 2      5460.469    24816456.740   101619199.339 2      4254.911    24816458.700   101619252.385 6      4254.911
G27  24203891.120   127192284.773 6      -195.239    24203889.720   127192284.775 5      -195.239    24203904.360    99110919.777 5      -152.135    24203904.680    99110923.749 6      -152.135
R08  21805597.760   116767968.438 7       549.153    21805597.980   116767968.466 7       549.153    21805611.340    90819598.138 7       427.119    21805610.720    90819596.137 7       427.119
G04  24751231.860   130068603.238 5      5581.356    24751231.160   130068603.249 2      5581.356    24751247.920   101352214.426 2      4349.109    24751248.360   101352223.476 6      4349.109
G14  22637662.000   118961718.091 7      4207.905    22637660.980   118961718.099 5      4207.905    22637667.640    92697467.858 5      3278.887    22637668.080    92697460.850 7      3278.887
G03  20632891.280   108426573.893 8      4376.348    20632889.940   108426573.895 6      4376.348    20632896.480    84488264.791 6      3410.142    20632897.080    84488267.789 8      3410.142
R24  20985813.720   112220575.181 7      3554.475    20985813.960   112220575.185 7      3554.475    20985823.800    87282715.838 7      2764.592    20985824.320    87282716.853 7      2764.592
G32  25283326.580   132864779.334 6      1422.169    25283323.780   132864779.344 6      1422.169    25283339.460   103531048.032 6      1108.184    25283340.600   103531056.044 7      1108.184
R01  20207329.140   108019750.358 7      4720.109    20207329.540   108019750.375 6      4720.109    20207340.160    84015418.488 6      3671.196    20207339.520    84015416.478 6      3671.196
R14  21774757.220   116071703.563 7       865.330    21774756.700   116071703.564 7       865.330    21774767.560    90278031.164 7       673.035    21774768.260    90278036.170 7       673.035
R23  22043587.380   117918323.221 6      1494.014    22043587.440   117918323.241 6      1494.014
G22  24632838.640   129446441.000 6      5097.910    24632837.220   129446441.007 3      5097.910    24632845.860   100867374.337 3      3972.398
G21  21928876.660   115237015.816 7      1390.957    21928874.800   115237015.819 6      1390.957    21928879.040    89795057.829 6      1083.863
> 2024 06 03 13 30 34.0000000  0 16
G02  21723896.540   114159848.859 7      2238.473    21723894.800   114159848.861 6      2238.473    21723897.560    88955730.350 6      1744.264
R17  23671318.220   126669996.755 7      4770.523    23671318.600   126669996.773 7      4770.523    23671335.940    98521191.572 7      3710.407    23671335.760    98521189.568 7      3710.407
G08  21494335.520   112953490.975 7       987.142    21494334.060   112953490.974 7       987.142    21494341.980    88015730.604 7       769.202    21494342.780    88015736.601 7       769.202
G17  24815408.020   130405829.792 5      5460.926    24815405.880   130405829.800 2      5460.926    24815417.560   101614944.076 2      4255.267    24815419.300   101614997.123 6      4255.267
G27  24203927.460   127192480.441 6      -196.005    24203926.700   127192480.443 4      -196.005    24203941.540    99111072.240 5      -152.731    24203942.500    99111076.214 6      -152.731
R08  21805495.000   116767419.823 7       548.019    21805496.100   116767419.862 7       548.019    21805508.400    90819171.456 7       426.237    21805508.640    90819169.461 7       426.237
G04  24750170.040   130063021.831 5      5581.416    24750169.080   130063021.836 2      5581.416    24750186.280   101347865.279 2      4349.155    24750186.880   101347874.290 6      4349.155
G14  22636861.180   118957510.618 7      4206.995    22636860.340   118957510.626 5      4206.995    22636867.040    92694189.318 5      3278.178    22636867.300    92694182.324 7      3278.178
G03  20632058.440   108422197.951 8      4375.519    20632057.320   108422197.951 6      4375.519    20632063.780    84484854.966 6      3409.495    20632064.400    84484857.966 8      3409.495
R24  20985149.500   112217020.798 7      3554.167    20985148.920   112217020.799 7      3554.167    20985159.200    87279951.316 7      2764.352    20985159.740    87279952.334 7      2764.352
G32  25283056.040   132863357.508 6      1421.392    25283053.760   132863357.515 6      1421.392    25283068.700   103529940.132 6      1107.578    25283070.220   103529948.125 7      1107.578
R01  20206446.160   108015030.698 7      4719.152    20206446.080   108015030.715 6      4719.152    20206457.580    84011747.654 6      3670.452    20206456.940    84011745.648 6      3670.452
R14  21774595.000   116070838.631 7       864.371    21774594.360   116070838.629 7       864.371    21774605.560    90277358.458 7       672.288    21774605.940    90277363.468 7       672.288
R23  22043307.780   117916829.408 7      1493.604    22043308.360   117916829.434 6      1493.604
G22  24631868.500   129441343.384 6      5097.109    24631867.100   129441343.392 3      5097.109    24631875.720   100863402.178 3      3971.773
G21  21928611.900   115235624.974 7      1390.614    21928610.100   115235624.981 6      1390.614    21928614.200    89793974.058 6      1083.595
> 2024 06 03 13 30 35.0000000  0 16
G02  21723470.600   114157610.198 7      2238.818    21723468.820   114157610.198 6      2238.818    21723471.540    88953985.934 6      1744.534
R17  23670426.740   126665226.043 7      4770.834    23670427.260   126665226.056 7      4770.834    23670444.500    98517481.006 7      3710.648    23670444.460    98517478.998 7      3710.648
G08  21494147.640   112952503.895 7       987.024    21494146.140   112952503.887 7       987.024    21494154.080    88014961.437 7       769.109    21494154.760    88014967.438 7       769.109
G17  24814368.360   130400368.917 5      5461.135    24814366.820   130400368.922 2      5461.135    24814378.520   101610688.857 2      4255.430    24814380.360   101610741.912 6      4255.430
G27  24203964.420   127192676.357 6      -195.747    24203964.220   127192676.359 4      -195.747    24203978.900    99111224.893 4      -152.530    24203979.980    99111228.866 6      -152.530
R08  21805392.280   116766872.016 7       547.617    21805394.080   116766872.047 7       547.617    21805406.540    90818745.374 7       425.924    21805406.180    90818743.377 7       425.924
G04  24749107.200   130057440.311 5      5581.531    24749106.820   130057440.310 2      5581.531    24749124.020   101343516.047 2      4349.245    24749124.460   101343525.070 6      4349.245
G14  22636060.840   118953303.789 7      4206.703    22636059.820   118953303.796 5      4206.703    22636066.560    92690911.271 5      3277.951    22636066.840    92690904.273 7      3277.951
G03  20631225.880   108417822.638 8      4375.090    20631224.740   108417822.637 7      4375.090    20631231.220    84481445.635 7      3409.161    20631231.900    84481448.635 8      3409.161
R24  20984484.840   112213466.514 7      3554.463    20984484.620   112213466.518 7      3554.463    20984494.120    87277186.865 7      2764.582    20984495.100    87277187.880 7      2764.582
G32  25282785.640   132861936.239 6      1421.079    25282783.340   132861936.244 6      1421.079    25282798.300   103528832.637 6      1107.334    25282799.340   103528840.633 7      1107.334
R01  20205563.120   108010311.882 6      4718.751    20205563.640   108010311.894 6      4718.751    20205574.920    84008077.468 6      3670.140    20205573.960    84008075.461 6      3670.140
R14  21774432.820   116069974.467 7       863.986    21774432.280   116069974.468 7       863.986    21774443.520    90276686.320 7       671.989    21774443.720    90276691.330 7       671.989
R23  22043028.240   117915335.740 7      1493.799    22043029.140   117915335.771 6      1493.799
G22  24630897.780   129436246.165 6      5097.143    24630897.120   129436246.175 3      5097.143    24630905.700   100859430.323 3      3971.800
G21  21928347.140   115234234.195 7      1390.998    21928345.600   115234234.197 6      1390.998    21928349.400    89792890.338 6      1083.894
> 2024 06 03 13 30 36.0000000  0 16
G02  21723044.740   114155371.582 7      2238.425    21723042.880   114155371.587 6      2238.425    21723045.460    88952241.566 6      1744.227
R17  23669535.080   126660455.158 7      4770.787    23669535.480   126660455.181 7      4770.787    23669552.760    98513770.336 7      3710.612    23669553.100    98513768.326 7      3710.612
G08  21493959.900   112951517.170 7       986.405    21493958.300   112951517.170 7       986.405    21493966.280    88014192.562 7       768.627    21493966.700    88014198.563 7       768.627
G17  24813328.760   130394908.029 5      5460.370    24813327.760   130394908.036 2      5460.370    24813339.200   101606433.630 2      4254.834    24813340.520   101606486.699 6      4254.834
G27  24204002.220   127192872.462 6      -196.191    24204001.540   127192872.469 4      -196.191    24204016.120    99111377.698 4      -152.876    24204017.160    99111381.685 6      -152.876
R08  21805289.920   116766324.973 7       546.548    21805292.080   116766325.009 7       546.548    21805304.020    90818319.894 7       425.093    21805304.060    90818317.901 7       425.093
G04  24748045.100   130051858.554 5      5581.741    24748044.500   130051858.556 2      5581.741    24748061.860   101339166.626 2      4349.409    24748062.360   101339175.645 6      4349.409
G14  22635260.160   118949097.527 7      4205.790    22635259.340   118949097.535 5      4205.790    22635266.060    92687633.666 5      3277.239    22635266.480    92687626.656 7      3277.239
G03  20630393.320   108413447.870 8      4374.318    20630392.320   108413447.867 7      4374.318    20630398.680    84478036.728 7      3408.560    20630399.500    84478039.728 8      3408.560
R24  20983820.000   112209912.241 7      3554.041    20983820.160   112209912.253 7      3554.041    20983829.540    87274422.445 7      2764.254    20983830.140    87274423.456 7      2764.254
G32  25282515.120   132860515.427 7      1420.370    25282513.020   132860515.432 6      1420.370    25282527.780   103527725.522 6      1106.782    25282528.980   103527733.525 7      1106.782
R01  20204680.860   108005593.837 6      4717.561    20204681.200   108005593.843 6      4717.561    20204692.460    84004407.881 6      3669.214    20204691.200    84004405.868 6      3669.214
R14  21774270.900   116069110.967 7       863.026    21774270.160   116069110.965 7       863.026    21774281.580    90276014.702 7       671.243    21774281.740    90276019.710 7       671.243
R23  22042749.440   117913842.176 6      1493.410    22042749.980   117913842.191 6      1493.410
G22  24629927.620   129431149.301 6      5096.349    24629927.120   129431149.306 3      5096.349    24629935.760   100855458.744 3      3971.181
G21  21928082.520   115232843.455 7      1390.619    21928080.780   115232843.460 6      1390.619    21928084.660    89791806.645 6      1083.599
> 2024 06 03 13 30 37.0000000  0 16
G02  21722618.700   114153133.202 7      2238.270    21722617.020   114153133.210 6      2238.270    21722619.540    88950497.376 6      1744.107
R17  23668643.640   126655684.387 7      4770.806    23668644.400   126655684.399 7      4770.806    23668661.080    98510059.726 7      3710.627    23668661.120    98510057.716 7      3710.627
G08  21493772.380   112950531.000 7       985.988    21493770.580   112950531.000 7       985.988    21493778.760    88013424.118 7       768.302    21493779.340    88013430.119 7       768.302
G17  24812289.940   130389447.098 5      5461.208    24812288.500   130389447.109 2      5461.208    24812300.040   101602178.365 2      4255.487    24812301.580   101602231.398 6      4255.487
G27  24204039.780   127193069.010 6      -196.690    24204038.880   127193069.018 4      -196.690    24204053.500    99111530.845 4      -153.265    24204054.780    99111534.817 6      -153.265
R08  21805188.000   116765778.875 7       545.763    21805190.120   116765778.908 7       545.763    21805202.340    90817895.140 7       424.482    21805202.140    90817893.141 7       424.482
G04  24746982.980   130046276.892 5      5581.649    24746982.640   130046276.897 2      5581.649    24746999.560   101334817.281 2      4349.337    24747000.100   101334826.306 6      4349.337
G14  22634459.700   118944891.954 7      4205.296    22634458.900   118944891.964 5      4205.296    22634465.920    92684356.590 5      3276.854    22634466.660    92684349.584 7      3276.854
G03  20629560.640   108409073.823 8      4373.798    20629560.180   108409073.820 7      4373.798    20629566.200    84474628.388 6      3408.154    20629567.120    84474631.383 8      3408.154
R24  20983155.260   112206358.168 7      3554.018    20983155.300   112206358.183 7      3554.018    20983164.880    87271658.160 7      2764.236    20983165.580    87271659.173 7      2764.236
G32  25282244.660   132859095.285 6      1419.880    25282242.600   132859095.290 6      1419.880    25282257.780   103526618.905 6      1106.400    25282258.780   103526626.901 7      1106.400
R01  20203798.620   108000876.729 6      4716.514    20203798.580   108000876.746 6      4716.514    20203809.960    84000739.026 6      3668.400    20203809.180    84000737.017 6      3668.400
R14  21774109.060   116068248.277 8       862.331    21774108.680   116068248.274 7       862.331    21774119.540    90275343.725 7       670.702    21774120.040    90275348.729 7       670.702
R23  22042469.920   117912348.861 6      1493.209    22042470.580   117912348.873 6      1493.209
G22  24628958.120   129426052.891 6      5096.193    24628957.460   129426052.904 3      5096.193    24628966.040   100851487.526 3      3971.060
G21  21927817.660   115231452.865 7      1390.621    21927816.120   115231452.869 6      1390.621    21927820.020    89790723.066 6      1083.600
> 2024 06 03 13 30 38.0000000  0 16
G02  21722192.720   114150894.710 7      2238.421    21722191.060   114150894.714 6      2238.421    21722193.540    88948753.098 6      1744.224
R17  23667752.300   126650913.363 7      4770.897    23667752.680   126650913.377 7      4770.897    23667769.480    98506348.938 7      3710.697    23667769.700    98506346.925 7      3710.697
G08  21493584.720   112949545.084 7       985.622    21493583.060   112949545.084 7       985.622    21493591.180    88012655.876 7       768.017    21493592.120    88012661.875 7       768.017
G17  24811250.600   130383985.995 5      5461.152    24811249.400   130383986.005 2      5461.152    24811260.760   101597922.964 2      4255.443    24811262.040   101597975.996 6      4255.443
G27  24204077.360   127193265.601 6      -196.977    24204076.300   127193265.606 4      -196.977    24204090.860    99111684.020 4      -153.489    24204092.200    99111687.995 6      -153.489
R08  21805086.280   116765233.376 7       544.997    21805087.800   116765233.410 7       544.997    21805100.220    90817470.870 7       423.887    21805100.200    90817468.873 7       423.887
G04  24745921.360   130040694.857 5      5582.071    24745920.560   130040694.856 2      5582.071    24745937.300   101330467.668 2      4349.665    24745937.520   101330476.676 6      4349.665
G14  22633659.560   118940686.832 7      4204.718    22633658.800   118940686.845 5      4204.718    22633665.840    92681079.876 5      3276.403    22633666.300    92681072.876 7      3276.403
G03  20628728.560   108404700.225 8      4373.240    20628728.040   108404700.225 7      4373.240    20628733.920    84471220.391 6      3407.719    20628734.740    84471223.389 8      3407.719
R24  20982490.760   112202804.010 7      3554.045    20982490.300   112202804.022 7      3554.045    20982500.380    87268893.808 7      2764.257    20982501.040    87268894.813 7      2764.257
G32  25281974.800   132857675.469 6      1419.493    25281972.060   132857675.474 6      1419.493    25281987.640   103525512.557 6      1106.098    25281988.700   103525520.559 7      1106.098
R01  20202916.460   107996160.212 7      4715.927    20202916.260   107996160.235 6      4715.927    20202927.620    83997070.622 6      3667.943    20202926.720    83997068.613 6      3667.943
R14  21773947.200   116067386.053 7       861.811    21773946.480   116067386.048 7       861.811    21773957.520    90274673.100 7       670.298    21773958.240    90274678.106 7       670.298
R23  22042190.880   117910855.485 6      1493.239    22042191.620   117910855.505 6      1493.239
G22  24627988.460   129420956.731 6      5095.799    24627987.800   129420956.744 3      5095.799    24627996.180   100847516.505 3      3970.753
G21  21927553.080   115230062.175 8      1390.503    21927551.500   115230062.180 6      1390.503    21927555.500    89789639.412 6      1083.509
> 2024 06 03 13 30 39.0000000  0 16
G02  21721766.900   114148656.212 7      2238.595    21721765.120   114148656.216 6      2238.595    21721767.660    88947008.818 6      1744.360
R17  23666860.620   126646142.140 7      4771.450    23666861.100   126646142.163 7      4771.450    23666877.640    98502638.005 7      3711.128    23666877.880    98502635.995 7      3711.128
G08  21493396.980   112948559.479 7       985.529    21493395.300   112948559.478 7       985.529    21493403.580    88011887.880 7       767.945    21493404.400    88011893.883 7       767.945
G17  24810210.940   130378524.707 5      5461.473    24810210.140   130378524.712 2      5461.473    24810221.460   101593667.421 2      4255.694    24810223.700   101593720.451 6      4255.694
G27  24204114.740   127193462.295 6      -196.817    24204113.660   127193462.302 4      -196.817    24204128.160    99111837.278 4      -153.364    24204129.640    99111841.256 6      -153.364
R08  21804984.700   116764688.475 7       544.713    21804986.340   116764688.492 7       544.713    21804998.440    90817047.051 7       423.666    21804998.340    90817045.054 7       423.666
G04  24744859.680   130035112.595 5      5582.565    24744858.500   130035112.595 2      5582.565    24744875.000   101326117.835 2      4350.050    24744875.280   101326126.871 6      4350.050
G14  22632859.440   118936482.194 7      4204.503    22632858.700   118936482.210 5      4204.503    22632865.520    92677803.545 5      3276.236    22632866.180    92677796.551 7      3276.236
G03  20627896.360   108400327.116 8      4372.957    20627895.880   108400327.116 6      4372.957    20627901.880    84467812.778 6      3407.499    20627902.620    84467815.773 8      3407.499
R24  20981826.200   112199249.841 7      3554.263    20981825.100   112199249.853 7      3554.263    20981835.960    87266129.471 7      2764.426    20981836.440    87266130.478 7      2764.426
G32  25281704.700   132856256.084 6      1419.267    25281701.940   132856256.094 6      1419.267    25281717.740   103524406.549 6      1105.923    25281718.440   103524414.549 7      1105.923
R01  20202034.440   107991444.383 7      4715.518    20202034.440   107991444.392 6      4715.518    20202045.200    83993402.759 6      3667.625    20202044.460    83993400.747 6      3667.625
R14  21773785.680   116066524.349 7       861.504    21773785.160   116066524.341 7       861.504    21773795.960    90274002.890 7       670.059    21773796.620    90274007.894 7       670.059
R23  22041911.580   117909362.159 6      1493.459    22041912.780   117909362.174 6      1493.459
G22  24627018.640   129415860.832 6      5095.939    24627017.840   129415860.847 3      5095.939    24627026.360   100843545.684 3      3970.862
G21  21927288.400   115228671.401 7      1390.848    21927286.880   115228671.405 6      1390.848    21927290.680    89788555.689 6      1083.778
> 2024 06 03 13 30 40.0000000  0 16
G02  21721340.840   114146417.745 7      2238.351    21721339.140   114146417.750 6      2238.351    21721341.560    88945264.557 6      1744.170
R17  23665968.900   126641370.864 7      4771.256    23665969.560   126641370.884 7      4771.256    23665985.720    98498927.009 7      3710.977    23665986.460    98498925.003 7      3710.977
G08  21493209.260   112947574.265 7       984.852    21493207.800   112947574.262 7       984.852    21493216.100    88011120.174 7       767.417    21493216.820    88011126.173 7       767.417
G17  24809172.480   130373063.364 5      5461.104    24809170.940   130373063.366 2      5461.104    24809182.240   101589411.835 3      4255.406    24809184.320   101589464.882 6      4255.406
G27  24204152.360   127193659.227 6      -197.317    24204151.100   127193659.232 4      -197.317    24204165.680    99111990.715 4      -153.754    24204166.440    99111994.692 6      -153.754
R08  21804883.480   116764144.328 7       543.695    21804885.020   116764144.354 7       543.695    21804896.820    90816623.826 7       422.874    21804896.820    90816621.829 7       422.874
G04  24743798.060   130029530.171 5      5582.560    24743796.080   130029530.176 2      5582.560    24743812.540   101321767.898 2      4350.047    24743812.520   101321776.924 6      4350.047
G14  22632059.640   118932278.127 7      4203.632    22632058.800   118932278.139 5      4203.632    22632065.640    92674527.654 5      3275.557    22632066.360    92674520.661 7      3275.557
G03  20627064.320   108395954.577 8      4372.103    20627063.840   108395954.574 7      4372.103    20627069.840    84464405.609 6      3406.833    20627070.660    84464408.602 8      3406.833
R24  20981161.560   112195695.747 7      3554.029    20981160.680   112195695.759 7      3554.029    20981171.260    87263365.180 7      2764.245    20981171.840    87263366.187 7      2764.245
G32  25281434.780   132854837.185 6      1418.561    25281432.120   132854837.195 6      1418.561    25281447.900   103523300.911 6      1105.372    25281448.840   103523308.917 7      1105.372
R01  20201152.300   107986729.328 7      4714.500    20201152.020   107986729.334 6      4714.500    20201163.580    83989735.490 6      3666.833    20201162.560    83989733.476 6      3666.833
R14  21773624.120   116065663.255 8       860.582    21773623.520   116065663.247 7       860.582    21773634.420    90273333.144 7       669.342    21773635.140    90273338.150 7       669.342
R23  22041632.960   117907868.948 6      1492.931    22041633.620   117907868.966 6      1492.931
G22  24626049.060   129410765.300 6      5095.118    24626048.240   129410765.318 3      5095.118    24626056.840   100839575.146 3      3970.221
G21  21927023.560   115227280.661 8      1390.548    21927022.280   115227280.663 6      1390.548    21927026.000    89787471.996 6      1083.544
> 2024 06 03 13 30 41.0000000  0 16
G02  21720915.100   114144179.415 7      2238.286    21720913.160   114144179.420 6      2238.286    21720915.680    88943520.406 6      1744.119
R17  23665077.300   126636599.566 7      4771.340    23665077.940   126636599.578 7      4771.340    23665094.400    98495215.991 7      3711.042    23665094.520    98495213.981 7      3711.042
G08  21493022.060   112946589.524 7       984.487    21493020.480   112946589.523 7       984.487    21493028.680    88010352.844 7       767.133    21493029.360    88010358.847 7       767.133
G17  24808133.360   130367601.997 5      5461.442    24808131.720   130367601.997 2      5461.442    24808142.940   101585156.231 3      4255.669    24808144.880   101585209.290 6      4255.669
G27  24204190.220   127193856.425 6      -197.260    24204188.520   127193856.432 4      -197.260    24204203.140    99112144.364 4      -153.709    24204203.280    99112148.338 6      -153.709
R08  21804781.460   116763601.036 7       542.985    21804783.340   116763601.059 7       542.985    21804795.360    90816201.257 7       422.322    21804795.080    90816199.262 7       422.322
G04  24742734.400   130023947.718 5      5582.468    24742733.920   130023947.723 2      5582.468    24742750.220   101317417.937 2      4349.975    24742749.820   101317426.956 6      4349.975
G14  22631259.760   118928074.716 7      4203.097    22631258.680   118928074.729 5      4203.097    22631265.940    92671252.271 5      3275.141    22631266.220    92671245.269 7      3275.141
G03  20626232.380   108391582.679 8      4371.676    20626231.840   108391582.674 7      4371.676    20626237.940    84460998.937 7      3406.501    20626238.740    84461001.935 8      3406.501
R24  20980497.120   112192141.752 7      3554.118    20980496.080   112192141.762 7      3554.118    20980506.700    87260600.954 7      2764.314    20980507.060    87260601.960 7      2764.314
G32  25281164.560   132853418.877 6      1418.055    25281162.240   132853418.888 6      1418.055    25281177.920   103522195.741 6      1104.978    25281179.120   103522203.742 7      1104.978
R01  20200270.120   107982015.107 7      4713.792    20200269.900   107982015.119 6      4713.792    20200281.260    83986068.884 6      3666.283    20200280.580    83986066.870 6      3666.283
R14  21773462.540   116064802.859 8       860.098    21773462.220   116064802.852 7       860.098    21773472.940    90272663.954 7       668.965    21773473.300    90272668.955 7       668.965
R23  22041353.740   117906375.909 6      1493.040    22041354.400   117906375.929 6      1493.040
G22  24625079.220   129405670.191 6      5094.883    24625078.580   129405670.206 3      5094.883    24625087.420   100835604.937 3      3970.039
G21  21926758.960   115225890.015 8      1390.641    21926757.480   115225890.020 6      1390.641    21926761.380    89786388.382 6      1083.616
> 2024 06 03 13 30 42.0000000  0 16
G02  21720489.160   114141941.143 7      2238.213    21720487.220   114141941.148 6      2238.213    21720489.700    88941776.298 6      1744.062
R17  23664185.560   126631828.124 7      4771.492    23664185.600   126631828.147 7      4771.492    23664202.500    98491504.903 7      3711.160    23664202.880    98491502.889 7      3711.160
G08  21492834.760   112945605.153 7       984.161    21492833.040   112945605.153 7       984.161    21492841.420    88009585.799 7       766.879    21492841.980    88009591.801 7       766.879
G17  24807093.840   130362140.544 5      5461.616    24807092.740   130362140.544 2      5461.616    24807103.720   101580900.560 3      4255.805    24807105.560   101580953.616 6      4255.805
G27  24204228.240   127194053.854 6      -197.641    24204226.180   127194053.862 4      -197.641    24204240.580    99112298.202 4      -154.006    24204240.660    99112302.189 6      -154.006
R08  21804680.340   116763058.496 7       542.123    21804682.160   116763058.516 7       542.123    21804694.240    90815779.278 7       421.651    21804693.920    90815777.281 7       421.651
G04  24741672.280   130018364.979 5      5582.920    24741671.600   130018364.981 2      5582.920    24741687.980   101313067.750 2      4350.327    24741686.900   101313076.786 6      4350.327
G14  22630459.880   118923871.854 7      4202.600    22630459.200   118923871.864 5      4202.600    22630466.180    92667977.306 5      3274.754    22630466.500    92667970.300 7      3274.754
G03  20625400.380   108387211.362 8      4371.006    20625399.980   108387211.357 6      4371.006    20625406.060    84457592.720 6      3405.978    20625406.920    84457595.716 8      3405.978
R24  20979832.560   112188587.762 7      3554.072    20979831.580   112188587.772 7      3554.072    20979842.160    87257836.743 7      2764.278    20979842.540    87257837.748 7      2764.278
G32  25280894.300   132852001.061 6      1417.391    25280892.580   132852001.066 6      1417.391    25280908.060   103521090.949 6      1104.460    25280909.260   103521098.940 7      1104.460
R01  20199388.360   107977301.635 7      4713.183    20199388.120   107977301.639 6      4713.183    20199399.700    83982402.858 6      3665.809    20199398.700    83982400.849 6      3665.809
R14  21773301.500   116063943.112 8       859.411    21773301.100   116063943.107 7       859.411    21773311.520    90271995.261 7       668.431    21773312.400    90272000.265 7       668.431
R23  22041074.800   117904882.963 7      1493.033    22041075.040   117904882.980 6      1493.033
G22  24624109.920   129400575.413 6      5094.517    24624108.900   129400575.431 3      5094.517    24624117.960   100831634.993 3      3969.754
G21  21926494.480   115224499.378 7      1390.637    21926492.820   115224499.380 6      1390.637    21926496.820    89785304.775 6      1083.613
> 2024 06 03 13 30 43.0000000  0 16
G02  21720063.220   114139702.887 7      2238.001    21720061.320   114139702.892 6      2238.001    21720063.840    88940032.204 6      1743.897
R17  23663294.120   126627056.615 7      4771.417    23663293.880   126627056.633 7      4771.417    23663310.840    98487793.727 7      3711.102    23663310.900    98487791.711 7      3711.102
G08  21492647.600   112944621.163 7       983.551    21492645.860   112944621.163 7       983.551    21492654.180    88008819.050 7       766.403    21492655.040    88008825.053 7       766.403
G17  24806054.800   130356679.002 5      5461.426    24806053.540   130356679.004 2      5461.426    24806064.360   101576644.820 3      4255.657    24806066.820   101576697.875 6      4255.657
G27  24204265.720   127194251.457 6      -197.671    24204263.620   127194251.461 4      -197.671    24204278.260    99112452.168 4      -154.029    24204278.660    99112456.132 6      -154.029
R08  21804579.740   116762516.634 7       541.266    21804581.280   116762516.659 7       541.266    21804593.120    90815357.835 7       420.985    21804592.920    90815355.843 7       420.985
G04  24740609.760   130012782.215 5      5582.488    24740609.340   130012782.223 2      5582.488    24740625.600   101308717.558 2      4349.991    24740625.200   101308726.566 6      4349.991
G14  22629660.160   118919669.549 7      4201.823    22629659.520   118919669.559 5      4201.823    22629666.400    92664702.781 5      3274.147    22629666.620    92664695.781 7      3274.147
G03  20624568.680   108382840.589 8      4370.267    20624568.380   108382840.583 7      4370.267    20624574.500    84454186.923 7      3405.403    20624575.160    84454189.922 8      3405.403
R24  20979167.600   112185033.826 7      3553.631    20979167.060   112185033.833 7      3553.631    20979177.800    87255072.583 7      2763.935    20979178.080    87255073.586 7      2763.935
G32  25280624.400   132850583.675 7      1416.911    25280622.880   132850583.688 6      1416.911    25280638.140   103519986.488 6      1104.087    25280639.500   103519994.488 7      1104.087
R01  20198507.060   107972588.932 7      4712.217    20198506.800   107972588.941 6      4712.217    20198518.220    83978737.421 6      3665.058    20198517.520    83978735.411 6      3665.058
R14  21773140.300   116063083.977 8       858.606    21773140.000   116063083.975 7       858.606    21773150.420    90271327.058 7       667.805    21773151.280    90271332.067 7       667.805
R23  22040796.000   117903390.110 7      1492.542    22040795.580   117903390.130 6      1492.542
G22  24623141.080   129395480.995 6      5093.865    24623139.360   129395481.010 3      5093.865    24623148.480   100827665.327 3      3969.245
G21  21926229.960   115223108.756 8      1390.419    21926228.280   115223108.761 6      1390.419    21926232.080    89784221.176 6      1083.443
> 2024 06 03 13 30 44.0000000  0 16
G02  21719637.120   114137464.873 7      2238.075    21719635.440   114137464.880 6      2238.075    21719637.940    88938288.301 6      1743.954
R17  23662402.160   126622285.216 7      4771.536    23662402.460   126622285.225 7      4771.536    23662419.320    98484082.630 7      3711.195    23662419.020    98484080.610 7      3711.195
G08  21492460.640   112943637.715 7       983.408    21492458.780   112943637.715 7       983.408    21492467.020    88008052.727 7       766.292    21492467.760    88008058.732 7       766.292
G17  24805015.540   130351217.559 5      5461.428    24805014.400   130351217.561 2      5461.428    24805025.080   101572389.157 3      4255.658    24805027.320   101572442.208 6      4255.658
G27  24204302.900   127194449.508 6      -198.038    24204301.280   127194449.516 4      -198.038    24204315.840    99112606.480 4      -154.315    24204315.840    99112610.440 6      -154.315
R08  21804479.080   116761975.681 7       540.600    21804479.760   116761975.718 7       540.600    21804491.800    90814937.109 7       420.467    21804491.760    90814935.114 7       420.467
G04  24739547.600   130007199.381 5      5582.923    24739547.300   130007199.389 2      5582.923    24739563.140   101304367.297 2      4350.330    24739563.360   101304376.286 6      4350.330
G14  22628860.640   118915467.972 7      4201.437    22628860.000   118915467.980 5      4201.437    22628866.720    92661428.823 5      3273.847    22628867.320    92661421.825 7      3273.847
G03  20623737.300   108378470.541 8      4369.896    20623736.820   108378470.541 6      4369.896    20623742.820    84450781.695 6      3405.114    20623743.560    84450784.696 8      3405.114
R24  20978502.900   112181480.133 7      3553.772    20978502.460   112181480.145 7      3553.772    20978513.160    87252308.606 7      2764.045    20978513.820    87252309.611 7      2764.045
G32  25280354.900   132849166.960 6      1416.599    25280353.360   132849166.970 6      1416.599    25280368.700   103518882.560 6      1103.844    25280369.820   103518890.568 7      1103.844
R01  20197625.540   107967877.181 7      4711.481    20197625.160   107967877.187 6      4711.481    20197637.080    83975072.732 6      3664.485    20197636.340    83975070.726 7      3664.485
R14  21772979.140   116062225.671 7       858.089    21772979.180   116062225.663 7       858.089    21772989.540    90270659.491 7       667.403    21772990.220    90270664.498 7       667.403
R23  22040517.120   117901897.488 6      1492.673    22040516.820   117901897.511 6      1492.673
G22  24622171.320   129390387.031 6      5093.924    24622169.980   129390387.049 3      5093.924    24622179.160   100823696.011 3      3969.291
G21  21925965.220   115221718.306 7      1390.589    21925963.680   115221718.310 6      1390.589    21925967.540    89783137.714 6      1083.576
> 2024 06 03 13 30 45.0000000  0 16
G02  21719211.180   114135226.850 7      2237.969    21719209.600   114135226.852 6      2237.969    21719211.980    88936544.397 6      1743.872
R17  23661510.740   126617513.619 7      4771.787    23661511.100   126617513.615 7      4771.787    23661527.800    98480371.394 7      3711.390    23661527.340    98480369.374 7      3711.390
G08  21492273.420   112942654.624 7       982.868    21492271.660   112942654.618 7       982.868    21492280.060    88007286.682 7       765.871    21492280.600    88007292.683 7       765.871
G17  24803976.600   130345755.953 6      5461.499    24803975.120   130345755.953 2      5461.499    24803985.720   101568133.366 3      4255.714    24803988.840   101568186.415 6      4255.714
G27  24204340.320   127194647.681 6      -198.394    24204338.660   127194647.688 4      -198.394    24204353.580    99112760.894 4      -154.593    24204353.780    99112764.860 6      -154.593
R08  21804377.360   116761435.452 7       539.707    21804379.220   116761435.491 7       539.707    21804391.240    90814516.908 7       419.772    21804390.940    90814514.909 7       419.772
G04  24738485.320   130001616.329 5      5583.053    24738484.940   130001616.331 2      5583.053    24738500.660   101300016.865 2      4350.431    24738500.900   101300025.868 6      4350.431
G14  22628061.240   118911266.918 7      4200.777    22628060.520   118911266.928 5      4200.777    22628067.480    92658155.278 5      3273.333    22628067.680    92658148.284 8      3273.333
G03  20622905.640   108374101.024 8      4369.219    20622905.300   108374101.023 7      4369.219    20622911.340    84447376.892 6      3404.586    20622912.040    84447379.896 8      3404.586
R24  20977838.600   112177926.502 7      3553.711    20977837.620   112177926.503 7      3553.711    20977848.780    87249544.639 7      2763.997    20977849.340    87249545.642 7      2763.997
G32  25280085.340   132847750.686 6      1416.110    25280083.940   132847750.688 5      1416.110    25280099.100   103517778.974 6      1103.462    25280099.780   103517786.974 7      1103.462
R01  20196743.880   107963166.087 7      4710.837    20196743.540   107963166.086 6      4710.837    20196755.440    83971408.564 6      3663.984    20196754.740    83971406.557 7      3663.984
R14  21772818.320   116061367.949 8       857.373    21772818.020   116061367.941 7       857.373    21772829.060    90269992.369 7       666.846    21772829.640    90269997.381 7       666.846
R23  22040237.720   117900404.884 6      1492.476    22040237.740   117900404.891 6      1492.476
G22  24621202.180   129385293.412 6      5093.303    24621200.580   129385293.433 3      5093.303    24621209.860   100819726.967 3      3968.807
G21  21925700.700   115220327.834 8      1390.463    21925699.020   115220327.839 6      1390.463    21925702.980    89782054.229 6      1083.477
> 2024 06 03 13 30 46.0000000  0 16
G02  21718785.220   114132989.035 7      2237.732    21718783.740   114132989.043 6      2237.732    21718786.300    88934800.662 6      1743.687
R17  23660619.260   126612742.048 7      4771.791    23660619.040   126612742.052 7      4771.791    23660635.800    98476660.191 7      3711.393    23660636.140    98476658.173 7      3711.393
G08  21492086.360   112941672.043 7       982.375    21492084.640   112941672.040 7       982.375    21492092.980    88006521.034 7       765.487    21492093.860    88006527.044 7       765.487
G17  24802937.520   130340294.355 6      5461.650    24802936.020   130340294.358 2      5461.650    24802946.580   101563877.586 3      4255.831    24802948.680   101563930.645 6      4255.831
G27  24204378.100   127194846.179 6      -198.526    24204376.220   127194846.190 4      -198.526    24204391.500    99112915.562 4      -154.696    24204391.980    99112919.530 6      -154.696
R08  21804276.660   116760896.090 7       539.050    21804278.240   116760896.127 7       539.050    21804290.540    90814097.382 7       419.261    21804289.760    90814095.385 7       419.261
G04  24737421.960   129996033.169 5      5583.461    24737422.820   129996033.164 2      5583.461    24737438.420   101295666.353 2      4350.749    24737438.160   101295675.382 6      4350.749
G14  22627262.000   118907066.571 7      4200.098    22627261.320   118907066.579 5      4200.098    22627268.080    92654882.284 5      3272.804    22627268.240    92654875.291 7      3272.804
G03  20622074.460   108369732.221 8      4368.527    20622074.160   108369732.218 6      4368.527    20622080.140    84443972.630 6      3404.047    20622080.780    84443975.628 8      3404.047
R24  20977174.040   112174372.975 7      3553.545    20977173.360   112174372.984 7      3553.545    20977184.400    87246780.787 7      2763.868    20977184.760    87246781.790 7      2763.868
G32  25279816.460   132846335.079 7      1415.313    25279815.100   132846335.087 6      1415.313    25279829.720   103516675.902 5      1102.842    25279830.620   103516683.901 6      1102.842
R01  20195862.900   107958455.929 7      4709.802    20195863.120   107958455.935 6      4709.802    20195873.660    83967745.114 6      3663.179    20195873.980    83967743.111 6      3663.179
R14  21772657.520   116060511.002 8       856.655    21772656.920   116060510.995 7       856.655    21772668.460    90269325.872 7       666.287    21772668.780    90269330.888 7       666.287
R23  22039958.260   117898912.527 6      1492.371    22039958.580   117898912.544 6      1492.371
G22  24620233.240   129380200.287 6      5092.950    24620231.540   129380200.302 3      5092.950    24620240.600   100815758.304 3      3968.533
G21  21925436.180   115218937.506 7      1390.344    21925434.520   115218937.509 6      1390.344    21925438.480    89780970.853 6      1083.385
> 2024 06 03 13 30 47.0000000  0 16
G02  21718359.480   114130751.347 8      2237.624    21718357.980   114130751.357 6      2237.624    21718360.400    88933057.012 6      1743.603
R17  23659727.740   126607970.507 7      4771.588    23659727.300   126607970.525 7      4771.588    23659744.480    98472949.007 7      3711.235    23659744.440    98472947.002 7      3711.235
G08  21491899.520   112940689.919 7       981.938    21491897.720   112940689.921 7       981.938    21491906.160    88005755.751 7       765.146    21491906.940    88005761.756 7       765.146
G17  24801897.560   130334832.784 6      5461.544    24801896.520   130334832.781 3      5461.544    24801907.280   101559621.818 3      4255.749    24801909.160   101559674.893 6      4255.749
G27  24204416.220   127195044.996 6      -198.995    24204414.000   127195045.006 4      -198.995    24204429.360    99113070.476 4      -155.061    24204430.200    99113074.433 6      -155.061
R08  21804176.120   116760357.583 7       538.134    21804178.140   116760357.617 7       538.134    21804189.800    90813678.545 7       418.549    21804189.280    90813676.545 7       418.549
G04  24736360.440   129990450.044 5      5583.302    24736360.860   129990450.043 2      5583.302    24736376.400   101291315.873 2      4350.625    24736376.400   101291324.882 6      4350.625
G14  22626463.000   118902866.868 7      4199.338    22626462.140   118902866.875 5      4199.338    22626468.960    92651609.794 5      3272.212    22626469.480    92651602.805 8      3272.212
G03  20621243.280   108365364.038 8      4367.913    20621243.080   108365364.041 7      4367.913    20621248.900    84440568.858 6      3403.569    20621249.580    84440571.860 8      3403.569
R24  20976509.460   112170819.549 7      3553.305    20976509.040   112170819.564 7      3553.305    20976519.740    87244017.022 7      2763.682    20976520.400    87244018.023 7      2763.682
G32  25279547.020   132844919.974 7      1414.885    25279546.040   132844919.984 6      1414.885    25279560.500   103515573.225 6      1102.508    25279560.900   103515581.220 6      1102.508
R01  20194981.960   107953746.602 6      4708.905    20194981.100   107953746.598 6      4708.905    20194993.040    83964082.306 6      3662.481    20194992.880    83964080.301 6      3662.481
R14  21772497.120   116059654.775 7       855.909    21772495.800   116059654.762 7       855.909    21772508.200    90268659.913 7       665.707    21772508.240    90268664.927 7       665.707
R23  22039679.260   117897420.354 6      1492.123    22039679.360   117897420.368 6      1492.123
G22  24619263.880   129375107.559 6      5092.569    24619262.480   129375107.577 3      5092.569    24619271.420   100811789.948 3      3968.236
G21  21925171.640   115217547.258 7      1390.241    21925169.940   115217547.257 6      1390.241    21925173.700    89779887.543 6      1083.305
> 2024 06 03 13 30 48.0000000  0 16
G02  21717933.740   114128513.724 8      2237.453    21717932.040   114128513.731 6      2237.453    21717934.600    88931313.410 6      1743.470
R17  23658835.780   126603198.875 7      4771.598    23658835.880   126603198.893 7      4771.598    23658853.260    98469237.740 7      3711.243    23658852.800    98469235.736 7      3711.243
G08  21491712.720   112939708.202 7       981.423    21491711.060   112939708.204 7       981.423    21491719.280    88004990.773 7       764.745    21491720.260    88004996.776 7       764.745
G17  24800859.180   130329371.123 5      5461.576    24800857.160   130329371.123 3      5461.576    24800867.820   101555365.989 3      4255.774    24800869.240   101555419.060 6      4255.774
G27  24204453.520   127195244.033 5      -199.412    24204451.760   127195244.040 4      -199.412    24204467.120    99113225.555 4      -155.386    24204467.840    99113229.507 6      -155.386
R08  21804075.760   116759819.793 7       537.198    21804077.460   116759819.832 7       537.198    21804089.480    90813260.265 7       417.820    21804088.760    90813258.268 7       417.820
G04  24735297.660   129984866.731 5      5583.147    24735298.640   129984866.726 2      5583.147    24735314.120   101286965.243 2      4350.504    24735313.500   101286974.251 6      4350.504
G14  22625664.180   118898667.726 7      4198.733    22625663.200   118898667.737 5      4198.733    22625669.740    92648337.734 5      3271.740    22625670.340    92648330.738 8      3271.740
G03  20620412.020   108360996.460 8      4367.135    20620411.820   108360996.460 6      4367.135    20620417.840    84437165.554 6      3402.962    20620418.640    84437168.554 8      3402.962
R24  20975844.640   112167266.177 7      3553.099    20975844.440   112167266.192 7      3553.099    20975855.300    87241253.294 7      2763.522    20975855.660    87241254.295 7      2763.522
G32  25279278.300   132843505.395 7      1414.105    25279276.920   132843505.413 6      1414.105    25279291.340   103514470.963 6      1101.900    25279292.020   103514478.967 7      1101.900
R01  20194101.100   107949038.034 6      4708.041    20194100.620   107949038.027 6      4708.041    20194112.480    83960420.085 6      3661.810    20194111.820    83960418.086 6      3661.810
R14  21772336.540   116058799.188 7       855.069    21772335.100   116058799.175 7       855.069    21772347.800    90267994.457 7       665.054    21772347.900    90267999.470 7       665.054
R23  22039400.240   117895928.280 6      1491.826    22039400.920   117895928.302 6      1491.826
G22  24618295.000   129370015.203 6      5092.070    24618293.420   129370015.221 3      5092.070    24618302.480   100807821.885 3      3967.847
G21  21924907.140   115216157.059 7      1389.978    21924905.540   115216157.064 6      1389.978    21924909.100    89778804.271 6      1083.099
> 2024 06 03 13 30 49.0000000  0 16
G02  21717507.880   114126276.203 7      2237.745    21717506.260   114126276.211 6      2237.745    21717508.820    88929569.888 6      1743.697
R17  23657943.940   126598427.181 7      4771.970    23657944.140   126598427.194 7      4771.970    23657961.500    98465526.425 7      3711.532    23657961.000    98465524.423 7      3711.532
G08  21491526.020   112938726.929 8       981.343    21491524.220   112938726.931 7       981.343    21491532.660    88004226.138 7       764.683    21491533.520    88004232.148 7       764.683
G17  24799819.740   130323909.436 5      5462.140    24799817.960   130323909.436 3      5462.140    24799828.500   101551110.139 3      4256.213    24799829.920   101551163.190 6      4256.213
G27  24204491.120   127195443.291 5      -199.020    24204489.540   127195443.288 4      -199.020    24204504.900    99113380.805 4      -155.080    24204506.360    99113384.756 6      -155.080
R08  21803975.300   116759282.763 7       536.822    21803977.200   116759282.810 7       536.822    21803989.060    90812842.592 7       417.528    21803988.440    90812840.591 7       417.528
G04  24734236.380   129979283.225 5      5584.096    24734236.420   129979283.224 2      5584.096    24734252.180   101282614.458 2      4351.244    24734251.840   101282623.473 6      4351.244
G14  22624865.080   118894469.213 7      4198.487    22624864.320   118894469.221 5      4198.487    22624870.900    92645066.163 5      3271.548    22624871.420    92645059.170 7      3271.548
G03  20619581.000   108356629.478 8      4366.988    20619580.860   108356629.475 6      4366.988    20619586.840    84433762.713 6      3402.848    20619587.800    84433765.717 8      3402.848
R24  20975180.440   112163712.914 7      3553.494    20975179.860   112163712.932 7      3553.494    20975190.900    87238489.650 7      2763.828    20975191.340    87238490.651 7      2763.828
G32  25279009.500   132842091.349 7      1414.030    25279007.920   132842091.359 6      1414.030    25279022.260   103513369.109 6      1101.842    25279023.260   103513377.109 7      1101.842
R01  20193220.480   107944330.276 6      4707.668    20193219.300   107944330.280 6      4707.668    20193231.900    83956758.510 6      3661.520    20193231.380    83956756.504 6      3661.520
R14  21772176.380   116057944.245 7       854.881    21772174.320   116057944.227 7       854.881    21772187.660    90267329.487 7       664.908    21772187.760    90267334.499 8       664.908
R23  22039121.660   117894436.339 6      1492.277    22039122.000   117894436.362 6      1492.277
G22  24617325.780   129364923.231 6      5092.057    24617324.440   129364923.252 3      5092.057    24617333.540   100803854.121 3      3967.837
G21  21924642.520   115214766.882 7      1390.408    21924640.880   115214766.886 6      1390.408    21924644.740    89777721.020 6      1083.434
> 2024 06 03 13 30 50.0000000  0 16
G02  21717082.080   114124038.533 7      2237.682    21717080.520   114124038.538 6      2237.682    21717083.080    88927826.250 6      1743.649
R17  23657051.780   126593655.177 7      4772.188    23657052.200   126593655.187 7      4772.188    23657069.860    98461814.864 7      3711.702    23657069.120    98461812.858 7      3711.702
G08  21491339.140   112937745.819 7       981.005    21491337.640   112937745.821 7       981.005    21491345.820    88003461.639 7       764.420    21491346.720    88003467.651 7       764.420
G17  24798779.500   130318447.433 5      5462.256    24798778.540   130318447.438 3      5462.256    24798789.180   101546854.041 3      4256.303    24798790.560   101546907.094 6      4256.303
G27  24204529.200   127195642.556 5      -199.208    24204527.560   127195642.561 4      -199.208    24204542.780    99113536.068 4      -155.227    24204544.100    99113540.020 6      -155.227
R08  21803875.380   116758746.277 7       536.164    21803877.300   116758746.308 7       536.164    21803888.720    90812425.302 7       417.016    21803888.360    90812423.301 7       417.016
G04  24733173.400   129973699.452 5      5583.862    24733174.140   129973699.452 2      5583.862    24733189.800   101278263.469 2      4351.061    24733189.720   101278272.480 6      4351.061
G14  22624065.860   118890271.039 7      4197.990    22624065.420   118890271.044 5      4197.990    22624072.060    92641794.859 5      3271.161    22624072.500    92641787.869 8      3271.161
G03  20618749.960   108352262.862 8      4366.434    20618749.880   108352262.854 6      4366.434    20618755.880    84430360.155 6      3402.416    20618756.640    84430363.157 8      3402.416
R24  20974515.860   112160159.505 7      3553.414    20974515.340   112160159.514 7      3553.414    20974526.280    87235725.887 7      2763.767    20974526.780    87235726.883 7      2763.767
G32  25278740.460   132840677.584 7      1413.542    25278739.000   132840677.597 6      1413.542    25278753.400   103512267.474 6      1101.462    25278754.360   103512275.472 7      1101.462
R01  20192340.240   107939623.095 6      4706.937    20192338.780   107939623.083 6      4706.937    20192351.220    83953097.363 6      3660.951    20192350.680    83953095.364 6      3660.951
R14  21772015.740   116057089.730 7       854.194    21772013.860   116057089.712 7       854.194    21772027.580    90266664.862 8       664.373    21772027.340    90266669.873 8       664.373
R23  22038842.360   117892944.335 6      1491.930    22038843.280   117892944.360 6      1491.930
G22  24616357.080   129359831.404 6      5091.755    24616355.540   129359831.422 3      5091.755    24616364.520   100799886.468 3      3967.601
G21  21924378.180   115213376.538 7      1390.292    21924376.280   115213376.543 6      1390.292    21924380.100    89776637.638 6      1083.345
> 2024 06 03 13 30 51.0000000  0 16
G02  21716656.380   114121801.039 8      2237.409    21716654.780   114121801.046 6      2237.409    21716657.300    88926082.750 6      1743.436
R17  23656160.180   126588883.216 7      4771.981    23656160.620   126588883.237 7      4771.981    23656177.920    98458103.349 7      3711.541    23656177.420    98458101.341 7      3711.541
G08  21491152.620   112936765.230 8       980.327    21491151.100   112936765.232 7       980.327    21491159.240    88002697.537 7       763.891    21491160.000    88002703.542 7       763.891
G17  24797740.220   130312985.518 5      5461.819    24797739.280   130312985.523 3      5461.819    24797749.840   101542598.007 3      4255.963    24797751.220   101542651.060 6      4255.963
G27  24204567.080   127195842.182 5      -199.764    24204565.400   127195842.184 4      -199.764    24204580.740    99113691.606 4      -155.660    24204582.620    99113695.558 6      -155.660
R08  21803775.700   116758210.666 7       535.222    21803777.060   116758210.695 7       535.222    21803788.920    90812008.729 7       416.284    21803788.440    90812006.730 7       416.284
G04  24732111.440   129968115.594 5      5583.878    24732111.500   129968115.596 2      5583.878    24732126.720   101273912.408 2      4351.074    24732126.580   101273921.423 6      4351.074
G14  22623267.240   118886073.556 7      4197.218    22623266.760   118886073.561 5      4197.218    22623273.200    92638524.097 5      3270.560    22623273.520    92638517.105 8      3270.560
G03  20617919.180   108347896.936 8      4365.594    20617919.220   108347896.931 6      4365.594    20617925.040    84426958.139 6      3401.761    20617925.880    84426961.141 8      3401.761
R24  20973851.320   112156606.226 7      3553.149    20973850.580   112156606.238 7      3553.149    20973861.700    87232962.238 7      2763.560    20973862.260    87232963.241 7      2763.560
G32  25278471.360   132839264.418 7      1413.033    25278470.220   132839264.431 6      1413.033    25278484.560   103511166.300 6      1101.064    25278485.220   103511174.300 7      1101.064
R01  20191459.980   107934916.794 6      4705.921    20191458.360   107934916.795 6      4705.921    20191470.660    83949436.915 6      3660.161    20191470.180    83949434.909 6      3660.161
R14  21771855.680   116056235.973 7       853.379    21771853.780   116056235.963 7       853.379    21771867.420    90266000.814 8       663.740    21771867.340    90266005.824 8       663.740
R23  22038563.460   117891452.534 6      1491.672    22038564.260   117891452.554 6      1491.672
G22  24615388.160   129354740.063 6      5090.975    24615386.660   129354740.086 3      5090.975    24615395.620   100795919.193 3      3966.994
G21  21924113.260   115211986.321 8      1390.152    21924111.660   115211986.324 6      1390.152    21924115.480    89775554.349 6      1083.235
> 2024 06 03 13 30 52.0000000  0 16
G02  21716230.700   114119563.710 7      2237.525    21716228.860   114119563.717 6      2237.525    21716231.460    88924339.377 6      1743.526
R17  23655268.380   126584111.290 7      4772.190    23655268.640   126584111.316 7      4772.190    23655285.900    98454391.862 7      3711.703    23655285.700    98454389.862 7      3711.703
G08  21490966.080   112935785.142 7       980.010    21490964.580   112935785.144 7       980.010    21490972.620    88001933.837 7       763.644    21490973.680    88001939.844 7       763.644
G17  24796700.780   130307523.563 5      5462.354    24796699.920   130307523.565 3      5462.354    24796710.400   101538341.944 3      4256.380    24796711.200   101538394.999 6      4256.380
G27  24204605.340   127196042.131 5      -200.195    24204603.540   127196042.138 4      -200.195    24204618.760    99113847.411 4      -155.996    24204619.900    99113851.381 6      -155.996
R08  21803675.500   116757675.988 7       534.385    21803676.580   116757676.027 7       534.385    21803689.440    90811592.857 7       415.633    21803688.760    90811590.858 7       415.633
G04  24731049.060   129962531.682 5      5584.117    24731048.860   129962531.679 2      5584.117    24731063.720   101269561.310 2      4351.260    24731063.620   101269570.303 6      4351.260
G14  22622468.620   118881876.777 7      4196.642    22622468.040   118881876.787 5      4196.642    22622474.560    92635253.887 5      3270.111    22622475.140    92635246.902 8      3270.111
G03  20617088.600   108343531.707 8      4365.046    20617088.400   108343531.704 6      4365.046    20617094.320    84423556.666 6      3401.334    20617095.200    84423559.670 8      3401.334
R24  20973187.160   112153053.156 7      3553.212    20973186.260   112153053.155 7      3553.212    20973197.580    87230198.733 7      2763.609    20973197.960    87230199.734 7      2763.609
G32  25278202.360   132837851.894 6      1412.272    25278201.400   132837851.906 6      1412.272    25278215.680   103510065.654 6      1100.472    25278216.500   103510073.654 7      1100.472
R01  20190579.760   107930211.399 6      4705.211    20190578.340   107930211.389 6      4705.211    20190590.320    83945777.165 6      3659.608    20190589.840    83945775.161 6      3659.608
R14  21771695.820   116055382.998 7       852.811    21771694.000   116055382.988 7       852.811    21771707.440    90265337.364 8       663.297    21771707.320    90265342.372 8       663.297
R23  22038284.760   117889960.960 6      1491.748    22038285.160   117889960.974 6      1491.748
G22  24614419.120   129349649.177 6      5090.891    24614418.100   129349649.195 3      5090.891    24614427.000   100791952.273 3      3966.928
G21  21923848.640   115210596.236 7      1390.282    21923847.140   115210596.238 6      1390.282    21923850.980    89774471.166 6      1083.337
> 2024 06 03 13 30 53.0000000  0 16
G02  21715804.940   114117326.578 7      2237.137    21715803.140   114117326.586 6      2237.137    21715805.800    88922596.162 6      1743.224
R17  23654376.600   126579339.369 7      4772.000    23654377.100   126579339.387 7      4772.000    23654394.360    98450680.376 7      3711.555    23654393.940    98450678.372 7      3711.555
G08  21490779.720   112934805.548 7       979.441    21490777.900   112934805.556 7       979.441    21490786.160    88001170.521 7       763.201    21490787.240    88001176.530 7       763.201
G17  24795661.820   130302061.678 5      5461.787    24795660.580   130302061.683 3      5461.787    24795670.860   101534085.935 3      4255.938    24795671.520   101534139.000 6      4255.938
G27  24204643.720   127196242.363 5      -200.135    24204641.660   127196242.368 4      -200.135    24204656.780    99114003.430 4      -155.949    24204658.000    99114007.392 6      -155.949
R08  21803575.640   116757142.117 7       533.525    21803577.460   116757142.148 7       533.525    21803589.500    90811177.610 7       414.964    21803588.980    90811175.613 7       414.964
G04  24729986.220   129956947.787 5      5583.916    24729986.100   129956947.792 2      5583.916    24730000.980   101265210.206 2      4351.104    24730001.720   101265219.185 6      4351.104
G14  22621670.300   118877680.686 7      4195.788    22621669.440   118877680.699 5      4195.788    22621676.320    92631984.206 5      3269.446    22621676.440    92631977.215 8      3269.446
G03  20616258.020   108339167.143 8      4364.351    20616257.860   108339167.142 6      4364.351    20616263.860    84420155.713 6      3400.793    20616264.660    84420158.717 8      3400.793
R24  20972522.500   112149500.223 7      3552.964    20972521.680   112149500.224 7      3552.964    20972533.220    87227435.347 7      2763.417    20972533.540    87227436.347 7      2763.417
G32  25277933.980   132836439.923 7      1411.856    25277932.800   132836439.936 6      1411.856    25277946.840   103508965.414 6      1100.148    25277947.740   103508973.409 7      1100.148
R01  20189699.800   107925506.869 6      4704.174    20189697.580   107925506.857 6      4704.174    20189710.440    83942118.095 6      3658.802    20189709.880    83942116.094 6      3658.802
R14  21771535.680   116054530.721 7       852.000    21771534.680   116054530.719 7       852.000    21771547.720    90264674.495 8       662.667    21771547.520    90264679.504 8       662.667
R23  22038006.080   117888469.618 6      1491.291    22038006.280   117888469.631 6      1491.291
G22  24613450.300   129344558.737 6      5090.433    24613449.360   129344558.752 3      5090.433    24613458.340   100787985.698 3      3966.572
G21  21923584.100   115209206.305 7      1389.915    21923582.620   115209206.310 6      1389.915    21923586.540    89773388.107 6      1083.051
> 2024 06 03 13 30 54.0000000  0 16
G02  21715379.160   114115089.436 7      2236.913    21715377.520   114115089.446 6      2236.913    21715380.000    88920852.934 6      1743.049
R17  23653484.900   126574567.290 7      4772.153    23653485.020   126574567.305 7      4772.153    23653502.720    98446968.748 7      3711.674    23653502.380    98446966.755 7      3711.674
G08  21490593.400   112933826.288 7       978.942    21490591.780   112933826.288 7       978.942    21490600.000    88000407.457 7       762.812    21490600.800    88000413.468 7       762.812
G17  24794622.100   130296599.589 5      5462.146    24794621.160   130296599.592 3      5462.146    24794631.520   101529829.768 3      4256.218    24794632.500   101529882.820 6      4256.218
G27  24204681.440   127196442.817 5      -200.712    24204679.760   127196442.822 4      -200.712    24204695.020    99114159.617 4      -156.399    24204695.980    99114163.561 6      -156.399
R08  21803476.140   116756608.887 7       532.660    21803477.700   116756608.929 7       532.660    21803489.920    90810762.884 7       414.291    21803489.500    90810760.887 7       414.291
G04  24728923.320   129951363.550 5      5584.227    24728923.240   129951363.560 1      5584.227    24728938.340   101260858.865 2      4351.346    24728939.520   101260867.862 6      4351.346
G14  22620871.560   118873485.053 7      4195.335    22620870.960   118873485.063 5      4195.335    22620877.840    92628714.884 5      3269.092    22620878.240    92628707.890 8      3269.092
G03  20615427.500   108334803.085 8      4363.694    20615427.360   108334803.085 6      4363.694    20615433.460    84416755.155 6      3400.281    20615434.040    84416758.157 8      3400.281
R24  20971858.100   112145947.276 7      3552.841    20971857.500   112145947.274 7      3552.841    20971868.880    87224671.943 7      2763.321    20971868.880    87224672.946 7      2763.321
G32  25277665.560   132835028.416 7      1411.146    25277664.240   132835028.423 6      1411.146    25277678.060   103507865.541 6      1099.594    25277678.980   103507873.535 7      1099.594
R01  20188819.020   107920803.043 6      4703.310    20188818.080   107920803.042 6      4703.310    20188830.440    83938459.572 6      3658.130    20188829.880    83938457.572 6      3658.130
R14  21771375.960   116053679.041 7       851.205    21771375.140   116053679.044 7       851.205    21771388.140    90264012.079 8       662.048    21771387.900    90264017.086 8       662.048
R23  22037727.360   117886978.259 6      1491.320    22037726.840   117886978.263 6      1491.320
G22  24612481.500   129339468.610 6      5089.764    24612480.800   129339468.625 3      5089.764    24612489.680   100784019.367 3      3966.050
G21  21923319.620   115207816.298 7      1389.858    21923318.000   115207816.303 6      1389.858    21923322.100    89772304.989 6      1083.006
> 2024 06 03 13 30 55.0000000  0 16
G02  21714953.820   114112852.407 7      2236.808    21714951.920   114112852.414 6      2236.808    21714954.300    88919109.801 6      1742.968
R17  23652593.360   126569795.249 7      4771.887    23652593.060   126569795.266 7      4771.887    23652610.760    98443257.177 7      3711.468    23652610.820    98443255.186 7      3711.468
G08  21490407.200   112932847.506 8       978.395    21490405.540   112932847.508 7       978.395    21490413.520    87999644.766 7       762.386    21490414.680    87999650.781 7       762.386
G17  24793583.260   130291137.592 6      5461.935    24793581.920   130291137.594 3      5461.935    24793592.240   101525573.674 3      4256.054    24793592.980   101525626.709 6      4256.054
G27  24204719.420   127196643.509 5      -200.846    24204717.940   127196643.514 4      -200.846    24204733.160    99114315.989 4      -156.504    24204733.860    99114319.951 6      -156.504
R08  21803376.660   116756076.489 7       531.798    21803378.320   116756076.531 7       531.798    21803390.400    90810348.816 7       413.621    21803389.960    90810346.812 7       413.621
G04  24727859.100   129945779.318 5      5583.999    24727861.140   129945779.328 1      5583.999    24727875.680   101256507.516 2      4351.168    24727876.120   101256516.524 6      4351.168
G14  22620073.340   118869290.118 7      4194.509    22620072.600   118869290.136 5      4194.509    22620079.600    92625446.114 5      3268.448    22620080.320    92625439.120 8      3268.448
G03  20614597.100   108330439.703 8      4362.928    20614596.980   108330439.700 6      4362.928    20614603.080    84413355.119 6      3399.684    20614603.980    84413358.125 8      3399.684
R24  20971193.660   112142394.468 7      3552.651    20971192.760   112142394.480 7      3552.651    20971204.400    87221908.657 7      2763.173    20971204.560    87221909.661 7      2763.173
G32  25277396.840   132833617.475 7      1410.466    25277395.880   132833617.486 6      1410.466    25277409.640   103506766.114 6      1099.065    25277409.780   103506774.113 7      1099.065
R01  20187939.600   107916100.085 6      4702.402    20187938.260   107916100.087 6      4702.402    20187950.640    83934801.726 6      3657.424    20187949.960    83934799.725 6      3657.424
R14  21771216.600   116052828.105 7       850.427    21771215.580   116052828.100 7       850.427    21771228.660    90263350.237 8       661.444    21771228.240    90263355.241 8       661.444
R23  22037448.480   117885487.137 6      1490.808    22037448.580   117885487.154 6      1490.808
G22  24611512.960   129334378.892 6      5089.408    24611512.400   129334378.905 3      5089.408    24611521.260   100780053.356 3      3965.773
G21  21923055.160   115206426.402 7      1389.721    21923053.520   115206426.404 6      1389.721    21923057.760    89771221.949 6      1082.900
> 2024 06 03 13 30 56.0000000  0 16
G02  21714527.840   114110615.409 7      2237.155    21714526.260   114110615.417 6      2237.155    21714528.640    88917366.686 6      1743.238
R17  23651701.700   126565023.068 7      4772.342    23651701.060   126565023.080 7      4772.342    23651718.760    98439545.471 7      3711.821    23651719.060    98439543.482 7      3711.821
G08  21490220.820   112931869.076 7       978.352    21490219.380   112931869.081 7       978.352    21490227.460    87998882.355 7       762.353    21490228.580    87998888.368 7       762.353
G17  24792543.880   130285675.387 6      5462.261    24792542.440   130285675.390 3      5462.261    24792552.860   101521317.419 3      4256.307    24792552.780   101521370.490 6      4256.307
G27  24204757.880   127196844.380 5      -200.771    24204756.280   127196844.390 4      -200.771    24204771.380    99114472.509 4      -156.445    24204773.340    99114476.476 6      -156.445
R08  21803277.500   116755544.812 7       531.416    21803279.500   116755544.862 7       531.416    21803291.140    90809935.293 7       413.323    21803291.000    90809933.292 7       413.323
G04  24726795.940   129940194.831 5      5585.019    24726798.600   129940194.838 1      5585.019    24726812.660   101252155.969 2      4351.963    24726813.640   101252164.962 6      4351.963
G14  22619275.300   118865095.691 7      4194.279    22619274.500   118865095.703 5      4194.279    22619281.400    92622177.733 5      3268.269    22619281.880    92622170.751 8      3268.269
G03  20613766.900   108326076.852 8      4362.675    20613766.780   108326076.852 6      4362.675    20613772.800    84409955.499 6      3399.487    20613773.440    84409958.500 8      3399.487
R24  20970529.340   112138841.657 7      3552.814    20970528.600   112138841.675 7      3552.814    20970540.040    87219145.368 7      2763.300    20970540.260    87219146.371 7      2763.300
G32  25277128.440   132832206.987 7      1410.494    25277127.380   132832206.997 6      1410.494    25277141.260   103505667.034 6      1099.087    25277142.000   103505675.027 7      1099.087
R01  20187060.080   107911397.868 7      4702.062    20187058.760   107911397.864 6      4702.062    20187070.820    83931144.429 6      3657.159    20187070.500    83931142.434 6      3657.159
R14  21771057.320   116051977.736 8       850.186    21771056.120   116051977.734 7       850.186    21771068.940    90262688.813 8       661.256    21771068.840    90262693.818 7       661.256
R23  22037169.840   117883996.055 6      1491.136    22037169.840   117883996.070 6      1491.136
G22  24610544.940   129329289.503 6      5089.273    24610543.720   129329289.516 3      5089.273    24610552.800   100776087.596 3      3965.667
G21  21922790.660   115205036.474 7      1390.082    21922788.880   115205036.474 6      1390.082    21922793.360    89770138.886 6      1083.181
> 2024 06 03 13 30 57.0000000  0 16
G02  21714102.340   114108378.690 7      2236.787    21714100.660   114108378.700 6      2236.787    21714103.140    88915623.788 6      1742.951
R17  23650809.880   126560251.003 7      4772.220    23650809.040   126560251.010 7      4772.220    23650826.880    98435833.846 7      3711.726    23650827.320    98435831.854 6      3711.726
G08  21490034.660   112930891.251 7       977.671    21490033.260   112930891.256 7       977.671    21490041.220    87998120.407 7       761.822    21490042.600    87998126.414 8       761.822
G17  24791504.920   130280213.327 5      5462.227    24791503.120   130280213.327 3      5462.227    24791513.480   101517061.278 3      4256.281    24791514.240   101517114.341 6      4256.281
G27  24204795.800   127197045.717 5      -201.207    24204794.780   127197045.724 4      -201.207    24204809.740    99114629.389 4      -156.785    24204811.600    99114633.330 6      -156.785
R08  21803178.180   116755014.112 7       530.372    21803180.140   116755014.154 7       530.372    21803191.880    90809522.516 7       412.512    21803191.740    90809520.515 7       412.512
G04  24725733.920   129934610.483 5      5584.385    24725736.060   129934610.491 1      5584.385    24725750.280   101247804.501 2      4351.469    24725751.300   101247813.502 6      4351.469
G14  22618477.140   118860902.086 7      4193.340    22618476.480   118860902.098 5      4193.340    22618483.340    92618909.997 5      3267.537    22618484.100    92618903.003 8      3267.537
G03  20612936.620   108321714.771 8      4361.899    20612936.640   108321714.770 6      4361.899    20612942.780    84406556.480 6      3398.883    20612943.680    84406559.482 8      3398.883
R24  20969865.300   112135289.149 7      3552.465    20969864.020   112135289.155 7      3552.465    20969875.920    87216382.295 7      2763.028    20969876.020    87216383.304 7      2763.028
G32  25276860.080   132830797.219 7      1409.563    25276859.220   132830797.229 6      1409.563    25276873.040   103504568.517 6      1098.361    25276873.800   103504576.519 7      1098.361
R01  20186180.620   107906696.629 7      4700.863    20186178.940   107906696.622 6      4700.863    20186191.260    83927487.922 6      3656.227    20186191.000    83927485.923 6      3656.227
R14  21770898.000   116051128.188 8       849.247    21770896.980   116051128.191 7       849.247    21770909.520    90262028.059 8       660.526    21770909.420    90262033.063 8       660.526
R23  22036891.500   117882505.294 6      1490.787    22036891.380   117882505.312 6      1490.787
G22  24609576.740   129324200.658 6      5088.693    24609575.300   129324200.671 3      5088.693    24609584.440   100772122.265 3      3965.215
G21  21922526.240   115203646.785 7      1389.689    21922524.620   115203646.790 6      1389.689    21922528.820    89769056.014 6      1082.874
> 2024 06 03 13 30 58.0000000  0 16
G02  21713676.620   114106141.953 7      2236.678    21713674.960   114106141.957 6      2236.678    21713677.600    88913880.875 6      1742.866
R17  23649917.960   126555478.755 6      4772.314    23649917.560   126555478.757 7      4772.314    23649934.720    98432122.102 7      3711.800    23649935.560    98432120.113 6      3711.800
G08  21489848.800   112929913.720 7       977.313    21489847.380   112929913.724 7       977.313    21489855.220    87997358.698 7       761.542    21489856.360    87997364.714 7       761.542
G17  24790465.260   130274751.136 5      5462.195    24790463.660   130274751.135 3      5462.195    24790474.160   101512805.035 3      4256.256    24790474.080   101512858.082 6      4256.256
G27  24204834.520   127197247.179 6      -201.444    24204833.320   127197247.181 4      -201.444    24204848.120    99114786.356 4      -156.970    24204849.720    99114790.297 6      -156.970
R08  21803079.340   116754484.073 7       529.551    21803080.980   116754484.115 7       529.551    21803092.900    90809110.259 7       411.873    21803092.780    90809108.260 7       411.873
G04  24724670.900   129929025.865 5      5584.618    24724673.080   129929025.873 1      5584.618    24724687.480   101243452.885 2      4351.650    24724688.960   101243461.855 6      4351.650
G14  22617679.060   118856708.930 7      4192.859    22617678.520   118856708.940 5      4192.859    22617685.480    92615642.605 5      3267.163    22617686.100    92615635.613 8      3267.163
G03  20612106.900   108317353.196 8      4361.238    20612106.680   108317353.198 6      4361.238    20612112.780    84403157.855 6      3398.367    20612113.540    84403160.859 8      3398.367
R24  20969200.560   112131736.592 7      3552.436    20969200.020   112131736.601 7      3552.436    20969211.400    87213619.202 7      2763.006    20969211.680    87213620.207 7      2763.006
G32  25276591.720   132829387.871 7      1408.933    25276590.980   132829387.878 6      1408.933    25276604.820   103503470.322 6      1097.870    25276605.880   103503478.315 7      1097.870
R01  20185301.060   107901996.058 6      4700.148    20185299.740   107901996.067 6      4700.148    20185312.140    83923831.931 6      3655.671    20185311.900    83923829.934 6      3655.671
R14  21770738.620   116050279.197 8       848.640    21770737.980   116050279.195 7       848.640    21770750.280    90261367.723 8       660.053    21770750.100    90261372.728 8       660.053
R23  22036612.600   117881014.565 6      1490.699    22036612.220   117881014.572 6      1490.699
G22  24608608.940   129319112.071 6      5088.430    24608606.940   129319112.084 3      5088.430    24608616.120   100768157.136 3      3965.010
G21  21922262.080   115202257.031 7      1389.701    21922260.080   115202257.033 6      1389.701    21922264.280    89767973.090 6      1082.884
> 2024 06 03 13 30 59.0000000  0 16
G02  21713251.120   114103905.331 7      2236.618    21713249.180   114103905.335 6      2236.618    21713251.940    88912138.055 6      1742.819
R17  23649025.900   126550706.500 6      4772.308    23649026.020   126550706.504 7      4772.308    23649043.320    98428410.352 7      3711.795    23649043.540    98428408.358 6      3711.795
G08  21489663.060   112928936.659 7       976.790    21489661.340   112928936.664 7       976.790    21489669.320    87996597.356 7       761.135    21489670.360    87996603.364 7       761.135
G17  24789425.640   130269288.918 6      5462.378    24789424.240   130269288.917 3      5462.378    24789434.820   101508548.770 3      4256.398    24789434.620   101508601.804 6      4256.398
G27  24204873.280   127197448.930 6      -201.772    24204871.760   127197448.932 4      -201.772    24204886.480    99114943.554 4      -157.225    24204887.780    99114947.508 6      -157.225
R08  21802980.560   116753954.835 7       528.722    21802981.980   116753954.877 7       528.722    21802994.260    90808698.630 7       411.228    21802993.920    90808696.633 7       411.228
G04  24723608.460   129923441.095 5      5584.811    24723610.180   129923441.097 1      5584.811    24723624.660   101239101.114 2      4351.801    24723626.020   101239110.133 6      4351.801
G14  22616881.340   118852516.426 7      4192.211    22616880.660   118852516.439 5      4192.211    22616887.900    92612375.729 5      3266.658    22616888.060    92612368.747 8      3266.658
G03  20611277.280   108312992.258 8      4360.623    20611276.660   108312992.255 6      4360.623    20611282.980    84399759.721 6      3397.888    20611283.760    84399762.723 8      3397.888
R24  20968536.700   112128184.156 7      3552.407    20968535.600   112128184.160 7      3552.407    20968547.200    87210856.185 7      2762.983    20968547.200    87210857.192 7      2762.983
G32  25276323.760   132827979.056 7      1408.452    25276323.020   132827979.061 6      1408.452    25276336.820   103502372.540 6      1097.495    25276337.560   103502380.544 7      1097.495
R01  20184422.280   107897296.324 6      4699.238    20184420.840   107897296.341 6      4699.238    20184432.960    83920176.599 6      3654.963    20184432.460    83920174.608 6      3654.963
R14  21770579.400   116049430.884 8       847.882    21770578.880   116049430.884 7       847.882    21770591.140    90260707.930 8       659.464    21770590.940    90260712.933 8       659.464
R23  22036334.020   117879524.008 6      1490.470    22036333.740   117879524.023 6      1490.470
G22  24607640.380   129314023.962 6      5087.838    24607638.600   129314023.974 3      5087.838    24607647.820   100764192.385 3      3964.549
G21  21921997.640   115200867.344 7      1389.643    21921995.620   115200867.341 6      1389.643    21921999.940    89766890.222 6      1082.839
> 2024 06 03 13 31  0.0000000  0 16
G02  21712825.520   114101668.803 7      2236.475    21712823.720   114101668.806 6      2236.475    21712826.280    88910395.305 6      1742.708
R17  23648134.220   126545934.167 6      4772.429    23648133.980   126545934.176 7      4772.429    23648151.440    98424698.537 7      3711.890    23648151.320    98424696.540 6      3711.890
G08  21489477.180   112927960.002 7       976.471    21489475.560   112927960.005 7       976.471    21489483.660    87995836.325 7       760.886    21489484.720    87995842.335 7       760.886
G17  24788386.240   130263826.629 6      5462.428    24788384.840   130263826.629 3      5462.428    24788395.360   101504292.449 3      4256.437    24788394.700   101504345.484 6      4256.437
G27  24204911.940   127197650.928 6      -202.114    24204910.100   127197650.936 4      -202.114    24204924.980    99115100.943 4      -157.491    24204927.280    99115104.901 6      -157.491
R08  21802881.840   116753426.363 7       528.037    21802883.560   116753426.404 7       528.037    21802895.540    90808287.600 7       410.695    21802895.520    90808285.596 7       410.695
G04  24722545.240   129917856.269 5      5584.660    24722547.480   129917856.274 1      5584.660    24722562.020   101234749.302 1      4351.684    24722563.460   101234758.319 6      4351.684
G14  22616083.560   118848324.518 7      4191.605    22616082.760   118848324.528 5      4191.605    22616090.140    92609109.316 5      3266.186    22616090.380    92609102.324 7      3266.186
G03  20610447.660   108308631.918 8      4360.052    20610446.960   108308631.918 6      4360.052    20610453.260    84396362.056 6      3397.443    20610453.780    84396365.062 8      3397.443
R24  20967872.380   112124631.810 7      3552.271    20967871.540   112124631.814 7      3552.271    20967882.740    87208093.250 7      2762.878    20967882.700    87208094.259 7      2762.878
G32  25276055.600   132826570.767 7      1407.923    25276055.140   132826570.777 6      1407.923    25276068.760   103501275.172 6      1097.083    25276069.260   103501283.172 7      1097.083
R01  20183543.460   107892597.380 6      4698.625    20183541.480   107892597.387 6      4698.625    20183554.440    83916521.865 6      3654.486    20183553.460    83916519.860 6      3654.486
R14  21770420.200   116048583.239 8       847.343    21770419.980   116048583.234 7       847.343    21770432.220    90260048.644 8       659.044    21770431.720    90260053.645 8       659.044
R23  22036055.280   117878033.590 6      1490.370    22036054.920   117878033.596 6      1490.370
G22  24606672.240   129308936.212 6      5087.478    24606670.420   129308936.230 3      5087.478    24606679.780   100760227.914 3      3964.268
G21  21921733.320   115199477.711 7      1389.692    21921731.100   115199477.710 6      1389.692    21921735.560    89765807.394 6      1082.877
> 2024 06 03 13 31  1.0000000  0 16
G02  21712399.760   114099432.305 7      2236.579    21712398.160   114099432.312 6      2236.579    21712400.720    88908652.583 6      1742.789
R17  23647242.400   126541161.767 7      4772.507    23647242.460   126541161.782 7      4772.507    23647259.580    98420986.673 7      3711.950    23647259.640    98420984.671 7      3711.950
G08  21489291.400   112926983.738 7       976.194    21489289.800   112926983.740 7       976.194    21489297.860    87995075.600 7       760.670    21489298.880    87995081.609 8       760.670
G17  24787346.760   130258364.272 6      5462.333    24787345.300   130258364.271 3      5462.333    24787355.720   101500036.071 3      4256.363    24787356.060   101500089.114 6      4256.363
G27  24204950.220   127197853.103 6      -202.256    24204948.480   127197853.110 4      -202.256    24204963.380    99115258.472 4      -157.602    24204965.120    99115262.417 6      -157.602
R08  21802783.600   116752898.669 7       527.352    21802784.820   116752898.708 7       527.352    21802796.980    90807877.169 7       410.162    21802796.640    90807875.170 7       410.162
G04  24721483.360   129912271.209 5      5585.032    24721484.900   129912271.217 1      5585.032    24721499.500   101230397.309 1      4351.973    24721501.180   101230406.339 6      4351.973
G14  22615286.280   118844133.173 7      4191.123    22615285.060   118844133.186 5      4191.123    22615292.480    92605843.334 5      3265.810    22615293.120    92605836.336 8      3265.810
G03  20609617.900   108304272.133 8      4359.606    20609617.300   108304272.130 6      4359.606    20609623.520    84392964.825 6      3397.096    20609624.280    84392967.829 8      3397.096
R24  20967208.060   112121079.486 7      3552.400    20967206.960   112121079.490 7      3552.400    20967218.600    87205330.344 7      2762.977    20967218.420    87205331.347 7      2762.977
G32  25275787.820   132825162.941 7      1407.717    25275787.200   132825162.948 6      1407.717    25275800.820   103500178.164 6      1096.922    25275801.740   103500186.170 7      1096.922
R01  20182664.040   107887899.218 6      4697.881    20182663.060   107887899.224 6      4697.881    20182675.160    83912867.743 6      3653.908    20182674.680    83912865.739 6      3653.908
R14  21770261.500   116047736.285 8       846.640    21770261.160   116047736.282 7       846.640    21770273.160    90259389.893 8       658.497    21770273.020    90259394.897 8       658.497
R23  22035776.740   117876543.262 6      1490.248    22035776.200   117876543.269 6      1490.248
G22  24605704.000   129303848.770 6      5087.503    24605702.220   129303848.788 3      5087.503    24605711.840   100756263.675 3      3964.288
G21  21921468.680   115198088.101 7      1389.649    21921466.620   115198088.103 6      1389.649    21921471.060    89764724.579 6      1082.843
> 2024 06 03 13 31  2.0000000  0 16
G02  21711974.280   114097195.888 7      2236.233    21711972.700   114097195.893 6      2236.233    21711975.040    88906909.928 6      1742.519
R17  23646350.760   126536389.230 7      4772.433    23646350.700   126536389.243 7      4772.433    23646368.080    98417274.698 7      3711.892    23646367.920    98417272.707 7      3711.892
G08  21489105.760   112926007.875 7       975.414    21489104.080   112926007.875 7       975.414    21489112.080    87994315.183 7       760.063    21489113.360    87994321.197 7       760.063
G17  24786307.320   130252901.818 6      5462.154    24786305.980   130252901.817 3      5462.154    24786316.240   101495779.619 3      4256.224    24786315.640   101495832.664 6      4256.224
G27  24204989.140   127198055.458 6      -202.540    24204987.100   127198055.471 4      -202.540    24205001.860    99115416.147 4      -157.824    24205003.240    99115420.113 6      -157.824
R08  21802685.340   116752371.667 7       526.493    21802686.440   116752371.714 7       526.493    21802698.560    90807467.274 7       409.495    21802698.320    90807465.277 7       409.495
G04  24720420.560   129906686.021 5      5585.015    24720421.920   129906686.036 1      5585.015    24720436.740   101226045.219 1      4351.960    24720438.040   101226054.248 6      4351.960
G14  22614488.680   118839942.411 7      4190.322    22614487.820   118839942.421 5      4190.322    22614495.100    92602577.803 5      3265.186    22614495.620    92602570.801 8      3265.186
G03  20608788.220   108299912.942 8      4358.698    20608787.800   108299912.944 6      4358.698    20608794.180    84389568.061 6      3396.388    20608794.720    84389571.065 8      3396.388
R24  20966543.580   112117527.203 7      3552.056    20966543.060   112117527.209 7      3552.056    20966554.460    87202567.465 7      2762.710    20966554.220    87202568.470 7      2762.710
G32  25275520.380   132823755.637 7      1406.911    25275519.420   132823755.642 6      1406.911    25275532.800   103499081.568 6      1096.294    25275533.740   103499089.561 7      1096.294
R01  20181785.280   107883201.830 7      4696.724    20181783.900   107883201.831 6      4696.724    20181796.840    83909214.215 6      3653.007    20181795.960    83909212.211 6      3653.007
R14  21770102.660   116046889.967 8       845.757    21770102.440   116046889.965 7       845.757    21770114.380    90258731.642 8       657.811    21770114.200    90258736.646 8       657.811
R23  22035498.020   117875053.028 6      1489.955    22035497.200   117875053.016 6      1489.955
G22  24604735.240   129298761.731 6      5086.590    24604734.220   129298761.749 3      5086.590    24604743.760   100752299.754 3      3963.576
G21  21921204.220   115196698.480 7      1389.471    21921202.240   115196698.485 6      1389.471    21921206.800    89763641.764 6      1082.704
> 2024 06 03 13 31  3.0000000  0 16
G02  21711548.860   114094959.731 7      2236.182    21711547.140   114094959.739 6      2236.182    21711549.560    88905167.468 6      1742.479
R17  23645458.800   126531616.764 7      4772.584    23645458.960   126531616.784 7      4772.584    23645476.320    98413562.796 7      3712.010    23645475.940    98413560.805 7      3712.010
G08  21488920.180   112925032.554 7       975.190    21488918.600   112925032.556 7       975.190    21488926.400    87993555.192 7       759.888    21488927.440    87993561.204 8       759.888
G17  24785268.040   130247439.416 6      5462.460    24785266.480   130247439.421 3      5462.460    24785276.680   101491523.208 3      4256.463    24785276.280   101491576.269 6      4256.463
G27  24205027.660   127198258.298 6      -202.905    24205025.680   127198258.310 4      -202.905    24205040.640    99115574.196 4      -158.108    24205041.780    99115578.145 6      -158.108
R08  21802586.720   116751845.599 7       525.669    21802588.180   116751845.640 7       525.669    21802600.560    90807058.119 7       408.853    21802599.980    90807056.122 7       408.853
G04  24719357.320   129901100.880 5      5585.420    24719359.120   129901100.893 1      5585.420    24719373.940   101221693.161 1      4352.275    24719375.500   101221702.164 6      4352.275
G14  22613691.140   118835752.390 7      4189.781    22613690.500   118835752.402 5      4189.781    22613697.580    92599312.852 5      3264.764    22613698.240    92599305.850 8      3264.764
G03  20607958.880   108295554.487 8      4358.275    20607958.460   108295554.484 6      4358.275    20607964.820    84386171.864 6      3396.058    20607965.380    84386174.866 8      3396.058
R24  20965878.860   112113975.122 7      3552.158    20965878.900   112113975.134 7      3552.158    20965890.160    87199804.742 7      2762.789    20965890.200    87199805.749 7      2762.789
G32  25275252.660   132822349.021 7      1406.403    25275251.660   132822349.029 6      1406.403    25275265.360   103497985.500 6      1095.899    25275266.140   103497993.479 7      1095.899
R01  20180906.620   107878505.367 7      4696.124    20180905.180   107878505.368 6      4696.124    20180918.140    83905561.406 6      3652.541    20180917.400    83905559.401 6      3652.541
R14  21769943.920   116046044.476 8       845.281    21769943.760   116046044.476 7       845.281    21769955.820    90258074.042 8       657.441    21769955.500    90258079.050 8       657.441
R23  22035219.640   117873563.062 6      1490.027    22035219.000   117873563.058 6      1490.027
G22  24603767.440   129293675.206 6      5086.250    24603766.260   129293675.221 3      5086.250    24603775.740   100748336.232 3      3963.312
G21  21920939.820   115195309.077 7      1389.492    21920937.800   115195309.080 6      1389.492    21920942.460    89762559.111 6      1082.721
> 2024 06 03 13 31  4.0000000  0 16
G02  21711123.240   114092723.532 7      2235.989    21711121.720   114092723.537 6      2235.989    21711124.080    88903424.974 6      1742.329
R17  23644567.100   126526844.174 7      4772.412    23644567.240   126526844.191 7      4772.412    23644584.840    98409850.800 7      3711.876    23644584.360    98409848.805 7      3711.876
G08  21488734.360   112924057.579 7       974.600    21488733.040   112924057.586 7       974.600    21488740.960    87992795.476 7       759.429    21488742.740    87992801.489 7       759.429
G17  24784227.800   130241976.948 6      5462.080    24784227.100   130241976.950 3      5462.080    24784237.320   101487266.750 3      4256.166    24784237.900   101487319.824 6      4256.166
G27  24205065.860   127198461.231 6      -203.332    24205064.380   127198461.247 4      -203.332    24205079.060    99115732.313 4      -158.441    24205080.080    99115736.269 6      -158.441
R08  21802488.840   116751320.200 7       524.830    21802490.340   116751320.239 7       524.830    21802502.240    90806649.469 7       408.201    21802502.200    90806647.470 7       408.201
G04  24718294.980   129895515.505 5      5585.039    24718296.180   129895515.515 1      5585.039    24718311.440   101217340.925 1      4351.978    24718312.600   101217349.948 6      4351.978
G14  22612893.980   118831562.865 7      4189.082    22612893.160   118831562.875 5      4189.082    22612900.360    92596048.291 5      3264.220    22612900.960    92596041.296 8      3264.220
G03  20607129.640   108291196.551 8      4357.395    20607128.980   108291196.548 6      4357.395    20607135.420    84382776.072 6      3395.373    20607136.000    84382779.076 8      3395.373
R24  20965214.680   112110423.100 7      3551.744    20965214.540   112110423.109 7      3551.744    20965225.800    87197042.064 7      2762.467    20965225.900    87197043.069 7      2762.467
G32  25274984.940   132820942.792 7      1405.758    25274984.200   132820942.797 6      1405.758    25274997.720   103496889.721 6      1095.396    25274998.240   103496897.720 7      1095.396
R01  20180028.600   107873809.597 6      4695.317    20180027.100   107873809.598 6      4695.317    20180039.820    83901909.151 6      3651.914    20180038.960    83901907.147 6      3651.914
R14  21769785.180   116045199.571 8       844.417    21769785.080   116045199.574 7       844.417    21769797.260    90257416.894 8       656.769    21769797.000    90257421.897 8       656.769
R23  22034941.600   117872073.087 6      1489.763    22034940.440   117872073.094 6      1489.763
G22  24602799.760   129288588.959 6      5085.767    24602798.480   129288588.972 3      5085.767    24602807.980   100744372.926 3      3962.936
G21  21920675.420   115193919.615 7      1389.268    21920673.360   115193919.619 6      1389.268    21920678.020    89761476.412 6      1082.547
> 2024 06 03 13 31  5.0000000  0 16
G02  21710697.780   114090487.656 7      2235.617    21710696.200   114090487.653 6      2235.617    21710698.720    88901682.739 6      1742.039
R17  23643675.300   126522071.771 7      4772.166    23643675.580   126522071.791 7      4772.166    23643693.060    98406138.932 7      3711.685    23643692.620    98406136.942 7      3711.685
G08  21488548.960   112923083.243 7       973.938    21488547.640   112923083.248 7       973.938    21488555.400    87992036.253 7       758.912    21488557.020    87992042.264 7       758.912
G17  24783189.120   130236514.596 5      5462.049    24783187.620   130236514.601 3      5462.049    24783197.900   101483010.387 3      4256.142    24783198.440   101483063.438 6      4256.142
G27  24205104.920   127198664.654 6      -203.715    24205103.120   127198664.666 4      -203.715    24205117.860    99115890.818 4      -158.739    24205118.920    99115894.780 6      -158.739
R08  21802391.520   116750795.843 7       523.717    21802391.860   116750795.882 7       523.717    21802404.660    90806241.634 7       407.335    21802404.180    90806239.637 7       407.335
G04  24717232.180   129889930.193 5      5585.112    24717233.040   129889930.201 1      5585.112    24717248.280   101212988.738 1      4352.035    24717249.800   101212997.769 6      4352.035
G14  22612096.960   118827374.189 7      4188.123    22612095.980   118827374.202 5      4188.123    22612103.300    92592784.388 5      3263.472    22612103.900    92592777.388 8      3263.472
G03  20606300.420   108286839.428 8      4356.615    20606299.960   108286839.425 7      4356.615    20606306.400    84379380.915 6      3394.765    20606307.120    84379383.919 8      3394.765
R24  20964550.340   112106871.375 7      3551.498    20964550.480   112106871.387 7      3551.498    20964561.680    87194279.607 7      2762.276    20964561.600    87194280.612 7      2762.276
G32  25274717.740   132819537.315 7      1405.038    25274716.620   132819537.317 6      1405.038    25274730.360   103495794.562 6      1094.835    25274731.120   103495802.574 7      1094.835
R01  20179149.980   107869114.906 6      4694.025    20179148.920   107869114.907 6      4694.025    20179161.620    83898257.723 6      3650.908    20179160.560    83898255.717 6      3650.908
R14  21769627.100   116044355.511 8       843.457    21769626.460   116044355.512 7       843.457    21769638.940    90256760.409 8       656.022    21769638.780    90256765.415 8       656.022
R23  22034663.160   117870583.490 6      1489.475    22034661.920   117870583.486 6      1489.475
G22  24601832.520   129283503.302 6      5085.246    24601830.560   129283503.312 3      5085.246    24601840.120   100740410.084 3      3962.530
G21  21920410.960   115192530.433 7      1388.994    21920409.040   115192530.440 6      1388.994    21920413.740    89760393.937 6      1082.333
> 2024 06 03 13 31  6.0000000  0 16
G02  21710272.380   114088251.765 7      2235.799    21710270.580   114088251.770 6      2235.799    21710273.080    88899940.488 6      1742.181
R17  23642783.160   126517299.171 7      4772.732    23642783.820   126517299.183 7      4772.732    23642801.060    98402426.913 7      3712.125    23642800.740    98402424.922 7      3712.125
G08  21488363.740   112922109.217 7       973.846    21488362.400   112922109.222 7       973.846    21488370.140    87991277.270 7       758.841    21488371.480    87991283.279 7       758.841
G17  24782149.360   130231052.097 5      5462.515    24782148.220   130231052.102 3      5462.515    24782158.360   101478753.902 3      4256.506    24782158.500   101478806.939 6      4256.506
G27  24205144.240   127198868.215 6      -203.864    24205142.040   127198868.228 4      -203.864    24205156.560    99116049.425 4      -158.855    24205157.720    99116053.387 6      -158.855
R08  21802293.420   116750272.131 7       523.351    21802294.140   116750272.173 7       523.351    21802306.840    90805834.296 7       407.051    21802306.320    90805832.295 7       407.051
G04  24716169.400   129884344.629 5      5585.847    24716169.940   129884344.639 1      5585.847    24716185.280   101208636.358 1      4352.608    24716186.560   101208645.384 6      4352.608
G14  22611299.900   118823185.997 7      4187.825    22611299.060   118823186.010 5      4187.825    22611306.240    92589520.866 5      3263.240    22611306.840    92589513.860 8      3263.240
G03  20605471.540   108282482.799 8      4356.359    20605470.900   108282482.798 7      4356.359    20605477.360    84375986.143 6      3394.565    20605477.800    84375989.145 8      3394.565
R24  20963886.540   112103319.631 7      3551.703    20963886.260   112103319.646 7      3551.703    20963897.380    87191517.142 7      2762.435    20963897.380    87191518.149 7      2762.435
G32  25274450.300   132818132.265 7      1404.769    25274449.340   132818132.273 6      1404.769    25274463.060   103494699.737 6      1094.625    25274463.360   103494707.736 7      1094.625
R01  20178270.880   107864420.865 6      4693.685    20178270.600   107864420.869 6      4693.685    20178283.320    83894606.810 6      3650.644    20178282.380    83894604.808 6      3650.644
R14  21769468.480   116043511.949 8       843.246    21769468.440   116043511.953 8       843.246    21769480.780    90256104.300 8       655.858    21769480.380    90256109.307 8       655.858
R23  22034384.880   117869093.922 6      1489.721    22034383.280   117869093.891 6      1489.721
G22  24600865.160   129278417.959 6      5085.154    24600862.840   129278417.972 3      5085.154    24600872.440   100736447.485 3      3962.457
G21  21920146.600   115191141.196 7      1389.217    21920144.520   115191141.198 6      1389.217    21920149.320    89759311.413 6      1082.506
> 2024 06 03 13 31  7.0000000  0 16
G02  21709846.480   114086016.039 8      2235.712    21709845.280   114086016.044 6      2235.712    21709847.640    88898198.364 6      1742.113
R17  23641891.140   126512526.586 7      4772.699    23641891.580   126512526.604 7      4772.699    23641908.520    98398714.911 7      3712.099    23641909.040    98398712.926 7      3712.099
G08  21488178.520   112921135.703 7       973.381    21488177.240   112921135.703 7       973.381    21488184.920    87990518.683 7       758.479    21488186.040    87990524.695 7       758.479
G17  24781109.560   130225589.643 6      5462.368    24781108.760   130225589.648 3      5462.368    24781118.820   101474497.452 3      4256.390    24781119.060   101474550.503 6      4256.390
G27  24205182.560   127199072.084 6      -203.951    24205180.800   127199072.097 4      -203.951    24205195.320    99116208.280 4      -158.923    24205195.340    99116212.230 6      -158.923
R08  21802196.180   116749749.289 7       522.407    21802196.600   116749749.331 7       522.407    21802209.220    90805427.645 7       406.317    21802209.060    90805425.646 7       406.317
G04  24715107.640   129878759.070 5      5585.652    24715106.920   129878759.078 1      5585.652    24715122.180   101204283.979 1      4352.456    24715123.920   101204293.021 6      4352.456
G14  22610502.980   118818998.475 7      4187.231    22610502.320   118818998.490 5      4187.231    22610509.480    92586257.865 5      3262.778    22610509.800    92586250.863 8      3262.778
G03  20604642.580   108278126.868 8      4355.676    20604642.040   108278126.865 6      4355.676    20604648.580    84372591.916 6      3394.033    20604648.920    84372594.916 8      3394.033
R24  20963222.220   112099768.037 7      3551.556    20963222.200   112099768.049 7      3551.556    20963233.340    87188754.795 7      2762.321    20963233.240    87188755.796 7      2762.321
G32  25274183.220   132816727.815 7      1404.155    25274182.200   132816727.823 6      1404.155    25274195.840   103493605.368 6      1094.147    25274196.100   103493613.372 7      1094.147
R01  20177393.620   107859727.721 6      4692.787    20177392.400   107859727.731 6      4692.787    20177405.500    83890956.591 6      3649.946    20177404.520    83890954.584 6      3649.946
R14  21769310.740   116042669.145 8       842.499    21769310.460   116042669.145 7       842.499    21769322.800    90255448.783 8       655.277    21769322.660    90255453.786 8       655.277
R23  22034106.500   117867604.558 6      1489.160    22034104.600   117867604.559 6      1489.160
G22  24599896.980   129273333.045 6      5084.841    24599895.200   129273333.058 3      5084.841    24599904.700   100732485.221 3      3962.214
G21  21919882.520   115189752.082 7      1389.052    21919880.260   115189752.090 6      1389.052    21919884.940    89758228.989 6      1082.378
> 2024 06 03 13 31  8.0000000  0 16
G02  21709421.360   114083780.431 7      2235.562    21709419.780   114083780.436 6      2235.562    21709422.400    88896456.334 6      1741.997
R17  23640999.080   126507753.951 7      4772.754    23641000.120   126507753.973 7      4772.754    23641016.920    98395002.876 7      3712.142    23641016.840    98395000.889 7      3712.142
G08  21487993.240   112920162.641 7       972.790    21487992.080   112920162.651 7       972.790    21487999.680    87989760.464 7       758.018    21488000.940    87989766.477 7       758.018
G17  24780069.940   130220127.128 6      5462.571    24780069.100   130220127.130 3      5462.571    24780079.280   101470240.954 3      4256.549    24780080.100   101470294.000 6      4256.549
G27  24205220.880   127199276.232 5      -204.314    24205219.880   127199276.247 4      -204.314    24205234.300    99116367.346 4      -159.206    24205235.360    99116371.318 6      -159.206
R08  21802098.720   116749227.245 7       521.696    21802098.940   116749227.287 7       521.696    21802111.960    90805021.615 7       405.764    21802111.440    90805019.616 7       405.764
G04  24714044.680   129873173.446 5      5585.463    24714044.020   129873173.424 1      5585.463    24714059.540   101199931.526 1      4352.309    24714061.380   101199940.557 6      4352.309
G14  22609706.260   118814811.594 7      4186.605    22609705.400   118814811.609 5      4186.605    22609712.680    92582995.365 5      3262.290    22609712.960    92582988.359 8      3262.290
G03  20603813.720   108273771.571 8      4354.968    20603813.260   108273771.571 6      4354.968    20603819.720    84369198.178 6      3393.482    20603820.200    84369201.180 8      3393.482
R24  20962558.320   112096216.523 7      3551.520    20962557.800   112096216.543 7      3551.520    20962569.160    87185992.515 7      2762.294    20962568.980    87185993.520 7      2762.294
G32  25273915.900   132815323.914 7      1403.666    25273914.820   132815323.921 6      1403.666    25273928.600   103492511.419 6      1093.765    25273929.180   103492519.419 7      1093.765
R01  20176515.540   107855035.401 6      4692.012    20176514.600   107855035.408 6      4692.012    20176527.980    83887307.020 6      3649.343    20176526.480    83887305.018 6      3649.343
R14  21769152.660   116041827.052 8       841.758    21769152.740   116041827.052 7       841.758    21769165.000    90254793.811 8       654.701    21769164.720    90254798.817 8       654.701
R23  22033828.300   117866115.380 6      1488.859    22033826.440   117866115.368 6      1488.859
G22  24598928.960   129268248.556 6      5084.289    24598927.640   129268248.566 3      5084.289    24598937.260   100728523.288 3      3961.784
G21  21919618.060   115188363.037 7      1389.007    21919616.000   115188363.042 6      1389.007    21919620.700    89757146.614 6      1082.343
> 2024 06 03 13 31  9.0000000  0 16
G02  21708995.820   114081544.952 7      2235.435    21708994.380   114081544.960 6      2235.435    21708996.900    88894714.404 6      1741.898
R17  23640107.160   126502981.302 7      4772.783    23640108.340   126502981.325 7      4772.783    23640124.600    98391290.826 7      3712.165    23640124.940    98391288.831 7      3712.165
G08  21487808.140   112919190.026 7       972.480    21487806.880   112919190.031 7       972.480    21487814.540    87989002.574 7       757.777    21487815.840    87989008.583 7       757.777
G17  24779030.780   130214664.627 6      5462.513    24779029.520   130214664.631 3      5462.513    24779039.760   101465984.463 3      4256.503    24779040.380   101466037.497 6      4256.503
G27  24205259.280   127199480.695 5      -204.413    24205258.980   127199480.703 4      -204.413    24205273.300    99116526.656 4      -159.283    24205274.280    99116530.595 6      -159.283
R08  21802001.020   116748705.997 7       520.911    21802001.300   116748706.041 7       520.911    21802014.400    90804616.200 7       405.153    21802014.200    90804614.199 7       405.153
G04  24712981.280   129867587.635 5      5585.903    24712981.040   129867587.640 1      5585.903    24712996.780   101195578.962 1      4352.651    24712997.640   101195587.996 6      4352.651
G14  22608909.760   118810625.354 7      4185.928    22608908.680   118810625.366 5      4185.928    22608915.860    92579733.361 5      3261.762    22608916.500    92579726.349 8      3261.762
G03  20602984.980   108269416.918 8      4354.312    20602984.500   108269416.912 6      4354.312    20602991.120    84365804.942 6      3392.970    20602991.600    84365807.941 8      3392.970
R24  20961893.860   112092665.140 7      3551.402    20961893.880   112092665.155 7      3551.402    20961905.100    87183230.320 7      2762.202    20961904.960    87183231.321 7      2762.202
G32  25273648.880   132813920.580 7      1403.053    25273647.800   132813920.588 6      1403.053    25273661.600   103491417.914 6      1093.288    25273662.220   103491425.912 7      1093.288
R01  20175638.460   107850343.958 6      4690.927    20175637.080   107850343.970 6      4690.927    20175650.100    83883658.125 6      3648.499    20175649.340    83883656.126 6      3648.499
R14  21768994.580   116040985.673 8       840.971    21768995.260   116040985.676 8       840.971    21769007.080    90254139.403 8       654.089    21769006.820    90254144.407 8       654.089
R23  22033549.780   117864626.339 6      1488.922    22033547.660   117864626.317 6      1488.922
G22  24597961.640   129263164.514 6      5083.889    24597960.120   129263164.525 3      5083.889    24597969.860   100724561.703 3      3961.472
G21  21919353.700   115186974.097 7      1388.900    21919351.680   115186974.105 6      1388.900    21919356.560    89756064.321 6      1082.260
> 2024 06 03 13 31 10.0000000  0 16
G02  21708570.660   114079309.492 8      2235.547    21708568.940   114079309.494 6      2235.547    21708571.580    88892972.485 6      1741.985
R17  23639215.420   126498208.562 7      4772.932    23639216.720   126498208.588 7      4772.932    23639232.420    98387578.706 7      3712.280    23639233.020    98387576.727 6      3712.280
G08  21487623.220   112918217.774 7       972.197    21487621.960   112918217.781 7       972.197    21487629.520    87988244.970 7       757.556    21487631.020    87988250.982 7       757.556
G17  24777991.180   130209201.996 6      5462.853    24777990.120   130209201.998 3      5462.853    24778000.200   101461727.872 3      4256.768    24778000.940   101461780.886 6      4256.768
G27  24205298.500   127199685.313 6      -204.767    24205297.960   127199685.318 4      -204.767    24205312.260    99116686.084 4      -159.559    24205314.100    99116690.054 6      -159.559
R08  21801903.520   116748185.468 7       520.269    21801904.880   116748185.513 7       520.269    21801917.480    90804211.344 7       404.654    21801916.980    90804209.345 7       404.654
G04  24711918.280   129862001.650 5      5586.096    24711918.100   129862001.658 1      5586.096    24711933.580   101191226.257 1      4352.802    24711933.540   101191235.313 6      4352.802
G14  22608113.220   118806439.621 7      4185.650    22608112.080   118806439.633 5      4185.650    22608119.300    92576471.758 5      3261.545    22608120.100    92576464.749 7      3261.545
G03  20602156.280   108265062.771 8      4354.029    20602155.880   108265062.768 7      4354.029    20602162.600    84362412.106 6      3392.750    20602163.020    84362415.108 8      3392.750
R24  20961229.740   112089113.763 8      3551.485    20961229.440   112089113.775 7      3551.485    20961240.940    87180468.135 7      2762.266    20961240.900    87180469.136 7      2762.266
G32  25273382.120   132812517.704 7      1402.695    25273380.800   132812517.712 6      1402.695    25273394.500   103490324.764 6      1093.009    25273395.060   103490332.770 7      1093.009
R01  20174760.920   107845653.202 6      4690.591    20174759.160   107845653.211 6      4690.591    20174772.720    83880009.757 6      3648.237    20174771.580    83880007.752 6      3648.237
R14  21768836.860   116040144.878 8       840.683    21768837.500   116040144.873 8       840.683    21768849.280    90253485.441 8       653.864    21768849.140    90253490.445 8       653.864
R23  22033271.080   117863137.408 6      1488.803    22033269.680   117863137.401 6      1488.803
G22  24596994.600   129258080.741 6      5083.750    24596992.780   129258080.756 3      5083.750    24597002.580   100720600.327 3      3961.364
G21  21919089.580   115185585.128 8      1389.037    21919087.320   115185585.133 6      1389.037    21919092.340    89754982.010 6      1082.366
> 2024 06 03 13 31 11.0000000  0 16
G02  21708145.200   114077073.992 7      2235.399    21708143.580   114077073.999 6      2235.399    21708146.080    88891230.541 6      1741.869
R17  23638323.580   126493435.656 7      4772.915    23638324.600   126493435.685 7      4772.915    23638340.280    98383866.452 7      3712.267    23638340.960    98383864.467 6      3712.267
G08  21487438.280   112917245.829 8       971.593    21487437.060   112917245.836 7       971.593    21487444.420    87987487.614 7       757.085    21487445.940    87987493.624 7       757.085
G17  24776951.260   130203739.190 6      5462.835    24776950.560   130203739.192 3      5462.835    24776960.580   101457471.144 3      4256.754    24776961.140   101457524.174 6      4256.754
G27  24205338.100   127199890.031 6      -205.036    24205336.920   127199890.036 4      -205.036    24205351.400    99116845.598 4      -159.768    24205351.560    99116849.566 6      -159.768
R08  21801806.420   116747665.612 7       519.369    21801807.180   116747665.657 7       519.369    21801820.520    90803807.010 7       403.953    21801819.840    90803805.009 7       403.953
G04  24710855.540   129856415.469 5      5586.014    24710855.000   129856415.479 1      5586.014    24710870.640   101186873.391 1      4352.738    24710870.780   101186882.445 6      4352.738
G14  22607316.760   118802254.413 7      4184.743    22607315.660   118802254.429 5      4184.743    22607322.920    92573210.561 5      3260.838    22607323.640    92573203.553 7      3260.838
G03  20601327.860   108260709.148 8      4353.170    20601327.500   108260709.147 6      4353.170    20601334.160    84359019.679 6      3392.081    20601334.460    84359022.676 8      3392.081
R24  20960565.840   112085562.375 8      3551.254    20960565.020   112085562.381 7      3551.254    20960576.900    87177705.944 7      2762.087    20960576.540    87177706.941 7      2762.087
G32  25273115.220   132811115.222 7      1402.108    25273113.900   132811115.229 6      1402.108    25273127.540   103489231.919 6      1092.551    25273128.420   103489239.926 7      1092.551
R01  20173884.060   107840963.177 6      4689.540    20173882.140   107840963.189 6      4689.540    20173895.580    83876361.959 6      3647.420    20173894.500    83876359.959 6      3647.420
R14  21768679.020   116039304.680 8       839.734    21768679.560   116039304.675 8       839.734    21768691.520    90252831.958 8       653.126    21768691.380    90252836.960 8       653.126
R23  22032993.360   117861648.466 6      1488.705    22032990.860   117861648.467 6      1488.705
G22  24596026.980   129252997.311 6      5083.015    24596025.320   129252997.324 3      5083.015    24596035.100   100716639.217 3      3960.791
G21  21918825.420   115184196.086 7      1388.860    21918822.860   115184196.093 6      1388.860    21918827.940    89753899.639 6      1082.229
> 2024 06 03 13 31 12.0000000  0 16
G02  21707720.060   114074838.673 7      2235.385    21707718.180   114074838.683 6      2235.385    21707720.840    88889488.738 6      1741.858
R17  23637431.380   126488662.764 7      4773.067    23637432.920   126488662.787 7      4773.067    23637448.120    98380154.207 7      3712.385    23637448.720    98380152.224 6      3712.385
G08  21487253.540   112916274.383 8       971.318    21487252.200   112916274.385 7       971.318    21487259.700    87986730.637 7       756.871    21487260.880    87986736.649 7       756.871
G17  24775911.560   130198276.431 6      5462.902    24775910.940   130198276.433 3      5462.902    24775921.040   101453214.456 3      4256.807    24775921.400   101453267.495 6      4256.807
G27  24205376.620   127200095.048 5      -204.904    24205375.940   127200095.056 4      -204.904    24205390.460    99117005.348 4      -159.665    24205390.220    99117009.326 6      -159.665
R08  21801709.580   116747146.610 7       518.740    21801710.160   116747146.668 7       518.740    21801723.620    90803403.345 7       403.465    21801723.160    90803401.348 7       403.465
G04  24709792.120   129850829.148 5      5586.713    24709792.060   129850829.161 1      5586.713    24709807.680   101182520.422 1      4353.283    24709808.480   101182529.469 6      4353.283
G14  22606520.620   118798069.860 7      4184.352    22606519.520   118798069.875 5      4184.352    22606526.620    92569949.872 5      3260.534    22606527.100    92569942.868 7      3260.534
G03  20600499.680   108256356.181 8      4352.775    20600499.320   108256356.178 6      4352.775    20600505.700    84355627.757 6      3391.773    20600506.080    84355630.754 8      3391.773
R24  20959901.760   112082011.149 7      3551.302    20959900.920   112082011.153 7      3551.302    20959912.840    87174943.880 7      2762.123    20959912.700    87174944.879 7      2762.123
G32  25272848.160   132809713.323 7      1401.882    25272847.220   132809713.333 6      1401.882    25272860.900   103488139.538 6      1092.376    25272860.740   103488147.542 7      1092.376
R01  20173006.860   107836274.006 6      4688.947    20173005.000   107836274.013 6      4688.947    20173018.120    83872714.829 6      3646.959    20173017.520    83872712.826 6      3646.959
R14  21768521.740   116038465.221 8       839.234    21768522.160   116038465.208 7       839.234    21768533.760    90252179.037 8       652.738    21768533.980    90252184.036 8       652.738
R23  22032714.780   117860159.743 6      1488.800    22032712.920   117860159.734 6      1488.800
G22  24595060.020   129247914.244 6      5083.143    24595058.220   129247914.257 3      5083.143    24595067.840   100712678.389 3      3960.891
G21  21918561.020   115182807.156 7      1389.020    21918558.520   115182807.166 6      1389.020    21918563.820    89752817.360 6      1082.353
> 2024 06 03 13 31 13.0000000  0 16
G02  21707294.800   114072603.407 8      2235.237    21707292.740   114072603.409 6      2235.237    21707295.520    88887746.971 6      1741.743
R17  23636539.740   126483889.746 7      4772.985    23636540.780   126483889.777 7      4772.985    23636555.520    98376441.861 6      3712.321    23636556.560    98376439.874 6      3712.321
G08  21487068.740   112915303.310 7       970.897    21487067.400   112915303.312 7       970.897    21487074.880    87985973.953 7       756.543    21487075.960    87985979.965 7       756.543
G17  24774871.840   130192813.574 6      5462.829    24774871.400   130192813.577 3      5462.829    24774881.580   101448957.693 3      4256.750    24774882.380   101449010.734 6      4256.750
G27  24205415.400   127200300.357 5      -205.360    24205415.060   127200300.362 4      -205.360    24205429.520    99117165.315 4      -160.021    24205430.000    99117169.287 6      -160.021
R08  21801612.780   116746628.349 7       517.931    21801613.360   116746628.389 7       517.931    21801626.940    90803000.241 7       402.835    21801626.320    90802998.240 7       402.835
G04  24708730.120   129845242.764 5      5586.481    24708728.780   129845242.780 1      5586.481    24708744.820   101178167.389 1      4353.102    24708745.340   101178176.449 6      4353.102
G14  22605724.160   118793885.893 7      4183.605    22605723.420   118793885.913 5      4183.605    22605730.280    92566689.642 5      3259.952    22605731.080    92566682.644 7      3259.952
G03  20599671.260   108252003.793 8      4352.037    20599671.000   108252003.784 6      4352.037    20599677.480    84352236.287 6      3391.198    20599677.980    84352239.287 8      3391.198
R24  20959237.960   112078459.991 7      3551.093    20959236.960   112078459.995 7      3551.093    20959248.620    87172181.879 7      2761.961    20959248.460    87172182.877 7      2761.961
G32  25272581.320   132808311.936 7      1401.244    25272580.540   132808311.941 6      1401.244    25272594.360   103487047.549 6      1091.879    25272594.320   103487055.554 7      1091.879
R01  20172129.700   107831585.618 6      4687.924    20172127.760   107831585.632 6      4687.924    20172141.280    83869068.324 6      3646.163    20172140.340    83869066.323 6      3646.163
R14  21768364.320   116037626.366 8       838.575    21768364.400   116037626.350 7       838.575    21768376.080    90251526.592 8       652.225    21768376.540    90251531.590 8       652.225
R23  22032436.360   117858671.122 6      1488.582    22032434.400   117858671.107 6      1488.582
G22  24594092.520   129242831.560 6      5082.707    24594091.040   129242831.568 3      5082.707    24594100.540   100708717.861 3      3960.551
G21  21918296.680   115181418.253 7      1388.886    21918294.280   115181418.258 6      1388.886    21918299.460    89751735.098 6      1082.249
> 2024 06 03 13 31 14.0000000  0 16
G02  21706869.200   114070368.325 7      2235.096    21706867.480   114070368.330 6      2235.096    21706870.300    88886005.352 6      1741.633
R17  23635647.720   126479116.744 7      4773.117    23635649.000   126479116.767 7      4773.117    23635663.980    98372729.520 6      3712.425    23635664.640    98372727.531 6      3712.425
G08  21486884.020   112914332.763 7       970.379    21486882.680   112914332.765 7       970.379    21486890.100    87985217.685 7       756.140    21486891.320    87985223.694 7       756.140
G17  24773832.740   130187350.744 6      5462.857    24773831.960   130187350.746 3      5462.857    24773842.080   101444700.953 3      4256.772    24773841.840   101444753.981 6      4256.772
G27  24205454.980   127200505.955 6      -205.684    24205454.220   127200505.965 4      -205.684    24205468.560    99117325.517 4      -160.273    24205469.400    99117329.487 6      -160.273
R08  21801516.000   116746110.932 7       517.077    21801516.580   116746110.977 7       517.077    21801530.300    90802597.804 7       402.171    21801530.020    90802595.807 7       402.171
G04  24707666.680   129839656.312 5      5586.356    24707665.500   129839656.320 1      5586.356    24707682.040   101173814.312 1      4353.005    24707682.780   101173823.398 6      4353.005
G14  22604928.300   118789702.614 7      4183.049    22604927.620   118789702.634 5      4183.049    22604934.200    92563429.944 5      3259.519    22604934.480    92563422.930 8      3259.519
G03  20598843.220   108247652.103 8      4351.446    20598842.960   108247652.095 6      4351.446    20598849.480    84348845.362 6      3390.737    20598849.740    84348848.358 8      3390.737
R24  20958573.840   112074908.993 7      3551.050    20958573.060   112074908.997 7      3551.050    20958584.720    87169419.987 7      2761.928    20958584.520    87169420.984 7      2761.928
G32  25272314.860   132806911.178 7      1400.558    25272313.800   132806911.185 6      1400.558    25272327.900   103485956.052 6      1091.344    25272327.860   103485964.052 7      1091.344
R01  20171253.080   107826898.109 6      4687.176    20171250.380   107826898.123 6      4687.176    20171264.620    83865422.490 6      3645.582    20171263.520    83865420.482 6      3645.582
R14  21768207.220   116036788.268 8       837.820    21768206.800   116036788.250 7       837.820    21768218.600    90250874.734 8       651.638    21768219.240    90250879.736 8       651.638
R23  22032158.120   117857182.723 6      1488.364    22032156.580   117857182.711 6      1488.364
G22  24593125.980   129237749.408 6      5081.892    24593123.780   129237749.418 3      5081.892    24593133.360   100704757.748 3      3959.916
G21  21918032.280   115180029.497 8      1388.810    21918030.140   115180029.502 6      1388.810    21918035.200    89750652.952 6      1082.189
> 2024 06 03 13 31 15.0000000  0 16
G02  21706443.940   114068133.159 7      2235.089    21706442.040   114068133.163 6      2235.089    21706444.940    88884263.664 6      1741.628
R17  23634755.660   126474343.526 7      4773.250    23634756.800   126474343.554 7      4773.250    23634771.800    98369017.013 6      3712.528    23634772.580    98369015.034 6      3712.528
G08  21486699.280   112913362.462 7       970.022    21486698.080   112913362.473 7       970.022    21486705.480    87984461.611 7       755.861    21486706.660    87984467.618 7       755.861
G17  24772793.420   130181887.704 6      5462.947    24772792.260   130181887.701 3      5462.947    24772802.440   101440444.045 3      4256.842    24772803.020   101440497.071 6      4256.842
G27  24205494.600   127200711.674 6      -206.024    24205493.540   127200711.687 4      -206.024    24205507.880    99117485.811 4      -160.538    24205508.700    99117489.781 6      -160.538
R08  21801419.760   116745594.131 7       516.343    21801420.440   116745594.175 7       516.343    21801433.820    90802195.841 7       401.600    21801433.420    90802193.846 7       401.600
G04  24706602.800   129834069.579 5      5586.752    24706602.200   129834069.586 1      5586.752    24706618.820   101169461.017 1      4353.313    24706619.340   101169470.081 6      4353.313
G14  22604132.240   118785519.779 7      4182.403    22604131.580   118785519.797 5      4182.403    22604138.260    92560170.595 5      3259.015    22604138.780    92560163.593 7      3259.015
G03  20598015.180   108243300.850 8      4350.887    20598014.820   108243300.844 6      4350.887    20598021.420    84345454.781 6      3390.302    20598021.980    84345457.779 8      3390.302
R24  20957909.660   112071357.878 7      3551.057    20957908.640   112071357.893 7      3551.057    20957920.660    87166658.017 7      2761.933    20957920.480    87166659.016 7      2761.933
G32  25272048.280   132805510.753 7      1400.071    25272047.380   132805510.758 6      1400.071    25272061.560   103484864.818 6      1090.964    25272060.940   103484872.814 7      1090.964
R01  20170376.120   107822211.233 6      4686.608    20170373.920   107822211.232 6      4686.608    20170387.620    83861777.128 6      3645.139    20170386.560    83861775.124 7      3645.139
R14  21768050.160   116035950.624 7       837.232    21768049.260   116035950.613 7       837.232    21768061.180    90250223.239 8       651.181    21768062.060    90250228.238 8       651.181
R23  22031881.020   117855694.271 6      1488.389    22031878.560   117855694.259 6      1488.389
G22  24592159.080   129232667.429 6      5081.693    24592156.600   129232667.441 3      5081.693    24592166.400   100700797.770 3      3959.761
G21  21917768.400   115178640.630 8      1388.753    21917765.960   115178640.633 6      1388.753    21917770.860    89749570.717 6      1082.145
> 2024 06 03 13 31 16.0000000  0 16
G02  21706018.460   114065898.082 7      2235.113    21706016.800   114065898.087 6      2235.113    21706019.520    88882522.050 6      1741.646
R17  23633863.780   126469570.275 7      4773.392    23633864.840   126469570.292 7      4773.392    23633879.880    98365304.478 6      3712.638    23633880.280    98365302.495 6      3712.638
G08  21486514.600   112912392.575 8       969.850    21486513.500   112912392.580 7       969.850    21486520.980    87983705.848 7       755.727    21486521.920    87983711.853 7       755.727
G17  24771753.680   130176424.585 6      5463.414    24771752.720   130176424.582 3      5463.414    24771762.940   101436187.075 3      4257.206    24771763.620   101436240.093 6      4257.206
G27  24205534.020   127200917.548 6      -205.873    24205532.740   127200917.563 4      -205.873    24205547.080    99117646.224 4      -160.420    24205548.000    99117650.219 6      -160.420
R08  21801323.740   116745078.095 7       515.850    21801324.120   116745078.140 7       515.850    21801337.280    90801794.484 7       401.217    21801337.060    90801792.491 7       401.217
G04  24705538.640   129828482.738 5      5586.934    24705539.300   129828482.753 1      5586.934    24705555.400   101165107.640 1      4353.455    24705555.980   101165116.674 6      4353.455
G14  22603336.100   118781337.512 7      4182.158    22603335.560   118781337.524 5      4182.158    22603342.520    92556911.689 5      3258.824    22603343.060    92556904.687 7      3258.824
G03  20597187.280   108238950.169 8      4350.594    20597186.940   108238950.166 6      4350.594    20597193.580    84342064.644 6      3390.073    20597194.160    84342067.644 8      3390.073
R24  20957245.360   112067806.840 7      3551.140    20957244.920   112067806.847 7      3551.140    20957256.620    87163896.095 7      2761.998    20957256.580    87163897.093 7      2761.998
G32  25271782.100   132804110.848 7      1399.852    25271781.140   132804110.850 6      1399.852    25271795.020   103483773.979 6      1090.794    25271795.360   103483781.977 7      1090.794
R01  20169499.540   107817525.159 6      4685.857    20169497.140   107817525.174 6      4685.857    20169511.260    83858132.418 6      3644.556    20169510.080    83858130.419 6      3644.556
R14  21767893.100   116035113.648 7       836.772    21767891.840   116035113.632 7       836.772    21767904.020    90249572.252 8       650.822    21767904.920    90249577.253 7       650.822
R23  22031602.480   117854205.949 6      1488.375    22031599.760   117854205.950 6      1488.375
G22  24591191.480   129227585.830 6      5081.540    24591189.700   129227585.840 3      5081.540    24591199.240   100696838.083 3      3959.641
G21  21917503.960   115177251.761 7      1389.052    21917501.620   115177251.766 6      1389.052    21917506.540    89748488.485 6      1082.379
> 2024 06 03 13 31 17.0000000  0 16
G02  21705593.040   114063662.894 7      2235.081    21705591.420   114063662.902 6      2235.081    21705594.180    88880780.352 6      1741.622
R17  23632972.020   126464796.748 7      4773.523    23632972.680   126464796.761 7      4773.523    23632988.140    98361591.740 6      3712.740    23632988.260    98361589.755 6      3712.740
G08  21486330.080   112911422.934 7       969.447    21486329.060   112911422.939 7       969.447    21486336.500    87982950.282 7       755.414    21486337.580    87982956.289 7       755.414
G17  24770714.160   130170961.245 6      5463.405    24770712.900   130170961.239 3      5463.405    24770723.380   101431929.933 3      4257.199    24770723.880   101431982.972 6      4257.199
G27  24205572.860   127201123.556 6      -206.141    24205572.120   127201123.571 4      -206.141    24205586.200    99117806.743 4      -160.629    24205586.500    99117810.722 6      -160.629
R08  21801227.360   116744562.652 7       515.030    21801227.520   116744562.696 7       515.030    21801241.280    90801393.583 7       400.579    21801240.860    90801391.584 7       400.579
G04  24704476.000   129822895.539 5      5587.124    24704476.020   129822895.557 1      5587.124    24704492.040   101160753.975 1      4353.603    24704492.720   101160763.001 6      4353.603
G14  22602540.620   118777155.681 7      4181.503    22602539.720   118777155.696 5      4181.503    22602546.700    92553653.128 5      3258.314    22602546.700    92553646.130 7      3258.314
G03  20596359.360   108234599.940 8      4349.980    20596359.200   108234599.935 7      4349.980    20596365.720    84338674.860 6      3389.595    20596366.420    84338677.860 8      3389.595
R24  20956581.320   112064255.711 7      3551.057    20956580.520   112064255.707 7      3551.057    20956592.540    87161134.107 7      2761.933    20956592.480    87161135.102 7      2761.933
G32  25271515.560   132802711.293 7      1399.285    25271514.760   132802711.300 6      1399.285    25271528.620   103482683.415 6      1090.352    25271529.320   103482691.416 7      1090.352
R01  20168622.820   107812839.703 6      4685.117    20168620.300   107812839.710 6      4685.117    20168635.060    83854488.179 6      3643.980    20168633.540    83854486.181 7      3643.980
R14  21767736.220   116034277.160 7       836.089    21767734.880   116034277.145 7       836.089    21767747.120    90248921.652 8       650.291    21767747.760    90248926.658 8       650.291
R23  22031323.640   117852717.574 6      1488.234    22031322.280   117852717.578 6      1488.234
G22  24590224.440   129222504.432 6      5081.226    24590222.740   129222504.444 3      5081.226    24590232.200   100692878.556 3      3959.397
G21  21917239.620   115175862.798 7      1388.901    21917237.100   115175862.805 6      1388.901    21917242.160    89747406.178 6      1082.261
> 2024 06 03 13 31 18.0000000  0 16
G02  21705167.720   114061427.867 8      2234.901    21705166.100   114061427.870 6      2234.901    21705168.900    88879038.770 6      1741.481
R17  23632080.340   126460023.243 7      4773.526    23632080.820   126460023.266 7      4773.526    23632096.060    98357879.016 7      3712.743    23632096.440    98357877.024 6      3712.743
G08  21486145.720   112910453.779 7       968.893    21486144.640   112910453.779 7       968.893    21486152.080    87982195.088 7       754.982    21486153.160    87982201.093 7       754.982
G17  24769674.660   130165497.913 6      5463.363    24769673.340   130165497.907 3      5463.363    24769683.860   101427672.797 3      4257.166    24769683.260   101427725.820 6      4257.166
G27  24205611.680   127201329.847 6      -206.452    24205611.700   127201329.860 4      -206.452    24205625.540    99117967.482 4      -160.872    24205625.760    99117971.448 6      -160.872
R08  21801131.320   116744048.011 7       514.098    21801131.560   116744048.047 7       514.098    21801145.100    90800993.314 7       399.854    21801144.680    90800991.317 8       399.854
G04  24703413.700   129817308.244 5      5587.250    24703412.820   129817308.256 1      5587.250    24703428.320   101156400.243 1      4353.702    24703428.500   101156409.270 6      4353.702
G14  22601744.880   118772974.504 7      4180.769    22601744.020   118772974.522 5      4180.769    22601751.080    92550395.076 5      3257.742    22601751.240    92550388.084 7      3257.742
G03  20595531.720   108230250.361 8      4349.290    20595531.460   108230250.355 6      4349.290    20595537.880    84335285.577 6      3389.057    20595538.800    84335288.577 8      3389.057
R24  20955917.500   112060704.745 7      3550.825    20955916.420   112060704.744 7      3550.825    20955928.740    87158372.254 7      2761.753    20955928.380    87158373.252 7      2761.753
G32  25271249.500   132801312.303 7      1398.781    25271248.540   132801312.313 6      1398.781    25271262.320   103481593.291 6      1089.960    25271263.000   103481601.288 7      1089.960
R01  20167746.480   107808155.142 6      4684.099    20167744.000   107808155.141 6      4684.099    20167758.420    83850844.627 6      3643.188    20167757.400    83850842.624 7      3643.188
R14  21767579.720   116033441.434 7       835.228    21767577.860   116033441.419 7       835.228    21767590.260    90248271.639 8       649.622    21767591.140    90248276.643 7       649.622
R23  22031044.820   117851229.424 6      1487.952    22031043.940   117851229.430 6      1487.952
G22  24589257.700   129217423.493 6      5080.598    24589255.900   129217423.506 3      5080.598    24589265.320   100688919.389 3      3958.907
G21  21916975.320   115174473.931 7      1388.739    21916972.740   115174473.936 6      1388.739    21916977.980    89746323.940 6      1082.134
> 2024 06 03 13 31 19.0000000  0 16
G02  21704742.480   114059192.977 7      2235.049    21704740.720   114059192.987 6      2235.049    21704743.520    88877297.295 6      1741.597
R17  23631187.980   126455249.722 7      4773.694    23631188.580   126455249.745 7      4773.694    23631203.800    98354166.283 7      3712.873    23631204.320    98354164.286 6      3712.873
G08  21485961.600   112909485.058 7       968.689    21485960.260   112909485.066 7       968.689    21485967.720    87981440.249 7       754.822    21485969.020    87981446.252 7       754.822
G17  24768635.220   130160034.631 6      5463.343    24768633.680   130160034.625 3      5463.343    24768644.120   101423415.694 3      4257.150    24768644.220   101423468.686 6      4257.150
G27  24205651.200   127201536.436 6      -206.441    24205651.100   127201536.446 4      -206.441    24205664.760    99118128.444 4      -160.863    24205664.740    99118132.404 6      -160.863
R08  21801035.340   116743534.171 7       513.598    21801035.380   116743534.202 7       513.598    21801049.400    90800593.652 7       399.465    21801048.820    90800591.659 7       399.465
G04  24702350.060   129811720.930 5      5587.218    24702349.460   129811720.943 1      5587.218    24702365.560   101152046.491 1      4353.676    24702365.740   101152055.531 6      4353.676
G14  22600949.300   118768793.965 7      4180.502    22600948.500   118768793.981 5      4180.502    22600955.620    92547137.522 5      3257.534    22600955.960    92547130.524 7      3257.534
G03  20594704.480   108225901.425 8      4348.895    20594703.840   108225901.419 6      4348.895    20594710.360    84331896.800 6      3388.749    20594711.200    84331899.800 8      3388.749
R24  20955253.680   112057153.865 7      3551.180    20955251.860   112057153.866 7      3551.180    20955264.860    87155610.466 7      2762.029    20955264.460    87155611.467 8      2762.029
G32  25270983.420   132799913.875 7      1398.455    25270982.420   132799913.882 6      1398.455    25270996.340   103480503.617 6      1089.705    25270996.960   103480511.628 7      1089.705
R01  20166870.000   107803471.372 6      4683.679    20166867.440   107803471.384 6      4683.679    20166882.240    83847201.710 6      3642.862    20166880.940    83847199.710 7      3642.862
R14  21767422.520   116032606.396 7       834.958    21767421.480   116032606.384 7       834.958    21767433.760    90247622.149 8       649.412    21767434.180    90247627.158 7       649.412
R23  22030766.580   117849741.415 6      1488.240    22030765.360   117849741.425 6      1488.240
G22  24588291.040   129212342.961 6      5080.596    24588289.080   129212342.977 3      5080.596    24588298.540   100684960.540 3      3958.906
G21  21916710.940   115173085.125 7      1389.004    21916708.500   115173085.133 6      1389.004    21916713.700    89745241.760 6      1082.340
> 2024 06 03 13 31 20.0000000  0 16
G02  21704317.280   114056958.144 7      2234.631    21704315.360   114056958.154 6      2234.631    21704318.000    88875555.865 6      1741.271
R17  23630295.880   126450476.102 7      4773.559    23630296.760   126450476.120 7      4773.559    23630311.780    98350453.486 7      3712.768    23630312.400    98350451.499 6      3712.768
G08  21485777.380   112908516.768 7       968.014    21485776.000   112908516.776 7       968.014    21485783.640    87980685.739 7       754.297    21485784.980    87980691.744 8       754.297
G17  24767595.620   130154571.181 6      5463.381    24767594.040   130154571.178 3      5463.381    24767604.300   101419158.467 3      4257.180    24767603.580   101419211.524 6      4257.180
G27  24205690.660   127201743.198 6      -207.027    24205690.400   127201743.205 4      -207.027    24205704.080    99118289.547 4      -161.320    24205703.920    99118293.523 6      -161.320
R08  21800939.680   116743021.105 7       512.560    21800939.260   116743021.144 7       512.560    21800953.920    90800194.632 8       398.657    21800953.160    90800192.635 8       398.657
G04  24701286.780   129806133.432 5      5587.374    24701286.140   129806133.445 1      5587.374    24701302.360   101147692.599 1      4353.798    24701303.320   101147701.612 6      4353.798
G14  22600153.800   118764614.021 7      4179.525    22600152.900   118764614.039 5      4179.525    22600160.080    92543880.422 5      3256.773    22600160.600    92543873.418 7      3256.773
G03  20593876.800   108221553.085 8      4347.947    20593876.480   108221553.082 6      4347.947    20593882.800    84328508.477 6      3388.011    20593883.580    84328511.471 8      3388.011
R24  20954589.860   112053603.036 7      3550.748    20954587.200   112053603.040 7      3550.748    20954600.820    87152848.708 7      2761.693    20954600.420    87152849.707 7      2761.693
G32  25270717.280   132798515.927 7      1397.489    25270716.220   132798515.935 6      1397.489    25270730.360   103479414.354 6      1088.953    25270730.900   103479422.378 7      1088.953
R01  20165994.040   107798788.429 6      4682.476    20165990.880   107798788.457 6      4682.476    20166006.340    83843559.430 6      3641.925    20166005.000    83843557.425 7      3641.925
R14  21767266.320   116031772.003 7       834.069    21767264.780   116031771.988 7       834.069    21767277.040    90246973.177 7       648.721    21767277.820    90246978.182 7       648.721
R23  22030488.760   117848253.623 6      1487.515    22030487.760   117848253.609 6      1487.515
G22  24587324.520   129207262.769 6      5079.842    24587322.300   129207262.787 3      5079.842    24587331.740   100681001.956 3      3958.318
G21  21916446.840   115171696.390 7      1388.668    21916444.200   115171696.398 6      1388.668    21916449.360    89744159.627 6      1082.079
> 2024 06 03 13 31 21.0000000  0 16
G02  21703891.840   114054723.414 7      2234.494    21703889.940   114054723.422 6      2234.494    21703893.020    88873814.517 6      1741.164
R17  23629403.740   126445702.440 7      4773.589    23629404.420   126445702.457 7      4773.589    23629420.080    98346740.660 7      3712.792    23629420.420    98346738.673 7      3712.792
G08  21485592.920   112907548.906 7       967.533    21485591.740   112907548.908 7       967.533    21485599.500    87979931.559 7       753.922    21485600.680    87979937.564 8       753.922
G17  24766555.460   130149107.704 6      5463.287    24766554.220   130149107.704 3      5463.287    24766564.700   101414901.225 3      4257.107    24766563.840   101414954.290 6      4257.107
G27  24205730.520   127201950.286 6      -207.585    24205729.900   127201950.291 4      -207.585    24205743.660    99118450.902 4      -161.754    24205742.940    99118454.870 6      -161.754
R08  21800844.000   116742508.874 7       511.633    21800843.520   116742508.908 7       511.633    21800858.140    90799796.226 8       397.937    21800857.500    90799794.229 8       397.937
G04  24700223.400   129800545.821 5      5587.435    24700222.780   129800545.828 1      5587.435    24700238.860   101143338.619 1      4353.846    24700239.780   101143347.623 5      4353.846
G14  22599358.740   118760434.691 7      4178.937    22599357.700   118760434.709 5      4178.937    22599364.780    92540623.799 5      3256.315    22599365.200    92540616.820 7      3256.315
G03  20593049.420   108217205.345 8      4347.401    20593049.020   108217205.339 7      4347.401    20593055.640    84325120.623 7      3387.585    20593056.240    84325123.623 8      3387.585
R24  20953925.740   112050052.313 7      3550.420    20953923.600   112050052.312 7      3550.420    20953936.700    87150087.018 7      2761.438    20953936.220    87150088.023 7      2761.438
G32  25270451.640   132797118.550 7      1396.996    25270450.280   132797118.553 6      1396.996    25270464.540   103478325.495 7      1088.569    25270465.200   103478333.491 7      1088.569
R01  20165118.040   107794106.316 6      4681.573    20165115.740   107794106.336 6      4681.573    20165130.400    83839917.775 6      3641.223    20165129.400    83839915.769 7      3641.223
R14  21767110.060   116030938.245 7       833.181    21767108.460   116030938.227 7       833.181    21767120.660    90246324.695 7       648.029    21767121.320    90246329.703 7       648.029
R23  22030211.020   117846765.871 6      1487.522    22030209.880   117846765.862 6      1487.522
G22  24586357.280   129202183.023 6      5079.497    24586355.900   129202183.033 3      5079.497    24586365.020   100677043.713 3      3958.050
G21  21916182.300   115170307.710 7      1388.464    21916179.880   115170307.718 6      1388.464    21916185.200    89743077.528 6      1081.920
> 2024 06 03 13 31 22.0000000  0 16
G02  21703466.680   114052488.658 7      2234.807    21703464.660   114052488.663 6      2234.807    21703467.780    88872073.144 6      1741.408
R17  23628511.440   126440928.579 7      4773.921    23628512.700   126440928.594 7      4773.921    23628527.940    98343027.664 7      3713.049    23628528.700    98343025.685 7      3713.049
G08  21485408.720   112906581.328 7       967.407    21485407.580   112906581.333 7       967.407    21485415.320    87979177.600 7       753.824    21485416.280    87979183.601 8       753.824
G17  24765515.640   130143644.107 6      5463.706    24765514.760   130143644.104 3      5463.706    24765524.880   101410643.880 3      4257.433    24765524.840   101410696.882 6      4257.433
G27  24205769.540   127202157.434 6      -207.216    24205769.380   127202157.436 4      -207.216    24205783.060    99118612.306 4      -161.467    24205783.320    99118616.298 6      -161.467
R08  21800748.320   116741997.275 7       511.267    21800748.560   116741997.311 6       511.267    21800763.060    90799398.284 8       397.652    21800762.020    90799396.285 8       397.652
G04  24699160.520   129794957.966 5      5587.752    24699159.220   129794957.973 1      5587.752    24699175.340   101138984.450 1      4354.092    24699174.900   101138993.465 5      4354.092
G14  22598563.680   118756255.842 7      4178.603    22598562.380   118756255.855 5      4178.603    22598569.600    92537367.564 5      3256.055    22598570.040    92537360.572 7      3256.055
G03  20592222.260   108212858.098 8      4347.006    20592221.840   108212858.092 7      4347.006    20592228.300    84321733.169 7      3387.277    20592228.860    84321736.173 8      3387.277
R24  20953262.180   112046501.508 7      3550.836    20953259.560   112046501.512 7      3550.836    20953272.620    87147325.279 7      2761.761    20953272.180    87147326.277 7      2761.761
G32  25270185.820   132795721.578 7      1396.761    25270184.460   132795721.575 6      1396.761    25270198.840   103477236.929 6      1088.386    25270199.360   103477244.924 7      1088.386
R01  20164242.160   107789424.837 6      4681.095    20164239.700   107789424.846 6      4681.095    20164254.300    83836276.622 7      3640.851    20164253.820    83836274.614 7      3640.851
R14  21766953.780   116030104.963 7       832.954    21766951.740   116030104.942 7       832.954    21766964.700    90245676.596 7       647.853    21766964.920    90245681.599 7       647.853
R23  22029933.200   117845278.093 6      1487.776    22029932.360   117845278.097 6      1487.776
G22  24585391.360   129197103.464 6      5079.680    24585389.240   129197103.474 3      5079.680    24585398.580   100673085.614 3      3958.192
G21  21915918.040   115168918.933 7      1388.810    21915915.680   115168918.938 6      1388.810    21915920.820    89741995.360 6      1082.189
> 2024 06 03 13 31 23.0000000  0 16
G02  21703041.560   114050253.949 7      2234.452    21703039.380   114050253.954 6      2234.452    21703042.560    88870331.806 6      1741.131
R17  23627619.440   126436154.656 7      4773.741    23627620.800   126436154.674 7      4773.741    23627636.220    98339314.630 7      3712.909    23627636.220    98339312.641 6      3712.909
G08  21485224.660   112905614.147 8       966.779    21485223.540   112905614.151 7       966.779    21485231.500    87978423.941 7       753.334    21485232.620    87978429.947 8       753.334
G17  24764475.820   130138180.407 6      5463.393    24764475.040   130138180.402 3      5463.393    24764484.800   101406386.456 3      4257.190    24764485.900   101406439.460 6      4257.190
G27  24205808.800   127202364.840 6      -207.760    24205808.920   127202364.842 4      -207.760    24205822.520    99118773.910 4      -161.891    24205822.400    99118777.893 6      -161.891
R08  21800652.720   116741486.329 7       510.246    21800653.060   116741486.374 6       510.246    21800667.400    90799000.913 8       396.858    21800666.520    90798998.914 8       396.858
G04  24698096.940   129789369.895 5      5588.021    24698095.760   129789369.905 1      5588.021    24698111.720   101134630.107 1      4354.302    24698112.000   101134639.163 5      4354.302
G14  22597768.440   118752077.553 7      4177.762    22597767.280   118752077.566 5      4177.762    22597774.320    92534111.752 5      3255.399    22597774.600    92534104.756 7      3255.399
G03  20591395.080   108208511.401 8      4346.291    20591394.740   108208511.400 7      4346.291    20591401.120    84318346.136 7      3386.721    20591401.620    84318349.138 8      3386.721
R24  20952597.580   112042950.761 7      3550.457    20952595.540   112042950.765 7      3550.457    20952608.820    87144563.622 7      2761.467    20952608.400    87144564.621 7      2761.467
G32  25269920.300   132794325.094 7      1396.047    25269918.800   132794325.105 6      1396.047    25269933.040   103476148.756 6      1087.829    25269933.800   103476156.745 7      1087.829
R01  20163366.740   107784744.117 6      4680.082    20163364.080   107784744.112 6      4680.082    20163379.260    83832636.070 7      3640.064    20163378.040    83832634.063 7      3640.064
R14  21766797.560   116029272.321 7       832.173    21766795.400   116029272.303 7       832.173    21766808.360    90245028.971 7       647.246    21766808.780    90245033.972 7       647.246
R23  22029655.080   117843790.456 6      1487.338    22029653.960   117843790.471 6      1487.338
G22  24584424.580   129192024.319 6      5078.780    24584422.840   129192024.335 3      5078.780    24584431.920   100669127.852 3      3957.491
G21  21915653.700   115167530.177 7      1388.557    21915651.540   115167530.179 6      1388.557    21915656.740    89740913.212 6      1081.992
> 2024 06 03 13 31 24.0000000  0 16
G02  21702616.380   114048019.300 7      2234.615    21702614.080   114048019.305 6      2234.615    21702617.320    88868590.524 6      1741.258
R17  23626727.400   126431380.678 7      4773.969    23626728.800   126431380.704 7      4773.969    23626744.160    98335601.550 7      3713.087    23626744.120    98335599.554 7      3713.087
G08  21485040.900   112904647.359 8       966.564    21485039.560   112904647.367 8       966.564    21485047.420    87977670.609 8       753.167    21485048.400    87977676.620 8       753.167
G17  24763435.800   130132716.655 6      5463.607    24763435.180   130132716.647 3      5463.607    24763445.160   101402128.987 3      4257.356    24763446.280   101402181.941 6      4257.356
G27  24205848.800   127202572.429 6      -207.798    24205848.540   127202572.437 4      -207.798    24205862.040    99118935.660 4      -161.920    24205861.720    99118939.645 6      -161.920
R08  21800557.780   116740976.272 7       509.449    21800557.980   116740976.298 6       509.449    21800572.280    90798604.182 8       396.238    21800571.440    90798602.178 8       396.238
G04  24697033.140   129783781.748 5      5588.142    24697032.480   129783781.761 1      5588.142    24697048.600   101130275.711 1      4354.397    24697048.380   101130284.758 5      4354.397
G14  22596973.680   118747899.863 7      4177.347    22596972.560   118747899.876 5      4177.347    22596979.140    92530856.401 5      3255.075    22596979.920    92530849.419 7      3255.075
G03  20590567.980   108204165.313 8      4345.824    20590567.680   108204165.310 7      4345.824    20590574.000    84314959.574 7      3386.356    20590574.560    84314962.576 8      3386.356
R24  20951933.120   112039400.162 7      3550.453    20951931.580   112039400.166 7      3550.453    20951945.020    87141802.030 7      2761.464    20951944.380    87141803.031 7      2761.464
G32  25269654.600   132792929.102 7      1395.641    25269653.380   132792929.104 6      1395.641    25269667.280   103475060.965 6      1087.513    25269668.140   103475068.983 7      1087.513
R01  20162491.200   107780064.182 6      4679.493    20162488.400   107780064.178 6      4679.493    20162504.020    83828996.126 7      3639.606    20162502.600    83828994.112 7      3639.606
R14  21766641.280   116028440.396 7       831.532    21766639.600   116028440.384 7       831.532    21766652.500    90244381.912 7       646.747    21766652.540    90244386.913 7       646.747
R23  22029377.100   117842302.956 6      1487.378    22029376.060   117842302.965 6      1487.378
G22  24583458.680   129186945.538 6      5078.678    24583456.480   129186945.553 3      5078.678    24583465.440   100665170.364 3      3957.411
G21  21915389.440   115166141.460 8      1388.669    21915387.160   115166141.468 6      1388.669    21915392.340    89739831.095 6      1082.080
> 2024 06 03 13 31 25.0000000  0 16
G02  21702191.340   114045784.914 7      2234.066    21702189.040   114045784.922 6      2234.066    21702192.000    88866849.456 6      1740.830
R17  23625835.060   126426606.756 7      4773.591    23625837.260   126426606.773 7      4773.591    23625852.000    98331888.499 7      3712.793    23625852.320    98331886.506 7      3712.793
G08  21484857.000   112903681.182 7       965.662    21484855.700   112903681.184 7       965.662    21484863.540    87976917.743 7       752.464    21484864.800    87976923.744 7       752.464
G17  24762396.000   130127252.963 6      5463.379    24762395.380   130127252.955 3      5463.379    24762405.080   101397871.566 3      4257.179    24762405.220   101397924.562 6      4257.179
G27  24205888.560   127202780.461 6      -208.418    24205888.340   127202780.465 4      -208.418    24205901.600    99119097.750 4      -162.404    24205902.280    99119101.741 6      -162.404
R08  21800462.760   116740467.099 7       508.345    21800463.060   116740467.138 6       508.345    21800477.260    90798208.150 8       395.380    21800476.600    90798206.151 8       395.380
G04  24695969.580   129778193.596 5      5587.935    24695969.220   129778193.609 1      5587.935    24695985.480   101125921.311 1      4354.235    24695986.220   101125930.338 5      4354.235
G14  22596178.960   118743722.958 7      4176.186    22596177.780   118743722.971 5      4176.186    22596184.480    92527601.678 5      3254.171    22596185.320    92527594.684 7      3254.171
G03  20589741.140   108199820.000 8      4344.671    20589740.880   108199819.997 7      4344.671    20589746.980    84311573.622 7      3385.458    20589747.700    84311576.624 8      3385.458
R24  20951269.400   112035849.798 7      3550.036    20951267.280   112035849.799 7      3550.036    20951281.120    87139040.630 7      2761.139    20951280.320    87139041.631 7      2761.139
G32  25269388.920   132791533.782 7      1394.761    25269387.660   132791533.785 6      1394.761    25269401.740   103473973.712 6      1086.826    25269402.660   103473981.721 7      1086.826
R01  20161615.700   107775385.224 6      4678.159    20161613.720   107775385.222 6      4678.159    20161628.500    83825356.937 7      3638.568    20161627.200    83825354.928 7      3638.568
R14  21766485.180   116027609.322 7       830.389    21766483.320   116027609.306 7       830.389    21766496.240    90243735.514 7       645.858    21766496.820    90243740.520 7       645.858
R23  22029099.000   117840815.693 6      1486.839    22029098.000   117840815.716 6      1486.839
G22  24582492.280   129181867.319 6      5077.842    24582490.340   129181867.337 3      5077.842    24582499.160   100661213.314 3      3956.760
G21  21915125.280   115164752.930 7      1388.190    21915122.980   115164752.932 6      1388.190    21915128.020    89738749.130 6      1081.706
> 2024 06 03 13 31 26.0000000  0 16
G02  21701766.140   114043550.675 7      2234.002    21701763.800   114043550.680 6      2234.002    21701766.740    88865108.487 6      1740.780
R17  23624943.020   126421832.825 7      4773.761    23624944.620   126421832.853 7      4773.761    23624959.880    98328175.442 7      3712.925    23624959.800    98328173.449 7      3712.925
G08  21484673.200   112902715.453 7       965.334    21484671.880   112902715.458 7       965.334    21484679.760    87976165.236 7       752.208    21484680.960    87976171.243 8       752.208
G17  24761356.500   130121789.258 6      5463.542    24761355.720   130121789.252 3      5463.542    24761365.420   101393614.144 3      4257.305    24761365.740   101393667.185 6      4257.305
G27  24205928.500   127202988.802 6      -208.899    24205927.980   127202988.804 4      -208.899    24205941.380    99119260.084 4      -162.778    24205942.520    99119264.091 6      -162.778
R08  21800367.760   116739958.719 7       507.767    21800368.160   116739958.760 7       507.767    21800382.140    90797812.747 8       394.930    21800381.360    90797810.746 8       394.930
G04  24694905.780   129772605.389 5      5588.117    24694905.720   129772605.399 1      5588.117    24694921.800   101121566.873 1      4354.377    24694922.760   101121575.888 6      4354.377
G14  22595384.360   118739546.674 7      4175.746    22595383.060   118739546.692 5      4175.746    22595389.720    92524347.435 5      3253.828    22595390.340    92524340.441 7      3253.828
G03  20588914.360   108195475.332 8      4344.160    20588914.020   108195475.329 7      4344.160    20588920.280    84308188.166 7      3385.059    20588920.960    84308191.168 8      3385.059
R24  20950605.440   112032299.527 7      3550.038    20950603.960   112032299.529 7      3550.038    20950617.060    87136279.317 7      2761.141    20950616.580    87136280.317 7      2761.141
G32  25269123.660   132790139.065 7      1394.225    25269122.200   132790139.069 6      1394.225    25269136.400   103472886.920 6      1086.409    25269137.600   103472894.916 7      1086.409
R01  20160740.800   107770707.099 6      4677.484    20160738.080   107770707.095 6      4677.484    20160753.300    83821718.398 7      3638.043    20160752.040    83821716.386 7      3638.043
R14  21766329.480   116026778.951 7       829.841    21766327.660   116026778.938 7       829.841    21766340.500    90243089.689 7       645.432    21766340.720    90243094.692 7       645.432
R23  22028821.220   117839328.634 6      1486.792    22028819.960   117839328.655 6      1486.792
G22  24581525.960   129176789.514 6      5077.414    24581524.160   129176789.535 3      5077.414    24581533.000   100657256.592 3      3956.427
G21  21914860.980   115163364.505 7      1388.192    21914858.600   115163364.513 6      1388.192    21914863.760    89737667.251 6      1081.708
> 2024 06 03 13 31 27.0000000  0 16
G02  21701341.080   114041316.374 7      2234.497    21701338.720   114041316.376 6      2234.497    21701341.620    88863367.468 6      1741.167
R17  23624050.720   126417058.716 7      4774.458    23624052.340   126417058.738 7      4774.458    23624067.260    98324462.246 7      3713.467    23624068.040    98324460.246 7      3713.467
G08  21484489.800   112901750.016 8       965.490    21484488.120   112901750.019 7       965.490    21484496.100    87975412.941 7       752.330    21484497.080    87975418.947 7       752.330
G17  24760316.920   130116325.398 6      5464.190    24760315.540   130116325.400 3      5464.190    24760325.580   101389356.603 3      4257.810    24760324.880   101389409.662 6      4257.810
G27  24205967.400   127203197.193 6      -208.264    24205967.760   127203197.192 4      -208.264    24205981.180    99119422.454 4      -162.284    24205982.300    99119426.459 6      -162.284
R08  21800272.840   116739450.959 7       507.595    21800273.100   116739450.998 7       507.595    21800287.420    90797417.819 8       394.796    21800286.740    90797415.817 8       394.796
G04  24693842.820   129767016.971 5      5588.606    24693842.400   129767016.979 1      5588.606    24693858.320   101117212.250 1      4354.758    24693858.140   101117221.241 6      4354.758
G14  22594589.800   118735370.852 7      4175.816    22594588.340   118735370.865 5      4175.816    22594595.200    92521093.541 5      3253.882    22594595.780    92521086.550 7      3253.882
G03  20588087.780   108191131.120 8      4344.162    20588087.280   108191131.119 7      4344.162    20588093.600    84304803.068 6      3385.062    20588094.340    84304806.068 8      3385.062
R24  20949941.900   112028749.192 7      3550.456    20949940.180   112028749.202 7      3550.456    20949953.280    87133517.945 7      2761.466    20949952.460    87133518.944 7      2761.466
G32  25268858.200   132788744.704 7      1394.386    25268857.000   132788744.709 6      1394.386    25268871.060   103471800.402 6      1086.534    25268872.060   103471808.399 7      1086.534
R01  20159865.800   107766029.631 6      4677.416    20159863.540   107766029.622 6      4677.416    20159878.140    83818080.368 7      3637.990    20159877.220    83818078.358 7      3637.990
R14  21766173.780   116025949.094 7       829.786    21766172.400   116025949.079 7       829.786    21766185.000    90242444.224 7       645.389    21766185.000    90242449.227 7       645.389
R23  22028543.200   117837841.581 7      1487.239    22028542.280   117837841.606 6      1487.239
G22  24580560.000   129171711.955 6      5077.571    24580557.980   129171711.975 3      5077.571    24580566.620   100653300.056 3      3956.549
G21  21914596.740   115161976.004 7      1388.688    21914594.280   115161976.011 6      1388.688    21914599.500    89736585.306 6      1082.094
> 2024 06 03 13 31 28.0000000  0 16
G02  21700915.760   114039082.145 8      2234.113    21700913.520   114039082.153 6      2234.113    21700916.420    88861626.521 6      1740.867
R17  23623158.520   126412284.552 7      4774.091    23623160.100   126412284.581 7      4774.091    23623174.840    98320749.012 7      3713.182    23623176.060    98320747.021 7      3713.182
G08  21484306.060   112900784.992 7       964.758    21484304.480   112900784.997 7       964.758    21484312.480    87974660.970 7       751.760    21484313.380    87974666.980 8       751.760
G17  24759277.580   130110861.496 6      5463.830    24759275.800   130110861.495 3      5463.830    24759285.660   101385099.025 3      4257.530    24759284.180   101385152.060 6      4257.530
G27  24206007.520   127203405.844 6      -208.739    24206007.540   127203405.849 5      -208.739    24206020.880    99119585.033 4      -162.654    24206021.620    99119589.046 6      -162.654
R08  21800178.280   116738943.960 7       506.538    21800178.420   116738944.007 7       506.538    21800192.520    90797023.488 8       393.974    21800191.920    90797021.489 8       393.974
G04  24692779.040   129761428.351 5      5588.505    24692778.860   129761428.359 1      5588.505    24692794.620   101112857.502 1      4354.679    24692794.480   101112866.500 6      4354.679
G14  22593794.980   118731195.637 7      4174.802    22593793.820   118731195.650 5      4174.802    22593800.660    92517840.131 5      3253.092    22593801.760    92517833.146 7      3253.092
G03  20587261.100   108186787.502 8      4343.238    20587260.660   108186787.504 7      4343.238    20587267.080    84301418.439 7      3384.341    20587267.700    84301421.445 8      3384.341
R24  20949277.760   112025198.922 7      3550.142    20949276.220   112025198.929 7      3550.142    20949289.340    87130756.628 7      2761.222    20949288.580    87130757.628 7      2761.222
G32  25268592.640   132787350.871 7      1393.527    25268591.760   132787350.876 6      1393.527    25268605.840   103470714.296 6      1085.865    25268606.720   103470722.294 7      1085.865
R01  20158991.080   107761352.982 6      4676.273    20158988.140   107761352.978 6      4676.273    20159003.520    83814442.986 7      3637.101    20159002.380    83814440.972 7      3637.101
R14  21766018.480   116025119.850 7       828.815    21766016.760   116025119.835 7       828.815    21766029.400    90241799.253 7       644.634    21766029.940    90241804.256 7       644.634
R23  22028265.300   117836354.658 7      1486.790    22028264.140   117836354.670 6      1486.790
G22  24579593.660   129166634.757 6      5076.925    24579591.880   129166634.778 3      5076.925    24579600.520   100649343.806 3      3956.046
G21  21914332.740   115160587.545 7      1388.243    21914329.980   115160587.552 6      1388.243    21914335.200    89735503.389 6      1081.748
> 2024 06 03 13 31 29.0000000  0 17
G02  21700490.280   114036848.088 8      2234.008    21700488.260   114036848.090 6      2234.008    21700491.300    88859885.693 6      1740.786
R17  23622266.780   126407510.384 7      4774.209    23622268.180   126407510.401 7      4774.209    23622282.600    98317035.759 7      3713.273    23622283.600    98317033.768 7      3713.273
G08  21484122.680   112899820.438 7       964.416    21484121.060   112899820.443 7       964.416    21484128.920    87973909.366 7       751.493    21484129.700    87973915.375 8       751.493
G17  24758237.440   130105397.591 6      5463.972    24758236.020   130105397.596 2      5463.972    24758245.800   101380841.447 3      4257.640    24758245.020   101380894.504 6      4257.640
G27  24206047.000   127203614.831 6      -209.020    24206047.360   127203614.834 5      -209.020    24206060.560    99119747.872 4      -162.872    24206061.380    99119751.873 6      -162.872
R08  21800083.900   116738437.855 7       505.659    21800084.640   116738437.903 7       505.659    21800098.200    90796629.843 8       393.290    21800097.440    90796627.841 8       393.290
G04  24691716.180   129755839.663 5      5588.588    24691715.300   129755839.668 1      5588.588    24691731.120   101108502.684 1      4354.744    24691731.280   101108511.693 6      4354.744
G14  22593000.560   118727021.079 7      4174.175    22592999.460   118727021.092 5      4174.175    22593006.360    92514587.237 5      3252.604    22593007.340    92514580.251 7      3252.604
G03  20586434.640   108182444.554 8      4342.677    20586434.160   108182444.556 7      4342.677    20586440.600    84298034.326 6      3383.904    20586441.280    84298037.328 8      3383.904
R24  20948613.980   112021648.814 7      3549.974    20948612.540   112021648.818 7      3549.974    20948625.300    87127995.437 7      2761.091    20948625.060    87127996.440 7      2761.091
G32  25268327.560   132785957.617 7      1393.014    25268326.700   132785957.622 6      1393.014    25268340.700   103469628.650 6      1085.465    25268341.620   103469636.649 7      1085.465
R15  23159560.440   123757670.752 6      3989.279
R01  20158116.600   107756677.220 6      4675.323    20158113.660   107756677.224 6      4675.323    20158128.840    83810806.287 7      3636.363    20158127.500    83810804.277 7      3636.363
R14  21765863.140   116024291.286 7       828.235    21765861.580   116024291.279 7       828.235    21765874.040    90241154.820 7       644.183    21765874.260    90241159.826 7       644.183
R23  22027987.600   117834867.928 6      1486.691    22027986.380   117834867.927 7      1486.691
G22  24578627.180   129161558.028 6      5076.452    24578625.820   129161558.043 3      5076.452    24578634.460   100645387.921 3      3955.677
G21  21914068.340   115159199.175 7      1388.305    21914065.960   115159199.177 6      1388.305    21914071.100    89734421.541 6      1081.796
> 2024 06 03 13 31 30.0000000  0 17
G02  21700065.300   114034614.180 7      2233.854    21700063.300   114034614.182 6      2233.854    21700066.240    88858144.990 6      1740.665
R17  23621374.460   126402736.218 7      4774.223    23621376.240   126402736.230 7      4774.223    23621390.440    98313322.523 7      3713.285    23621391.500    98313320.543 7      3713.285
G08  21483938.920   112898856.405 7       963.823    21483937.620   112898856.407 7       963.823    21483945.500    87973158.175 7       751.031    21483946.320    87973164.182 8       751.031
G17  24757197.200   130099933.694 6      5463.837    24757196.240   130099933.694 2      5463.837    24757206.000   101376583.882 3      4257.536    24757204.540   101376636.943 5      4257.536
G27  24206086.860   127203824.129 6      -209.307    24206087.320   127203824.131 5      -209.307    24206100.520    99119910.951 5      -163.096    24206101.340    99119914.952 6      -163.096
R08  21799989.220   116737932.599 7       504.820    21799990.240   116737932.636 7       504.820    21800003.840    90796236.862 8       392.638    21800003.200    90796234.860 8       392.638
G04  24690653.300   129750250.964 5      5588.598    24690652.040   129750250.969 1      5588.598    24690667.480   101104147.858 1      4354.752    24690668.520   101104156.885 6      4354.752
G14  22592206.360   118722847.204 7      4173.541    22592205.140   118722847.214 5      4173.541    22592212.020    92511334.869 5      3252.110    22592213.120    92511327.885 7      3252.110
G03  20585608.420   108178102.289 8      4341.969    20585607.920   108178102.294 7      4341.969    20585614.260    84294650.749 7      3383.352    20585615.020    84294653.751 8      3383.352
R24  20947950.060   112018098.897 7      3549.824    20947949.000   112018098.901 7      3549.824    20947961.540    87125234.386 7      2760.974    20947961.240    87125235.385 7      2760.974
G32  25268062.800   132784564.980 7      1392.315    25268061.780   132784564.988 6      1392.315    25268075.680   103468543.486 6      1084.921    25268076.740   103468551.488 7      1084.921
R15  23158813.840   123753681.840 6      3988.559
R01  20157242.020   107752002.366 6      4674.293    20157239.440   107752002.373 6      4674.293    20157254.000    83807170.298 6      3635.562    20157252.800    83807168.286 7      3635.562
R14  21765707.920   116023463.482 7       827.468    21765706.500   116023463.488 7       827.468    21765719.100    90240510.966 7       643.587    21765719.300    90240515.970 7       643.587
R23  22027709.880   117833381.412 6      1486.369    22027708.480   117833381.427 7      1486.369
G22  24577661.440   129156481.750 6      5075.995    24577659.680   129156481.766 3      5075.995    24577668.400   100641432.389 3      3955.321
G21  21913804.200   115157810.947 7      1388.129    21913801.820   115157810.949 6      1388.129    21913807.040    89733339.807 6      1081.659
> 2024 06 03 13 31 31.0000000  0 17
G02  21699640.160   114032380.267 7      2233.928    21699638.160   114032380.272 6      2233.928    21699641.100    88856404.287 6      1740.723
R17  23620482.420   126397961.892 7      4774.489    23620483.940   126397961.912 7      4774.489    23620498.440    98309609.161 6      3713.491    23620499.200    98309607.178 6      3713.491
G08  21483755.720   112897892.679 7       963.585    21483754.120   112897892.678 7       963.585    21483761.980    87972407.217 7       750.845    21483762.980    87972413.225 8       750.845
G17  24756156.960   130094469.671 6      5464.161    24756156.380   130094469.668 2      5464.161    24756166.400   101372326.208 3      4257.788    24756165.940   101372379.242 5      4257.788
G27  24206126.920   127204033.576 6      -209.549    24206127.280   127204033.581 5      -209.549    24206140.360    99120074.145 5      -163.285    24206140.800    99120078.156 6      -163.285
R08  21799895.200   116737427.983 7       504.323    21799895.760   116737428.028 7       504.323    21799909.700    90795844.389 8       392.251    21799908.760    90795842.389 8       392.251
G04  24689589.980   129744662.005 5      5589.109    24689588.180   129744662.013 2      5589.109    24689603.440   101099792.831 1      4355.150    24689604.340   101099801.844 6      4355.150
G14  22591412.200   118718673.831 7      4173.093    22591410.940   118718673.843 5      4173.093    22591417.820    92508082.898 5      3251.760    22591418.680    92508075.914 7      3251.760
G03  20584782.320   108173760.527 8      4341.599    20584781.780   108173760.526 7      4341.599    20584788.000    84291267.561 7      3383.064    20584788.740    84291270.559 8      3383.064
R24  20947286.320   112014548.976 7      3549.976    20947285.760   112014548.978 7      3549.976    20947297.580    87122473.339 7      2761.093    20947297.440    87122474.335 7      2761.093
G32  25267798.040   132783172.745 7      1392.159    25267796.880   132783172.753 6      1392.159    25267810.680   103467458.618 6      1084.799    25267811.900   103467466.613 7      1084.799
R15  23158067.400   123749693.665 6      3987.803
R01  20156366.940   107747328.173 6      4673.925    20156364.820   107747328.177 6      4673.925    20156379.860    83803534.812 6      3635.275    20156378.480    83803532.807 7      3635.275
R14  21765552.280   116022636.277 7       826.967    21765551.480   116022636.283 7       826.967    21765563.940    90239867.581 7       643.196    21765563.700    90239872.588 7       643.196
R23  22027432.020   117831894.890 7      1486.571    22027430.860   117831894.911 7      1486.571
G22  24576695.500   129151405.751 6      5076.002    24576693.880   129151405.761 3      5076.002    24576702.300   100637477.075 3      3955.326
G21  21913539.960   115156422.653 7      1388.449    21913537.560   115156422.658 6      1388.449    21913542.660    89732258.013 6      1081.908
> 2024 06 03 13 31 32.0000000  0 17
G02  21699215.180   114030146.315 8      2233.867    21699213.120   114030146.317 6      2233.867    21699216.140    88854663.543 6      1740.675
R17  23619590.000   126393187.373 7      4774.453    23619591.520   126393187.401 7      4774.453    23619605.660    98305895.648 6      3713.464    23619606.820    98305893.665 6      3713.464
G08  21483572.180   112896929.228 7       963.264    21483570.820   112896929.233 7       963.264    21483578.760    87971656.479 7       750.595    21483579.500    87971662.486 8       750.595
G17  24755117.520   130089005.438 6      5464.265    24755116.760   130089005.435 2      5464.265    24755126.480   101368068.374 3      4257.868    24755127.180   101368121.414 5      4257.868
G27  24206166.980   127204243.121 6      -209.776    24206167.160   127204243.126 4      -209.776    24206180.300    99120237.414 5      -163.462    24206180.320    99120241.421 6      -163.462
R08  21799801.260   116736924.007 7       503.662    21799802.220   116736924.057 7       503.662    21799815.360    90795452.407 8       391.737    21799814.900    90795450.406 8       391.737
G04  24688526.780   129739072.773 5      5589.521    24688524.200   129739072.781 2      5589.521    24688540.320   101095437.590 1      4355.471    24688539.080   101095446.566 6      4355.471
G14  22590618.300   118714500.917 7      4172.613    22590616.880   118714500.930 5      4172.613    22590623.840    92504831.285 5      3251.387    22590624.460    92504824.302 7      3251.387
G03  20583955.940   108169419.234 8      4341.035    20583955.620   108169419.234 7      4341.035    20583961.840    84287884.738 7      3382.625    20583962.680    84287887.738 8      3382.625
R24  20946622.500   112010998.971 7      3550.024    20946621.580   112010998.972 7      3550.024    20946633.620    87119712.229 7      2761.129    20946633.240    87119713.230 7      2761.129
G32  25267532.820   132781780.896 7      1391.668    25267531.940   132781780.907 6      1391.668    25267546.120   103466374.060 6      1084.416    25267546.540   103466382.062 7      1084.416
R15  23157320.640   123745706.145 6      3987.138
R01  20155493.500   107742654.686 6      4673.042    20155491.060   107742654.676 6      4673.042    20155505.540    83799899.879 6      3634.589    20155504.320    83799897.866 7      3634.589
R14  21765397.640   116021809.611 7       826.299    21765396.960   116021809.619 7       826.299    21765408.900    90239224.632 7       642.677    21765409.020    90239229.638 7       642.677
R23  22027154.140   117830408.431 7      1486.306    22027153.240   117830408.451 7      1486.306
G22  24575729.460   129146330.031 6      5075.482    24575727.940   129146330.041 3      5075.482    24575736.340   100633521.968 3      3954.921
G21  21913276.040   115155034.278 7      1388.364    21913273.280   115155034.280 6      1388.364    21913278.640    89731176.163 6      1081.842
> 2024 06 03 13 31 33.0000000  0 17
G02  21698790.040   114027912.386 8      2233.740    21698788.080   114027912.388 6      2233.740    21698791.040    88852922.821 6      1740.577
R17  23618697.300   126388412.725 7      4774.509    23618699.320   126388412.759 7      4774.509    23618713.740    98302182.066 6      3713.507    23618714.580    98302180.075 7      3713.507
G08  21483389.100   112895966.180 7       962.711    21483387.580   112895966.180 7       962.711    21483395.480    87970906.045 7       750.164    21483396.420    87970912.053 8       750.164
G17  24754077.960   130083541.131 6      5464.371    24754077.040   130083541.131 2      5464.371    24754086.680   101363810.477 3      4257.952    24754087.040   101363863.493 5      4257.952
G27  24206206.940   127204452.847 6      -209.937    24206207.140   127204452.849 4      -209.937    24206220.120    99120400.824 5      -163.587    24206220.140    99120404.827 6      -163.587
R08  21799707.160   116736420.775 7       502.676    21799707.820   116736420.820 7       502.676    21799721.400    90795061.002 8       390.970    21799720.540    90795059.001 8       390.970
G04  24687462.620   129733483.418 5      5589.366    24687460.680   129733483.425 2      5589.366    24687476.480   101091082.252 1      4355.350    24687475.340   101091091.232 6      4355.350
G14  22589824.340   118710328.574 7      4171.895    22589823.100   118710328.587 5      4171.895    22589829.940    92501580.111 5      3250.828    22589830.800    92501573.121 8      3250.828
G03  20583129.980   108165078.514 8      4340.285    20583129.480   108165078.514 7      4340.285    20583135.940    84284502.363 7      3382.040    20583136.520    84284505.361 8      3382.040
R24  20945958.200   112007448.983 7      3549.781    20945958.040   112007448.987 7      3549.781    20945969.400    87116951.130 7      2760.941    20945969.420    87116952.127 7      2760.941
G32  25267268.120   132780389.542 7      1390.963    25267267.260   132780389.552 6      1390.963    25267281.240   103465289.896 6      1083.867    25267282.060   103465297.897 7      1083.867
R15  23156574.260   123741719.325 6      3986.364
R01  20154618.960   107737981.938 6      4672.018    20154617.040   107737981.934 6      4672.018    20154631.640    83796265.527 7      3633.791    20154630.620    83796263.509 7      3633.791
R14  21765242.580   116020983.592 7       825.545    21765242.140   116020983.595 7       825.545    21765253.900    90238582.161 7       642.091    21765253.940    90238587.166 7       642.091
R23  22026876.240   117828922.029 7      1486.119    22026875.540   117828922.044 7      1486.119
G22  24574763.580   129141254.647 6      5075.063    24574762.280   129141254.659 3      5075.063    24574770.440   100629567.131 3      3954.595
G21  21913011.800   115153645.908 7      1388.196    21913009.200   115153645.913 6      1388.196    21913014.340    89730094.318 6      1081.711
> 2024 06 03 13 31 34.0000000  0 17
G02  21698365.060   114025678.573 7      2233.778    21698362.820   114025678.578 6      2233.778    21698366.000    88851182.189 6      1740.606
R17  23617805.040   126383638.048 7      4774.797    23617807.020   126383638.074 7      4774.797    23617821.420    98298468.416 7      3713.731    23617822.200    98298466.427 7      3713.731
G08  21483205.820   112895003.544 8       962.445    21483204.320   112895003.546 7       962.445    21483212.260    87970155.944 7       749.958    21483213.320    87970161.949 8       749.958
G17  24753038.100   130078076.809 6      5464.291    24753037.240   130078076.806 2      5464.291    24753046.840   101359552.567 3      4257.889    24753047.380   101359605.589 5      4257.889
G27  24206247.220   127204662.830 6      -210.008    24206247.020   127204662.835 4      -210.008    24206260.120    99120564.439 4      -163.642    24206260.840    99120568.459 6      -163.642
R08  21799613.000   116735918.322 7       502.023    21799614.220   116735918.364 7       502.023    21799627.560    90794670.198 8       390.463    21799626.520    90794668.198 8       390.463
G04  24686398.260   129727893.960 5      5589.502    24686396.900   129727893.962 2      5589.502    24686412.600   101086726.830 1      4355.456    24686412.180   101086735.814 5      4355.456
G14  22589030.380   118706156.849 7      4171.466    22589029.300   118706156.861 5      4171.466    22589036.100    92498329.418 5      3250.493    22589036.940    92498322.422 7      3250.493
G03  20582304.140   108160738.401 8      4339.829    20582303.540   108160738.401 7      4339.829    20582310.000    84281120.459 6      3381.685    20582310.580    84281123.461 8      3381.685
R24  20945294.260   112003899.047 7      3549.937    20945294.560   112003899.056 7      3549.937    20945305.560    87114190.075 7      2761.062    20945305.540    87114191.072 7      2761.062
G32  25267003.420   132778998.718 7      1390.556    25267002.660   132778998.728 6      1390.556    25267016.600   103464206.135 6      1083.550    25267017.260   103464214.138 7      1083.550
R15  23155828.140   123737733.272 6      3985.719    23155829.280   123737733.303 6      3985.719    23155843.640    96240517.286 6      3100.004
R01  20153744.960   107733309.929 6      4671.795    20153743.120   107733309.925 6      4671.795    20153757.300    83792631.748 7      3633.618    20153756.360    83792629.736 7      3633.618
R14  21765087.860   116020158.226 8       825.048    21765087.380   116020158.230 7       825.048    21765099.180    90237940.210 7       641.704    21765099.060    90237945.211 7       641.704
R23  22026598.360   117827435.754 7      1486.229    22026597.100   117827435.769 7      1486.229
G22  24573798.000   129136179.628 6      5074.934    24573796.440   129136179.640 3      5074.934    24573804.720   100625612.577 3      3954.494
G21  21912747.660   115152257.583 7      1388.348    21912745.160   115152257.585 6      1388.348    21912750.180    89729012.508 6      1081.830
> 2024 06 03 13 31 35.0000000  0 17
G02  21697939.940   114023444.781 7      2233.739    21697937.800   114023444.786 6      2233.739    21697940.900    88849441.572 6      1740.576
R17  23616912.880   126378863.246 7      4774.734    23616914.860   126378863.269 7      4774.734    23616929.520    98294754.700 7      3713.682    23616929.900    98294752.702 7      3713.682
G08  21483022.540   112894041.263 8       962.185    21483021.240   112894041.268 7       962.185    21483029.200    87969406.106 7       749.755    21483030.120    87969412.113 8       749.755
G17  24751998.360   130072612.302 6      5464.599    24751997.360   130072612.302 2      5464.599    24752006.920   101355294.514 2      4258.129    24752007.560   101355347.551 5      4258.129
G27  24206287.420   127204873.026 6      -210.366    24206287.140   127204873.036 5      -210.366    24206300.180    99120728.227 4      -163.922    24206299.840    99120732.236 6      -163.922
R08  21799519.280   116735416.550 7       501.389    21799520.500   116735416.584 7       501.389    21799533.860    90794279.926 8       389.970    21799533.140    90794277.929 8       389.970
G04  24685334.260   129722304.294 5      5589.601    24685332.840   129722304.299 2      5589.601    24685349.420   101082371.244 1      4355.534    24685347.780   101082380.245 5      4355.534
G14  22588236.500   118701985.651 7      4170.886    22588235.580   118701985.664 5      4170.886    22588242.400    92495079.138 5      3250.041    22588243.120    92495072.154 8      3250.041
G03  20581478.380   108156398.840 8      4339.269    20581477.780   108156398.843 7      4339.269    20581484.120    84277738.983 7      3381.248    20581484.740    84277741.987 8      3381.248
R24  20944630.440   112000349.167 7      3549.884    20944630.640   112000349.176 7      3549.884    20944641.840    87111429.049 7      2761.021    20944641.700    87111430.049 7      2761.021
G32  25266738.780   132777608.327 7      1390.049    25266737.980   132777608.340 6      1390.049    25266752.160   103463122.736 6      1083.155    25266753.180   103463130.738 7      1083.155
R15  23155082.100   123733747.943 6      3984.788    23155082.740   123733747.955 6      3984.788    23155097.960    96237417.592 7      3099.280    23155097.460    96237414.587 6      3099.280
R01  20152870.380   107728638.724 6      4670.808    20152869.000   107728638.720 6      4670.808    20152883.300    83788998.595 7      3632.850    20152882.400    83788996.585 7      3632.850
R14  21764933.120   116019333.442 8       824.425    21764932.600   116019333.445 7       824.425    21764944.440    90237298.711 7       641.220    21764944.480    90237303.708 7       641.220
R23  22026320.140   117825949.567 7      1486.141    22026319.480   117825949.582 7      1486.141
G22  24572832.120   129131104.958 6      5074.456    24572830.860   129131104.971 3      5074.456    24572839.180   100621658.294 3      3954.122
G21  21912483.340   115150869.255 7      1388.324    21912481.120   115150869.263 6      1388.324    21912486.040    89727930.694 6      1081.811
> 2024 06 03 13 31 36.0000000  0 17
G02  21697514.920   114021211.028 8      2233.741    21697512.860   114021211.038 6      2233.741    21697515.980    88847700.988 6      1740.578
R17  23616020.800   126374088.317 7      4774.965    23616022.520   126374088.330 7      4774.965    23616037.320    98291040.871 7      3713.861    23616037.500    98291038.867 7      3713.861
G08  21482839.560   112893079.400 7       961.625    21482838.120   112893079.402 7       961.625    21482846.200    87968656.604 7       749.318    21482846.920    87968662.612 8       749.318
G17  24750958.240   130067147.799 6      5464.433    24750957.480   130067147.796 2      5464.433    24750966.980   101351036.463 2      4258.000    24750968.640   101351089.504 5      4258.000
G27  24206327.080   127205083.433 6      -210.598    24206327.340   127205083.437 5      -210.598    24206340.140    99120892.169 4      -164.102    24206341.100    99120896.168 6      -164.102
R08  21799425.860   116734915.524 7       500.677    21799427.200   116734915.563 7       500.677    21799440.040    90793890.241 8       389.415    21799439.460    90793888.242 8       389.415
G04  24684270.680   129716714.418 5      5589.874    24684269.320   129716714.426 2      5589.874    24684285.680   101078015.497 1      4355.746    24684285.760   101078024.514 5      4355.746
G14  22587443.140   118697815.034 7      4170.343    22587441.920   118697815.047 5      4170.343    22587448.600    92491829.309 5      3249.618    22587449.300    92491822.311 7      3249.618
G03  20580652.560   108152059.837 8      4338.706    20580652.100   108152059.834 7      4338.706    20580658.460    84274357.945 6      3380.810    20580659.100    84274360.945 8      3380.810
R24  20943966.420   111996799.364 7      3549.629    20943967.000   111996799.376 7      3549.629    20943978.000    87108668.097 7      2760.822    20943978.060    87108669.098 7      2760.822
G32  25266474.220   132776218.436 7      1389.599    25266473.400   132776218.449 6      1389.599    25266487.480   103462039.706 6      1082.804    25266488.760   103462047.708 7      1082.804
R15  23154336.480   123729763.330 6      3984.075    23154336.880   123729763.337 6      3984.075    23154352.780    96234318.438 7      3098.725    23154351.760    96234315.444 7      3098.725
R01  20151996.960   107723968.275 6      4670.057    20151995.840   107723968.250 6      4670.057    20152009.740    83785366.007 7      3632.267    20152008.620    83785363.997 7      3632.267
R14  21764778.660   116018509.284 8       823.813    21764777.960   116018509.281 7       823.813    21764789.940    90236657.695 7       640.744    21764789.880    90236662.694 7       640.744
R23  22026042.120   117824463.476 7      1486.075    22026041.880   117824463.488 7      1486.075
G22  24571866.700   129126030.638 6      5074.112    24571865.120   129126030.648 3      5074.112    24571873.520   100617704.282 3      3953.853
G21  21912219.000   115149480.948 7      1388.262    21912216.820   115149480.951 6      1388.262    21912221.860    89726848.897 6      1081.763
> 2024 06 03 13 31 37.0000000  0 17
G02  21697089.920   114018977.383 8      2233.580    21697087.700   114018977.391 6      2233.580    21697090.980    88845960.491 6      1740.452
R17  23615128.640   126369313.373 7      4774.895    23615130.300   126369313.390 7      4774.895    23615144.720    98287327.031 7      3713.807    23615145.160    98287325.028 7      3713.807
G08  21482656.560   112892117.925 7       961.236    21482655.140   112892117.933 7       961.236    21482663.160    87967907.403 7       749.015    21482664.160    87967913.411 8       749.015
G17  24749918.300   130061683.153 6      5464.665    24749917.740   130061683.153 2      5464.665    24749926.940   101346778.308 2      4258.180    24749929.340   101346831.353 5      4258.180
G27  24206367.240   127205294.054 6      -210.636    24206367.480   127205294.054 5      -210.636    24206380.260    99121056.280 4      -164.132    24206380.440    99121060.277 6      -164.132
R08  21799332.780   116734415.321 7       499.755    21799333.660   116734415.360 7       499.755    21799346.860    90793501.192 8       388.698    21799346.160    90793499.197 8       388.698
G04  24683207.460   129711124.535 5      5589.463    24683205.220   129711124.542 2      5589.463    24683221.860   101073659.751 1      4355.426    24683221.460   101073668.766 5      4355.426
G14  22586649.180   118693645.032 7      4169.525    22586648.400   118693645.045 5      4169.525    22586655.100    92488579.963 5      3248.980    22586655.740    92488572.975 8      3248.980
G03  20579827.040   108147721.440 8      4338.085    20579826.580   108147721.439 7      4338.085    20579832.920    84270977.380 7      3380.326    20579833.460    84270980.378 8      3380.326
R24  20943302.840   111993249.636 7      3549.685    20943303.300   111993249.648 7      3549.685    20943314.080    87105907.202 7      2760.866    20943314.160    87105908.201 7      2760.866
G32  25266210.040   132774829.084 7      1389.006    25266209.020   132774829.096 6      1389.006    25266223.200   103460957.092 6      1082.343    25266224.620   103460965.085 7      1082.343
R15  23153591.140   123725779.516 6      3983.401    23153591.760   123725779.525 6      3983.401    23153606.640    96231219.916 7      3098.201    23153606.120    96231216.911 7      3098.201
R01  20151123.480   107719298.607 6      4669.222    20151122.440   107719298.608 6      4669.222    20151136.220    83781734.061 7      3631.617    20151135.140    83781732.056 7      3631.617
R14  21764624.100   116017685.805 8       823.158    21764623.260   116017685.811 8       823.158    21764635.520    90236017.211 7       640.234    21764635.440    90236022.212 7       640.234
R23  22025764.620   117822977.538 7      1485.739    22025764.500   117822977.561 7      1485.739
G22  24570901.180   129120956.694 6      5073.756    24570899.700   129120956.701 3      5073.756    24570908.180   100613750.559 3      3953.576
G21  21911954.920   115148092.692 7      1388.150    21911952.720   115148092.696 6      1388.150    21911957.540    89725767.134 6      1081.675
> 2024 06 03 13 31 38.0000000  0 17
G02  21696664.760   114016743.809 8      2233.561    21696662.800   114016743.814 6      2233.561    21696665.800    88844220.048 6      1740.437
R17  23614236.220   126364538.375 7      4775.009    23614238.200   126364538.393 7      4775.009    23614252.400    98283613.159 7      3713.896    23614252.840    98283611.155 7      3713.896
G08  21482473.620   112891156.879 7       960.886    21482472.320   112891156.884 7       960.886    21482480.360    87967158.534 7       748.742    21482481.440    87967164.544 8       748.742
G17  24748878.300   130056218.491 6      5464.687    24748877.840   130056218.486 2      5464.687    24748887.120   101342520.136 2      4258.198    24748888.860   101342573.177 5      4258.198
G27  24206407.200   127205504.926 6      -210.878    24206407.660   127205504.928 5      -210.878    24206420.340    99121220.591 5      -164.321    24206421.280    99121224.592 6      -164.321
R08  21799239.360   116733915.802 7       499.272    21799240.480   116733915.836 7       499.272    21799253.500    90793112.680 8       388.322    21799252.760    90793110.683 8       388.322
G04  24682143.040   129705534.362 5      5590.359    24682141.560   129705534.369 2      5590.359    24682157.920   101069303.773 1      4356.124    24682157.400   101069312.790 5      4356.124
G14  22585856.020   118689475.585 7      4169.201    22585854.980   118689475.600 5      4169.201    22585861.740    92485331.051 5      3248.728    22585862.380    92485324.059 7      3248.728
G03  20579001.680   108143383.644 8      4337.525    20579000.980   108143383.646 7      4337.525    20579007.620    84267597.286 7      3379.890    20579008.340    84267600.288 8      3379.890
R24  20942639.040   111989699.970 7      3549.686    20942639.520   111989699.987 7      3549.686    20942650.180    87103146.353 7      2760.867    20942650.300    87103147.353 7      2760.867
G32  25265945.620   132773440.230 7      1388.647    25265944.560   132773440.233 6      1388.647    25265959.020   103459874.868 6      1082.062    25265960.200   103459882.868 7      1082.062
R15  23152846.000   123721796.509 6      3982.639    23152845.860   123721796.518 6      3982.639    23152861.440    96228122.027 7      3097.608    23152861.200    96228119.017 7      3097.608
R01  20150250.080   107714629.765 7      4668.415    20150249.260   107714629.769 6      4668.415    20150262.780    83778102.750 7      3630.989    20150261.840    83778100.745 7      3630.989
R14  21764469.680   116016862.958 8       822.560    21764468.920   116016862.961 8       822.560    21764481.060    90235377.213 8       639.769    21764481.000    90235382.212 7       639.769
R23  22025487.060   117821491.712 7      1485.769    22025486.600   117821491.735 7      1485.769
G22  24569936.020   129115883.130 6      5073.463    24569934.140   129115883.138 3      5073.463    24569942.880   100609797.137 3      3953.348
G21  21911690.800   115146704.458 7      1388.235    21911688.460   115146704.466 6      1388.235    21911693.160    89724685.392 6      1081.741
> 2024 06 03 13 31 39.0000000  0 17
G02  21696239.780   114014510.380 7      2233.441    21696237.880   114014510.387 6      2233.441    21696240.840    88842479.716 6      1740.343
R17  23613343.940   126359763.382 7      4775.049    23613345.640   126359763.397 7      4775.049    23613360.140    98279899.278 7      3713.927    23613360.520    98279897.268 7      3713.927
G08  21482291.060   112890196.309 7       960.379    21482289.480   112890196.311 7       960.379    21482297.520    87966410.038 7       748.347    21482298.700    87966416.047 8       748.347
G17  24747838.680   130050753.819 6      5464.733    24747837.920   130050753.814 2      5464.733    24747847.060   101338261.959 2      4258.234    24747849.020   101338314.997 5      4258.234
G27  24206446.560   127205716.110 6      -211.206    24206447.960   127205716.110 4      -211.206    24206460.700    99121385.138 5      -164.576    24206461.660    99121389.127 6      -164.576
R08  21799146.340   116733417.125 7       498.367    21799147.180   116733417.167 7       498.367    21799160.380    90792724.818 8       387.619    21799159.660    90792722.823 8       387.619
G04  24681080.040   129699944.197 5      5590.291    24681078.280   129699944.210 2      5590.291    24681094.340   101064947.810 1      4356.071    24681093.480   101064956.838 5      4356.071
G14  22585062.620   118685306.817 7      4168.527    22585061.620   118685306.833 5      4168.527    22585068.320    92482082.663 5      3248.203    22585069.340    92482075.665 8      3248.203
G03  20578176.400   108139046.487 8      4336.909    20578175.620   108139046.487 7      4336.909    20578182.100    84264217.683 7      3379.410    20578182.620    84264220.685 8      3379.410
R24  20941974.940   111986150.437 7      3549.514    20941975.860   111986150.447 7      3549.514    20941986.280    87100385.603 7      2760.733    20941986.140    87100386.604 7      2760.733
G32  25265681.260   132772051.960 7      1388.016    25265680.540   132772051.965 6      1388.016    25265694.780   103458793.106 6      1081.571    25265696.320   103458801.105 7      1081.571
R15  23152101.040   123717814.335 6      3981.869    23152101.260   123717814.342 6      3981.869    23152116.260    96225024.779 7      3097.009    23152115.840    96225021.773 7      3097.009
R01  20149376.740   107709961.757 7      4667.657    20149375.720   107709961.763 6      4667.657    20149389.220    83774472.091 6      3630.400    20149388.300    83774470.084 7      3630.400
R14  21764315.520   116016040.775 8       821.919    21764314.640   116016040.772 7       821.919    21764326.720    90234737.735 7       639.270    21764327.000    90234742.732 7       639.270
R23  22025209.500   117820006.076 7      1485.591    22025209.200   117820006.093 7      1485.591
G22  24568970.600   129110810.035 6      5072.896    24568968.720   129110810.040 3      5072.896    24568977.260   100605844.078 3      3952.906
G21  21911426.540   115145316.320 7      1388.149    21911424.300   115145316.327 6      1388.149    21911429.040    89723603.725 6      1081.675
> 2024 06 03 13 31 40.0000000  0 17
G02  21695814.680   114012277.066 8      2233.420    21695812.960   114012277.068 6      2233.420    21695815.800    88840739.469 6      1740.327
R17  23612451.420   126354988.323 7      4775.204    23612453.100   126354988.338 7      4775.204    23612467.700    98276185.349 7      3714.047    23612468.220    98276183.332 7      3714.047
G08  21482108.500   112889236.172 7       960.092    21482106.840   112889236.171 7       960.092    21482114.780    87965661.877 7       748.124    21482116.140    87965667.888 8       748.124
G17  24746799.420   130045289.137 6      5464.750    24746798.100   130045289.134 2      5464.750    24746807.140   101334003.775 2      4258.247    24746807.580   101334056.811 5      4258.247
G27  24206487.540   127205927.565 6      -211.601    24206488.200   127205927.564 4      -211.601    24206500.960    99121549.898 5      -164.884    24206502.260    99121553.886 6      -164.884
R08  21799053.360   116732919.261 7       497.564    21799054.340   116732919.298 7       497.564    21799067.300    90792337.590 8       386.994    21799066.720    90792335.593 8       386.994
G04  24680015.780   129694353.909 5      5590.806    24680014.120   129694353.924 2      5590.806    24680030.060   101060591.750 1      4356.472    24680029.960   101060600.759 5      4356.472
G14  22584269.460   118681138.678 7      4167.925    22584268.620   118681138.691 5      4167.925    22584275.180    92478834.764 5      3247.734    22584276.300    92478827.774 8      3247.734
G03  20577351.260   108134709.977 8      4336.327    20577350.420   108134709.979 7      4336.327    20577356.960    84260838.592 6      3378.956    20577357.500    84260841.596 8      3378.956
R24  20941311.240   111982601.009 7      3549.517    20941312.500   111982601.024 7      3549.517    20941322.380    87097624.949 7      2760.736    20941322.160    87097625.943 7      2760.736
G32  25265417.500   132770664.237 7      1387.540    25265416.440   132770664.247 6      1387.540    25265430.740   103457711.767 6      1081.200    25265431.900   103457719.764 7      1081.200
R15  23151356.100   123713832.968 6      3981.046    23151356.100   123713832.980 6      3981.046    23151370.760    96221928.167 7      3096.369    23151370.820    96221925.165 7      3096.369
R01  20148503.700   107705294.646 7      4666.859    20148502.740   107705294.642 6      4666.859    20148516.280    83770842.113 7      3629.780    20148515.340    83770840.103 7      3629.780
R14  21764161.260   116015219.298 8       821.232    21764160.720   116015219.298 7       821.232    21764172.700    90234098.800 7       638.736    21764173.120    90234103.799 7       638.736
R23  22024931.980   117818520.619 7      1485.416    22024931.660   117818520.620 7      1485.416
G22  24568004.880   129105737.310 7      5072.553    24568003.380   129105737.317 3      5072.553    24568012.160   100601891.313 3      3952.639
G21  21911162.220   115143928.268 7      1388.159    21911160.200   115143928.280 6      1388.159    21911165.120    89722522.131 6      1081.682
> 2024 06 03 13 31 41.0000000  0 17
G02  21695389.940   114010043.729 7      2233.307    21695387.940   114010043.733 6      2233.307    21695390.840    88838999.206 6      1740.239
R17  23611559.320   126350213.031 7      4775.411    23611560.840   126350213.046 7      4775.411    23611575.120    98272471.241 7      3714.208    23611575.860    98272469.225 7      3714.208
G08  21481925.880   112888276.355 7       959.666    21481924.240   112888276.360 7       959.666    21481932.260    87964913.966 7       747.792    21481933.280    87964919.975 8       747.792
G17  24745759.860   130039824.271 6      5465.024    24745758.260   130039824.265 2      5465.024    24745767.260   101329745.441 2      4258.460    24745768.280   101329798.466 5      4258.460
G27  24206527.940   127206139.103 6      -211.677    24206528.380   127206139.100 4      -211.677    24206541.360    99121714.721 5      -164.943    24206543.040    99121718.722 6      -164.943
R08  21798960.500   116732422.022 7       496.927    21798961.060   116732422.064 7       496.927    21798974.400    90791950.859 8       386.499    21798973.680    90791948.866 8       386.499
G04  24678951.980   129688763.484 5      5590.534    24678950.460   129688763.499 2      5590.534    24678966.140   101056235.572 1      4356.260    24678965.280   101056244.565 5      4356.260
G14  22583476.500   118676971.033 7      4167.393    22583475.680   118676971.046 5      4167.393    22583482.080    92475587.250 5      3247.320    22583483.460    92475580.257 8      3247.320
G03  20576526.020   108130373.960 8      4335.777    20576525.320   108130373.960 6      4335.777    20576531.740    84257459.880 6      3378.528    20576532.220    84257462.880 8      3378.528
R24  20940647.540   111979051.573 7      3549.445    20940648.540   111979051.585 7      3549.445    20940658.440    87094864.274 7      2760.679    20940658.120    87094865.264 7      2760.679
G32  25265153.500   132769276.931 7      1386.980    25265152.500   132769276.939 6      1386.980    25265166.900   103456630.760 6      1080.764    25265167.900   103456638.763 7      1080.764
R15  23150610.800   123709852.272 6      3980.243    23150610.860   123709852.276 6      3980.243    23150626.320    96218832.059 7      3095.745    23150625.800    96218829.063 7      3095.745
R01  20147630.480   107700628.191 7      4666.166    20147630.140   107700628.187 6      4666.166    20147642.960    83767212.649 7      3629.240    20147642.180    83767210.642 7      3629.240
R14  21764007.140   116014398.375 8       820.611    21764007.160   116014398.378 7       820.611    21764018.800    90233460.298 7       638.253    21764018.760    90233465.298 8       638.253
R23  22024653.540   117817035.116 7      1485.588    22024653.760   117817035.128 7      1485.588
G22  24567039.700   129100664.866 6      5072.267    24567038.320   129100664.871 3      5072.267    24567047.120   100597938.766 3      3952.416
G21  21910898.300   115142540.142 7      1388.179    21910896.080   115142540.147 6      1388.179    21910901.060    89721440.480 6      1081.698
> 2024 06 03 13 31 42.0000000  0 17
G02  21694965.000   114007810.680 7      2232.915    21694962.980   114007810.688 6      2232.915    21694965.900    88837259.170 6      1739.934
R17  23610667.000   126345437.869 7      4775.233    23610668.260   126345437.884 7      4775.233    23610683.120    98268757.220 7      3714.070    23610683.500    98268755.202 7      3714.070
G08  21481743.280   112887317.151 7       958.999    21481741.640   112887317.156 7       958.999    21481749.800    87964166.534 7       747.272    21481750.780    87964172.543 8       747.272
G17  24744720.120   130034359.583 6      5464.615    24744718.340   130034359.582 2      5464.615    24744727.360   101325487.247 2      4258.141    24744727.640   101325540.280 5      4258.141
G27  24206568.360   127206351.110 6      -212.217    24206568.800   127206351.115 4      -212.217    24206581.460    99121879.917 5      -165.364    24206582.720    99121883.918 6      -165.364
R08  21798867.980   116731925.829 7       495.747    21798868.720   116731925.868 7       495.747    21798881.700    90791564.925 8       385.581    21798881.200    90791562.928 8       385.581
G04  24677888.260   129683173.040 5      5590.267    24677886.460   129683173.056 2      5590.267    24677902.000   101051879.383 1      4356.052    24677901.300   101051888.379 5      4356.052
G14  22582683.720   118672804.195 7      4166.460    22582682.660   118672804.205 5      4166.460    22582689.080    92472340.363 5      3246.592    22582690.300    92472333.370 8      3246.592
G03  20575701.020   108126038.743 8      4334.900    20575700.320   108126038.742 7      4334.900    20575706.980    84254081.791 7      3377.844    20575707.420    84254084.790 8      3377.844
R24  20939983.960   111975502.425 7      3549.184    20939985.020   111975502.434 7      3549.184    20939994.900    87092103.826 7      2760.476    20939994.940    87092104.816 7      2760.476
G32  25264889.840   132767890.327 7      1386.353    25264888.720   132767890.334 6      1386.353    25264902.980   103455550.285 6      1080.275    25264903.960   103455558.284 7      1080.275
R15  23149866.220   123705872.498 6      3979.270    23149866.080   123705872.496 6      3979.270    23149881.720    96215736.682 7      3094.988    23149880.860    96215733.681 7      3094.988
R01  20146758.320   107695962.748 7      4665.065    20146757.100   107695962.744 6      4665.065    20146770.500    83763583.986 7      3628.384    20146769.440    83763581.975 7      3628.384
R14  21763853.360   116013578.326 8       819.711    21763853.380   116013578.332 7       819.711    21763865.080    90232822.485 7       637.553    21763865.100    90232827.486 7       637.553
R23  22024376.060   117815550.010 7      1484.904    22024375.940   117815550.025 7      1484.904
G22  24566074.340   129095592.994 7      5071.686    24566073.220   129095593.002 3      5071.686    24566082.120   100593986.662 3      3951.963
G21  21910634.300   115141152.272 7      1387.827    21910632.060   115141152.274 6      1387.827    21910636.920    89720359.027 6      1081.424
> 2024 06 03 13 31 43.0000000  0 17
G02  21694539.960   114005577.829 7      2232.714    21694538.180   114005577.831 6      2232.714    21694540.980    88835519.286 6      1739.777
R17  23609774.840   126340662.829 7      4775.011    23609775.960   126340662.838 7      4775.011    23609791.360    98265043.304 7      3713.897    23609791.140    98265041.286 7      3713.897
G08  21481560.800   112886358.491 7       958.466    21481559.240   112886358.493 7       958.466    21481567.360    87963419.516 7       746.856    21481568.360    87963425.531 8       746.856
G17  24743680.400   130028894.932 6      5464.582    24743678.600   130028894.931 2      5464.582    24743687.600   101321229.080 2      4258.116    24743687.540   101321282.120 5      4258.116
G27  24206608.500   127206563.508 6      -212.727    24206609.120   127206563.518 4      -212.727    24206621.880    99122045.411 4      -165.761    24206623.700    99122049.400 6      -165.761
R08  21798775.240   116731430.509 7       494.928    21798776.400   116731430.545 7       494.928    21798789.220    90791179.668 8       384.944    21798788.580    90791177.675 8       384.944
G04  24676823.740   129677582.594 5      5590.495    24676822.980   129677582.605 1      5590.495    24676838.000   101047523.193 1      4356.230    24676837.960   101047532.194 5      4356.230
G14  22581891.020   118668638.060 7      4165.773    22581889.920   118668638.068 5      4165.773    22581896.260    92469094.029 5      3246.057    22581897.500    92469087.041 7      3246.057
G03  20574876.380   108121704.266 8      4334.030    20574875.500   108121704.266 7      4334.030    20574882.180    84250704.280 7      3377.166    20574882.620    84250707.280 8      3377.166
R24  20939320.380   111971953.486 7      3548.889    20939321.080   111971953.495 7      3548.889    20939331.220    87089343.540 7      2760.247    20939331.240    87089344.532 7      2760.247
G32  25264625.620   132766504.353 7      1385.681    25264624.860   132766504.366 7      1385.681    25264639.080   103454470.320 6      1079.751    25264640.180   103454478.317 7      1079.751
R15  23149121.400   123701893.656 6      3978.491    23149121.240   123701893.641 6      3978.491    23149137.600    96212642.014 7      3094.382    23149136.380    96212639.018 7      3094.382
R01  20145885.580   107691298.239 7      4664.048    20145884.620   107691298.237 6      4664.048    20145897.900    83759956.032 7      3627.593    20145896.860    83759954.025 7      3627.593
R14  21763699.860   116012759.051 8       818.915    21763700.040   116012759.051 7       818.915    21763711.120    90232185.271 7       636.934    21763711.560    90232190.270 7       636.934
R23  22024098.640   117814065.109 7      1484.835    22024098.420   117814065.129 7      1484.835
G22  24565109.160   129090521.638 6      5071.207    24565108.280   129090521.648 3      5071.207    24565117.100   100590034.962 3      3951.590
G21  21910370.300   115139764.569 7      1387.558    21910367.880   115139764.579 6      1387.558    21910372.800    89719277.702 6      1081.214
> 2024 06 03 13 31 44.0000000  0 17
G02  21694115.020   114003345.088 7      2232.662    21694113.280   114003345.092 6      2232.662    21694116.100    88833779.490 6      1739.737
R17  23608882.660   126335887.772 7      4775.046    23608883.440   126335887.781 7      4775.046    23608898.740    98261329.360 7      3713.925    23608898.820    98261327.344 7      3713.925
G08  21481378.260   112885400.274 7       957.981    21481376.860   112885400.279 7       957.981    21481384.980    87962672.860 7       746.479    21481386.060    87962678.871 8       746.479
G17  24742640.580   130023430.278 6      5464.481    24742638.720   130023430.278 2      5464.481    24742647.760   101316970.912 2      4258.037    24742647.540   101317023.955 5      4258.037
G27  24206648.580   127206776.119 6      -212.797    24206649.600   127206776.126 4      -212.797    24206662.340    99122211.076 4      -165.816    24206664.680    99122215.063 6      -165.816
R08  21798683.560   116730935.976 7       494.110    21798683.840   116730936.015 7       494.110    21798696.740    90790795.029 8       384.308    21798696.400    90790793.038 7       384.308
G04  24675759.620   129671992.070 5      5590.516    24675759.100   129671992.082 1      5590.516    24675773.840   101043166.944 1      4356.246    24675774.500   101043175.965 5      4356.246
G14  22581098.320   118664472.570 7      4165.103    22581097.300   118664472.580 5      4165.103    22581103.480    92465848.196 5      3245.535    22581104.460    92465841.211 7      3245.535
G03  20574051.560   108117370.378 8      4333.552    20574050.860   108117370.380 7      4333.552    20574057.460    84247327.229 7      3376.794    20574057.940    84247330.224 8      3376.794
R24  20938656.840   111968404.608 7      3548.791    20938657.160   111968404.620 7      3548.791    20938667.460    87086583.310 7      2760.171    20938667.440    87086584.305 7      2760.171
G32  25264361.840   132765118.958 7      1385.070    25264361.240   132765118.965 6      1385.070    25264375.620   103453390.783 6      1079.275    25264376.500   103453398.776 7      1079.275
R15  23148377.380   123697915.645 6      3977.642    23148377.100   123697915.628 6      3977.642    23148393.080    96209548.004 7      3093.721    23148391.980    96209545.012 7      3093.721
R01  20145012.920   107686634.542 7      4663.266    20145012.420   107686634.548 6      4663.266    20145025.480    83756328.719 7      3626.985    20145024.580    83756326.709 7      3626.985
R14  21763546.220   116011940.431 8       818.307    21763546.460   116011940.432 7       818.307    21763557.500    90231548.556 7       636.461    21763557.840    90231553.557 7       636.461
R23  22023820.920   117812580.388 7      1484.610    22023821.340   117812580.416 7      1484.610
G22  24564143.920   129085450.697 6      5070.772    24564143.400   129085450.707 3      5070.772    24564152.060   100586083.584 3      3951.251
G21  21910106.280   115138376.924 7      1387.578    21910103.860   115138376.927 6      1387.578    21910108.700    89718196.419 6      1081.230
> 2024 06 03 13 31 45.0000000  0 17
G02  21693690.060   114001112.197 7      2232.817    21693688.500   114001112.202 6      2232.817    21693691.400    88832039.577 6      1739.858
R17  23607989.920   126331112.381 7      4775.270    23607990.760   126331112.406 7      4775.270    23608006.820    98257615.186 7      3714.099    23608006.680    98257613.172 7      3714.099
G08  21481195.960   112884442.237 7       957.721    21481194.600   112884442.244 7       957.721    21481202.700    87961926.339 7       746.276    21481203.880    87961932.353 8       746.276
G17  24741600.920   130017965.275 6      5465.105    24741598.940   130017965.278 2      5465.105    24741607.840   101312712.472 2      4258.524    24741608.480   101312765.505 5      4258.524
G27  24206688.900   127206988.753 6      -212.667    24206689.960   127206988.758 4      -212.667    24206702.800    99122376.755 4      -165.715    24206704.400    99122380.737 6      -165.715
R08  21798590.420   116730441.920 7       493.613    21798591.820   116730441.967 7       493.613    21798604.300    90790410.771 8       383.921    21798604.200    90790408.779 7       383.921
G04  24674696.780   129666401.143 5      5591.030    24674695.220   129666401.156 1      5591.030    24674710.220   101038810.380 1      4356.647    24674710.360   101038819.415 5      4356.647
G14  22580305.720   118660307.423 7      4164.775    22580304.640   118660307.436 5      4164.775    22580311.000    92462602.632 5      3245.279    22580311.760    92462595.642 7      3245.279
G03  20573226.760   108113036.876 8      4333.153    20573226.180   108113036.876 7      4333.153    20573232.860    84243950.474 7      3376.483    20573233.480    84243953.472 8      3376.483
R24  20937992.840   111964855.576 7      3548.956    20937993.420   111964855.588 7      3548.956    20938003.840    87083822.956 7      2760.299    20938004.060    87083823.944 7      2760.299
G32  25264097.940   132763733.820 7      1384.743    25264097.680   132763733.830 6      1384.743    25264111.800   103452311.458 6      1079.021    25264113.140   103452319.450 7      1079.021
R15  23147632.860   123693938.171 6      3976.941    23147632.600   123693938.170 6      3976.941    23147648.960    96206454.430 7      3093.177    23147647.500    96206451.444 7      3093.177
R01  20144140.520   107681971.382 7      4662.785    20144140.200   107681971.391 6      4662.785    20144152.860    83752701.827 7      3626.610    20144152.320    83752699.821 7      3626.610
R14  21763392.760   116011122.227 8       817.865    21763392.920   116011122.233 8       817.865    21763403.820    90230912.183 7       636.117    21763404.360    90230917.185 7       636.117
R23  22023543.500   117811095.533 7      1484.705    22023544.100   117811095.550 7      1484.705
G22  24563179.040   129080379.906 6      5070.549    24563178.520   129080379.919 3      5070.549    24563187.100   100582132.326 3      3951.077
G21  21909842.040   115136989.083 7      1387.778    21909839.800   115136989.085 6      1387.778    21909844.680    89717114.986 6      1081.385
> 2024 06 03 13 31 46.0000000  0 17
G02  21693265.560   113998879.353 8      2232.901    21693263.680   113998879.358 6      2232.901    21693266.340    88830299.693 6      1739.923
R17  23607097.320   126326336.858 7      4775.589    23607098.500   126326336.881 7      4775.589    23607114.940    98253900.899 7      3714.347    23607114.180    98253898.881 7      3714.347
G08  21481013.800   112883484.554 7       957.577    21481012.240   112883484.556 7       957.577    21481020.380    87961180.089 7       746.164    21481021.340    87961186.098 8       746.164
G17  24740561.200   130012500.204 6      5465.356    24740559.040   130012500.204 2      5465.356    24740568.040   101308453.977 2      4258.719    24740568.660   101308507.032 5      4258.719
G27  24206729.940   127207201.624 6      -212.902    24206730.500   127207201.624 4      -212.902    24206743.380    99122542.616 4      -165.898    24206744.220    99122546.584 6      -165.898
R08  21798498.260   116729948.632 7       492.940    21798499.860   116729948.674 7       492.940    21798512.200    90790027.095 8       383.398    21798511.980    90790025.104 7       383.398
G04  24673631.880   129660810.108 5      5591.086    24673631.320   129660810.113 1      5591.086    24673645.900   101034453.727 1      4356.691    24673646.220   101034462.755 5      4356.691
G14  22579513.200   118656142.842 7      4164.403    22579512.220   118656142.852 5      4164.403    22579518.260    92459357.507 5      3244.989    22579519.460    92459350.520 7      3244.989
G03  20572402.360   108108703.913 8      4332.769    20572401.600   108108703.917 7      4332.769    20572408.240    84240574.147 7      3376.184    20572408.840    84240577.151 8      3376.184
R24  20937329.140   111961306.615 7      3548.975    20937329.800   111961306.616 7      3548.975    20937339.860    87081062.645 7      2760.314    20937340.280    87081063.633 7      2760.314
G32  25263834.560   132762349.144 7      1384.381    25263833.980   132762349.160 6      1384.381    25263848.380   103451232.501 6      1078.738    25263849.600   103451240.506 7      1078.738
R15  23146888.640   123689961.390 6      3976.393    23146889.080   123689961.399 6      3976.393    23146904.280    96203361.400 7      3092.750    23146903.240    96203358.412 7      3092.750
R01  20143267.720   107677308.991 7      4662.142    20143268.360   107677309.001 6      4662.142    20143280.680    83749075.528 7      3626.110    20143279.700    83749073.522 7      3626.110
R14  21763239.340   116010304.649 8       817.296    21763239.500   116010304.661 7       817.296    21763250.320    90230276.290 7       635.674    21763250.920    90230281.295 8       635.674
R23  22023265.620   117809610.771 7      1484.677    22023266.620   117809610.794 7      1484.677
G22  24562214.280   129075309.461 6      5070.181    24562213.760   129075309.477 3      5070.181    24562222.180   100578181.340 3      3950.791
G21  21909578.180   115135601.254 7      1387.859    21909575.620   115135601.256 6      1387.859    21909580.780    89716033.565 6      1081.448
> 2024 06 03 13 31 47.0000000  0 17
G02  21692840.540   113996646.531 7      2232.893    21692838.860   113996646.535 6      2232.893    21692841.440    88828559.833 6      1739.917
R17  23606205.120   126321561.226 7      4775.792    23606205.820   126321561.252 7      4775.792    23606222.800    98250186.525 7      3714.505    23606221.940    98250184.513 7      3714.505
G08  21480831.300   112882527.273 7       957.099    21480830.000   112882527.275 7       957.099    21480838.160    87960434.149 7       745.791    21480839.060    87960440.163 8       745.791
G17  24739521.140   130007035.059 6      5465.282    24739519.020   130007035.059 2      5465.282    24739527.980   101304195.429 2      4258.661    24739529.740   101304248.449 5      4258.661
G27  24206770.240   127207414.650 6      -213.189    24206771.080   127207414.650 4      -213.189    24206784.020    99122708.602 4      -166.121    24206784.840    99122712.585 6      -166.121
R08  21798406.380   116729456.054 7       492.221    21798407.740   116729456.093 7       492.221    21798420.300    90789643.979 8       382.838    21798420.000    90789641.988 7       382.838
G04  24672568.580   129655218.840 5      5591.213    24672567.360   129655218.845 1      5591.213    24672581.520   101030096.895 1      4356.789    24672581.920   101030105.934 5      4356.789
G14  22578720.780   118651978.802 7      4163.849    22578719.740   118651978.815 5      4163.849    22578725.940    92456112.807 5      3244.558    22578727.200    92456105.819 7      3244.558
G03  20571577.960   108104371.519 8      4332.140    20571577.020   108104371.522 7      4332.140    20571583.880    84237198.265 7      3375.693    20571584.400    84237201.262 8      3375.693
R24  20936666.080   111957757.663 7      3549.007    20936665.900   111957757.661 7      3549.007    20936676.540    87078302.348 7      2760.339    20936676.420    87078303.341 7      2760.339
G32  25263571.280   132760964.947 7      1384.050    25263570.560   132760964.952 6      1384.050    25263585.100   103450153.905 6      1078.481    25263586.200   103450161.905 7      1078.481
R15  23146144.520   123685985.364 6      3975.665    23146145.140   123685985.370 6      3975.665    23146160.100    96200268.940 7      3092.184    23146159.500    96200265.948 7      3092.184
R01  20142395.760   107672647.366 7      4661.324    20142396.320   107672647.380 6      4661.324    20142408.860    83745449.829 7      3625.474    20142407.820    83745447.821 7      3625.474
R14  21763086.200   116009487.701 8       816.656    21763085.980   116009487.706 8       816.656    21763096.820    90229640.879 7       635.177    21763097.760    90229645.880 7       635.177
R23  22022987.700   117808126.060 7      1484.771    22022989.080   117808126.075 7      1484.771
G22  24561249.700   129070239.295 6      5070.070    24561248.880   129070239.306 3      5070.070    24561257.340   100574230.564 3      3950.704
G21  21909314.200   115134213.410 7      1387.939    21909311.620   115134213.412 6      1387.939    21909316.660    89714952.128 6      1081.511
> 2024 06 03 13 31 48.0000000  0 17
G02  21692415.440   113994413.832 8      2232.576    21692414.020   113994413.842 6      2232.576    21692416.580    88826820.072 6      1739.670
R17  23605312.440   126316785.594 7      4775.573    23605313.240   126316785.617 7      4775.573    23605330.680    98246472.146 7      3714.334    23605329.520    98246470.132 7      3714.334
G08  21480649.580   112881570.407 7       956.538    21480648.020   112881570.415 7       956.538    21480656.140    87959688.546 7       745.355    21480657.260    87959694.557 8       745.355
G17  24738480.840   130001569.848 6      5465.277    24738478.860   130001569.845 2      5465.277    24738487.880   101299936.829 2      4258.657    24738488.200   101299989.878 5      4258.657
G27  24206811.460   127207627.931 6      -213.272    24206811.640   127207627.931 4      -213.272    24206824.840    99122874.783 4      -166.186    24206825.240    99122878.763 6      -166.186
R08  21798314.420   116728964.236 7       491.396    21798315.940   116728964.278 7       491.396    21798328.260    90789261.460 7       382.197    21798328.020    90789259.471 7       382.197
G04  24671504.060   129649627.461 5      5591.517    24671503.180   129649627.474 1      5591.517    24671517.740   101025739.982 1      4357.027    24671518.680   101025749.014 5      4357.027
G14  22577928.380   118647815.405 7      4163.058    22577927.500   118647815.421 5      4163.058    22577933.760    92452868.602 5      3243.941    22577934.740    92452861.612 7      3243.941
G03  20570753.740   108100039.752 8      4331.491    20570752.740   108100039.751 7      4331.491    20570759.680    84233822.849 6      3375.187    20570759.920    84233825.849 8      3375.187
R24  20936002.480   111954208.823 7      3548.667    20936002.200   111954208.832 7      3548.667    20936012.680    87075542.148 7      2760.075    20936012.800    87075543.140 7      2760.075
G32  25263308.200   132759581.322 7      1383.298    25263307.280   132759581.335 6      1383.298    25263321.720   103449075.752 6      1077.894    25263323.040   103449083.747 7      1077.894
R15  23145400.900   123682010.145 6      3974.685    23145401.140   123682010.149 6      3974.685    23145416.280    96197177.092 7      3091.422    23145415.720    96197174.105 7      3091.422
R01  20141524.100   107667986.569 7      4660.480    20141524.420   107667986.567 6      4660.480    20141536.760    83741824.750 7      3624.818    20141535.780    83741822.740 7      3624.818
R14  21762933.200   116008671.448 8       815.847    21762932.760   116008671.451 8       815.847    21762944.000    90229006.009 7       634.548    21762944.560    90229011.015 7       634.548
R23  22022710.300   117806641.545 7      1484.471    22022711.880   117806641.554 7      1484.471
G22  24560284.940   129065169.589 6      5069.490    24560284.300   129065169.602 3      5069.490    24560292.580   100570280.154 3      3950.252
G21  21909049.900   115132825.642 7      1387.679    21909047.340   115132825.647 6      1387.679    21909052.460    89713870.748 6      1081.308
> 2024 06 03 13 31 49.0000000  0 17
G02  21691990.660   113992181.364 7      2232.360    21691989.160   113992181.371 6      2232.360    21691991.780    88825080.490 6      1739.501
R17  23604419.900   126312010.053 7      4775.558    23604420.940   126312010.071 7      4775.558    23604438.240    98242757.841 7      3714.323    23604437.120    98242755.829 7      3714.323
G08  21480467.520   112880614.122 7       955.969    21480466.000   112880614.129 7       955.969    21480474.260    87958943.384 7       744.911    21480475.300    87958949.396 8       744.911
G17  24737441.060   129996104.756 6      5465.038    24737438.880   129996104.753 2      5465.038    24737447.720   101295678.322 2      4258.471    24737448.080   101295731.365 5      4258.471
G27  24206851.880   127207841.614 6      -213.831    24206852.280   127207841.616 4      -213.831    24206865.460    99123041.283 4      -166.622    24206865.960    99123045.274 6      -166.622
R08  21798222.640   116728473.361 7       490.384    21798224.540   116728473.411 7       490.384    21798236.560    90788879.676 8       381.409    21798236.340    90788877.686 7       381.409
G04  24670439.660   129644036.124 5      5591.367    24670439.340   129644036.134 1      5591.367    24670453.620   101021383.101 1      4356.909    24670453.860   101021392.155 5      4356.909
G14  22577136.240   118643652.760 7      4162.263    22577135.500   118643652.771 5      4162.263    22577141.720    92449624.980 5      3243.321    22577142.480    92449617.995 7      3243.321
G03  20569929.580   108095708.738 8      4330.665    20569928.640   108095708.738 6      4330.665    20569935.520    84230448.037 6      3374.544    20569935.820    84230451.039 8      3374.544
R24  20935338.940   111950660.194 7      3548.521    20935338.720   111950660.200 7      3548.521    20935349.260    87072782.103 7      2759.961    20935349.140    87072783.095 7      2759.961
G32  25263044.980   132758198.347 7      1382.649    25263044.100   132758198.357 6      1382.649    25263058.440   103447998.111 6      1077.389    25263059.920   103448006.102 7      1077.389
R15  23144657.100   123678035.861 6      3973.789    23144657.580   123678035.857 6      3973.789    23144672.040    96194085.970 7      3090.725    23144671.960    96194082.979 7      3090.725
R01  20140652.220   107663326.734 7      4659.390    20140652.580   107663326.743 6      4659.390    20140665.360    83738200.440 6      3623.970    20140663.860    83738198.431 7      3623.970
R14  21762780.440   116007856.007 8       815.045    21762779.580   116007856.011 8       815.045    21762790.820    90228371.772 7       633.924    21762791.740    90228376.783 7       633.924
R23  22022432.740   117805157.313 7      1484.148    22022434.340   117805157.322 7      1484.148
G22  24559320.380   129060100.409 7      5068.967    24559319.780   129060100.419 3      5068.967    24559327.780   100566330.147 3      3949.845
G21  21908786.020   115131438.076 7      1387.451    21908783.400   115131438.081 6      1387.451    21908788.440    89712789.530 6      1081.131
> 2024 06 03 13 31 50.0000000  0 17
G02  21691565.880   113989948.964 8      2232.389    21691564.440   113989948.972 6      2232.389    21691567.200    88823340.960 6      1739.524
R17  23603527.100   126307234.453 7      4775.628    23603528.020   126307234.479 7      4775.628    23603545.900    98239043.500 7      3714.377    23603544.960    98239041.482 7      3714.377
G08  21480285.660   112879658.234 7       955.699    21480284.180   112879658.238 7       955.699    21480292.380    87958198.536 7       744.700    21480293.300    87958204.548 8       744.700
G17  24736400.720   129990639.585 6      5465.228    24736398.960   129990639.582 2      5465.228    24736407.580   101291419.753 2      4258.619    24736406.400   101291472.794 5      4258.619
G27  24206893.020   127208055.507 6      -213.813    24206892.960   127208055.509 4      -213.813    24206906.200    99123207.941 4      -166.607    24206906.800    99123211.933 6      -166.607
R08  21798131.520   116727983.236 7       489.746    21798132.480   116727983.288 7       489.746    21798144.760    90788498.463 8       380.914    21798144.940    90788496.473 7       380.914
G04  24669376.340   129638444.643 5      5591.453    24669375.240   129638444.656 1      5591.453    24669389.440   101017026.111 1      4356.976    24669390.780   101017035.199 5      4356.976
G14  22576344.260   118639490.678 7      4161.854    22576343.420   118639490.688 5      4161.854    22576349.580    92446381.801 5      3243.003    22576350.420    92446374.820 7      3243.003
G03  20569105.560   108091378.300 8      4330.207    20569104.520   108091378.297 6      4330.207    20569111.540    84227073.674 6      3374.187    20569112.040    84227076.676 8      3374.187
R24  20934675.180   111947111.624 7      3548.574    20934674.480   111947111.625 7      3548.574    20934685.440    87070022.104 7      2760.002    20934685.820    87070023.098 7      2760.002
G32  25262781.600   132756815.847 7      1382.311    25262780.940   132756815.854 6      1382.311    25262795.440   103446920.840 6      1077.125    25262796.480   103446928.840 7      1077.125
R15  23143913.160   123674062.358 6      3973.060    23143914.300   123674062.346 6      3973.060    23143928.720    96190995.464 7      3090.158    23143928.120    96190992.468 7      3090.158
R01  20139780.900   107658667.666 7      4658.850    20139781.320   107658667.672 6      4658.850    20139793.400    83734576.727 7      3623.550    20139792.500    83734574.721 7      3623.550
R14  21762627.320   116007041.164 8       814.607    21762626.700   116007041.167 7       814.607    21762638.260    90227738.005 7       633.583    21762638.620    90227743.014 7       633.583
R23  22022155.340   117803673.191 7      1484.083    22022156.920   117803673.203 7      1484.083
G22  24558355.920   129055031.599 7      5068.702    24558355.140   129055031.609 3      5068.702    24558363.240   100562380.425 3      3949.638
G21  21908522.040   115130050.526 7      1387.532    21908519.380   115130050.533 6      1387.532    21908524.340    89711708.326 6      1081.194
> 2024 06 03 13 31 51.0000000  0 17
G02  21691141.040   113987716.678 8      2232.174    21691139.600   113987716.685 6      2232.174    21691142.320    88821601.518 6      1739.356
R17  23602634.960   126302458.784 7      4775.766    23602635.340   126302458.804 7      4775.766    23602653.380    98235329.103 7      3714.485    23602652.500    98235327.091 7      3714.485
G08  21480103.820   112878702.797 7       955.149    21480102.360   112878702.807 7       955.149    21480110.460    87957454.038 7       744.272    21480111.460    87957460.050 8       744.272
G17  24735360.300   129985174.385 6      5465.206    24735358.900   129985174.382 2      5465.206    24735367.480   101287161.160 2      4258.602    24735367.000   101287214.196 5      4258.602
G27  24206932.980   127208269.687 6      -214.266    24206933.600   127208269.692 4      -214.266    24206947.100    99123374.828 4      -166.961    24206948.080    99123378.816 6      -166.961
R08  21798040.080   116727493.881 7       488.886    21798041.820   116727493.926 7       488.886    21798053.720    90788117.850 8       380.244    21798053.360    90788115.855 8       380.244
G04  24668312.100   129632853.078 5      5591.594    24668310.940   129632853.093 1      5591.594    24668325.540   101012669.055 1      4357.086    24668326.620   101012678.131 5      4357.086
G14  22575552.460   118635329.252 7      4161.033    22575551.360   118635329.262 5      4161.033    22575557.700    92443139.138 5      3242.363    22575558.260    92443132.154 7      3242.363
G03  20568281.500   108087048.505 8      4329.415    20568280.660   108087048.502 6      4329.415    20568287.720    84223699.812 6      3373.570    20568288.200    84223702.816 8      3373.570
R24  20934011.460   111943563.193 7      3548.283    20934010.960   111943563.188 7      3548.283    20934022.180    87067262.217 7      2759.775    20934022.180    87067263.214 7      2759.775
G32  25262518.700   132755433.927 7      1381.584    25262517.960   132755433.935 6      1381.584    25262532.500   103445844.032 6      1076.559    25262533.660   103445852.030 7      1076.559
R15  23143169.980   123670089.597 6      3972.316    23143170.560   123670089.601 6      3972.316    23143185.260    96187905.547 7      3089.579    23143184.600    96187902.553 7      3089.579
R01  20138909.140   107654009.459 7      4657.820    20138909.720   107654009.470 6      4657.820    20138922.000    83730953.679 6      3622.749    20138921.200    83730951.671 7      3622.749
R14  21762474.480   116006226.995 8       813.767    21762474.320   116006226.999 7       813.767    21762485.480    90227104.766 7       632.930    21762486.080    90227109.776 7       632.930
R23  22021877.860   117802189.240 7      1483.852    22021879.660   117802189.254 7      1483.852
G22  24557391.540   129049963.193 6      5068.107    24557390.620   129049963.201 3      5068.107    24557398.960   100558431.022 3      3949.175
G21  21908258.000   115128663.057 7      1387.364    21908255.440   115128663.062 6      1387.364    21908260.360    89710627.182 6      1081.063
> 2024 06 03 13 31 52.0000000  0 17
G02  21690716.260   113985484.478 8      2232.292    21690714.940   113985484.485 6      2232.292    21690717.420    88819862.144 6      1739.449
R17  23601742.560   126297683.077 7      4775.943    23601742.880   126297683.097 7      4775.943    23601760.940    98231614.666 7      3714.622    23601760.220    98231612.656 7      3714.622
G08  21479922.160   112877747.771 7       954.944    21479920.620   112877747.781 7       954.944    21479928.780    87956709.860 7       744.112    21479929.760    87956715.871 8       744.112
G17  24734320.040   129979709.145 6      5465.470    24734318.740   129979709.147 2      5465.470    24734327.380   101282902.538 2      4258.808    24734327.940   101282955.564 5      4258.808
G27  24206974.140   127208484.116 6      -214.274    24206974.440   127208484.123 4      -214.274    24206987.760    99123541.911 4      -166.967    24206988.420    99123545.889 6      -166.967
R08  21797948.500   116727005.279 7       488.447    21797950.180   116727005.321 7       488.447    21797961.980    90787737.820 8       379.903    21797961.880    90787735.829 8       379.903
G04  24667248.080   129627261.360 5      5592.051    24667246.860   129627261.373 1      5592.051    24667261.740   101008311.872 1      4357.442    24667261.840   101008320.945 5      4357.442
G14  22574760.760   118631168.407 7      4160.683    22574759.620   118631168.417 5      4160.683    22574766.200    92439896.923 5      3242.091    22574766.660    92439889.935 7      3242.091
G03  20567457.700   108082719.294 8      4329.106    20567456.940   108082719.294 7      4329.106    20567463.780    84220326.407 7      3373.329    20567464.120    84220329.409 8      3373.329
R24  20933347.940   111940014.826 7      3548.457    20933347.040   111940014.824 7      3548.457    20933358.540    87064502.378 7      2759.911    20933358.600    87064503.377 7      2759.911
G32  25262255.780   132754052.505 7      1381.404    25262255.060   132754052.512 6      1381.404    25262269.620   103444767.593 6      1076.419    25262270.760   103444775.588 7      1076.419
R15  23142426.660   123666117.649 6      3971.639    23142427.400   123666117.663 6      3971.639    23142441.960    96184816.260 7      3089.053    23142441.560    96184813.262 7      3089.053
R01  20138037.960   107649352.037 7      4657.243    20138038.760   107649352.060 6      4657.243    20138050.940    83727331.255 6      3622.300    20138049.660    83727329.245 7      3622.300
R14  21762321.720   116005413.448 8       813.455    21762321.740   116005413.453 8       813.455    21762333.180    90226472.005 7       632.687    21762333.580    90226477.015 7       632.687
R23  22021600.360   117800705.441 7      1483.879    22021602.100   117800705.458 7      1483.879
G22  24556426.960   129044895.158 6      5068.033    24556426.240   129044895.168 3      5068.033    24556434.300   100554481.906 3      3949.117
G21  21907993.860   115127275.631 7      1387.558    21907991.380   115127275.633 6      1387.558    21907996.200    89709546.068 6      1081.214
> 2024 06 03 13 31 53.0000000  0 17
G02  21690291.500   113983252.173 8      2232.214    21690290.160   113983252.180 6      2232.214    21690292.640    88818122.683 6      1739.387
R17  23600850.080   126292907.059 7      4776.089    23600850.500   126292907.082 7      4776.089    23600867.640    98227900.003 7      3714.736    23600867.520    98227898.001 7      3714.736
G08  21479740.460   112876792.968 7       954.580    21479738.940   112876792.975 7       954.580    21479747.060    87955965.853 7       743.829    21479747.920    87955971.867 8       743.829
G17  24733280.320   129974243.614 6      5465.727    24733278.600   129974243.614 2      5465.727    24733287.220   101278643.686 2      4259.008    24733287.100   101278696.733 5      4259.008
G27  24207014.700   127208698.595 5      -214.587    24207015.180   127208698.600 4      -214.587    24207028.760    99123709.025 4      -167.211    24207029.300    99123713.008 6      -167.211
R08  21797857.600   116726517.314 7       487.592    21797859.160   116726517.361 7       487.592    21797870.920    90787358.296 8       379.238    21797870.880    90787356.301 8       379.238
G04  24666184.720   129621669.343 5      5592.099    24666182.600   129621669.350 1      5592.099    24666197.740   101003954.460 1      4357.480    24666196.340   101003963.533 5      4357.480
G14  22573968.660   118627007.982 7      4160.035    22573967.940   118627007.990 5      4160.035    22573974.380    92436655.036 5      3241.586    22573975.380    92436648.046 7      3241.586
G03  20566634.080   108078390.519 8      4328.415    20566633.040   108078390.516 7      4328.415    20566640.140    84216953.342 7      3372.791    20566640.460    84216956.341 8      3372.791
R24  20932683.820   111936466.373 7      3548.438    20932683.160   111936466.374 7      3548.438    20932694.960    87061742.475 7      2759.896    20932695.120    87061743.474 7      2759.896
G32  25261992.920   132752671.426 7      1380.886    25261992.260   132752671.429 6      1380.886    25262006.780   103443691.428 6      1076.015    25262008.120   103443699.425 7      1076.015
R15  23141683.520   123662146.267 6      3970.994    23141684.240   123662146.279 6      3970.994    23141698.860    96181727.403 7      3088.551    23141698.280    96181724.401 7      3088.551
R01  20137166.620   107644695.268 7      4656.284    20137167.160   107644695.277 6      4656.284    20137179.580    83723709.321 7      3621.554    20137178.460    83723707.313 7      3621.554
R14  21762169.540   116004600.406 8       812.668    21762169.220   116004600.417 8       812.668    21762180.840    90225839.644 7       632.075    21762181.200    90225844.651 7       632.075
R23  22021322.920   117799221.573 7      1483.733    22021324.260   117799221.601 7      1483.733
G22  24555462.620   129039827.315 6      5067.737    24555461.860   129039827.325 3      5067.737    24555469.980   100550532.939 3      3948.886
G21  21907729.780   115125888.054 7      1387.547    21907727.320   115125888.059 6      1387.547    21907732.340    89708464.842 6      1081.205
> 2024 06 03 13 31 54.0000000  0 17
G02  21689866.700   113981020.028 8      2232.073    21689865.520   113981020.036 6      2232.073    21689867.800    88816383.352 6      1739.277
R17  23599957.340   126288131.112 7      4775.924    23599957.540   126288131.134 7      4775.924    23599975.120    98224185.389 7      3714.607    23599975.180    98224183.389 7      3714.607
G08  21479558.960   112875838.677 7       954.078    21479557.420   112875838.687 7       954.078    21479565.460    87955222.252 7       743.437    21479566.380    87955228.262 8       743.437
G17  24732240.080   129968778.188 6      5465.462    24732238.460   129968778.188 2      5465.462    24732247.300   101274384.917 2      4258.801    24732247.240   101274437.964 5      4258.801
G27  24207055.880   127208913.360 5      -214.851    24207056.040   127208913.365 4      -214.851    24207069.600    99123876.367 4      -167.416    24207070.280    99123880.357 6      -167.416
R08  21797766.540   116726030.203 7       486.704    21797768.060   116726030.250 7       486.704    21797779.800    90786979.432 8       378.547    21797780.020    90786977.441 7       378.547
G04  24665120.220   129616077.305 5      5592.012    24665118.840   129616077.315 1      5592.012    24665133.440   100999597.022 1      4357.412    24665134.280   100999606.098 5      4357.412
G14  22573177.180   118622848.227 7      4159.437    22573176.480   118622848.232 5      4159.437    22573182.680    92433413.668 5      3241.120    22573183.760    92433406.679 7      3241.120
G03  20565810.320   108074062.409 8      4327.718    20565809.460   108074062.408 7      4327.718    20565816.540    84213580.794 7      3372.248    20565816.820    84213583.796 8      3372.248
R24  20932020.540   111932918.070 7      3548.310    20932019.580   111932918.072 7      3548.310    20932031.520    87058982.686 7      2759.797    20932031.460    87058983.683 7      2759.797
G32  25261730.500   132751290.934 7      1380.195    25261729.500   132751290.941 6      1380.195    25261744.080   103442615.732 6      1075.477    25261745.600   103442623.733 7      1075.477
R15  23140940.460   123658175.766 6      3969.905    23140940.920   123658175.789 6      3969.905    23140955.720    96178639.249 7      3087.704    23140955.300    96178636.238 7      3087.704
R01  20136295.540   107640039.362 7      4655.431    20136296.420   107640039.368 6      4655.431    20136308.440    83720088.067 7      3620.891    20136307.660    83720086.059 7      3620.891
R14  21762016.980   116003788.127 8       811.853    21762016.980   116003788.130 8       811.853    21762028.580    90225207.865 7       631.441    21762028.820    90225212.868 7       631.441
R23  22021045.420   117797737.900 7      1483.490    22021047.320   117797737.928 7      1483.490
G22  24554498.480   129034759.960 6      5067.057    24554497.700   129034759.968 3      5067.057    24554505.620   100546584.353 3      3948.356
G21  21907465.620   115124500.607 7      1387.435    21907463.200   115124500.611 6      1387.435    21907468.380    89707383.714 6      1081.118
> 2024 06 03 13 31 55.0000000  0 17
G02  21689442.060   113978788.060 8      2231.843    21689440.760   113978788.065 6      2231.843    21689443.120    88814644.154 6      1739.098
R17  23599065.080   126283355.172 7      4775.931    23599065.480   126283355.179 7      4775.931    23599082.500    98220470.769 7      3714.613    23599082.320    98220468.765 7      3714.613
G08  21479377.360   112874884.867 7       953.595    21479375.840   112874884.877 7       953.595    21479384.000    87954479.022 7       743.061    21479384.900    87954485.033 7       743.061
G17  24731200.360   129963312.765 6      5465.339    24731198.480   129963312.764 2      5465.339    24731207.240   101270126.154 2      4258.705    24731207.640   101270179.198 5      4258.705
G27  24207097.000   127209128.480 5      -215.127    24207096.780   127209128.480 4      -215.127    24207110.660    99124043.979 4      -167.632    24207111.160    99124047.953 6      -167.632
R08  21797675.740   116725543.890 7       485.963    21797677.500   116725543.932 7       485.963    21797689.060    90786601.182 8       377.972    21797689.200    90786599.190 7       377.972
G04  24664056.460   129610485.153 5      5592.129    24664054.560   129610485.163 1      5592.129    24664069.020   100995239.505 1      4357.503    24664069.540   100995248.600 5      4357.503
G14  22572385.860   118618689.153 7      4158.730    22572385.080   118618689.158 5      4158.730    22572391.220    92430172.835 5      3240.569    22572392.120    92430165.846 7      3240.569
G03  20564986.720   108069734.968 8      4327.091    20564985.960   108069734.973 6      4327.091    20564993.120    84210208.767 7      3371.759    20564993.360    84210211.769 8      3371.759
R24  20931356.960   111929369.896 7      3548.154    20931356.240   111929369.887 7      3548.154    20931367.780    87056222.997 7      2759.675    20931367.880    87056223.992 7      2759.675
G32  25261467.500   132749911.059 7      1379.502    25261466.840   132749911.063 6      1379.502    25261481.520   103441540.510 6      1074.936    25261482.820   103441548.508 7      1074.936
R15  23140197.480   123654206.078 6      3969.314    23140198.580   123654206.088 6      3969.314    23140212.300    96175551.705 7      3087.244    23140212.640    96175548.690 7      3087.244
R01  20135425.100   107635384.298 7      4654.639    20135425.120   107635384.307 6      4654.639    20135437.740    83716467.464 7      3620.275    20135436.700    83716465.458 7      3620.275
R14  21761864.980   116002976.586 8       811.151    21761864.600   116002976.584 7       811.151    21761876.180    90224576.660 7       630.895    21761876.540    90224581.665 8       630.895
R23  22020768.200   117796254.412 7      1483.434    22020769.800   117796254.434 7      1483.434
G22  24553534.480   129029693.029 6      5066.748    24553533.420   129029693.036 3      5066.748    24553541.520   100542636.105 3      3948.116
G21  21907201.580   115123113.275 7      1387.275    21907199.260   115123113.279 6      1387.275    21907204.360    89706302.684 6      1080.994
> 2024 06 03 13 31 56.0000000  0 17
G02  21689017.340   113976556.291 8      2231.613    21689016.120   113976556.298 6      2231.613    21689018.460    88812905.117 6      1738.919
R17  23598172.680   126278579.288 7      4775.845    23598172.860   126278579.306 7      4775.845    23598189.560    98216756.210 7      3714.546    23598189.600    98216754.206 7      3714.546
G08  21479195.900   112873931.627 8       952.947    21479194.600   112873931.632 7       952.947    21479202.700    87953736.233 7       742.556    21479203.480    87953742.241 8       742.556
G17  24730160.340   129957847.388 6      5465.373    24730158.680   129957847.388 2      5465.373    24730167.280   101265867.423 2      4258.733    24730166.420   101265920.490 5      4258.733
G27  24207137.480   127209343.958 5      -215.604    24207137.700   127209343.957 4      -215.604    24207151.620    99124211.873 4      -168.003    24207152.080    99124215.853 6      -168.003
R08  21797584.720   116725058.488 7       484.833    21797587.160   116725058.535 7       484.833    21797598.240    90786223.653 8       377.092    21797598.280    90786221.663 7       377.092
G04  24662992.320   129604893.084 5      5591.887    24662990.220   129604893.096 1      5591.887    24663004.700   100990882.059 1      4357.315    24663005.500   100990891.147 5      4357.315
G14  22571594.640   118614530.815 7      4157.956    22571593.680   118614530.825 5      4157.956    22571599.760    92426932.578 5      3239.966    22571600.420    92426925.594 7      3239.966
G03  20564163.500   108065408.282 8      4326.311    20564162.660   108065408.285 7      4326.311    20564169.720    84206837.325 7      3371.152    20564169.940    84206840.325 8      3371.152
R24  20930693.500   111925821.922 7      3547.798    20930692.240   111925821.924 7      3547.798    20930704.600    87053463.472 7      2759.399    20930704.540    87053464.471 7      2759.399
G32  25261205.120   132748531.827 7      1378.855    25261204.280   132748531.827 6      1378.855    25261219.120   103440465.785 6      1074.433    25261220.180   103440473.780 7      1074.433
R15  23139454.780   123650237.304 6      3968.418    23139455.820   123650237.313 6      3968.418    23139469.940    96172464.877 7      3086.547    23139469.660    96172461.870 7      3086.547
R01  20134554.760   107630730.223 7      4653.568    20134555.180   107630730.229 6      4653.568    20134566.880    83712847.627 7      3619.442    20134566.200    83712845.622 7      3619.442
R14  21761712.840   116002165.869 8       810.254    21761712.640   116002165.864 7       810.254    21761724.360    90223946.100 7       630.197    21761724.600    90223951.103 8       630.197
R23  22020490.820   117794771.207 7      1483.085    22020492.600   117794771.219 7      1483.085
G22  24552570.180   129024626.657 6      5066.067    24552569.380   129024626.665 3      5066.067    24552577.400   100538688.289 3      3947.584
G21  21906937.620   115121726.142 7      1387.004    21906935.340   115121726.145 6      1387.004    21906940.380    89705221.796 6      1080.782
> 2024 06 03 13 31 57.0000000  0 17
G02  21688592.740   113974324.735 8      2231.531    21688591.600   113974324.740 6      2231.531    21688593.900    88811166.244 6      1738.855
R17  23597280.040   126273803.485 7      4775.758    23597280.040   126273803.497 7      4775.758    23597297.180    98213041.696 7      3714.479    23597297.060    98213039.684 7      3714.479
G08  21479014.720   112872978.915 7       952.541    21479013.280   112872978.923 7       952.541    21479021.340    87952993.858 7       742.239    21479022.240    87952999.870 8       742.239
G17  24729120.200   129952382.109 6      5465.398    24729118.840   129952382.109 2      5465.398    24729127.340   101261608.764 2      4258.752    24729127.140   101261661.807 5      4258.752
G27  24207178.680   127209559.848 5      -216.271    24207178.780   127209559.850 4      -216.271    24207192.800    99124380.091 4      -168.523    24207193.100    99124384.079 6      -168.523
R08  21797494.560   116724573.974 7       484.118    21797496.320   116724574.016 7       484.118    21797507.580    90785846.803 8       376.537    21797507.880    90785844.808 8       376.537
G04  24661928.120   129599300.990 5      5591.802    24661925.980   129599300.995 1      5591.802    24661940.840   100986524.559 1      4357.248    24661941.460   100986533.658 5      4357.248
G14  22570803.440   118610373.215 7      4157.156    22570802.580   118610373.227 5      4157.156    22570808.620    92423692.891 5      3239.342    22570809.100    92423685.908 7      3239.342
G03  20563340.280   108061082.321 8      4325.702    20563339.460   108061082.321 7      4325.702    20563346.600    84203466.445 6      3370.677    20563346.820    84203469.448 8      3370.677
R24  20930029.860   111922274.165 7      3547.687    20930028.580   111922274.166 7      3547.687    20930040.840    87050704.108 7      2759.312    20930041.340    87050705.106 7      2759.312
G32  25260942.540   132747153.208 7      1378.412    25260941.840   132747153.208 6      1378.412    25260956.640   103439391.538 6      1074.088    25260957.620   103439399.535 7      1074.088
R15  23138712.460   123646269.478 6      3967.498    23138713.480   123646269.482 6      3967.498    23138727.180    96169378.788 7      3085.832    23138726.500    96169375.792 6      3085.832
R01  20133683.660   107626077.032 7      4652.742    20133683.920   107626077.039 6      4652.742    20133696.780    83709228.486 7      3618.799    20133695.300    83709226.482 7      3618.799
R14  21761560.500   116001355.885 8       809.723    21761560.480   116001355.885 7       809.723    21761572.440    90223316.108 7       629.785    21761572.100    90223321.116 8       629.785
R23  22020214.140   117793288.245 7      1482.885    22020215.480   117793288.263 7      1482.885
G22  24551606.220   129019560.771 6      5065.661    24551605.360   129019560.779 3      5065.661    24551613.340   100534740.850 3      3947.268
G21  21906673.600   115120339.162 7      1386.892    21906671.460   115120339.170 6      1386.892    21906676.500    89704141.034 6      1080.695
> 2024 06 03 13 31 58.0000000  0 17
G02  21688168.000   113972093.273 8      2231.388    21688166.960   113972093.283 6      2231.388    21688169.320    88809427.445 6      1738.744
R17  23596387.460   126269027.572 7      4775.910    23596387.960   126269027.584 7      4775.910    23596404.360    98209327.097 7      3714.597    23596404.040    98209325.085 7      3714.597
G08  21478833.580   112872026.643 7       951.969    21478832.020   112872026.650 7       951.969    21478840.120    87952251.828 7       741.794    21478841.200    87952257.831 8       741.794
G17  24728080.360   129946916.770 6      5465.416    24728078.800   129946916.772 2      5465.416    24728087.180   101257350.060 2      4258.766    24728086.840   101257403.129 5      4258.766
G27  24207220.740   127209775.872 5      -216.025    24207219.900   127209775.882 4      -216.025    24207233.780    99124548.417 4      -168.331    24207234.580    99124552.401 6      -168.331
R08  21797404.280   116724090.250 7       483.335    21797406.140   116724090.295 7       483.335    21797417.100    90785470.571 7       375.927    21797417.640    90785468.579 7       375.927
G04  24660863.260   129593708.718 5      5592.204    24660861.600   129593708.718 1      5592.204    24660876.220   100982166.969 1      4357.562    24660876.540   100982176.082 5      4357.562
G14  22570012.380   118606216.203 7      4156.641    22570011.580   118606216.216 5      4156.641    22570017.600    92420453.666 5      3238.941    22570018.320    92420446.678 7      3238.941
G03  20562517.060   108056756.967 8      4325.000    20562516.320   108056756.964 7      4325.000    20562523.560    84200096.041 6      3370.130    20562523.900    84200099.041 8      3370.130
R24  20929366.260   111918726.549 7      3547.497    20929365.180   111918726.543 7      3547.497    20929377.620    87047944.849 7      2759.164    20929377.920    87047945.850 7      2759.164
G32  25260680.040   132745775.154 7      1377.723    25260679.620   132745775.154 6      1377.723    25260694.400   103438317.738 6      1073.550    25260695.460   103438325.727 7      1073.550
R15  23137969.640   123642302.433 6      3966.581    23137971.300   123642302.437 6      3966.581    23137984.900    96166293.308 7      3085.119    23137984.700    96166290.316 6      3085.119
R01  20132813.860   107621424.662 7      4651.883    20132813.560   107621424.674 6      4651.883    20132826.000    83705609.984 7      3618.131    20132825.360    83705607.976 7      3618.131
R14  21761408.860   116000546.545 8       808.953    21761408.460   116000546.543 7       808.953    21761420.460    90222686.626 7       629.185    21761420.380    90222691.629 8       629.185
R23  22019936.840   117791805.447 7      1482.605    22019937.720   117791805.459 7      1482.605
G22  24550641.980   129014495.290 6      5065.177    24550641.280   129014495.295 3      5065.177    24550649.220   100530793.726 3      3946.891
G21  21906409.600   115118952.256 7      1386.781    21906407.520   115118952.261 6      1386.781    21906412.620    89703060.332 6      1080.609
> 2024 06 03 13 31 59.0000000  0 17
G02  21687743.480   113969861.644 8      2231.607    21687742.360   113969861.651 6      2231.607    21687744.500    88807688.509 6      1738.915
R17  23595494.980   126264251.359 7      4776.173    23595495.080   126264251.385 7      4776.173    23595511.320    98205612.269 7      3714.801    23595511.820    98205610.261 7      3714.801
G08  21478652.120   112871074.506 7       951.967    21478650.800   112871074.511 7       951.967    21478658.920    87951509.901 7       741.792    21478660.060    87951515.909 8       741.792
G17  24727040.100   129941451.131 6      5465.645    24727038.720   129941451.133 2      5465.645    24727047.060   101253091.125 2      4258.944    24727046.520   101253144.163 5      4258.944
G27  24207261.380   127209991.996 5      -216.307    24207260.980   127209992.003 4      -216.307    24207274.760    99124716.819 4      -168.551    24207276.000    99124720.793 6      -168.551
R08  21797313.700   116723607.006 7       482.941    21797315.840   116723607.064 7       482.941    21797326.780    90785094.725 7       375.621    21797327.100    90785092.734 7       375.621
G04  24659799.040   129588116.020 5      5593.139    24659797.260   129588116.022 1      5593.139    24659811.600   100977809.024 1      4358.290    24659811.900   100977818.132 5      4358.290
G14  22569221.420   118602059.546 7      4156.326    22569220.640   118602059.556 5      4156.326    22569226.620    92417214.714 5      3238.695    22569227.260    92417207.727 7      3238.695
G03  20561694.160   108052431.960 8      4324.707    20561693.420   108052431.960 7      4324.707    20561700.460    84196725.907 7      3369.901    20561700.740    84196728.909 8      3369.901
R24  20928702.900   111915178.725 7      3547.821    20928701.580   111915178.719 7      3547.821    20928714.120    87045185.436 7      2759.416    20928714.440    87045186.437 7      2759.416
G32  25260417.880   132744397.341 7      1377.577    25260417.380   132744397.346 6      1377.577    25260432.280   103437244.116 6      1073.437    25260433.680   103437252.111 7      1073.437
R15  23137227.160   123638335.857 6      3966.233    23137228.980   123638335.861 6      3966.233    23137242.680    96163208.204 7      3084.848    23137242.140    96163205.198 6      3084.848
R01  20131943.880   107616772.840 7      4651.546    20131943.420   107616772.844 6      4651.546    20131955.980    83701991.898 7      3617.869    20131954.960    83701989.884 7      3617.869
R14  21761257.380   115999737.558 8       808.674    21761256.500   115999737.556 7       808.674    21761268.940    90222057.407 8       628.969    21761268.960    90222062.411 7       628.969
R23  22019659.580   117790322.504 7      1482.827    22019660.480   117790322.519 7      1482.827
G22  24549678.140   129009429.917 6      5065.151    24549677.540   129009429.922 3      5065.151    24549685.280   100526846.684 3      3946.871
G21  21906145.760   115117565.113 7      1387.089    21906143.500   115117565.115 6      1387.089    21906148.580    89701979.439 6      1080.848
> 2024 06 03 13 32  0.0000000  0 17
G02  21687318.800   113967630.098 8      2231.594    21687317.680   113967630.106 6      2231.594    21687319.920    88805949.644 6      1738.905
R17  23594602.320   126259475.112 7      4776.330    23594602.240   126259475.124 7      4776.330    23594618.700    98201897.408 7      3714.924    23594619.160    98201895.392 7      3714.924
G08  21478471.140   112870122.806 7       951.567    21478469.740   112870122.819 7       951.567    21478477.920    87950768.323 7       741.480    21478479.000    87950774.328 8       741.480
G17  24725999.960   129935985.424 6      5465.929    24725998.540   129935985.426 2      5465.929    24726006.940   101248832.134 2      4259.165    24726006.080   101248885.199 5      4259.165
G27  24207301.920   127210208.314 5      -216.352    24207302.040   127210208.316 4      -216.352    24207316.100    99124885.362 4      -168.586    24207317.780    99124889.345 6      -168.586
R08  21797223.660   116723124.570 7       482.144    21797226.160   116723124.623 7       482.144    21797236.800    90784719.491 7       375.001    21797236.780    90784717.494 7       375.001
G04  24658733.960   129582523.333 5      5593.103    24658733.140   129582523.338 1      5593.103    24658746.900   100973451.092 1      4358.262    24658747.680   100973460.183 5      4358.262
G14  22568430.600   118597903.488 7      4155.869    22568429.760   118597903.496 5      4155.869    22568435.600    92413976.230 5      3238.339    22568436.560    92413969.244 7      3238.339
G03  20560871.220   108048107.547 8      4324.220    20560870.460   108048107.546 7      4324.220    20560877.640    84193356.241 7      3369.522    20560877.960    84193359.243 8      3369.522
R24  20928039.900   111911630.971 7      3547.829    20928038.120   111911630.956 7      3547.829    20928050.680    87042426.070 7      2759.423    20928050.960    87042427.070 7      2759.423
G32  25260155.960   132743020.065 7      1377.010    25260155.400   132743020.067 6      1377.010    25260170.200   103436170.919 6      1072.995    25260171.200   103436178.917 7      1072.995
R15  23136485.040   123634370.070 6      3965.672    23136486.640   123634370.085 6      3965.672    23136499.980    96160123.707 7      3084.412    23136499.880    96160120.711 7      3084.412
R01  20131073.740   107612121.839 7      4650.798    20131073.020   107612121.838 6      4650.798    20131085.760    83698374.457 7      3617.287    20131085.120    83698372.449 7      3617.287
R14  21761105.400   115998929.218 8       808.152    21761104.580   115998929.213 7       808.152    21761117.200    90221428.699 8       628.563    21761117.260    90221433.700 7       628.563
R23  22019382.160   117788839.719 7      1482.865    22019383.200   117788839.726 7      1482.865
G22  24548714.360   129004364.914 6      5065.001    24548713.700   129004364.914 3      5065.001    24548721.520   100522899.930 3      3946.754
G21  21905881.860   115116178.018 7      1387.189    21905879.600   115116178.023 6      1387.189    21905884.620    89700898.592 6      1080.926
> 2024 06 03 13 32  1.0000000  0 17
G02  21686894.200   113965398.689 8      2231.132    21686892.960   113965398.694 6      2231.132    21686895.440    88804210.884 6      1738.544
R17  23593709.960   126254698.838 7      4776.155    23593709.100   126254698.842 7      4776.155    23593726.440    98198182.520 7      3714.787    23593726.520    98198180.516 7      3714.787
G08  21478290.080   112869171.576 7       950.776    21478288.760   112869171.584 7       950.776    21478296.920    87950027.099 7       740.864    21478297.880    87950033.108 8       740.864
G17  24724959.460   129930519.738 6      5465.509    24724958.520   129930519.737 2      5465.509    24724966.780   101244573.162 2      4258.838    24724966.400   101244626.195 5      4258.838
G27  24207343.540   127210424.937 5      -217.078    24207343.200   127210424.942 4      -217.078    24207357.300    99125054.153 4      -169.151    24207358.400    99125058.126 6      -169.151
R08  21797134.140   116722642.943 7       481.103    21797136.100   116722642.987 7       481.103    21797146.760    90784344.884 7       374.191    21797146.960    90784342.889 7       374.191
G04  24657670.260   129576930.541 5      5592.585    24657669.240   129576930.535 1      5592.585    24657682.800   100969093.083 1      4357.858    24657685.360   100969102.180 5      4357.858
G14  22567639.800   118593748.088 7      4154.863    22567639.100   118593748.095 5      4154.863    22567644.880    92410738.259 5      3237.555    22567645.900    92410731.274 7      3237.555
G03  20560048.360   108043783.801 8      4323.214    20560047.760   108043783.798 7      4323.214    20560054.800    84189987.090 7      3368.738    20560055.340    84189990.092 8      3368.738
R24  20927376.560   111908083.312 7      3547.444    20927374.340   111908083.300 7      3547.444    20927387.460    87039666.784 7      2759.123    20927387.380    87039667.791 7      2759.123
G32  25259893.820   132741643.359 7      1376.117    25259893.380   132741643.358 6      1376.117    25259908.160   103435098.155 6      1072.299    25259909.060   103435106.150 7      1072.299
R15  23135742.900   123630405.146 6      3964.398    23135744.940   123630405.150 6      3964.398    23135757.980    96157039.879 7      3083.421    23135757.860    96157036.883 6      3083.421
R01  20130203.800   107607471.709 7      4649.441    20130203.080   107607471.710 6      4649.441    20130216.220    83694757.691 6      3616.232    20130215.120    83694755.681 7      3616.232
R14  21760954.120   115998121.643 8       807.017    21760952.980   115998121.638 7       807.017    21760965.660    90220800.579 7       627.680    21760965.800    90220805.582 7       627.680
R23  22019105.160   117787357.132 7      1482.242    22019105.820   117787357.139 7      1482.242
G22  24547750.340   128999300.368 6      5064.285    24547749.980   128999300.371 3      5064.285    24547757.900   100518953.541 3      3946.196
G21  21905617.800   115114791.022 7      1386.778    21905615.580   115114791.024 6      1386.778    21905620.680    89699817.814 6      1080.606
> 2024 06 03 13 32  2.0000000  0 17
G02  21686469.560   113963167.346 8      2231.264    21686468.360   113963167.351 6      2231.264    21686470.840    88802472.181 6      1738.647
R17  23592817.540   126249922.467 7      4776.532    23592816.780   126249922.471 7      4776.532    23592834.160    98194467.565 7      3715.081    23592833.620    98194465.555 7      3715.081
G08  21478109.060   112868220.715 7       950.723    21478107.860   112868220.725 7       950.723    21478115.980    87949286.176 7       740.823    21478116.960    87949292.181 8       740.823
G17  24723919.900   129925053.946 6      5465.682    24723918.580   129925053.949 2      5465.682    24723926.780   101240314.110 2      4258.973    24723926.000   101240367.120 5      4258.973
G27  24207384.080   127210641.752 5      -216.979    24207384.340   127210641.751 4      -216.979    24207398.580    99125223.090 4      -169.074    24207399.560    99125227.070 6      -169.074
R08  21797044.100   116722162.089 7       480.495    21797046.180   116722162.137 7       480.495    21797056.740    90783970.880 7       373.718    21797057.180    90783968.892 7       373.718
G04  24656605.720   129571337.627 5      5592.919    24656605.020   129571337.627 1      5592.919    24656618.540   100964734.960 1      4358.119    24656621.240   100964744.104 5      4358.119
G14  22566849.220   118589593.246 7      4154.581    22566848.300   118589593.256 5      4154.581    22566854.300    92407500.723 5      3237.336    22566855.020    92407493.725 7      3237.336
G03  20559225.500   108039460.604 8      4322.830    20559225.260   108039460.601 6      4322.830    20559232.060    84186618.376 6      3368.439    20559232.460    84186621.383 8      3368.439
R24  20926713.420   111904535.750 7      3547.498    20926711.140   111904535.743 7      3547.498    20926723.960    87036907.579 7      2759.165    20926723.980    87036908.586 7      2759.165
G32  25259632.180   132740267.117 7      1376.004    25259631.360   132740267.114 6      1376.004    25259646.340   103434025.755 6      1072.211    25259647.440   103434033.757 7      1072.211
R15  23135000.880   123626440.959 6      3963.709    23135003.160   123626440.974 6      3963.709    23135016.040    96153956.631 6      3082.885    23135015.960    96153953.643 6      3082.885
R01  20129334.200   107602822.322 7      4648.931    20129333.160   107602822.320 6      4648.931    20129346.360    83691141.512 7      3615.835    20129345.700    83691139.498 7      3615.835
R14  21760802.620   115997314.689 7       806.626    21760801.400   115997314.684 7       806.626    21760814.320    90220172.950 7       627.376    21760814.260    90220177.955 7       627.376
R23  22018827.760   117785874.628 7      1482.609    22018828.360   117785874.646 7      1482.609
G22  24546786.700   128994236.177 6      5064.051    24546786.200   128994236.180 3      5064.051    24546794.220   100515007.427 3      3946.014
G21  21905354.120   115113404.055 7      1386.942    21905351.640   115113404.063 6      1386.942    21905356.880    89698737.067 6      1080.734
> 2024 06 03 13 32  3.0000000  0 18
G02  21686045.120   113960935.966 8      2231.178    21686043.880   113960935.973 6      2231.178    21686046.120    88800733.437 6      1738.580
R17  23591925.060   126245145.917 7      4776.449    23591923.760   126245145.929 7      4776.449    23591941.740    98190752.485 7      3715.016    23591941.380    98190750.483 7      3715.016
G08  21477928.280   112867270.200 7       950.184    21477926.940   112867270.212 7       950.184    21477935.060    87948545.508 7       740.403    21477935.700    87948551.512 7       740.403
G17  24722879.860   129919587.990 6      5465.871    24722878.340   129919587.989 2      5465.871    24722886.380   101236054.929 2      4259.121    24722885.620   101236107.978 5      4259.121
G27  24207424.900   127210858.669 5      -217.000    24207425.440   127210858.671 4      -217.000    24207439.920    99125392.116 4      -169.091    24207440.680    99125396.088 6      -169.091
R08  21796954.480   116721681.868 7       479.784    21796956.620   116721681.910 7       479.784    21796967.260    90783597.370 7       373.165    21796967.420    90783595.377 7       373.165
G04  24655541.880   129565744.333 5      5593.198    24655540.720   129565744.341 1      5593.198    24655553.860   100960376.557 1      4358.336    24655556.480   100960385.656 5      4358.336
G14  22566058.480   118585438.923 7      4153.940    22566057.740   118585438.933 5      4153.940    22566063.700    92404263.587 5      3236.837    22566064.380    92404256.604 7      3236.837
G03  20558402.980   108035137.941 8      4322.250    20558402.660   108035137.943 6      4322.250    20558409.440    84183250.071 6      3367.987    20558409.960    84183253.070 8      3367.987
R24  20926049.600   111900988.140 7      3547.484    20926047.520   111900988.125 7      3547.484    20926060.380    87034148.319 7      2759.154    20926060.500    87034149.328 7      2759.154
G32  25259370.320   132738891.281 7      1375.499    25259369.620   132738891.280 6      1375.499    25259384.360   103432953.685 6      1071.817    25259385.580   103432961.686 7      1071.817
R02  22807053.660   121702808.333 6      6933.645
R15  23134259.360   123622477.400 6      3963.020    23134261.700   123622477.420 6      3963.020    23134274.180    96150873.859 6      3082.349    23134274.400    96150870.873 6      3082.349
R01  20128464.220   107598173.646 7      4648.057    20128463.260   107598173.660 6      4648.057    20128476.900    83687525.883 7      3615.156    20128475.920    83687523.869 7      3615.156
R14  21760651.420   115996508.303 8       805.937    21760650.100   115996508.298 7       805.937    21760662.940    90219545.746 7       626.840    21760663.060    90219550.754 7       626.840
R23  22018550.820   117784392.194 7      1482.266    22018550.860   117784392.208 7      1482.266
G22  24545822.960   128989172.281 6      5063.598    24545822.740   128989172.283 3      5063.598    24545830.540   100511061.539 3      3945.660
G21  21905090.380   115112017.018 7      1386.944    21905087.720   115112017.020 6      1386.944    21905093.040    89697656.246 6      1080.736
> 2024 06 03 13 32  4.0000000  0 18
G02  21685620.320   113958704.694 8      2231.241    21685619.300   113958704.701 6      2231.241    21685621.540    88798994.788 6      1738.629
R17  23591032.220   126240369.311 7      4776.734    23591031.120   126240369.313 7      4776.734    23591048.620    98187037.351 7      3715.237    23591048.620    98187035.343 7      3715.237
G08  21477747.520   112866320.131 7       949.790    21477746.120   112866320.141 7       949.790    21477754.380    87947805.191 7       740.096    21477754.900    87947811.193 8       740.096
G17  24721839.840   129914122.014 6      5466.200    24721838.360   129914122.014 2      5466.200    24721846.120   101231795.732 2      4259.376    24721846.300   101231848.750 5      4259.376
G27  24207466.800   127211075.915 5      -217.315    24207466.740   127211075.920 4      -217.315    24207481.220    99125561.388 4      -169.337    24207482.120    99125565.359 6      -169.337
R08  21796864.460   116721202.409 7       479.180    21796867.160   116721202.446 7       479.180    21796877.680    90783224.456 7       372.696    21796877.680    90783222.463 7       372.696
G04  24654477.060   129560151.112 5      5593.069    24654476.180   129560151.123 1      5593.069    24654489.060   100956018.210 1      4358.235    24654492.340   100956027.294 5      4358.235
G14  22565268.060   118581285.230 7      4153.422    22565267.360   118581285.237 5      4153.422    22565273.240    92401026.945 5      3236.433    22565273.800    92401019.956 7      3236.433
G03  20557580.640   108030815.889 8      4321.766    20557580.400   108030815.886 7      4321.766    20557587.060    84179882.236 7      3367.610    20557587.560    84179885.238 8      3367.610
R24  20925386.180   111897440.626 7      3547.577    20925384.060   111897440.617 7      3547.577    20925397.140    87031389.149 7      2759.227    20925397.220    87031390.156 7      2759.227
G32  25259108.560   132737516.020 7      1375.007    25259107.740   132737516.017 6      1375.007    25259122.720   103431882.063 6      1071.434    25259123.680   103431890.060 7      1071.434
R02  22805754.060   121695874.660 6      6933.651
R15  23133518.080   123618514.688 6      3962.213    23133519.700   123618514.706 6      3962.213    23133533.400    96147791.750 6      3081.722    23133532.960    96147788.760 7      3081.722
R01  20127594.680   107593525.785 6      4647.343    20127593.700   107593525.805 6      4647.343    20127607.260    83683910.888 6      3614.600    20127606.600    83683908.879 7      3614.600
R14  21760500.380   115995702.524 7       805.444    21760498.840   115995702.527 7       805.444    21760511.820    90218919.033 8       626.457    21760511.920    90218924.037 8       626.457
R23  22018273.880   117782909.895 7      1482.249    22018273.960   117782909.907 7      1482.249
G22  24544859.680   128984108.791 6      5063.265    24544859.120   128984108.793 3      5063.265    24544867.040   100507115.967 3      3945.402
G21  21904826.260   115110630.048 7      1386.987    21904823.840   115110630.056 6      1386.987    21904829.000    89696575.497 6      1080.769
