     3.05           OBSERVATION DATA    MIXED               RINEX VERSION / TYPE
TPS2RIN 1.0.28.3459 TPS-USER            20260427 162845 UTC PGM / RUN BY / DATE
Win64 build Jun 01, 2022 (c) Topcon Positioning Systems     COMMENT
SRC: 20240603_GUI25.tps                                     COMMENT
Observer            Agency                                  OBSERVER / AGENCY
O0M3X53SBGM         TPS HIPER_SR        4.8 HSR Jul,08,2022 REC # / TYPE / VERS
FW: 4.8 HSR Jul,08,2022 p3                                  COMMENT
SN: HiPer SR 1212-12575                                     COMMENT
000                 TPSHIPER_SR     NONE                    ANT # / TYPE
        1.8000        0.0000        0.0000                  ANTENNA: DELTA H/E/N
GUI25                                                       MARKER NAME
  5391574.0173 -1591694.7368  3005942.7785                  APPROX POSITION XYZ
  2024     6     3    14    37   27.0000000     GPS         TIME OF FIRST OBS
  2024     6     3    14    52   31.0000000     GPS         TIME OF LAST OBS
     1.000                                                  INTERVAL
   905 EPOCHS                                               COMMENT
G   12 C1C L1C D1C C1W L1W D1W C2W L2W D2W C2X L2X D2X      SYS / # / OBS TYPES
R   12 C1C L1C D1C C1P L1P D1P C2P L2P D2P C2C L2C D2C      SYS / # / OBS TYPES
    16                                                      # OF SATELLITES
   G02   905   905   905   905   905   905   905   905   905PRN / # OF OBS
           0     0     0                                    PRN / # OF OBS
   G03   905   905   905   905   905   905   905   905   905PRN / # OF OBS
         905   905   905                                    PRN / # OF OBS
   G04   905   905   905   905   905   905   905   905   905PRN / # OF OBS
         905   905   905                                    PRN / # OF OBS
   G08   905   905   905   905   905   905   905   905   905PRN / # OF OBS
         905   905   905                                    PRN / # OF OBS
   G09   905   905   905   905   905   905   905   905   905PRN / # OF OBS
         905   905   905                                    PRN / # OF OBS
   G14   905   905   905   905   905   905   905   905   905PRN / # OF OBS
         905   905   905                                    PRN / # OF OBS
   G17   905   905   905   905   905   905   905   905   905PRN / # OF OBS
         905   905   905                                    PRN / # OF OBS
   G21   905   905   905   905   905   905   905   905   905PRN / # OF OBS
           0     0     0                                    PRN / # OF OBS
   G22   905   905   905   905   905   905   905   905   905PRN / # OF OBS
           0     0     0                                    PRN / # OF OBS
   R01   905   905   905   905   905   905   905   905   905PRN / # OF OBS
         905   905   905                                    PRN / # OF OBS
   R02   905   905   905   905   905   905   905   905   905PRN / # OF OBS
         905   905   905                                    PRN / # OF OBS
   R03   279   279   279   275   275   275   275   275   275PRN / # OF OBS
         274   274   274                                    PRN / # OF OBS
   R14    26    26    26    22    22    22    22    22    22PRN / # OF OBS
          21    21    21                                    PRN / # OF OBS
   R17   905   905   905   905   905   905   905   905   905PRN / # OF OBS
         905   905   905                                    PRN / # OF OBS
   R23   905   905   905   905   905   905     0     0     0PRN / # OF OBS
           0     0     0                                    PRN / # OF OBS
   R24   905   905   905   905   905   905   905   905   905PRN / # OF OBS
         905   905   905                                    PRN / # OF OBS
G L1C                                                       SYS / PHASE SHIFT
G L1W -0.25000                                              SYS / PHASE SHIFT
G L2W  0.00000                                              SYS / PHASE SHIFT
G L2X  0.25000                                              SYS / PHASE SHIFT
R L1C                                                       SYS / PHASE SHIFT
R L1P -0.25000                                              SYS / PHASE SHIFT
R L2P -0.25000                                              SYS / PHASE SHIFT
R L2C                                                       SYS / PHASE SHIFT
  7 R01  1 R02 -4 R03  5 R14 -7 R17  4 R23  3 R24  2        GLONASS SLOT / FRQ #
                                                            GLONASS COD/PHS/BIS
               *** Undefined LeapSeconds ***                COMMENT
                                                            END OF HEADER
> 2024 06 03 14 37 27.0000000  0 14
G08  23114441.440   121467211.879 7      -381.732    23114440.740   121467211.878 6      -381.732    23114453.120    94649812.071 6      -297.454    23114454.100    94649822.051 7      -297.454
G22  23223039.440   122037900.254 7      3239.514    23223038.140   122037900.270 5      3239.514    23223044.200    95094457.702 5      2524.297
R01  19777182.960   105720374.565 7      1221.819    19777182.980   105720374.575 7      1221.819    19777193.880    82227010.344 7       950.304    19777193.780    82227007.336 7       950.304
R23  22976770.840   122910217.060 6       743.960    22976770.840   122910217.062 6       743.960
R24  20290198.940   108500804.551 8      2996.740    20290198.700   108500804.560 7      2996.740    20290209.200    84389566.891 8      2330.798    20290209.640    84389564.895 8      2330.798
G09  24460825.580   128542507.753 6      6161.306    24460824.640   128542507.760 5      6161.306    24460843.300   100163060.371 5      4801.017    24460842.740   100163063.395 6      4801.017
G21  22697959.980   119278589.938 7      1341.114    22697957.780   119278589.943 5      1341.114    22697965.100    92944359.944 5      1045.024
G02  21908255.880   115128659.812 8      2026.255    21908254.460   115128659.820 6      2026.255    21908257.940    89710651.552 6      1578.900
R17  21768299.840   116486579.164 7      5125.159    21768299.080   116486579.184 7      5125.159    21768314.780    90600727.447 7      3986.235    21768313.660    90600725.443 7      3986.235
G14  22162499.580   116464716.730 7      1823.376    22162499.660   116464716.743 4      1823.376    22162506.440    90751752.604 4      1420.812    22162506.800    90751757.583 7      1420.812
R02  19975296.040   106592003.510 8      5314.849    19975295.480   106592003.511 8      5314.849    19975305.700    82904935.838 8      4133.771    19975305.800    82904934.839 8      4133.771
G17  22440177.860   117923935.562 7      5358.355    22440177.440   117923935.567 6      5358.355    22440183.000    91888786.533 6      4175.341    22440183.560    91888804.546 8      4175.341
G04  22256924.700   116960935.741 7      5423.873    22256924.220   116960935.751 5      5423.873    22256932.840    91138415.844 5      4226.394    22256933.360    91138420.857 7      4226.394
G03  20002506.680   105113880.117 8      2085.535    20002505.840   105113880.116 8      2085.535    20002511.240    81906940.543 8      1625.092    20002512.160    81906944.546 8      1625.092
> 2024 06 03 14 37 28.0000000  0 14
G08  23114514.060   121467593.733 7      -381.724    23114513.320   121467593.736 6      -381.724    23114525.660    94650109.616 6      -297.448    23114526.880    94650119.597 7      -297.448
G22  23222423.040   122034661.087 7      3238.958    23222421.800   122034661.097 4      3238.958    23222428.000    95091933.670 5      2523.864
R01  19776954.640   105719153.305 7      1221.151    19776954.540   105719153.314 7      1221.151    19776966.100    82226060.471 7       949.784    19776965.340    82226057.463 7       949.784
R23  22976631.960   122909473.467 6       743.830    22976631.260   122909473.460 6       743.830
R24  20289638.300   108497808.065 8      2996.591    20289638.960   108497808.079 8      2996.591    20289648.960    84387236.303 8      2330.682    20289649.360    84387234.307 8      2330.682
G09  24459653.340   128536346.442 6      6161.533    24459652.260   128536346.444 5      6161.533    24459670.960   100158259.346 5      4801.195    24459670.940   100158262.343 6      4801.195
G21  22697704.780   119277248.958 7      1341.309    22697702.660   119277248.955 5      1341.309    22697709.940    92943315.012 5      1045.176
G02  21907870.200   115126633.673 8      2026.347    21907868.880   115126633.683 6      2026.347    21907872.440    89709072.750 6      1578.971
R17  21767342.580   116481454.154 7      5125.170    21767341.960   116481454.175 7      5125.170    21767357.340    90596741.322 7      3986.243    21767356.000    90596739.316 8      3986.243
G14  22162152.940   116462893.708 7      1822.740    22162152.980   116462893.724 4      1822.740    22162159.360    90750332.061 4      1420.317    22162160.080    90750337.049 7      1420.317
R02  19974300.100   106586689.055 8      5314.199    19974299.940   106586689.053 8      5314.199    19974309.920    82900802.377 8      4133.266    19974309.960    82900801.378 8      4133.266
G17  22439158.400   117918577.307 7      5358.212    22439157.680   117918577.315 6      5358.212    22439163.600    91884611.279 6      4175.230    22439164.260    91884629.291 8      4175.230
G04  22255892.720   116955512.081 7      5423.612    22255892.040   116955512.097 5      5423.612    22255900.700    91134189.627 5      4226.191    22255901.520    91134194.657 7      4226.191
G03  20002109.880   105111794.937 8      2085.009    20002108.840   105111794.942 8      2085.009    20002114.420    81905315.736 8      1624.682    20002115.440    81905319.743 8      1624.682
> 2024 06 03 14 37 29.0000000  0 14
G08  23114587.240   121467975.809 7      -382.188    23114585.980   121467975.811 6      -382.188    23114598.220    94650407.327 6      -297.809    23114599.380    94650417.308 7      -297.809
G22  23221807.100   122031422.664 7      3238.320    23221805.780   122031422.677 4      3238.320    23221811.880    95089410.219 4      2523.366
R01  19776725.820   105717932.790 7      1220.131    19776726.200   105717932.805 7      1220.131    19776737.520    82225111.184 7       948.991    19776737.020    82225108.178 7       948.991
R23  22976492.760   122908729.913 6       743.319    22976491.960   122908729.931 6       743.319
R24  20289078.140   108494811.752 8      2996.267    20289078.980   108494811.759 7      2996.267    20289088.520    84384905.825 8      2330.430    20289088.880    84384903.830 8      2330.430
G09  24458480.800   128530185.212 6      6161.216    24458479.780   128530185.217 5      6161.216    24458498.660   100153458.389 5      4800.947    24458498.780   100153461.395 6      4800.947
G21  22697449.460   119275907.823 7      1341.104    22697447.480   119275907.823 5      1341.104    22697454.700    92942269.962 5      1045.016
G02  21907484.700   115124607.512 8      2026.216    21907483.380   115124607.520 6      2026.216    21907486.940    89707493.920 6      1578.870
R17  21766384.820   116476329.212 7      5125.099    21766384.600   116476329.232 7      5125.099    21766399.320    90592755.254 7      3986.188    21766398.300    90592753.248 7      3986.188
G14  22161806.260   116461071.467 7      1822.089    22161806.240   116461071.482 4      1822.089    22161812.500    90748912.125 4      1419.810    22161812.880    90748917.118 7      1419.810
R02  19973304.480   106581375.361 8      5313.396    19973303.980   106581375.359 8      5313.396    19973314.020    82896669.512 8      4132.642    19973314.140    82896668.513 8      4132.642
G17  22438138.880   117913219.336 7      5358.093    22438138.220   117913219.336 6      5358.093    22438144.120    91880436.243 6      4175.137    22438144.740    91880454.248 8      4175.137
G04  22254860.780   116950088.709 7      5423.251    22254860.020   116950088.724 5      5423.251    22254868.780    91129963.634 5      4225.910    22254869.360    91129968.655 7      4225.910
G03  20001713.100   105109710.296 8      2084.497    20001712.360   105109710.298 8      2084.497    20001717.840    81903691.338 8      1624.283    20001718.660    81903695.343 8      1624.283
> 2024 06 03 14 37 30.0000000  0 14
G08  23114659.740   121468358.147 7      -382.370    23114658.780   121468358.151 6      -382.370    23114670.900    94650705.244 6      -297.951    23114672.380    94650715.240 7      -297.951
G22  23221190.860   122028184.582 7      3237.851    23221189.540   122028184.595 4      3237.851    23221195.760    95086887.034 4      2523.001
R01  19776498.020   105716713.128 7      1219.522    19776497.880   105716713.143 7      1219.522    19776509.620    82224162.558 7       948.517    19776508.920    82224159.550 7       948.517
R23  22976354.040   122907986.731 6       743.398    22976352.520   122907986.743 6       743.398
R24  20288517.900   108491815.734 8      2996.012    20288518.540   108491815.749 7      2996.012    20288528.140    84382575.602 8      2330.232    20288528.620    84382573.602 8      2330.232
G09  24457308.460   128524023.720 6      6161.588    24457307.060   128524023.722 5      6161.588    24457326.300   100148657.231 5      4801.237    24457325.860   100148660.239 6      4801.237
G21  22697194.360   119274566.840 7      1341.146    22697192.580   119274566.843 5      1341.146    22697199.380    92941225.038 5      1045.049
G02  21907099.080   115122581.499 8      2026.045    21907097.760   115122581.504 6      2026.045    21907101.340    89705915.213 6      1578.736
R17  21765427.020   116471204.136 7      5125.121    21765427.000   116471204.156 7      5125.121    21765441.220    90588769.088 7      3986.205    21765440.860    90588767.080 7      3986.205
G14  22161459.620   116459249.549 7      1821.715    22161459.500   116459249.567 4      1821.715    22161465.740    90747492.444 4      1419.518    22161466.500    90747497.438 7      1419.518
R02  19972308.660   106576062.275 8      5312.901    19972308.120   106576062.263 8      5312.901    19972318.400    82892537.112 8      4132.257    19972318.600    82892536.115 8      4132.257
G17  22437119.520   117907861.423 7      5357.873    22437118.720   117907861.425 6      5357.873    22437124.860    91876261.252 6      4174.966    22437125.460    91876279.259 8      4174.966
G04  22253828.820   116944665.546 7      5423.085    22253827.900   116944665.562 5      5423.085    22253836.780    91125737.808 5      4225.780    22253837.500    91125742.824 7      4225.780
G03  20001316.520   105107626.102 8      2084.012    20001315.740   105107626.107 8      2084.012    20001321.280    81902067.297 8      1623.906    20001322.440    81902071.304 8      1623.906
> 2024 06 03 14 37 31.0000000  0 14
G08  23114732.440   121468740.550 7      -382.659    23114731.400   121468740.558 6      -382.659    23114743.500    94651003.215 6      -298.176    23114745.120    94651013.213 7      -298.176
G22  23220574.660   122024946.852 7      3237.378    23220573.580   122024946.870 4      3237.378    23220579.700    95084364.126 4      2522.632
R01  19776270.300   105715494.044 7      1218.609    19776270.120   105715494.058 7      1218.609    19776281.640    82223214.379 7       947.807    19776280.920    82223211.371 7       947.807
R23  22976214.620   122907243.571 6       742.914    22976213.540   122907243.602 6       742.914
R24  20287957.500   108488819.687 8      2995.919    20287958.140   108488819.699 7      2995.919    20287967.820    84380245.336 8      2330.159    20287968.340    84380243.338 8      2330.159
G09  24456135.440   128517862.096 6      6161.439    24456134.420   128517862.099 5      6161.439    24456153.980   100143855.970 5      4801.121    24456153.760   100143858.969 6      4801.121
G21  22696939.340   119273225.566 7      1341.263    22696937.580   119273225.568 5      1341.263    22696944.060    92940179.889 6      1045.140
G02  21906713.580   115120555.244 8      2026.158    21906712.100   115120555.252 6      2026.158    21906715.800    89704336.313 6      1578.824
R17  21764469.400   116466078.738 7      5125.345    21764469.460   116466078.767 7      5125.345    21764483.380    90584782.682 7      3986.380    21764482.860    90584780.674 7      3986.380
G14  22161112.700   116457428.075 7      1821.054    22161112.840   116457428.088 4      1821.054    22161118.980    90746073.103 4      1419.003    22161119.580    90746078.087 7      1419.003
R02  19971313.040   106570749.691 8      5312.184    19971312.560   106570749.684 8      5312.184    19971322.880    82888405.106 8      4131.699    19971323.060    82888404.107 8      4131.699
G17  22436099.800   117902503.468 7      5357.773    22436099.100   117902503.467 6      5357.773    22436105.260    91872086.226 6      4174.888    22436105.960    91872104.231 8      4174.888
G04  22252796.600   116939242.468 7      5422.859    22252796.060   116939242.483 5      5422.859    22252804.680    91121512.041 5      4225.604    22252805.360    91121517.055 7      4225.604
G03  20000920.020   105105542.188 8      2083.596    20000919.120   105105542.191 8      2083.596    20000924.760    81900443.462 8      1623.581    20000925.720    81900447.469 8      1623.581
> 2024 06 03 14 37 32.0000000  0 14
G08  23114805.100   121469123.324 7      -383.166    23114804.180   121469123.327 6      -383.166    23114816.540    94651301.466 6      -298.571    23114818.160    94651311.456 7      -298.571
G22  23219958.420   122021709.847 7      3236.626    23219957.560   122021709.865 4      3236.626    23219963.760    95081841.776 4      2522.046
R01  19776042.760   105714275.806 7      1217.532    19776042.000   105714275.818 7      1217.532    19776053.200    82222266.863 7       946.969    19776053.020    82222263.857 7       946.969
R23  22976076.020   122906500.726 6       742.362    22976075.380   122906500.727 6       742.362
R24  20287397.520   108485823.981 8      2995.218    20287398.140   108485823.988 7      2995.218    20287407.400    84377915.331 8      2329.614    20287408.020    84377913.333 8      2329.614
G09  24454962.940   128511700.559 6      6161.730    24454962.040   128511700.556 5      6161.730    24454981.360   100139054.774 5      4801.348    24454980.760   100139057.784 6      4801.348
G21  22696684.260   119271884.350 7      1340.696    22696682.140   119271884.357 5      1340.696    22696689.040    92939134.794 5      1044.698
G02  21906328.040   115118529.113 7      2025.683    21906326.420   115118529.118 6      2025.683    21906330.180    89702757.499 6      1578.454
R17  21763511.660   116460953.432 7      5125.131    21763510.220   116460953.450 7      5125.131    21763525.660    90580796.345 7      3986.213    21763525.020    90580794.345 7      3986.213
G14  22160766.380   116455607.323 7      1820.625    22160766.420   116455607.336 4      1820.625    22160772.520    90744654.334 4      1418.669    22160773.240    90744659.315 7      1418.669
R02  19970317.680   106565437.958 8      5311.356    19970316.920   106565437.958 8      5311.356    19970327.620    82884273.765 8      4131.055    19970327.520    82884272.763 8      4131.055
G17  22435080.100   117897145.794 7      5357.437    22435079.580   117897145.796 6      5357.437    22435085.620    91867911.415 6      4174.626    22435086.360    91867929.416 8      4174.626
G04  22251764.660   116933819.800 6      5422.524    22251764.180   116933819.812 5      5422.524    22251772.760    91117286.583 5      4225.344    22251773.800    91117291.595 7      4225.344
G03  20000523.400   105103458.906 8      2082.827    20000522.720   105103458.903 8      2082.827    20000528.260    81898820.119 8      1622.982    20000529.120    81898824.118 8      1622.982
> 2024 06 03 14 37 33.0000000  0 14
G08  23114877.960   121469506.353 7      -383.236    23114877.200   121469506.353 6      -383.236    23114889.620    94651599.920 6      -298.626    23114890.920    94651609.914 7      -298.626
G22  23219342.640   122018473.297 7      3236.215    23219341.800   122018473.310 4      3236.215    23219347.960    95079319.787 4      2521.726
R01  19775814.580   105713058.563 7      1216.933    19775814.480   105713058.581 7      1216.933    19775825.480    82221320.120 7       946.504    19775825.300    82221317.123 7       946.504
R23  22975937.100   122905758.309 6       742.339    22975936.240   122905758.308 6       742.339
R24  20286837.260   108482828.688 8      2995.311    20286837.760   108482828.697 8      2995.311    20286847.440    84375585.666 8      2329.686    20286847.680    84375583.666 8      2329.686
G09  24453790.540   128505538.836 6      6161.500    24453789.440   128505538.835 5      6161.500    24453808.780   100134253.439 5      4801.169    24453808.000   100134256.439 6      4801.169
G21  22696428.860   119270543.365 7      1341.153    22696426.780   119270543.369 5      1341.153    22696433.840    92938089.864 5      1045.054
G02  21905942.400   115116503.215 7      2025.970    21905940.820   115116503.225 6      2025.970    21905944.680    89701178.881 6      1578.678
R17  21762553.800   116455828.168 7      5125.380    21762552.380   116455828.191 7      5125.380    21762567.740    90576810.029 7      3986.407    21762567.140    90576808.031 7      3986.407
G14  22160419.780   116453787.003 7      1819.958    22160419.880   116453787.018 4      1819.958    22160426.160    90743235.894 4      1418.149    22160426.880    90743240.888 7      1418.149
R02  19969322.360   106560126.913 8      5310.634    19969321.780   106560126.914 8      5310.634    19969332.240    82880142.958 8      4130.493    19969332.160    82880141.959 8      4130.493
G17  22434060.600   117891788.332 7      5357.357    22434060.220   117891788.329 6      5357.357    22434066.160    91863736.774 6      4174.564    22434066.980    91863754.773 8      4174.564
G04  22250732.780   116928397.344 6      5422.299    22250732.160   116928397.359 5      5422.299    22250740.760    91113061.301 5      4225.168    22250741.700    91113066.321 7      4225.168
G03  20000127.160   105101376.149 8      2082.467    20000126.400   105101376.148 8      2082.467    20000131.880    81897197.196 8      1622.702    20000132.700    81897201.201 8      1622.702
> 2024 06 03 14 37 34.0000000  0 14
G08  23114951.060   121469889.882 7      -383.606    23114950.100   121469889.887 6      -383.606    23114962.420    94651898.769 6      -298.914    23114963.740    94651908.759 7      -298.914
G22  23218726.980   122015237.304 7      3235.887    23218726.040   122015237.314 4      3235.887    23218732.080    95076798.232 4      2521.470
R01  19775587.440   105711842.221 7      1215.990    19775587.640   105711842.230 7      1215.990    19775597.940    82220374.066 7       945.770    19775597.660    82220371.064 7       945.770
R23  22975798.500   122905016.315 6       741.740    22975796.440   122905016.327 6       741.740
R24  20286277.160   108479833.678 7      2994.971    20286277.740   108479833.695 7      2994.971    20286287.520    84373256.214 8      2329.422    20286287.600    84373254.216 8      2329.422
G09  24452618.240   128499377.301 6      6161.455    24452616.960   128499377.312 5      6161.455    24452636.360   100129452.252 5      4801.134    24452635.060   100129455.280 6      4801.134
G21  22696173.920   119269202.474 7      1340.912    22696171.480   119269202.481 5      1340.912    22696178.780    92937045.014 6      1044.867
G02  21905556.980   115114477.436 8      2025.800    21905555.540   115114477.446 6      2025.800    21905559.160    89699600.348 6      1578.545
R17  21761595.720   116450702.782 7      5125.610    21761594.260   116450702.799 7      5125.610    21761610.020    90572823.642 7      3986.586    21761609.400    90572821.649 7      3986.586
G14  22160073.520   116451967.365 7      1819.516    22160073.780   116451967.373 4      1819.516    22160079.660    90741817.988 4      1417.805    22160080.700    90741822.982 7      1417.805
R02  19968327.380   106554816.815 8      5309.894    19968326.700   106554816.811 8      5309.894    19968337.400    82876012.878 8      4129.918    19968337.140    82876011.881 8      4129.918
G17  22433040.780   117886431.023 7      5357.319    22433040.720   117886431.018 6      5357.319    22433046.580    91859562.247 6      4174.534    22433047.400    91859580.257 8      4174.534
G04  22249700.980   116922975.414 6      5421.973    22249700.320   116922975.432 5      5421.973    22249708.960    91108836.426 5      4224.914    22249709.560    91108841.430 7      4224.914
G03  19999731.000   105099293.959 8      2082.023    19999729.880   105099293.961 8      2082.023    19999735.640    81895574.712 8      1622.356    19999736.420    81895578.715 8      1622.356
> 2024 06 03 14 37 35.0000000  0 14
G08  23115024.040   121470273.581 7      -383.706    23115023.200   121470273.586 6      -383.706    23115035.100    94652197.749 6      -298.992    23115036.440    94652207.743 7      -298.992
G22  23218111.000   122012001.826 7      3235.161    23218110.400   122012001.839 4      3235.161    23218116.360    95074277.082 4      2520.905
R01  19775359.800   105710626.707 7      1215.353    19775360.280   105710626.722 7      1215.353    19775370.620    82219428.674 7       945.275    19775369.980    82219425.671 7       945.275
R23  22975660.280   122904274.556 6       741.919    22975657.880   122904274.549 6       741.919
R24  20285717.160   108476838.980 8      2994.755    20285717.740   108476838.992 7      2994.755    20285727.400    84370927.001 8      2329.254    20285727.500    84370925.001 8      2329.254
G09  24451445.700   128493215.512 6      6161.927    24451444.660   128493215.528 5      6161.927    24451463.860   100124650.856 5      4801.501    24451463.600   100124653.865 6      4801.501
G21  22695918.900   119267861.673 7      1340.988    22695916.440   119267861.678 5      1340.988    22695923.580    92936000.232 5      1044.926
G02  21905171.680   115112451.798 8      2025.733    21905170.140   115112451.803 6      2025.733    21905173.660    89698021.931 6      1578.493
R17  21760638.020   116445577.465 7      5125.457    21760636.700   116445577.466 7      5125.457    21760652.540    90568837.270 7      3986.466    21760651.860    90568835.279 7      3986.466
G14  22159727.360   116450148.156 7      1818.922    22159727.560   116450148.166 4      1818.922    22159733.380    90740400.425 4      1417.342    22159734.380    90740405.429 7      1417.342
R02  19967332.300   106549507.299 8      5309.262    19967331.940   106549507.297 8      5309.262    19967342.680    82871883.265 8      4129.426    19967342.180    82871882.270 8      4129.426
G17  22432021.480   117881073.898 7      5357.068    22432021.080   117881073.895 6      5357.068    22432026.880    91855387.870 6      4174.339    22432027.760    91855405.878 8      4174.339
G04  22248669.180   116917553.641 6      5421.854    22248668.520   116917553.651 5      5421.854    22248677.160    91104611.675 5      4224.821    22248677.480    91104616.664 7      4224.821
G03  19999334.680   105097212.285 8      2081.445    19999333.620   105097212.287 8      2081.445    19999339.540    81893952.632 8      1621.905    19999340.140    81893956.637 8      1621.905
> 2024 06 03 14 37 36.0000000  0 14
G08  23115097.040   121470657.537 7      -384.083    23115096.260   121470657.547 6      -384.083    23115108.240    94652496.934 6      -299.285    23115109.400    94652506.924 7      -299.285
G22  23217495.540   122008767.018 7      3234.465    23217494.820   122008767.031 4      3234.465    23217500.820    95071756.455 4      2520.362
R01  19775132.840   105709412.006 7      1214.147    19775132.720   105709412.020 7      1214.147    19775143.080    82218483.904 7       944.337    19775142.740    82218480.905 7       944.337
R23  22975521.760   122903533.003 6       741.309    22975519.100   122903533.002 6       741.309
R24  20285157.160   108473844.494 7      2994.168    20285157.700   108473844.512 8      2994.168    20285167.440    84368597.960 8      2328.797    20285167.520    84368595.960 8      2328.797
G09  24450273.000   128487053.783 6      6161.883    24450272.240   128487053.801 5      6161.883    24450291.260   100119849.513 5      4801.467    24450291.440   100119852.545 6      4801.467
G21  22695663.620   119266520.798 7      1340.743    22695661.220   119266520.805 5      1340.743    22695668.400    92934955.392 5      1044.735
G02  21904786.080   115110426.174 8      2025.456    21904784.700   115110426.179 6      2025.456    21904788.120    89696443.516 6      1578.277
R17  21759680.080   116440452.142 7      5125.134    21759678.960   116440452.155 7      5125.134    21759693.960    90564850.939 7      3986.215    21759694.080    90564848.952 7      3986.215
G14  22159381.360   116448329.680 6      1818.144    22159381.440   116448329.685 4      1818.144    22159387.360    90738983.428 4      1416.735    22159388.200    90738988.439 7      1416.735
R02  19966337.400   106544198.554 8      5308.368    19966337.000   106544198.558 8      5308.368    19966347.780    82867754.245 8      4128.730    19966347.560    82867753.252 8      4128.730
G17  22431002.080   117875717.023 7      5356.684    22431001.740   117875717.028 6      5356.684    22431007.440    91851213.686 6      4174.040    22431008.100    91851231.693 7      4174.040
G04  22247637.400   116912132.166 6      5421.355    22247636.900   116912132.176 5      5421.355    22247645.520    91100387.154 5      4224.432    22247645.540    91100392.148 7      4224.432
G03  19998938.860   105095131.141 8      2080.796    19998937.660   105095131.146 8      2080.796    19998943.700    81892330.956 8      1621.400    19998944.440    81892334.959 8      1621.400
> 2024 06 03 14 37 37.0000000  0 14
G08  23115170.020   121471041.567 7      -384.406    23115169.300   121471041.572 6      -384.406    23115181.360    94652796.168 6      -299.537    23115182.700    94652806.154 7      -299.537
G22  23216880.040   122005532.809 7      3233.870    23216879.380   122005532.825 4      3233.870    23216885.560    95069236.290 5      2519.899
R01  19774905.640   105708198.109 7      1213.368    19774905.880   105708198.124 7      1213.368    19774915.680    82217539.767 7       943.730    19774915.700    82217536.761 7       943.730
R23  22975383.040   122902791.552 6       741.093    22975381.120   122902791.550 6       741.093
R24  20284597.200   108470850.321 7      2993.852    20284597.440   108470850.333 7      2993.852    20284607.400    84366269.159 8      2328.552    20284607.500    84366267.156 8      2328.552
G09  24449100.520   128480891.792 6      6161.824    24449099.620   128480891.807 5      6161.824    24449118.680   100115047.971 5      4801.421    24449118.080   100115050.999 6      4801.421
G21  22695408.160   119265179.941 7      1340.718    22695405.880   119265179.946 5      1340.718    22695413.480    92933910.565 5      1044.715
G02  21904400.720   115108400.641 7      2025.266    21904399.220   115108400.646 6      2025.266    21904402.740    89694865.181 6      1578.129
R17  21758722.100   116435326.946 7      5125.056    21758721.040   116435326.953 7      5125.056    21758736.160    90560864.679 7      3986.155    21758736.000    90560862.686 7      3986.155
G14  22159035.440   116446511.695 7      1817.631    22159035.480   116446511.703 4      1817.631    22159041.540    90737566.821 4      1416.336    22159042.420    90737571.829 7      1416.336
R02  19965342.640   106538890.362 8      5307.595    19965342.180   106538890.362 8      5307.595    19965353.040    82863625.655 8      4128.129    19965352.800    82863624.658 8      4128.129
G17  22429982.780   117870360.447 7      5356.402    22429982.440   117870360.444 6      5356.402    22429988.080    91847039.733 6      4173.820    22429988.680    91847057.738 7      4173.820
G04  22246605.800   116906710.753 7      5421.012    22246605.200   116906710.766 5      5421.012    22246613.700    91096162.681 5      4224.165    22246613.780    91096167.693 7      4224.165
G03  19998542.940   105093050.517 8      2080.261    19998542.020   105093050.522 8      2080.261    19998547.800    81890709.697 8      1620.982    19998548.440    81890713.695 8      1620.982
> 2024 06 03 14 37 38.0000000  0 14
G08  23115242.980   121471425.894 7      -384.618    23115242.580   121471425.907 6      -384.618    23115254.680    94653095.636 6      -299.702    23115256.320    94653105.625 7      -299.702
G22  23216264.720   122002298.902 7      3233.631    23216263.980   122002298.915 4      3233.631    23216270.300    95066716.357 5      2519.713
R01  19774678.840   105706984.979 7      1212.683    19774678.780   105706984.988 7      1212.683    19774689.160    82216596.217 7       943.198    19774688.600    82216593.214 7       943.198
R23  22975244.560   122902050.416 6       741.042    22975242.780   122902050.417 6       741.042
R24  20284037.400   108467856.327 7      2993.891    20284037.620   108467856.336 7      2993.891    20284047.520    84363940.492 8      2328.582    20284047.520    84363938.496 8      2328.582
G09  24447928.080   128474729.690 6      6162.142    24447927.100   128474729.700 5      6162.142    24447945.940   100110246.345 5      4801.669    24447945.320   100110249.366 6      4801.669
G21  22695153.180   119263839.085 7      1340.850    22695150.620   119263839.087 5      1340.850    22695158.440    92932865.740 5      1044.818
G02  21904015.360   115106375.093 7      2025.492    21904013.660   115106375.103 6      2025.492    21904017.260    89693286.838 6      1578.306
R17  21757764.580   116430201.463 7      5125.520    21757763.200   116430201.467 7      5125.520    21757778.440    90556878.188 7      3986.516    21757778.080    90556876.197 7      3986.516
G14  22158689.580   116444694.102 6      1817.317    22158689.500   116444694.112 4      1817.317    22158695.640    90736150.515 4      1416.091    22158697.360    90736155.519 7      1416.091
R02  19964348.180   106533582.799 8      5307.235    19964347.620   106533582.799 8      5307.235    19964358.420    82859497.555 8      4127.849    19964358.000    82859496.560 8      4127.849
G17  22428963.520   117865003.782 7      5356.580    22428963.100   117865003.776 6      5356.580    22428968.760    91842865.714 6      4173.958    22428969.420    91842883.725 8      4173.958
G04  22245574.580   116901289.640 7      5420.798    22245573.480   116901289.650 5      5420.798    22245581.800    91091938.449 5      4223.999    22245582.980    91091943.454 7      4223.999
G03  19998147.080   105090970.254 8      2080.028    19998146.160   105090970.256 8      2080.028    19998151.960    81889088.712 8      1620.801    19998152.780    81889092.709 8      1620.801
> 2024 06 03 14 37 39.0000000  0 14
G08  23115316.520   121471810.644 7      -384.879    23115315.900   121471810.655 6      -384.879    23115327.880    94653395.435 6      -299.905    23115328.840    94653405.422 7      -299.905
G22  23215649.440   121999065.639 7      3232.919    23215648.580   121999065.652 4      3232.919    23215655.160    95064196.923 5      2519.158
R01  19774451.940   105705772.790 7      1211.905    19774451.880   105705772.792 7      1211.905    19774462.400    82215653.397 7       942.593    19774461.600    82215650.394 7       942.593
R23  22975106.240   122901309.700 6       740.700    22975104.240   122901309.704 6       740.700
R24  20283477.500   108464862.752 7      2993.452    20283477.820   108464862.759 7      2993.452    20283487.700    84361612.150 8      2328.241    20283487.920    84361610.152 8      2328.241
G09  24446755.420   128468567.691 6      6162.012    24446754.560   128468567.703 5      6162.012    24446773.260   100105444.796 5      4801.568    24446772.600   100105447.818 6      4801.568
G21  22694897.880   119262498.410 7      1340.684    22694895.440   119262498.415 5      1340.684    22694903.340    92931821.062 5      1044.689
G02  21903629.960   115104349.774 7      2025.285    21903628.100   115104349.779 6      2025.285    21903631.900    89691708.661 6      1578.144
R17  21756806.740   116425076.041 7      5125.395    21756805.560   116425076.046 7      5125.395    21756820.480    90552891.754 7      3986.418    21756820.120    90552889.764 7      3986.418
G14  22158344.380   116442877.181 6      1816.587    22158343.720   116442877.189 4      1816.587    22158349.880    90734734.730 4      1415.522    22158351.400    90734739.738 7      1415.522
R02  19963353.400   106528276.103 8      5306.436    19963353.140   106528276.109 8      5306.436    19963363.860    82855370.139 8      4127.228    19963363.580    82855369.144 8      4127.228
G17  22427944.640   117859647.416 7      5356.177    22427943.720   117859647.416 6      5356.177    22427949.360    91838691.929 6      4173.644    22427950.220    91838709.944 7      4173.644
G04  22244542.880   116895868.929 7      5420.598    22244542.020   116895868.942 4      5420.598    22244550.100    91087714.527 5      4223.843    22244551.520    91087719.523 7      4223.843
G03  19997751.260   105088890.634 8      2079.415    19997750.340   105088890.636 8      2079.415    19997756.260    81887468.223 8      1620.323    19997756.940    81887472.222 8      1620.323
> 2024 06 03 14 37 40.0000000  0 14
G08  23115390.080   121472195.710 7      -385.122    23115389.100   121472195.717 6      -385.122    23115401.280    94653695.476 6      -300.095    23115401.980    94653705.469 7      -300.095
G22  23215034.320   121995833.044 7      3232.453    23215033.340   121995833.057 4      3232.453    23215039.900    95061678.015 5      2518.795
R01  19774225.200   105704561.558 7      1210.865    19774225.200   105704561.565 7      1210.865    19774235.600    82214711.334 7       941.784    19774234.880    82214708.327 7       941.784
R23  22974967.220   122900569.327 6       740.249    22974965.960   122900569.328 6       740.249
R24  20282917.880   108461869.518 8      2993.087    20282917.800   108461869.530 7      2993.087    20282927.600    84359284.081 8      2327.956    20282927.940    84359282.085 8      2327.956
G09  24445582.840   128462405.675 6      6162.367    24445581.980   128462405.688 5      6162.367    24445600.660   100100643.227 5      4801.844    24445600.520   100100646.248 6      4801.844
G21  22694642.820   119261157.848 7      1340.560    22694640.320   119261157.852 5      1340.560    22694648.080    92930776.470 5      1044.593
G02  21903244.400   115102324.622 7      2025.121    21903242.760   115102324.630 6      2025.121    21903246.580    89690130.615 6      1578.016
R17  21755849.140   116419950.756 7      5125.319    21755848.280   116419950.763 7      5125.319    21755862.420    90548905.433 7      3986.359    21755862.700    90548903.444 7      3986.359
G14  22157998.680   116441060.915 7      1816.246    22157998.020   116441060.925 4      1816.246    22158004.360    90733319.456 4      1415.256    22158005.360    90733324.466 7      1415.256
R02  19962359.260   106522970.253 8      5305.695    19962358.860   106522970.251 8      5305.695    19962369.460    82851243.355 8      4126.652    19962369.260    82851242.361 8      4126.652
G17  22426925.460   117854291.368 7      5356.064    22426924.420   117854291.365 6      5356.064    22426930.180    91834518.389 6      4173.557    22426930.780    91834536.388 7      4173.557
G04  22243511.740   116890448.562 7      5420.418    22243510.360   116890448.575 4      5420.418    22243518.620    91083490.871 5      4223.703    22243519.740    91083495.867 7      4223.703
G03  19997355.680   105086811.637 8      2078.896    19997354.800   105086811.639 8      2078.896    19997360.700    81885848.227 8      1619.919    19997361.420    81885852.220 8      1619.919
> 2024 06 03 14 37 41.0000000  0 14
G08  23115463.300   121472580.980 7      -385.445    23115462.400   121472580.990 6      -385.445    23115474.580    94653995.678 6      -300.346    23115475.640    94654005.672 7      -300.346
G22  23214419.340   121992600.879 7      3231.805    23214418.340   121992600.889 4      3231.805    23214424.840    95059159.441 4      2518.289
R01  19773998.940   105703351.072 7      1210.073    19773998.760   105703351.076 7      1210.073    19774009.080    82213769.847 7       941.168    19774008.520    82213766.835 7       941.168
R23  22974829.380   122899829.154 6       740.109    22974827.900   122899829.158 6       740.109
R24  20282358.320   108458876.459 8      2992.913    20282357.860   108458876.463 7      2992.913    20282368.120    84356956.147 8      2327.821    20282368.280    84356954.149 8      2327.821
G09  24444410.080   128456243.537 6      6161.921    24444409.280   128456243.550 5      6161.921    24444428.040   100095841.563 5      4801.497    24444427.580   100095844.595 6      4801.497
G21  22694387.600   119259817.262 7      1340.608    22694385.280   119259817.264 5      1340.608    22694392.920    92929731.858 5      1044.629
G02  21902859.080   115100299.479 7      2025.122    21902857.340   115100299.491 6      2025.122    21902861.340    89688552.583 6      1578.017
R17  21754891.420   116414825.338 7      5125.499    21754890.380   116414825.331 7      5125.499    21754904.600    90544918.988 7      3986.499    21754904.860    90544916.995 7      3986.499
G14  22157653.040   116439245.092 7      1815.572    22157652.460   116439245.105 4      1815.572    22157659.000    90731904.529 4      1414.732    22157659.740    90731909.537 7      1414.732
R02  19961365.040   106517665.019 8      5304.788    19961364.820   106517665.023 8      5304.788    19961375.400    82847117.074 8      4125.946    19961375.060    82847116.081 8      4125.946
G17  22425906.180   117848935.368 7      5355.881    22425905.140   117848935.370 6      5355.881    22425910.900    91830344.886 6      4173.414    22425911.800    91830362.895 7      4173.414
G04  22242480.180   116885028.401 7      5419.946    22242478.880   116885028.413 4      5419.946    22242487.140    91079267.372 4      4223.335    22242488.480    91079272.370 7      4223.335
G03  19996959.980   105084733.052 8      2078.358    19996959.340   105084733.057 8      2078.358    19996965.140    81884228.555 8      1619.500    19996965.760    81884232.546 8      1619.500
> 2024 06 03 14 37 42.0000000  0 14
G08  23115536.740   121472966.763 7      -386.157    23115535.940   121472966.773 6      -386.157    23115547.880    94654296.278 6      -300.902    23115549.160    94654306.267 7      -300.902
G22  23213804.320   121989369.484 7      3230.774    23213803.240   121989369.494 4      3230.774    23213809.880    95056641.471 4      2517.486
R01  19773772.660   105702141.660 7      1208.721    19773772.160   105702141.661 7      1208.721    19773783.060    82212829.187 7       940.116    19773782.320    82212826.175 7       940.116
R23  22974690.960   122899089.513 6       739.283    22974689.880   122899089.518 6       739.283
R24  20281798.580   108455883.882 7      2992.097    20281798.220   108455883.892 7      2992.097    20281808.320    84354628.585 8      2327.186    20281808.580    84354626.591 8      2327.186
G09  24443237.700   128450081.566 6      6161.755    24443236.760   128450081.576 5      6161.755    24443255.420   100091040.030 5      4801.368    24443255.260   100091043.062 6      4801.368
G21  22694132.800   119258476.949 7      1339.873    22694130.200   119258476.957 5      1339.873    22694137.880    92928687.458 5      1044.057
G02  21902473.840   115098274.643 7      2024.532    21902472.000   115098274.650 6      2024.532    21902475.960    89686974.784 6      1577.557
R17  21753933.540   116409700.114 7      5124.875    21753932.940   116409700.116 7      5124.875    21753946.760    90540932.710 7      3986.014    21753946.960    90540930.723 7      3986.014
G14  22157307.320   116437430.111 7      1814.293    22157306.820   116437430.124 4      1814.293    22157313.680    90730490.252 4      1413.735    22157314.600    90730495.262 7      1413.735
R02  19960370.880   106512360.773 8      5303.589    19960370.760   106512360.773 8      5303.589    19960381.240    82842991.551 8      4125.013    19960381.340    82842990.558 8      4125.013
G17  22424886.900   117843579.788 7      5355.202    22424885.920   117843579.787 6      5355.202    22424891.620    91826171.707 6      4172.885    22424892.580    91826189.718 7      4172.885
G04  22241448.520   116879608.746 7      5419.190    22241447.340   116879608.759 4      5419.190    22241456.040    91075044.271 4      4222.746    22241456.860    91075049.271 7      4222.746
G03  19996564.740   105082655.219 8      2077.296    19996563.920   105082655.226 8      2077.296    19996569.900    81882609.462 8      1618.672    19996570.440    81882613.453 8      1618.672
> 2024 06 03 14 37 43.0000000  0 14
G08  23115610.440   121473352.766 7      -385.789    23115609.420   121473352.771 6      -385.789    23115621.440    94654597.051 6      -300.614    23115622.840    94654607.047 7      -300.614
G22  23213189.540   121986138.649 7      3230.783    23213188.400   121986138.654 4      3230.783    23213195.100    95054123.935 4      2517.493
R01  19773546.440   105700933.063 7      1208.411    19773545.960   105700933.067 7      1208.411    19773556.940    82211889.172 7       939.875    19773556.100    82211886.156 7       939.875
R23  22974552.400   122898350.108 6       739.493    22974551.720   122898350.120 6       739.493
R24  20281238.900   108452891.546 7      2992.431    20281238.520   108452891.563 7      2992.431    20281248.620    84352301.214 8      2327.447    20281248.960    84352299.216 8      2327.447
G09  24442065.160   128443919.551 6      6162.075    24442064.240   128443919.564 5      6162.075    24442082.760   100086238.472 5      4801.617    24442082.500   100086241.510 6      4801.617
G21  22693877.820   119257136.592 7      1340.639    22693875.060   119257136.597 5      1340.639    22693882.860    92927643.022 5      1044.654
G02  21902088.440   115096249.859 7      2025.029    21902086.860   115096249.864 6      2025.029    21902090.600    89685397.025 6      1577.945
R17  21752975.460   116404574.851 7      5125.406    21752975.720   116404574.866 7      5125.406    21752989.000    90536946.406 7      3986.427    21752989.100    90536944.415 7      3986.427
G14  22156962.100   116435615.652 6      1814.361    22156961.300   116435615.662 4      1814.361    22156968.320    90729076.388 4      1413.788    22156969.600    90729081.394 7      1413.788
R02  19959377.220   106507057.193 8      5303.488    19959376.680   106507057.194 8      5303.488    19959387.380    82838866.549 8      4124.935    19959387.440    82838865.554 8      4124.935
G17  22423867.880   117838224.384 7      5355.559    22423866.840   117838224.386 6      5355.559    22423872.500    91821998.673 6      4173.163    22423873.500    91822016.684 7      4173.163
G04  22240417.340   116874189.330 7      5419.592    22240416.040   116874189.343 4      5419.592    22240424.540    91070821.356 4      4223.059    22240425.240    91070826.352 7      4223.059
G03  19996169.320   105080577.864 8      2077.388    19996168.760   105080577.869 8      2077.388    19996174.840    81880990.742 8      1618.744    19996175.360    81880994.731 8      1618.744
> 2024 06 03 14 37 44.0000000  0 14
G08  23115683.640   121473738.827 7      -386.319    23115682.820   121473738.837 6      -386.319    23115694.920    94654897.870 6      -301.028    23115696.040    94654907.866 7      -301.028
G22  23212574.900   121982908.095 7      3230.289    23212573.560   121982908.100 4      3230.289    23212580.500    95051606.624 4      2517.109
R01  19773320.440   105699725.164 7      1207.378    19773320.020   105699725.168 7      1207.378    19773331.160    82210949.690 7       939.072    19773330.420    82210946.681 7       939.072
R23  22974414.140   122897610.807 6       739.081    22974414.100   122897610.825 6       739.081
R24  20280679.320   108449899.394 7      2991.968    20280679.180   108449899.406 7      2991.968    20280689.300    84349973.983 8      2327.087    20280689.260    84349971.985 8      2327.087
G09  24440892.420   128437757.137 6      6162.321    24440891.460   128437757.147 5      6162.321    24440910.020   100081436.598 5      4801.809    24440909.860   100081439.620 6      4801.809
G21  22693622.640   119255796.174 7      1340.433    22693620.040   119255796.179 5      1340.433    22693627.780    92926598.541 5      1044.493
G02  21901703.040   115094225.028 7      2024.758    21901701.640   115094225.036 6      2024.758    21901705.280    89683819.237 6      1577.733
R17  21752017.540   116399449.389 7      5125.424    21752017.760   116399449.401 7      5125.424    21752031.380    90532959.932 7      3986.441    21752031.220    90532957.936 7      3986.441
G14  22156616.720   116433801.475 6      1813.785    22156616.000   116433801.487 4      1813.785    22156623.300    90727662.745 4      1413.339    22156624.420    90727667.759 7      1413.339
R02  19958383.660   106501754.057 8      5302.726    19958383.040   106501754.052 8      5302.726    19958393.380    82834741.885 8      4124.343    19958393.580    82834740.894 8      4124.343
G17  22422848.700   117832868.966 7      5355.343    22422847.680   117832868.969 6      5355.343    22422853.380    91817825.623 6      4172.995    22422854.000    91817843.630 7      4172.995
G04  22239386.260   116868769.962 7      5419.170    22239384.900   116868769.967 4      5419.170    22239393.320    91066598.477 4      4222.730    22239393.860    91066603.471 7      4222.730
G03  19995774.080   105078500.848 8      2076.749    19995773.540   105078500.853 8      2076.749    19995779.560    81879372.286 8      1618.246    19995780.140    81879376.276 8      1618.246
> 2024 06 03 14 37 45.0000000  0 14
G08  23115757.220   121474125.254 6      -386.527    23115756.380   121474125.264 6      -386.527    23115768.560    94655198.971 6      -301.190    23115769.440    94655208.967 7      -301.190
G22  23211959.900   121979678.221 7      3229.707    23211959.000   121979678.226 4      3229.707    23211965.820    95049089.837 4      2516.655
R01  19773094.320   105698518.206 7      1206.470    19773094.020   105698518.210 7      1206.470    19773105.400    82210010.947 7       938.366    19773104.760    82210007.931 7       938.366
R23  22974276.080   122896871.908 6       738.688    22974275.620   122896871.922 6       738.688
R24  20280119.740   108446907.624 7      2991.483    20280119.660   108446907.644 7      2991.483    20280129.840    84347647.059 8      2326.709    20280129.960    84347645.065 8      2326.709
G09  24439720.100   128431594.814 6      6162.540    24439718.740   128431594.819 5      6162.540    24439737.440   100076634.790 5      4801.980    24439737.560   100076637.815 6      4801.980
G21  22693367.540   119254455.920 7      1340.111    22693365.040   119254455.924 6      1340.111    22693372.700    92925554.185 5      1044.243
G02  21901317.920   115092200.392 7      2024.472    21901316.120   115092200.399 6      2024.472    21901319.960    89682241.596 6      1577.511
R17  21751059.880   116394324.021 7      5125.299    21751060.040   116394324.034 7      5125.299    21751073.480    90528973.537 7      3986.344    21751073.680    90528971.539 7      3986.344
G14  22156271.540   116431987.994 6      1813.359    22156270.780   116431988.004 4      1813.359    22156278.160    90726249.643 4      1413.007    22156279.020    90726254.643 7      1413.007
R02  19957389.680   106496451.726 8      5302.069    19957389.440   106496451.727 8      5302.069    19957399.700    82830617.860 8      4123.831    19957400.020    82830616.867 8      4123.831
G17  22421829.680   117827513.836 7      5355.129    22421828.700   117827513.835 6      5355.129    22421834.160    91813652.798 6      4172.828    22421834.860    91813670.809 7      4172.828
G04  22238355.020   116863350.956 7      5419.044    22238353.780   116863350.961 4      5419.044    22238362.100    91062375.880 4      4222.632    22238362.920    91062380.880 7      4222.632
G03  19995378.940   105076424.452 8      2076.129    19995378.380   105076424.457 8      2076.129    19995384.400    81877754.317 8      1617.763    19995385.040    81877758.306 8      1617.763
> 2024 06 03 14 37 46.0000000  0 14
G08  23115830.620   121474511.822 7      -386.643    23115829.960   121474511.830 6      -386.643    23115842.240    94655500.185 6      -301.280    23115843.080    94655510.187 7      -301.280
G22  23211345.220   121976448.676 7      3229.294    23211344.160   121976448.681 4      3229.294    23211351.220    95046573.309 4      2516.333
R01  19772868.900   105697311.954 7      1205.849    19772868.020   105697311.941 7      1205.849    19772879.160    82209072.742 7       937.883    19772878.880    82209069.731 7       937.883
R23  22974138.540   122896133.144 6       738.820    22974137.740   122896133.151 6       738.820
R24  20279560.000   108443915.970 7      2991.634    20279560.320   108443915.982 7      2991.634    20279570.840    84345320.219 8      2326.826    20279570.700    84345318.223 8      2326.826
G09  24438547.320   128425432.247 6      6162.508    24438545.940   128425432.244 5      6162.508    24438564.800   100071832.786 5      4801.954    24438565.120   100071835.806 6      4801.954
G21  22693112.320   119253115.554 7      1340.470    22693109.980   119253115.559 5      1340.470    22693117.620    92924509.738 6      1044.522
G02  21900932.540   115090175.684 7      2024.776    21900930.720   115090175.687 6      2024.776    21900934.800    89680663.904 6      1577.748
R17  21750102.240   116389198.418 7      5125.730    21750101.520   116389198.433 7      5125.730    21750115.580    90524986.963 7      3986.679    21750115.700    90524984.961 7      3986.679
G14  22155926.940   116430174.851 6      1812.790    22155925.540   116430174.859 4      1812.790    22155933.120    90724836.801 4      1412.563    22155933.700    90724841.809 7      1412.563
R02  19956396.040   106491149.955 8      5301.373    19956395.880   106491149.959 8      5301.373    19956406.060    82826494.272 8      4123.290    19956406.420    82826493.281 8      4123.290
G17  22420810.780   117822158.700 7      5355.133    22420809.700   117822158.702 6      5355.133    22420815.240    91809479.975 6      4172.831    22420816.160    91809497.988 7      4172.831
G04  22237323.800   116857932.111 7      5418.760    22237322.680   116857932.118 4      5418.760    22237330.980    91058153.411 4      4222.410    22237331.380    91058158.411 7      4222.410
G03  19994984.080   105074348.395 8      2075.823    19994983.260   105074348.403 8      2075.823    19994989.240    81876136.617 8      1617.524    19994990.100    81876140.607 8      1617.524
> 2024 06 03 14 37 47.0000000  0 14
G08  23115904.520   121474898.587 7      -386.938    23115903.600   121474898.595 6      -386.938    23115915.820    94655801.552 6      -301.510    23115916.720    94655811.556 7      -301.510
G22  23210731.060   121973219.586 7      3228.659    23210729.560   121973219.591 4      3228.659    23210736.900    95044057.134 4      2515.838
R01  19772643.300   105696106.334 7      1205.103    19772642.120   105696106.333 7      1205.103    19772654.240    82208135.045 7       937.302    19772653.320    82208132.029 7       937.302
R23  22974000.600   122895394.520 6       738.487    22973999.340   122895394.530 6       738.487
R24  20279000.760   108440924.387 8      2991.404    20279000.660   108440924.394 7      2991.404    20279011.240    84342993.422 8      2326.647    20279011.140    84342991.428 8      2326.647
G09  24437374.240   128419269.572 6      6162.753    24437373.080   128419269.575 5      6162.753    24437392.100   100067030.706 5      4802.145    24437392.400   100067033.732 6      4802.145
G21  22692857.320   119251775.066 7      1340.442    22692854.740   119251775.073 5      1340.442    22692862.560    92923465.201 5      1044.500
G02  21900547.160   115088150.904 8      2024.768    21900545.480   115088150.911 6      2024.768    21900549.480    89679086.157 6      1577.742
R17  21749144.480   116384072.684 7      5125.591    21749144.340   116384072.693 7      5125.591    21749157.980    90521000.280 7      3986.571    21749157.980    90520998.287 7      3986.571
G14  22155581.940   116428362.213 6      1812.150    22155580.700   116428362.224 4      1812.150    22155588.000    90723424.354 4      1412.065    22155588.160    90723429.374 7      1412.065
R02  19955402.640   106485848.836 8      5300.757    19955402.360   106485848.834 8      5300.757    19955412.360    82822371.177 8      4122.811    19955412.820    82822370.181 8      4122.811
G17  22419791.580   117816803.616 7      5354.934    22419790.500   117816803.621 6      5354.934    22419796.280    91805307.188 6      4172.676    22419797.220    91805325.200 7      4172.676
G04  22236292.420   116852513.439 7      5418.629    22236291.560   116852513.449 5      5418.629    22236299.860    91053931.077 4      4222.309    22236300.380    91053936.083 7      4222.309
G03  19994589.020   105072272.735 8      2075.320    19994588.380   105072272.740 8      2075.320    19994594.380    81874519.215 8      1617.132    19994594.940    81874523.203 8      1617.132
> 2024 06 03 14 37 48.0000000  0 14
G08  23115978.100   121475285.631 6      -387.117    23115977.200   121475285.639 6      -387.117    23115989.540    94656103.141 6      -301.650    23115990.280    94656113.143 7      -301.650
G22  23210116.620   121969991.136 7      3228.214    23210115.300   121969991.138 4      3228.214    23210122.500    95041541.457 4      2515.491
R01  19772417.860   105694901.688 7      1204.142    19772416.740   105694901.687 7      1204.142    19772428.840    82207198.094 7       936.555    19772428.020    82207195.078 7       936.555
R23  22973862.080   122894656.249 6       738.114    22973861.360   122894656.253 6       738.114
R24  20278441.260   108437933.195 7      2991.048    20278441.420   108437933.202 7      2991.048    20278451.800    84340666.937 8      2326.371    20278451.880    84340664.943 8      2326.371
G09  24436201.380   128413106.863 6      6162.952    24436200.240   128413106.866 5      6162.952    24436219.300   100062228.601 5      4802.300    24436220.440   100062231.624 6      4802.300
G21  22692602.280   119250434.764 7      1340.218    22692599.680   119250434.771 5      1340.218    22692607.480    92922420.810 5      1044.325
G02  21900161.940   115086126.354 8      2024.509    21900160.240   115086126.361 6      2024.509    21900164.080    89677508.579 6      1577.540
R17  21748186.720   116378947.040 7      5125.718    21748186.720   116378947.047 7      5125.718    21748200.320    90517013.669 7      3986.670    21748200.240    90517011.673 7      3986.670
G14  22155237.300   116426550.172 6      1811.913    22155235.800   116426550.180 4      1811.913    22155243.160    90722012.369 4      1411.880    22155243.480    90722017.377 7      1411.880
R02  19954409.160   106480548.487 8      5300.080    19954409.260   106480548.488 8      5300.080    19954419.080    82818248.687 8      4122.284    19954419.620    82818247.694 8      4122.284
G17  22418772.900   117811448.827 7      5354.823    22418771.640   117811448.829 6      5354.823    22418777.400    91801134.628 6      4172.589    22418778.400    91801152.637 7      4172.589
G04  22235261.260   116847095.103 7      5418.349    22235260.640   116847095.113 5      5418.349    22235268.500    91049709.006 4      4222.090    22235269.240    91049714.006 7      4222.090
G03  19994194.180   105070197.690 8      2074.772    19994193.480   105070197.694 8      2074.772    19994199.620    81872902.296 8      1616.705    19994200.180    81872906.285 8      1616.705
> 2024 06 03 14 37 49.0000000  0 14
G08  23116051.760   121475672.998 7      -387.501    23116050.880   121475673.008 6      -387.501    23116063.400    94656404.973 6      -301.949    23116064.180    94656414.977 7      -301.949
G22  23209502.400   121966763.207 7      3227.719    23209501.060   121966763.209 4      3227.719    23209508.240    95039026.188 4      2515.105
R01  19772192.800   105693697.838 7      1203.549    19772191.640   105693697.831 7      1203.549    19772204.100    82206261.764 7       936.094    19772202.940    82206258.744 7       936.094
R23  22973724.240   122893918.197 6       738.033    22973723.340   122893918.204 6       738.033
R24  20277881.900   108434942.278 8      2990.872    20277881.980   108434942.282 7      2990.872    20277892.500    84338340.664 8      2326.234    20277892.860    84338338.671 7      2326.234
G09  24435028.860   128406944.134 6      6162.769    24435027.460   128406944.141 5      6162.769    24435046.780   100057426.482 5      4802.158    24435047.440   100057429.519 6      4802.158
G21  22692347.100   119249094.430 7      1340.505    22692344.700   119249094.438 5      1340.505    22692352.500    92921376.390 5      1044.549
G02  21899776.480   115084101.843 7      2024.572    21899775.020   115084101.854 6      2024.572    21899778.880    89675931.041 6      1577.589
R17  21747228.700   116373821.343 7      5125.742    21747229.060   116373821.350 7      5125.742    21747242.460    90513027.020 7      3986.689    21747242.520    90513025.022 7      3986.689
G14  22154892.340   116424738.740 6      1811.158    22154891.220   116424738.748 4      1811.158    22154898.560    90720600.862 4      1411.292    22154898.300    90720605.870 7      1411.292
R02  19953416.180   106475248.899 8      5299.236    19953416.120   106475248.898 8      5299.236    19953425.940    82814126.788 8      4121.628    19953426.600    82814125.797 7      4121.628
G17  22417753.900   117806094.240 7      5354.441    22417752.440   117806094.242 6      5354.441    22417758.220    91796962.224 6      4172.292    22417759.240    91796980.236 7      4172.292
G04  22234230.260   116841677.072 7      5417.962    22234229.500   116841677.085 5      5417.962    22234237.640    91045487.172 4      4221.788    22234237.900    91045492.167 7      4221.788
G03  19993799.300   105068123.141 8      2074.348    19993798.740   105068123.148 7      2074.348    19993804.800    81871285.765 7      1616.375    19993805.500    81871289.751 8      1616.375
> 2024 06 03 14 37 50.0000000  0 14
G08  23116125.320   121476060.455 7      -387.844    23116124.520   121476060.457 6      -387.844    23116137.140    94656706.877 6      -302.216    23116137.860    94656716.873 7      -302.216
G22  23208888.200   121963535.780 7      3226.858    23208886.800   121963535.782 4      3226.858    23208894.340    95036511.309 4      2514.435
R01  19771967.620   105692494.745 7      1202.362    19771966.960   105692494.741 7      1202.362    19771979.140    82205326.029 7       935.170    19771977.880    82205323.011 7       935.170
R23  22973586.120   122893180.301 6       737.519    22973586.040   122893180.299 6       737.519
R24  20277323.000   108431951.602 8      2990.256    20277322.740   108431951.606 7      2990.256    20277333.340    84336014.579 8      2325.755    20277333.520    84336012.583 8      2325.755
G09  24433856.320   128400781.222 6      6162.611    24433854.620   128400781.230 5      6162.611    24433873.880   100052624.226 5      4802.035    24433875.160   100052627.257 6      4802.035
G21  22692092.220   119247754.070 7      1340.039    22692089.540   119247754.073 5      1340.039    22692097.400    92920331.954 5      1044.186
G02  21899391.380   115082077.338 8      2024.136    21899389.800   115082077.346 6      2024.136    21899393.580    89674353.500 6      1577.249
R17  21746271.100   116368695.566 7      5125.568    21746271.400   116368695.573 7      5125.568    21746284.820    90509040.306 7      3986.553    21746284.460    90509038.304 8      3986.553
G14  22154548.460   116422927.761 6      1810.450    22154546.600   116422927.768 4      1810.450    22154553.860    90719189.709 4      1410.740    22154554.040    90719194.711 7      1410.740
R02  19952422.840   106469949.882 8      5298.373    19952423.000   106469949.880 8      5298.373    19952432.900    82810005.334 8      4120.957    19952433.620    82810004.343 8      4120.957
G17  22416734.780   117800739.727 7      5354.168    22416733.580   117800739.727 6      5354.168    22416739.220    91792789.878 6      4172.079    22416740.040    91792807.890 7      4172.079
G04  22233199.580   116836259.167 7      5417.470    22233198.680   116836259.175 4      5417.470    22233206.740    91041265.430 4      4221.405    22233207.160    91041270.423 7      4221.405
G03  19993404.580   105066049.020 8      2073.587    19993404.160   105066049.028 8      2073.587    19993410.360    81869669.571 8      1615.782    19993410.760    81869673.562 8      1615.782
> 2024 06 03 14 37 51.0000000  0 14
G08  23116199.340   121476448.171 6      -387.994    23116198.320   121476448.179 6      -387.994    23116211.060    94657008.990 6      -302.333    23116211.680    94657018.987 7      -302.333
G22  23208274.140   121960308.925 7      3227.627    23208272.640   121960308.920 4      3227.627    23208280.380    95033996.867 4      2515.034
R01  19771742.960   105691292.662 7      1202.038    19771741.460   105691292.666 7      1202.038    19771753.640    82204391.086 7       934.919    19771752.820    82204388.070 7       934.919
R23  22973448.000   122892442.773 6       737.207    22973447.280   122892442.788 6       737.207
R24  20276763.700   108428961.386 7      2990.599    20276763.040   108428961.385 7      2990.599    20276774.340    84333688.870 8      2326.021    20276774.260    84333686.870 8      2326.021
G09  24432684.040   128394618.064 6      6163.067    24432681.860   128394618.064 5      6163.067    24432700.680   100047821.784 5      4802.390    24432701.580   100047824.808 6      4802.390
G21  22691837.440   119246413.955 7      1340.341    22691834.520   119246413.960 5      1340.341    22691842.220    92919287.710 5      1044.421
G02  21899006.340   115080053.096 7      2024.603    21899004.500   115080053.101 6      2024.603    21899008.420    89672776.171 6      1577.613
R17  21745312.840   116363569.978 7      5126.599    21745313.200   116363569.991 7      5126.599    21745326.720    90505053.748 7      3987.355    21745326.760    90505051.736 7      3987.355
G14  22154203.180   116421117.312 7      1810.919    22154202.200   116421117.314 4      1810.919    22154209.360    90717778.959 4      1411.106    22154209.260    90717783.939 7      1411.106
R02  19951430.260   106464651.548 8      5298.136    19951429.860   106464651.560 8      5298.136    19951440.020    82805884.433 8      4120.773    19951440.560    82805883.444 8      4120.773
G17  22415715.800   117795385.555 7      5354.945    22415714.700   117795385.560 6      5354.945    22415720.500    91788617.817 6      4172.685    22415721.240    91788635.830 7      4172.685
G04  22232168.740   116830841.468 7      5417.516    22232167.680   116830841.473 4      5417.516    22232175.740    91037043.858 4      4221.441    22232176.200    91037048.878 7      4221.441
G03  19993010.060   105063975.517 8      2073.871    19993009.540   105063975.525 8      2073.871    19993015.620    81868053.855 8      1616.003    19993016.280    81868057.849 8      1616.003
> 2024 06 03 14 37 52.0000000  0 14
G08  23116272.940   121476836.214 7      -388.093    23116272.180   121476836.216 6      -388.093    23116284.760    94657311.348 6      -302.410    23116285.440    94657321.348 7      -302.410
G22  23207659.940   121957082.341 7      3226.129    23207658.620   121957082.338 4      3226.129    23207666.300    95031482.656 4      2513.866
R01  19771518.200   105690091.209 7      1200.897    19771516.520   105690091.208 7      1200.897    19771529.240    82203456.623 7       934.031    19771528.180    82203453.609 7       934.031
R23  22973310.440   122891705.457 6       737.159    22973309.720   122891705.466 6       737.159
R24  20276204.420   108425971.133 8      2990.082    20276204.020   108425971.134 7      2990.082    20276215.500    84331363.119 8      2325.619    20276215.220    84331361.121 8      2325.619
G09  24431511.120   128388455.014 6      6162.875    24431508.840   128388455.021 5      6162.875    24431528.140   100043019.417 5      4802.241    24431528.380   100043022.462 6      4802.241
G21  22691582.180   119245073.611 7      1340.281    22691579.760   119245073.618 5      1340.281    22691587.040    92918243.290 5      1044.375
G02  21898620.960   115078028.673 7      2024.288    21898619.000   115078028.680 6      2024.288    21898623.320    89671198.702 6      1577.368
R17  21744354.520   116358443.923 7      5126.004    21744354.780   116358443.935 7      5126.004    21744368.960    90501066.833 7      3986.892    21744368.600    90501064.829 7      3986.892
G14  22153858.700   116419307.267 7      1809.579    22153857.800   116419307.272 4      1809.579    22153864.700    90716368.533 4      1410.061    22153865.180    90716373.523 7      1410.061
R02  19950437.560   106459353.972 8      5297.174    19950437.480   106459353.970 8      5297.174    19950447.080    82801764.091 8      4120.024    19950447.740    82801763.098 8      4120.024
G17  22414696.760   117790031.236 7      5354.063    22414695.900   117790031.231 6      5354.063    22414701.860    91784445.620 6      4171.997    22414702.600    91784463.623 7      4171.997
G04  22231137.900   116825424.120 7      5417.223    22231136.920   116825424.125 4      5417.223    22231145.060    91032822.560 4      4221.213    22231145.740    91032827.568 7      4221.213
G03  19992615.620   105061902.303 8      2072.870    19992615.100   105061902.311 8      2072.870    19992620.920    81866438.369 8      1615.224    19992621.540    81866442.362 8      1615.224
> 2024 06 03 14 37 53.0000000  0 14
G08  23116346.740   121477224.655 7      -388.571    23116345.880   121477224.652 6      -388.571    23116358.800    94657614.024 6      -302.783    23116359.200    94657624.034 7      -302.783
G22  23207046.200   121953856.533 7      3225.459    23207044.660   121953856.535 4      3225.459    23207052.380    95028969.043 4      2513.344
R01  19771293.520   105688890.709 7      1200.054    19771292.400   105688890.705 7      1200.054    19771305.000    82202522.894 7       933.375    19771303.420    82202519.880 7       933.375
R23  22973172.680   122890968.528 6       736.872    22973172.660   122890968.540 6       736.872
R24  20275645.500   108422981.240 8      2989.753    20275645.360   108422981.249 7      2989.753    20275656.260    84329037.651 8      2325.363    20275656.100    84329035.651 8      2325.363
G09  24430337.680   128382292.034 6      6162.947    24430336.060   128382292.042 5      6162.947    24430355.640   100038217.108 5      4802.296    24430355.760   100038220.150 6      4802.296
G21  22691327.360   119243733.448 7      1340.116    22691324.820   119243733.458 5      1340.116    22691331.960    92917199.016 5      1044.246
G02  21898235.760   115076004.464 7      2024.148    21898233.900   115076004.469 6      2024.148    21898238.120    89669621.397 6      1577.258
R17  21743396.560   116353318.079 7      5125.688    21743398.180   116353318.096 7      5125.688    21743411.260    90497080.076 7      3986.646    21743410.720    90497078.078 8      3986.646
G14  22153514.660   116417498.008 7      1808.882    22153513.640   116417498.013 4      1808.882    22153520.440    90714958.721 4      1409.518    22153520.500    90714963.715 7      1409.518
R02  19949444.740   106454057.252 8      5296.336    19949444.720   106454057.253 8      5296.336    19949454.420    82797644.431 8      4119.373    19949455.180    82797643.438 8      4119.373
G17  22413677.960   117784677.285 7      5353.605    22413676.800   117784677.285 6      5353.605    22413682.880    91780273.723 6      4171.640    22413683.840    91780291.730 8      4171.640
G04  22230107.340   116820007.195 7      5416.822    22230106.300   116820007.200 4      5416.822    22230114.280    91028601.590 5      4220.900    22230114.340    91028606.586 7      4220.900
G03  19992221.180   105059829.780 8      2072.258    19992220.700   105059829.785 8      2072.258    19992226.700    81864823.416 8      1614.746    19992227.440    81864827.409 8      1614.746
> 2024 06 03 14 37 54.0000000  0 14
G08  23116421.020   121477613.331 7      -388.632    23116419.880   121477613.330 6      -388.632    23116432.860    94657916.880 6      -302.830    23116433.580    94657926.875 7      -302.830
G22  23206432.100   121950631.415 7      3225.313    23206430.900   121950631.420 4      3225.313    23206438.600    95026455.960 4      2513.231
R01  19771069.280   105687691.210 7      1199.307    19771068.440   105687691.217 7      1199.307    19771080.340    82201589.961 7       932.794    19771079.280    82201586.945 7       932.794
R23  22973034.940   122890231.988 6       736.554    22973034.640   122890232.008 6       736.554
R24  20275086.360   108419991.853 8      2989.419    20275085.880   108419991.862 7      2989.419    20275097.100    84326712.574 8      2325.104    20275097.020    84326710.574 8      2325.104
G09  24429165.120   128376128.903 6      6163.588    24429163.300   128376128.913 5      6163.588    24429182.660   100033414.680 5      4802.796    24429183.380   100033417.708 6      4802.796
G21  22691072.460   119242393.527 7      1340.091    22691069.700   119242393.532 5      1340.091    22691076.840    92916154.915 5      1044.227
G02  21897850.600   115073980.558 7      2024.057    21897848.840   115073980.563 6      2024.057    21897852.880    89668044.325 6      1577.187
R17  21742438.920   116348192.411 7      5125.882    21742440.060   116348192.431 7      5125.882    21742453.560    90493093.450 7      3986.797    21742452.840    90493091.448 7      3986.797
G14  22153170.620   116415689.370 7      1808.703    22153169.480   116415689.374 4      1808.703    22153176.220    90713549.390 4      1409.379    22153175.920    90713554.382 7      1409.379
R02  19948452.200   106448761.248 8      5295.860    19948452.320   106448761.246 8      5295.860    19948462.000    82793525.316 8      4119.002    19948462.600    82793524.321 8      4119.002
G17  22412659.480   117779323.731 7      5353.802    22412658.220   117779323.728 6      5353.802    22412664.140    91776102.118 6      4171.793    22412664.580    91776120.123 7      4171.793
G04  22229076.480   116814590.504 7      5416.815    22229075.620   116814590.509 5      5416.815    22229083.520    91024380.800 5      4220.895    22229084.000    91024385.794 7      4220.895
G03  19991826.780   105057757.912 8      2071.895    19991826.420   105057757.917 8      2071.895    19991832.520    81863208.975 8      1614.463    19991833.060    81863212.968 8      1614.463
> 2024 06 03 14 37 55.0000000  0 14
G08  23116495.120   121478002.138 7      -389.068    23116493.940   121478002.135 6      -389.068    23116506.800    94658219.834 6      -303.170    23116507.540    94658229.838 7      -303.170
G22  23205818.920   121947406.547 7      3224.541    23205817.220   121947406.552 4      3224.541    23205824.740    95023943.074 4      2512.630
R01  19770845.040   105686492.241 7      1198.501    19770843.960   105686492.248 7      1198.501    19770856.100    82200657.429 7       932.168    19770854.720    82200654.413 7       932.168
R23  22972896.900   122889495.479 6       736.413    22972897.040   122889495.494 6       736.413
R24  20274527.200   108417002.441 8      2989.243    20274526.740   108417002.448 7      2989.243    20274538.120    84324387.477 8      2324.966    20274538.000    84324385.470 8      2324.966
G09  24427992.200   128369965.631 6      6163.195    24427990.280   128369965.647 5      6163.195    24428009.820   100028612.141 5      4802.489    24428009.340   100028615.180 6      4802.489
G21  22690817.260   119241053.325 7      1340.105    22690814.600   119241053.330 5      1340.105    22690821.820    92915110.602 5      1044.238
G02  21897465.360   115071956.398 7      2024.109    21897463.600   115071956.405 6      2024.109    21897467.760    89666467.057 6      1577.228
R17  21741481.440   116343066.358 7      5126.007    21741481.940   116343066.368 7      5126.007    21741495.780    90489106.520 7      3986.894    21741495.460    90489104.518 8      3986.894
G14  22152826.720   116413881.036 7      1807.845    22152825.560   116413881.043 4      1807.845    22152832.080    90712140.296 4      1408.711    22152831.460    90712145.299 7      1408.711
R02  19947459.780   106443465.742 8      5295.069    19947459.920   106443465.740 8      5295.069    19947469.360    82789406.591 8      4118.387    19947470.300    82789405.598 8      4118.387
G17  22411640.440   117773970.006 7      5353.647    22411639.560   117773970.003 6      5353.647    22411645.420    91771930.388 6      4171.673    22411645.840    91771948.400 7      4171.673
G04  22228045.440   116809173.945 7      5416.410    22228044.900   116809173.952 5      5416.410    22228052.860    91020160.112 5      4220.580    22228053.560    91020165.108 7      4220.580
G03  19991432.540   105055686.261 8      2071.364    19991432.200   105055686.269 8      2071.364    19991438.260    81861594.706 8      1614.050    19991438.880    81861598.699 8      1614.050
> 2024 06 03 14 37 56.0000000  0 14
G08  23116569.320   121478391.391 7      -389.267    23116568.000   121478391.388 6      -389.267    23116580.840    94658523.140 6      -303.325    23116581.220    94658533.142 7      -303.325
G22  23205205.080   121944182.354 7      3224.063    23205203.760   121944182.356 4      3224.063    23205211.220    95021430.716 4      2512.257
R01  19770620.520   105685294.362 7      1197.579    19770620.160   105685294.371 7      1197.579    19770632.060    82199725.744 7       931.450    19770630.840    82199722.728 7       931.450
R23  22972759.640   122888759.554 6       735.932    22972759.720   122888759.550 6       735.932
R24  20273968.020   108414013.626 7      2988.863    20273967.820   108414013.627 7      2988.863    20273979.260    84322062.838 8      2324.671    20273979.220    84322060.834 8      2324.671
G09  24426819.840   128363802.447 6      6163.245    24426817.340   128363802.465 5      6163.245    24426837.080   100023809.660 5      4802.529    24426837.260   100023812.676 6      4802.529
G21  22690562.480   119239713.440 7      1340.061    22690559.560   119239713.448 5      1340.061    22690566.900    92914066.534 5      1044.204
G02  21897080.080   115069932.613 7      2023.866    21897078.580   115069932.620 6      2023.866    21897082.640    89664890.082 6      1577.039
R17  21740523.340   116337940.528 7      5125.989    21740524.420   116337940.540 7      5125.989    21740537.920    90485119.764 7      3986.880    21740537.500    90485117.765 8      3986.880
G14  22152482.760   116412073.393 7      1807.430    22152481.720   116412073.403 4      1807.430    22152488.060    90710731.744 4      1408.387    22152487.700    90710736.733 6      1408.387
R02  19946467.740   106438171.122 8      5294.307    19946467.840   106438171.117 8      5294.307    19946477.120    82785288.558 8      4117.794    19946477.660    82785287.563 8      4117.794
G17  22410621.640   117768616.675 7      5353.290    22410620.640   117768616.677 6      5353.290    22410626.560    91767758.968 6      4171.395    22410627.680    91767776.979 7      4171.395
G04  22227014.840   116803757.850 7      5416.118    22227014.340   116803757.853 5      5416.118    22227022.240    91015939.785 5      4220.352    22227022.800    91015944.787 7      4220.352
G03  19991038.660   105053615.349 8      2070.777    19991038.040   105053615.354 8      2070.777    19991044.200    81859981.006 8      1613.593    19991044.920    81859985.001 8      1613.593
> 2024 06 03 14 37 57.0000000  0 14
G08  23116643.340   121478780.695 7      -389.354    23116641.960   121478780.692 6      -389.354    23116654.980    94658826.483 6      -303.392    23116655.160    94658836.485 7      -303.392
G22  23204591.700   121940958.639 7      3223.709    23204590.180   121940958.641 4      3223.709    23204597.800    95018918.736 4      2511.981
R01  19770396.720   105684097.077 7      1197.077    19770396.360   105684097.094 7      1197.077    19770408.500    82198794.528 7       931.060    19770407.060    82198791.512 7       931.060
R23  22972622.100   122888023.577 6       735.986    22972621.560   122888023.581 6       735.986
R24  20273409.400   108411024.851 8      2988.898    20273408.900   108411024.852 7      2988.898    20273420.260    84319738.236 8      2324.699    20273420.100    84319736.229 8      2324.699
G09  24425646.640   128357639.029 6      6163.542    24425644.700   128357639.036 5      6163.542    24425664.480   100019006.992 5      4802.760    24425664.680   100019010.014 6      4802.760
G21  22690307.400   119238373.354 7      1340.227    22690304.620   119238373.367 5      1340.227    22690312.040    92913022.311 5      1044.333
G02  21896695.160   115067908.670 7      2024.091    21896693.420   115067908.677 6      2024.091    21896697.560    89663312.985 6      1577.214
R17  21739565.340   116332814.563 7      5126.200    21739566.420   116332814.583 7      5126.200    21739580.000    90481132.911 7      3987.044    21739579.320    90481130.910 8      3987.044
G14  22152138.600   116410266.215 7      1807.105    22152137.920   116410266.225 4      1807.105    22152144.000    90709323.555 4      1408.134    22152143.220    90709328.561 6      1408.134
R02  19945475.640   106432877.019 8      5293.876    19945475.600   106432877.017 8      5293.876    19945484.980    82781170.927 8      4117.459    19945485.820    82781169.929 8      4117.459
G17  22409603.420   117763263.389 7      5353.436    22409601.980   117763263.391 6      5353.436    22409608.000    91763587.584 6      4171.508    22409608.700    91763605.593 7      4171.508
G04  22225984.040   116798341.824 7      5415.891    22225983.740   116798341.832 5      5415.891    22225991.660    91011719.517 5      4220.175    22225992.160    91011724.522 7      4220.175
G03  19990644.600   105051544.773 8      2070.518    19990643.980   105051544.781 8      2070.518    19990650.300    81858367.575 8      1613.391    19990650.780    81858371.569 8      1613.391
> 2024 06 03 14 37 58.0000000  0 14
G08  23116717.560   121479170.424 7      -389.817    23116716.160   121479170.424 6      -389.817    23116729.240    94659130.164 6      -303.753    23116729.620    94659140.158 7      -303.753
G22  23203978.260   121937735.550 7      3223.020    23203977.080   121937735.555 4      3223.020    23203984.500    95016407.242 4      2511.444
R01  19770173.140   105682900.876 7      1195.801    19770172.840   105682900.891 7      1195.801    19770184.660    82197864.144 7       930.067    19770183.560    82197861.130 7       930.067
R23  22972484.780   122887288.104 6       735.606    22972484.280   122887288.097 6       735.606
R24  20272850.500   108408036.480 8      2988.376    20272850.160   108408036.492 7      2988.376    20272861.440    84317413.955 8      2324.293    20272861.360    84317411.951 8      2324.293
G09  24424473.860   128351475.634 6      6163.525    24424471.640   128351475.642 5      6163.525    24424491.560   100014204.349 5      4802.747    24424491.660   100014207.375 6      4802.747
G21  22690052.220   119237033.540 7      1339.928    22690049.540   119237033.548 5      1339.928    22690057.140    92911978.297 5      1044.100
G02  21896309.900   115065885.034 7      2023.699    21896308.420   115065885.042 6      2023.699    21896312.460    89661736.125 6      1576.908
R17  21738607.560   116327688.714 7      5125.929    21738608.220   116327688.734 7      5125.929    21738622.060    90477146.140 7      3986.834    21738621.320    90477144.136 8      3986.834
G14  22151794.580   116408459.676 7      1806.486    22151794.140   116408459.683 4      1806.486    22151800.100    90707915.862 4      1407.651    22151799.660    90707920.850 6      1407.651
R02  19944483.800   106427583.821 8      5292.977    19944483.480   106427583.817 8      5292.977    19944493.140    82777053.997 8      4116.760    19944493.580    82777053.000 8      4116.760
G17  22408584.780   117757910.442 7      5352.911    22408583.220   117757910.444 6      5352.911    22408589.260    91759416.462 6      4171.100    22408589.920    91759434.470 7      4171.100
G04  22224953.720   116792926.190 7      5415.658    22224953.220   116792926.202 5      5415.658    22224961.180    91007499.551 5      4219.993    22224961.640    91007504.553 7      4219.993
G03  19990250.720   105049474.867 8      2069.733    19990250.040   105049474.877 8      2069.733    19990256.320    81856754.661 8      1612.779    19990256.960    81856758.660 8      1612.779
> 2024 06 03 14 37 59.0000000  0 14
G08  23116791.840   121479560.321 7      -390.050    23116790.360   121479560.318 6      -390.050    23116803.520    94659433.970 6      -303.935    23116803.680    94659443.960 7      -303.935
G22  23203365.000   121934513.002 7      3222.229    23203363.760   121934513.007 4      3222.229    23203371.460    95013896.164 4      2510.828
R01  19769949.360   105681705.390 7      1195.030    19769949.180   105681705.407 7      1195.030    19769961.120    82196934.323 7       929.468    19769959.960    82196931.307 7       929.468
R23  22972347.160   122886552.794 6       735.197    22972346.300   122886552.798 6       735.197
R24  20272291.920   108405048.261 8      2988.089    20272291.060   108405048.273 7      2988.089    20272302.620    84315089.785 8      2324.069    20272302.680    84315087.779 8      2324.069
G09  24423300.880   128345312.129 6      6163.439    24423298.800   128345312.129 5      6163.439    24423318.440   100009401.622 5      4802.680    24423318.680   100009404.644 6      4802.680
G21  22689797.100   119235693.612 7      1340.028    22689794.740   119235693.619 5      1340.028    22689802.080    92910934.194 5      1044.178
G02  21895924.740   115063861.365 7      2023.660    21895923.240   115063861.370 6      2023.660    21895927.420    89660159.239 6      1576.878
R17  21737649.680   116322562.784 7      5125.841    21737650.120   116322562.804 7      5125.841    21737664.300    90473159.307 7      3986.765    21737663.540    90473157.302 7      3986.765
G14  22151451.160   116406653.672 7      1805.746    22151450.580   116406653.677 4      1805.746    22151456.620    90706508.585 4      1407.075    22151455.880    90706513.575 6      1407.075
R02  19943491.920   106422291.336 8      5292.133    19943491.740   106422291.331 8      5292.133    19943501.220    82772937.624 8      4116.103    19943501.900    82772936.626 8      4116.103
G17  22407565.920   117752557.613 7      5352.595    22407564.680   117752557.612 6      5352.595    22407570.660    91755245.425 6      4170.853    22407571.740    91755263.438 7      4170.853
G04  22223923.200   116787510.786 7      5415.202    22223922.720   116787510.802 5      5415.202    22223930.760    91003279.764 5      4219.638    22223931.060    91003284.762 7      4219.638
G03  19989856.660   105047405.392 8      2069.225    19989856.320   105047405.397 8      2069.225    19989862.540    81855142.081 8      1612.383    19989862.920    81855146.078 8      1612.383
> 2024 06 03 14 38  0.0000000  0 14
G08  23116866.220   121479950.558 7      -390.165    23116864.600   121479950.552 6      -390.165    23116877.860    94659738.032 6      -304.025    23116877.840    94659748.013 7      -304.025
G22  23202751.720   121931290.906 7      3222.197    23202750.440   121931290.908 4      3222.197    23202758.320    95011385.440 4      2510.803
R01  19769725.740   105680510.930 7      1194.145    19769725.620   105680510.923 7      1194.145    19769737.340    82196005.281 7       928.780    19769736.400    82196002.270 7       928.780
R23  22972209.780   122885817.965 6       734.716    22972209.040   122885817.953 6       734.716
R24  20271733.040   108402060.545 8      2987.631    20271732.520   108402060.551 7      2987.631    20271743.960    84312766.010 7      2323.713    20271743.940    84312764.012 8      2323.713
G09  24422127.860   128339148.503 6      6163.945    24422125.960   128339148.495 5      6163.945    24422145.480   100004598.796 5      4803.074    24422145.500   100004601.812 6      4803.074
G21  22689542.000   119234353.974 7      1339.667    22689540.040   119234353.982 5      1339.667    22689547.020    92909890.317 5      1043.896
G02  21895539.660   115061837.969 7      2023.443    21895538.100   115061837.976 6      2023.443    21895542.320    89658582.571 6      1576.709
R17  21736691.800   116317436.908 7      5126.014    21736691.640   116317436.920 7      5126.014    21736706.360    90469172.515 8      3986.900    21736705.660    90469170.507 8      3986.900
G14  22151107.200   116404848.171 6      1805.507    22151107.100   116404848.179 4      1805.507    22151112.980    90705101.692 4      1406.888    22151112.640    90705106.658 6      1406.888
R02  19942500.360   106416999.581 8      5291.735    19942500.240   106416999.571 8      5291.735    19942509.600    82768821.815 8      4115.794    19942509.980    82768820.815 8      4115.794
G17  22406547.500   117747204.999 7      5352.736    22406546.140   117747204.993 6      5352.736    22406552.220    91751074.563 6      4170.963    22406552.860    91751092.566 7      4170.963
G04  22222892.460   116782095.680 7      5415.096    22222892.340   116782095.690 5      5415.096    22222900.440    90999060.201 5      4219.555    22222900.960    90999065.201 7      4219.555
G03  19989463.060   105045336.487 8      2068.916    19989462.600   105045336.489 8      2068.916    19989468.780    81853529.945 8      1612.143    19989469.400    81853533.940 8      1612.143
> 2024 06 03 14 38  1.0000000  0 14
G08  23116940.380   121480340.881 7      -390.384    23116938.860   121480340.875 6      -390.384    23116951.940    94660042.151 6      -304.195    23116952.120    94660052.135 7      -304.195
G22  23202138.680   121928069.159 7      3221.377    23202137.220   121928069.167 4      3221.377    23202145.000    95008874.994 4      2510.164
R01  19769502.920   105679317.087 7      1193.624    19769502.100   105679317.091 7      1193.624    19769514.000    82195076.743 7       928.375    19769513.280    82195073.738 7       928.375
R23  22972073.160   122885083.224 6       734.764    22972070.880   122885083.220 6       734.764
R24  20271174.400   108399072.946 8      2987.669    20271173.920   108399072.953 8      2987.669    20271186.060    84310442.326 8      2323.743    20271185.300    84310440.330 8      2323.743
G09  24420955.160   128332984.625 6      6163.499    24420952.880   128332984.620 5      6163.499    24420973.060    99999795.766 5      4802.726    24420972.780    99999798.776 6      4802.726
G21  22689287.280   119233014.161 7      1340.002    22689285.480   119233014.176 5      1340.002    22689291.760    92908846.315 5      1044.157
G02  21895154.920   115059814.475 7      2023.639    21895153.000   115059814.483 6      2023.639    21895157.220    89657005.825 6      1576.862
R17  21735733.880   116312310.764 7      5126.247    21735734.280   116312310.779 7      5126.247    21735748.120    90465185.502 7      3987.081    21735747.780    90465183.492 7      3987.081
G14  22150763.660   116403042.948 6      1804.721    22150763.340   116403042.958 4      1804.721    22150769.660    90703695.013 4      1406.276    22150769.540    90703699.988 6      1406.276
R02  19941508.860   106411708.320 8      5290.804    19941508.960   106411708.313 8      5290.804    19941517.920    82764706.400 7      4115.070    19941518.400    82764705.400 8      4115.070
G17  22405528.680   117741852.380 7      5352.392    22405527.280   117741852.380 6      5352.392    22405533.780    91746903.695 6      4170.695    22405534.440    91746921.694 8      4170.695
G04  22221862.240   116776680.639 7      5414.833    22221861.920   116776680.649 5      5414.833    22221870.140    90994840.700 5      4219.350    22221870.520    90994845.709 7      4219.350
G03  19989069.400   105043267.911 8      2068.329    19989069.140   105043267.918 8      2068.329    19989074.620    81851918.070 8      1611.685    19989075.660    81851922.060 8      1611.685
> 2024 06 03 14 38  2.0000000  0 14
G08  23117014.600   121480731.545 7      -390.864    23117013.220   121480731.550 6      -390.864    23117026.500    94660346.573 6      -304.569    23117026.860    94660356.573 7      -304.569
G22  23201525.800   121924848.114 7      3220.820    23201524.080   121924848.124 4      3220.820    23201531.920    95006365.089 4      2509.730
R01  19769279.420   105678123.963 7      1192.652    19769279.200   105678123.975 7      1192.652    19769291.000    82194148.762 7       927.618    19769290.040    82194145.748 7       927.618
R23  22971935.320   122884348.631 6       734.355    22971933.720   122884348.640 6       734.355
R24  20270615.540   108396085.460 8      2987.270    20270614.780   108396085.474 8      2987.270    20270627.000    84308118.724 8      2323.432    20270626.840    84308116.726 8      2323.432
G09  24419782.160   128326820.976 6      6163.629    24419779.940   128326820.975 5      6163.629    24419800.280    99994992.923 5      4802.828    24419799.960    99994995.955 6      4802.828
G21  22689031.920   119231674.227 7      1339.860    22689030.660   119231674.232 5      1339.860    22689036.660    92907802.200 5      1044.046
G02  21894769.820   115057790.900 7      2023.406    21894767.940   115057790.911 6      2023.406    21894772.340    89655429.011 6      1576.680
R17  21734775.480   116307184.508 7      5126.260    21734775.720   116307184.544 7      5126.260    21734790.200    90461198.451 7      3987.091    21734789.580    90461196.451 8      3987.091
G14  22150419.880   116401238.584 6      1804.162    22150419.500   116401238.592 4      1804.162    22150426.160    90702289.005 4      1405.840    22150426.320    90702293.989 7      1405.840
R02  19940517.180   106406417.873 8      5290.050    19940517.440   106406417.871 8      5290.050    19940526.360    82760591.614 8      4114.483    19940526.980    82760590.615 8      4114.483
G17  22404510.260   117736499.908 7      5352.352    22404508.760   117736499.911 6      5352.352    22404515.420    91742732.946 6      4170.664    22404516.020    91742750.950 7      4170.664
G04  22220831.560   116771266.048 7      5414.349    22220831.560   116771266.060 5      5414.349    22220839.860    90990621.546 5      4218.974    22220840.060    90990626.555 7      4218.974
G03  19988675.840   105041199.855 8      2067.791    19988675.620   105041199.860 8      2067.791    19988681.440    81850306.591 8      1611.266    19988682.060    81850310.586 8      1611.266
> 2024 06 03 14 38  3.0000000  0 14
G08  23117089.100   121481122.646 7      -391.166    23117087.520   121481122.651 6      -391.166    23117100.880    94660651.327 6      -304.804    23117100.680    94660661.319 7      -304.804
G22  23200913.100   121921627.705 7      3219.943    23200911.160   121921627.712 4      3219.943    23200919.000    95003855.679 4      2509.047
R01  19769056.500   105676931.911 7      1191.565    19769056.640   105676931.920 7      1191.565    19769068.320    82193221.606 7       926.773    19769067.280    82193218.597 7       926.773
R23  22971798.020   122883614.580 6       733.816    22971796.720   122883614.587 6       733.816
R24  20270057.020   108393098.481 7      2986.775    20270056.300   108393098.494 7      2986.775    20270068.100    84305795.514 8      2323.047    20270068.040    84305793.512 8      2323.047
G09  24418609.360   128320657.318 6      6163.718    24418606.980   128320657.331 6      6163.718    24418627.260    99990190.083 6      4802.897    24418627.120    99990193.117 6      4802.897
G21  22688777.220   119230334.566 7      1339.655    22688775.600   119230334.568 5      1339.655    22688781.940    92906758.304 5      1043.887
G02  21894384.860   115055767.646 7      2023.179    21894383.080   115055767.654 6      2023.179    21894387.280    89653852.443 6      1576.503
R17  21733817.640   116302058.479 7      5125.911    21733818.200   116302058.507 7      5125.911    21733832.560    90457211.544 7      3986.820    21733831.760    90457209.544 8      3986.820
G14  22150076.380   116399434.814 6      1803.324    22150076.260   116399434.822 4      1803.324    22150082.580    90700883.468 4      1405.187    22150082.940    90700888.466 6      1405.187
R02  19939525.740   106401128.219 8      5289.298    19939526.000   106401128.219 8      5289.298    19939535.260    82756477.442 8      4113.899    19939535.700    82756476.447 8      4113.899
G17  22403491.760   117731147.794 7      5351.924    22403490.480   117731147.791 6      5351.924    22403496.760    91738562.470 6      4170.331    22403497.220    91738580.475 7      4170.331
G04  22219801.480   116765851.842 7      5414.058    22219801.240   116765851.855 5      5414.058    22219809.480    90986402.693 5      4218.746    22219809.960    90986407.700 7      4218.746
G03  19988282.360   105039132.479 8      2067.013    19988282.100   105039132.487 8      2067.013    19988288.180    81848695.653 8      1610.659    19988288.780    81848699.650 8      1610.659
> 2024 06 03 14 38  4.0000000  0 14
G08  23117163.200   121481514.012 7      -391.628    23117161.960   121481514.007 6      -391.628    23117175.620    94660956.280 6      -305.165    23117175.380    94660966.269 7      -305.165
G22  23200300.280   121918407.960 7      3219.503    23200298.520   121918407.970 4      3219.503    23200306.500    95001346.785 4      2508.703
R01  19768833.460   105675740.727 7      1190.699    19768833.880   105675740.750 7      1190.699    19768845.720    82192295.139 7       926.099    19768844.320    82192292.127 7       926.099
R23  22971660.240   122882880.770 6       733.535    22971659.540   122882880.777 6       733.535
R24  20269498.520   108390111.811 8      2986.429    20269498.060   108390111.823 8      2986.429    20269509.220    84303472.540 8      2322.778    20269509.460    84303470.544 8      2322.778
G09  24417436.460   128314493.650 6      6163.607    24417434.080   128314493.663 6      6163.607    24417454.320    99985387.235 5      4802.810    24417454.320    99985390.263 6      4802.810
G21  22688522.560   119228994.999 7      1339.368    22688520.420   119228995.012 5      1339.368    22688527.160    92905714.494 6      1043.664
G02  21893999.620   115053744.562 7      2022.895    21893998.160   115053744.570 6      2022.895    21894002.240    89652276.010 6      1576.282
R17  21732859.520   116296932.560 7      5125.849    21732859.760   116296932.580 7      5125.849    21732874.580    90453224.720 8      3986.772    21732873.880    90453222.720 8      3986.772
G14  22149733.840   116397631.688 6      1802.821    22149733.300   116397631.698 4      1802.821    22149739.200    90699478.437 4      1404.796    22149738.680    90699483.467 6      1404.796
R02  19938534.740   106395839.367 8      5288.313    19938534.480   106395839.368 8      5288.313    19938544.380    82752363.893 8      4113.132    19938544.380    82752362.898 8      4113.132
G17  22402473.600   117725796.011 7      5351.606    22402472.160   117725796.008 6      5351.606    22402478.140    91734392.253 6      4170.083    22402478.940    91734410.256 7      4170.083
G04  22218771.080   116760437.921 7      5413.731    22218771.020   116760437.934 5      5413.731    22218779.160    90982184.059 5      4218.492    22218779.640    90982189.068 7      4218.492
G03  19987889.100   105037065.697 8      2066.414    19987888.700   105037065.705 8      2066.414    19987895.000    81847085.176 8      1610.193    19987895.460    81847089.177 8      1610.193
> 2024 06 03 14 38  5.0000000  0 14
G08  23117238.000   121481905.741 7      -391.209    23117236.600   121481905.733 6      -391.209    23117250.120    94661261.508 6      -304.838    23117250.540    94661271.496 7      -304.838
G22  23199687.880   121915188.825 7      3219.258    23199685.900   121915188.836 4      3219.258    23199693.780    94998838.360 4      2508.513
R01  19768610.720   105674550.559 7      1190.259    19768611.440   105674550.571 7      1190.259    19768622.680    82191369.446 7       925.757    19768621.860    82191366.430 7       925.757
R23  22971523.260   122882147.413 6       733.858    22971522.200   122882147.417 6       733.858
R24  20268940.240   108387125.530 8      2986.661    20268939.620   108387125.545 8      2986.661    20268950.680    84301149.885 8      2322.958    20268950.980    84301147.885 8      2322.958
G09  24416263.600   128308329.962 6      6164.212    24416261.160   128308329.972 6      6164.212    24416281.140    99980584.371 5      4803.282    24416281.580    99980587.401 6      4803.282
G21  22688267.860   119227655.630 7      1339.920    22688265.420   119227655.648 5      1339.920    22688272.260    92904670.832 5      1044.093
G02  21893614.780   115051721.694 7      2023.418    21893613.180   115051721.697 6      2023.418    21893617.180    89650699.743 6      1576.689
R17  21731901.980   116291806.667 7      5126.399    21731902.260   116291806.690 7      5126.399    21731916.540    90449237.917 8      3987.199    21731916.020    90449235.917 8      3987.199
G14  22149390.940   116395829.209 6      1802.569    22149390.180   116395829.221 4      1802.569    22149396.220    90698073.909 4      1404.599    22149396.000    90698078.929 6      1404.599
R02  19937543.680   106390551.343 8      5288.173    19937543.540   106390551.341 8      5288.173    19937553.360    82748250.989 8      4113.024    19937553.540    82748249.992 8      4113.024
G17  22401455.080   117720444.485 7      5351.881    22401454.080   117720444.482 6      5351.881    22401459.680    91730222.233 6      4170.297    22401460.620    91730240.234 7      4170.297
G04  22217740.980   116755024.375 7      5413.918    22217740.640   116755024.390 5      5413.918    22217748.960    90977965.722 5      4218.637    22217749.280    90977970.735 7      4218.637
G03  19987495.960   105034999.515 8      2066.432    19987495.500   105034999.522 8      2066.432    19987501.840    81845475.161 8      1610.207    19987502.420    81845479.166 8      1610.207
> 2024 06 03 14 38  6.0000000  0 14
G08  23117312.660   121482297.488 7      -392.078    23117311.220   121482297.485 6      -392.078    23117324.860    94661566.760 6      -305.516    23117325.160    94661576.749 7      -305.516
G22  23199075.380   121911969.982 7      3218.639    23199073.400   121911969.990 4      3218.639    23199081.040    94996330.168 4      2508.030
R01  19768388.320   105673360.913 7      1189.176    19768388.820   105673360.925 7      1189.176    19768400.320    82190444.163 7       924.914    19768399.320    82190441.152 7       924.914
R23  22971385.860   122881414.031 6       733.043    22971385.780   122881414.037 6       733.043
R24  20268381.840   108384139.290 8      2985.918    20268381.540   108384139.307 7      2985.918    20268392.040    84298827.248 8      2322.380    20268392.660    84298825.252 8      2322.380
G09  24415090.000   128302165.968 6      6163.986    24415088.340   128302165.975 5      6163.986    24415107.800    99975781.265 5      4803.106    24415108.140    99975784.293 6      4803.106
G21  22688012.720   119226316.059 7      1339.290    22688010.400   119226316.071 5      1339.290    22688017.420    92903627.006 6      1043.602
G02  21893230.040   115049698.653 7      2022.855    21893228.400   115049698.660 6      2022.855    21893232.000    89649123.352 6      1576.251
R17  21730943.660   116286680.513 7      5126.082    21730943.760   116286680.530 7      5126.082    21730958.260    90445250.910 8      3986.953    21730958.020    90445248.910 8      3986.953
G14  22149047.420   116394027.020 6      1801.846    22149047.140   116394027.038 4      1801.846    22149053.340    90696669.613 4      1404.036    22149052.760    90696674.621 6      1404.036
R02  19936552.960   106385263.838 8      5287.091    19936552.440   106385263.829 8      5287.091    19936562.500    82744138.480 8      4112.182    19936562.820    82744137.485 8      4112.182
G17  22400436.880   117715092.912 7      5351.528    22400435.740   117715092.909 6      5351.528    22400441.380    91726052.174 6      4170.022    22400442.060    91726070.183 7      4170.022
G04  22216710.820   116749610.856 7      5413.250    22216710.380   116749610.866 5      5413.250    22216718.840    90973747.396 5      4218.117    22216719.160    90973752.406 7      4218.117
G03  19987102.860   105032933.610 8      2065.592    19987102.340   105032933.610 8      2065.592    19987108.780    81843865.362 8      1609.553    19987109.440    81843869.365 8      1609.553
> 2024 06 03 14 38  7.0000000  0 14
G08  23117387.300   121482689.498 7      -392.230    23117385.760   121482689.498 6      -392.230    23117399.580    94661872.216 6      -305.634    23117399.800    94661882.201 7      -305.634
G22  23198462.980   121908751.596 7      3217.954    23198460.860   121908751.601 4      3217.954    23198468.340    94993822.333 4      2507.496
R01  19768166.080   105672172.105 7      1188.360    19768166.560   105672172.120 7      1188.360    19768177.940    82189519.538 7       924.280    19768177.040    82189516.522 7       924.280
R23  22971248.660   122880680.967 6       732.879    22971248.800   122880680.958 6       732.879
R24  20267823.680   108381153.317 8      2985.789    20267823.380   108381153.332 7      2985.789    20267833.580    84296504.828 8      2322.280    20267834.180    84296502.828 8      2322.280
G09  24413917.260   128296001.880 6      6164.140    24413915.380   128296001.884 5      6164.140    24413934.820    99970978.085 5      4803.226    24413935.060    99970981.110 6      4803.226
G21  22687757.860   119224976.487 7      1339.559    22687755.580   119224976.492 5      1339.559    22687762.560    92902583.180 5      1043.813
G02  21892844.980   115047675.680 7      2022.877    21892843.300   115047675.687 6      2022.877    21892847.120    89647547.009 6      1576.268
R17  21729986.040   116281554.257 7      5126.258    21729985.820   116281554.255 7      5126.258    21730000.200    90441263.813 8      3987.090    21729999.820    90441261.812 8      3987.090
G14  22148704.780   116392225.279 6      1801.423    22148704.120   116392225.292 4      1801.423    22148710.420    90695265.654 4      1403.706    22148710.180    90695270.652 6      1403.706
R02  19935561.940   106379977.015 8      5286.452    19935561.820   106379977.010 8      5286.452    19935571.780    82740026.514 8      4111.685    19935572.100    82740025.517 8      4111.685
G17  22399418.580   117709741.449 7      5351.230    22399417.480   117709741.446 6      5351.230    22399422.860    91721882.209 6      4169.789    22399423.480    91721900.218 7      4169.789
G04  22215680.700   116744197.573 7      5413.170    22215680.280   116744197.585 5      5413.170    22215688.680    90969529.261 5      4218.055    22215689.280    90969534.282 7      4218.055
G03  19986709.980   105030868.155 8      2065.066    19986709.300   105030868.158 8      2065.066    19986715.720    81842255.921 8      1609.142    19986716.520    81842259.925 8      1609.142
> 2024 06 03 14 38  8.0000000  0 14
G08  23117461.840   121483081.692 7      -392.390    23117460.120   121483081.699 6      -392.390    23117474.040    94662177.817 6      -305.758    23117474.520    94662187.803 7      -305.758
G22  23197850.460   121905533.586 7      3217.705    23197848.580   121905533.596 4      3217.705    23197856.060    94991314.795 4      2507.303
R01  19767943.620   105670984.028 7      1187.759    19767944.100   105670984.042 7      1187.759    19767955.720    82188595.475 7       923.812    19767954.700    82188592.461 7       923.812
R23  22971111.760   122879948.053 6       732.877    22971111.500   122879948.047 6       732.877
R24  20267265.200   108378167.539 8      2985.713    20267264.720   108378167.557 7      2985.713    20267275.340    84294182.561 8      2322.221    20267275.680    84294180.563 8      2322.221
G09  24412744.000   128289837.644 6      6164.252    24412742.380   128289837.652 6      6164.252    24412761.960    99966174.787 6      4803.313    24412762.140    99966177.813 6      4803.313
G21  22687502.920   119223636.915 7      1339.612    22687500.640   119223636.923 6      1339.612    22687507.660    92901539.360 5      1043.854
G02  21892460.000   115045652.699 7      2023.041    21892458.520   115045652.706 6      2023.041    21892462.240    89645970.662 6      1576.395
R17  21729027.980   116276427.869 7      5126.541    21729028.060   116276427.874 7      5126.541    21729042.380    90437276.634 7      3987.310    21729041.900    90437274.636 8      3987.310
G14  22148361.880   116390423.976 6      1801.062    22148361.180   116390423.989 4      1801.062    22148367.840    90693862.038 4      1403.425    22148367.680    90693867.038 6      1403.425
R02  19934571.680   106374690.796 8      5285.918    19934571.300   106374690.792 8      5285.918    19934581.100    82735915.013 8      4111.270    19934581.340    82735914.020 8      4111.270
G17  22398400.260   117704390.028 7      5351.429    22398399.100   117704390.025 6      5351.429    22398404.580    91717712.279 6      4169.944    22398405.360    91717730.282 7      4169.944
G04  22214650.460   116738784.521 7      5412.886    22214650.100   116738784.536 5      5412.886    22214658.620    90965311.309 5      4217.833    22214659.120    90965316.327 7      4217.833
G03  19986316.940   105028803.097 8      2064.832    19986316.320   105028803.105 8      2064.832    19986322.840    81840646.790 8      1608.960    19986323.660    81840650.795 8      1608.960
> 2024 06 03 14 38  9.0000000  0 14
G08  23117536.180   121483474.290 7      -392.849    23117534.920   121483474.290 6      -392.849    23117548.780    94662483.722 6      -306.116    23117548.900    94662493.697 7      -306.116
G22  23197238.520   121902316.351 7      3216.904    23197236.240   121902316.358 4      3216.904    23197243.920    94988807.856 4      2506.679
R01  19767721.440   105669796.952 7      1186.481    19767722.260   105669796.964 7      1186.481    19767733.500    82187672.198 7       922.819    19767732.540    82187669.185 7       922.819
R23  22970975.280   122879215.576 6       732.093    22970974.840   122879215.564 6       732.093
R24  20266706.980   108375182.219 8      2985.030    20266706.620   108375182.233 8      2985.030    20266716.840    84291860.645 8      2321.690    20266717.320    84291858.647 8      2321.690
G09  24411570.760   128283673.464 6      6164.280    24411569.280   128283673.471 6      6164.280    24411589.100    99961371.532 6      4803.335    24411589.340    99961374.552 7      4803.335
G21  22687248.140   119222297.517 7      1339.196    22687245.760   119222297.525 5      1339.196    22687252.940    92900495.669 5      1043.530
G02  21892075.240   115043629.983 7      2022.484    21892073.600   115043629.990 6      2022.484    21892077.440    89644394.518 6      1575.961
R17  21728069.720   116271301.661 7      5126.035    21728070.420   116271301.676 7      5126.035    21728084.260    90433289.593 7      3986.916    21728083.880    90433287.596 7      3986.916
G14  22148019.380   116388623.436 6      1800.185    22148018.540   116388623.448 4      1800.185    22148025.120    90692459.015 4      1402.742    22148024.980    90692464.021 6      1402.742
R02  19933581.260   106369405.400 8      5284.996    19933580.820   106369405.398 8      5284.996    19933590.620    82731804.155 8      4110.553    19933590.840    82731803.158 8      4110.553
G17  22397381.800   117699039.015 7      5350.749    22397380.920   117699039.012 6      5350.749    22397386.340    91713542.664 6      4169.415    22397386.920    91713560.666 7      4169.415
G04  22213620.340   116733371.853 7      5412.574    22213620.000   116733371.866 5      5412.574    22213628.720    90961093.652 5      4217.590    22213628.980    90961098.664 7      4217.590
G03  19985924.260   105026738.751 8      2063.971    19985923.540   105026738.756 8      2063.971    19985929.860    81839038.209 8      1608.289    19985930.700    81839042.214 8      1608.289
> 2024 06 03 14 38 10.0000000  0 14
G08  23117611.080   121483867.272 7      -393.128    23117609.680   121483867.272 6      -393.128    23117623.500    94662789.919 6      -306.334    23117623.940    94662799.896 7      -306.334
G22  23196626.260   121899099.799 7      3216.330    23196624.160   121899099.809 4      3216.330    23196631.680    94986301.454 4      2506.231
R01  19767500.060   105668610.879 7      1186.020    19767500.100   105668610.891 7      1186.020    19767511.240    82186749.693 7       922.460    19767510.680    82186746.679 7       922.460
R23  22970838.600   122878483.491 6       731.900    22970837.720   122878483.511 6       731.900
R24  20266148.820   108372197.331 8      2985.090    20266148.700   108372197.346 7      2985.090    20266158.900    84289539.078 8      2321.737    20266159.180    84289537.078 8      2321.737
G09  24410398.400   128277509.376 6      6163.765    24410396.320   128277509.373 6      6163.765    24410416.160    99956568.344 5      4802.934    24410417.220    99956571.362 7      4802.934
G21  22686993.100   119220958.350 7      1339.560    22686991.200   119220958.358 5      1339.560    22686997.940    92899452.160 5      1043.813
G02  21891690.280   115041607.506 8      2022.781    21891688.680   115041607.516 6      2022.781    21891692.740    89642818.564 6      1576.193
R17  21727111.580   116266175.619 7      5126.333    21727111.360   116266175.631 7      5126.333    21727126.340    90429302.668 7      3987.148    21727126.020    90429300.668 8      3987.148
G14  22147677.000   116386823.544 6      1799.607    22147675.700   116386823.554 4      1799.607    22147682.620    90691056.500 4      1402.291    22147683.260    90691061.481 6      1402.291
R02  19932591.000   106364120.823 8      5284.121    19932590.840   106364120.821 8      5284.121    19932600.400    82727693.926 8      4109.872    19932600.440    82727692.929 8      4109.872
G17  22396363.480   117693688.351 7      5350.769    22396362.720   117693688.345 6      5350.769    22396368.220    91709373.316 6      4169.431    22396368.980    91709391.323 7      4169.431
G04  22212590.360   116727959.610 7      5411.958    22212589.940   116727959.620 5      5411.958    22212598.640    90956876.326 5      4217.110    22212599.040    90956881.342 7      4217.110
G03  19985531.500   105024675.065 8      2063.576    19985530.740   105024675.069 8      2063.576    19985537.160    81837430.142 8      1607.981    19985538.060    81837434.145 8      1607.981
> 2024 06 03 14 38 11.0000000  0 14
G08  23117685.880   121484260.338 7      -393.041    23117684.580   121484260.338 6      -393.041    23117698.320    94663096.200 6      -306.266    23117698.740    94663106.176 7      -306.266
G22  23196014.100   121895883.483 7      3216.069    23196012.260   121895883.491 4      3216.069    23196019.700    94983795.230 4      2506.028
R01  19767278.120   105667425.384 7      1185.033    19767278.140   105667425.387 7      1185.033    19767289.720    82185827.634 7       921.692    19767288.600    82185824.617 7       921.692
R23  22970701.680   122877751.473 6       731.792    22970700.700   122877751.485 6       731.792
R24  20265590.540   108369212.406 8      2984.659    20265590.340   108369212.421 7      2984.659    20265600.540    84287217.458 8      2321.402    20265600.860    84287215.464 8      2321.402
G09  24409225.620   128271345.003 6      6164.569    24409223.320   128271345.006 5      6164.569    24409243.220    99951764.941 5      4803.560    24409244.680    99951767.949 7      4803.560
G21  22686738.300   119219618.957 7      1339.312    22686736.260   119219618.962 5      1339.312    22686743.040    92898408.473 5      1043.620
G02  21891305.140   115039584.859 7      2022.519    21891303.760   115039584.869 6      2022.519    21891307.620    89641242.471 6      1575.989
R17  21726153.440   116261049.232 7      5126.367    21726154.380   116261049.236 7      5126.367    21726168.320    90425315.482 7      3987.174    21726167.680    90425313.486 8      3987.174
G14  22147334.740   116385023.975 6      1799.378    22147333.320   116385023.986 4      1799.378    22147340.120    90689654.237 4      1402.112    22147340.440    90689659.222 7      1402.112
R02  19931600.960   106358836.731 8      5283.825    19931600.420   106358836.724 8      5283.825    19931610.120    82723584.077 8      4109.642    19931610.240    82723583.076 8      4109.642
G17  22395345.100   117688337.537 7      5350.556    22395344.620   117688337.534 6      5350.556    22395349.880    91705203.855 6      4169.264    22395350.620    91705221.856 7      4169.264
G04  22211560.160   116722547.447 7      5412.046    22211559.940   116722547.457 5      5412.046    22211568.600    90952659.064 5      4217.179    22211569.160    90952664.076 7      4217.179
G03  19985139.000   105022611.609 8      2063.209    19985138.000   105022611.611 8      2063.209    19985144.480    81835822.250 8      1607.695    19985145.300    81835826.253 8      1607.695
> 2024 06 03 14 38 12.0000000  0 14
G08  23117760.740   121484653.730 6      -393.572    23117759.240   121484653.730 6      -393.572    23117772.960    94663402.729 6      -306.679    23117773.360    94663412.707 7      -306.679
G22  23195402.260   121892667.882 7      3215.240    23195400.520   121892667.890 4      3215.240    23195407.900    94981289.569 4      2505.382
R01  19767056.700   105666240.839 7      1184.052    19767056.720   105666240.840 7      1184.052    19767067.920    82184906.318 7       920.930    19767066.980    82184903.298 7       920.930
R23  22970564.460   122877019.790 6       731.516    22970564.200   122877019.812 6       731.516
R24  20265032.380   108366227.893 8      2984.309    20265032.240   108366227.911 8      2984.309    20265042.520    84284896.174 8      2321.129    20265043.000    84284894.180 8      2321.129
G09  24408052.360   128265180.668 6      6164.286    24408050.300   128265180.668 6      6164.286    24408070.320    99946961.561 6      4803.340    24408070.940    99946964.569 7      4803.340
G21  22686483.340   119218279.714 7      1339.166    22686481.460   119218279.722 5      1339.166    22686488.140    92897364.909 5      1043.506
G02  21890920.500   115037562.414 8      2022.346    21890918.960   115037562.421 6      2022.346    21890922.780    89639666.538 6      1575.854
R17  21725195.880   116255923.000 7      5126.155    21725196.340   116255923.017 7      5126.155    21725210.240    90421328.429 7      3987.009    21725209.740    90421326.429 8      3987.009
G14  22146992.400   116383225.085 6      1798.578    22146991.020   116383225.090 4      1798.578    22146997.720    90688252.502 4      1401.489    22146998.800    90688257.479 7      1401.489
R02  19930610.900   106353553.506 8      5282.758    19930610.300   106353553.502 8      5282.758    19930620.120    82719474.903 8      4108.812    19930620.040    82719473.903 8      4108.812
G17  22394327.480   117682987.081 7      5350.236    22394326.560   117682987.075 6      5350.236    22394331.680    91701034.672 6      4169.015    22394332.500    91701052.671 7      4169.015
G04  22210530.460   116717135.598 7      5411.683    22210529.900   116717135.608 5      5411.683    22210538.680    90948442.045 5      4216.896    22210539.480    90948447.064 7      4216.896
G03  19984746.300   105020548.816 8      2062.451    19984745.580   105020548.813 8      2062.451    19984751.960    81834214.877 8      1607.105    19984752.780    81834218.880 8      1607.105
> 2024 06 03 14 38 13.0000000  0 14
G08  23117835.760   121485047.404 7      -393.926    23117834.220   121485047.406 6      -393.926    23117847.900    94663709.483 6      -306.956    23117848.660    94663719.461 7      -306.956
G22  23194790.660   121889452.844 7      3214.783    23194788.740   121889452.854 4      3214.783    23194795.800    94978784.344 4      2505.026
R01  19766834.980   105665057.137 7      1183.076    19766835.180   105665057.144 7      1183.076    19766846.680    82183985.669 7       920.170    19766845.800    82183982.649 7       920.170
R23  22970428.020   122876288.422 7       731.109    22970427.360   122876288.442 6       731.109
R24  20264474.300   108363243.698 8      2983.898    20264474.180   108363243.713 8      2983.898    20264484.060    84282575.129 7      2320.810    20264484.820    84282573.133 8      2320.810
G09  24406878.980   128259016.286 6      6164.350    24406877.180   128259016.288 6      6164.350    24406897.020    99942158.154 6      4803.390    24406897.440    99942161.164 7      4803.390
G21  22686228.520   119216940.505 7      1338.974    22686226.660   119216940.510 5      1338.974    22686233.320    92896321.369 5      1043.356
G02  21890535.600   115035540.034 8      2022.246    21890534.180   115035540.042 6      2022.246    21890537.960    89638090.654 6      1575.776
R17  21724238.160   116250796.738 7      5126.205    21724238.640   116250796.745 7      5126.205    21724252.360    90417341.330 8      3987.049    21724251.880    90417339.333 7      3987.049
G14  22146650.120   116381426.798 6      1797.852    22146648.700   116381426.811 4      1797.852    22146655.640    90686851.237 4      1400.924    22146656.460    90686856.221 7      1400.924
R02  19929620.880   106348271.064 8      5281.978    19929620.480   106348271.062 8      5281.978    19929630.060    82715366.344 7      4108.205    19929630.260    82715365.341 8      4108.205
G17  22393309.240   117677636.803 7      5350.149    22393308.460   117677636.800 6      5350.149    22393313.680    91696865.629 6      4168.947    22393314.220    91696883.626 7      4168.947
G04  22209500.780   116711724.078 7      5411.232    22209500.040   116711724.088 5      5411.232    22209508.820    90944225.285 5      4216.544    22209509.620    90944230.301 7      4216.544
G03  19984353.900   105018486.519 8      2062.001    19984353.160   105018486.522 8      2062.001    19984359.520    81832607.897 8      1606.754    19984360.520    81832611.901 8      1606.754
> 2024 06 03 14 38 14.0000000  0 14
G08  23117910.660   121485441.429 7      -394.222    23117909.320   121485441.436 6      -394.222    23117923.000    94664016.506 6      -307.186    23117923.420    94664026.481 7      -307.186
G22  23194179.060   121886238.444 7      3213.993    23194177.040   121886238.451 4      3213.993    23194184.220    94976279.617 4      2504.410
R01  19766613.620   105663874.383 7      1182.186    19766613.780   105663874.395 7      1182.186    19766625.020    82183065.754 7       919.478    19766624.660    82183062.734 7       919.478
R23  22970291.380   122875557.469 7       730.700    22970290.840   122875557.483 6       730.700
R24  20263916.340   108360259.902 8      2983.588    20263916.040   108360259.914 8      2983.588    20263926.220    84280254.396 8      2320.569    20263926.880    84280252.405 8      2320.569
G09  24405705.940   128252851.916 6      6164.312    24405704.280   128252851.918 6      6164.312    24405723.960    99937354.754 6      4803.360    24405723.920    99937357.774 7      4803.360
G21  22685973.480   119215601.462 7      1338.925    22685971.880   119215601.469 5      1338.925    22685978.620    92895277.959 5      1043.318
G02  21890150.980   115033517.897 8      2021.960    21890149.320   115033517.902 6      2021.960    21890153.100    89636514.964 6      1575.553
R17  21723280.040   116245670.554 7      5126.047    21723280.740   116245670.558 7      5126.047    21723294.240    90413354.296 8      3986.925    21723293.640    90413352.299 8      3986.925
G14  22146307.500   116379629.145 6      1797.040    22146306.440   116379629.156 4      1797.040    22146313.640    90685450.469 4      1400.291    22146314.180    90685455.442 7      1400.291
R02  19928630.900   106342989.464 8      5281.070    19928631.000   106342989.459 8      5281.070    19928640.420    82711258.438 8      4107.499    19928640.320    82711257.432 8      4107.499
G17  22392291.160   117672286.828 7      5349.784    22392290.300   117672286.822 6      5349.784    22392295.640    91692696.818 6      4168.663    22392296.080    91692714.822 7      4168.663
G04  22208470.980   116706312.908 7      5410.857    22208470.280   116706312.921 5      5410.857    22208479.160    90940008.800 5      4216.252    22208480.120    90940013.815 7      4216.252
G03  19983961.640   105016424.861 8      2061.275    19983960.820   105016424.863 8      2061.275    19983967.220    81831001.410 8      1606.189    19983968.300    81831005.415 8      1606.189
> 2024 06 03 14 38 15.0000000  0 14
G08  23117985.760   121485835.901 7      -394.611    23117984.500   121485835.900 6      -394.611    23117998.160    94664323.872 6      -307.489    23117998.820    94664333.839 7      -307.489
G22  23193567.540   121883024.790 7      3213.432    23193565.640   121883024.800 4      3213.432    23193572.620    94973775.471 4      2503.973
R01  19766392.500   105662692.651 7      1181.166    19766392.800   105662692.663 7      1181.166    19766404.260    82182146.633 7       918.685    19766403.280    82182143.611 7       918.685
R23  22970155.040   122874826.949 7       730.266    22970154.580   122874826.958 7       730.266
R24  20263358.300   108357276.522 8      2983.141    20263357.580   108357276.540 7      2983.141    20263368.080    84277933.998 8      2320.221    20263368.900    84277932.007 8      2320.221
G09  24404533.000   128246687.683 6      6164.200    24404531.340   128246687.683 6      6164.200    24404550.800    99932551.464 6      4803.272    24404551.160    99932554.486 7      4803.272
G21  22685718.880   119214262.623 7      1338.758    22685716.960   119214262.631 5      1338.758    22685723.840    92894234.708 5      1043.188
G02  21889766.020   115031496.001 8      2021.754    21889764.740   115031496.003 6      2021.754    21889768.200    89634939.457 6      1575.393
R17  21722322.000   116240544.525 7      5126.040    21722322.580   116240544.538 7      5126.040    21722336.020    90409367.391 8      3986.920    21722335.700    90409365.394 8      3986.920
G14  22145965.580   116377832.202 6      1796.666    22145964.480   116377832.212 4      1796.666    22145971.840    90684050.247 4      1399.999    22145972.620    90684055.220 7      1399.999
R02  19927641.280   106337708.726 8      5280.336    19927641.360   106337708.727 8      5280.336    19927650.640    82707151.201 8      4106.928    19927650.780    82707150.200 8      4106.928
G17  22391273.220   117666937.222 7      5349.560    22391272.280   117666937.217 6      5349.560    22391277.620    91688528.295 6      4168.489    22391277.940    91688546.294 7      4168.489
G04  22207441.580   116700902.192 6      5410.546    22207440.520   116700902.202 5      5410.546    22207449.440    90935792.662 5      4216.010    22207450.340    90935797.677 7      4216.010
G03  19983569.460   105014363.892 8      2060.679    19983568.540   105014363.894 8      2060.679    19983575.000    81829395.461 8      1605.724    19983576.120    81829399.466 8      1605.724
> 2024 06 03 14 38 16.0000000  0 14
G08  23118060.820   121486230.496 7      -394.772    23118059.740   121486230.498 6      -394.772    23118073.440    94664631.337 6      -307.615    23118074.120    94664641.312 7      -307.615
G22  23192955.900   121879811.491 7      3213.005    23192954.000   121879811.498 4      3213.005    23192961.020    94971271.599 4      2503.640
R01  19766171.240   105661511.605 7      1180.601    19766172.160   105661511.612 7      1180.601    19766182.960    82181228.036 7       918.245    19766182.320    82181225.013 7       918.245
R23  22970018.780   122874096.546 6       730.325    22970017.840   122874096.566 7       730.325
R24  20262800.380   108354293.274 7      2983.169    20262799.740   108354293.288 7      2983.169    20262810.160    84275613.694 8      2320.242    20262811.020    84275611.702 8      2320.242
G09  24403360.460   128240523.193 6      6164.599    24403358.420   128240523.193 6      6164.599    24403377.680    99927747.971 6      4803.584    24403377.920    99927750.993 7      4803.584
G21  22685464.160   119212923.711 7      1338.952    22685462.200   119212923.711 5      1338.952    22685469.060    92893191.394 5      1043.339
G02  21889381.160   115029474.045 7      2021.923    21889379.940   115029474.049 6      2021.923    21889383.400    89633363.906 6      1575.524
R17  21721364.240   116235418.374 7      5126.159    21721364.700   116235418.378 7      5126.159    21721378.360    90405380.376 8      3987.013    21721377.820    90405378.374 8      3987.013
G14  22145623.860   116376035.652 6      1796.287    22145622.380   116376035.660 4      1796.287    22145630.180    90682650.336 4      1399.704    22145630.800    90682655.308 7      1399.704
R02  19926651.600   106332428.503 8      5279.951    19926651.860   106332428.498 8      5279.951    19926661.200    82703044.363 8      4106.629    19926661.340    82703043.362 8      4106.629
G17  22390255.160   117661587.641 7      5349.485    22390254.400   117661587.638 6      5349.485    22390259.740    91684359.794 6      4168.430    22390260.180    91684377.793 7      4168.430
G04  22206412.040   116695491.568 7      5410.596    22206410.840   116695491.578 5      5410.596    22206419.820    90931576.600 5      4216.049    22206420.820    90931581.624 7      4216.049
G03  19983177.360   105012303.274 8      2060.383    19983176.340   105012303.273 8      2060.383    19983182.800    81827789.783 8      1605.493    19983183.800    81827793.788 8      1605.493
> 2024 06 03 14 38 17.0000000  0 14
G08  23118136.000   121486625.286 7      -394.916    23118134.900   121486625.283 6      -394.916    23118148.580    94664938.953 6      -307.727    23118149.420    94664948.932 7      -307.727
G22  23192344.440   121876598.638 7      3212.643    23192342.580   121876598.651 4      3212.643    23192349.680    94968768.076 4      2503.358
R01  19765950.460   105660331.338 7      1179.869    19765951.120   105660331.336 7      1179.869    19765962.180    82180310.045 7       917.676    19765961.520    82180307.025 7       917.676
R23  22969882.320   122873366.425 6       730.092    22969882.080   122873366.434 7       730.092
R24  20262242.520   108351310.295 7      2982.848    20262241.760   108351310.307 7      2982.848    20262252.460    84273293.604 8      2319.993    20262253.360    84273291.610 8      2319.993
G09  24402187.100   128234358.627 6      6164.502    24402185.340   128234358.621 5      6164.502    24402204.420    99922944.411 6      4803.508    24402204.720    99922947.429 6      4803.508
G21  22685209.360   119211584.809 7      1338.877    22685207.300   119211584.814 5      1338.877    22685214.300    92892148.092 5      1043.281
G02  21888996.400   115027452.149 8      2021.866    21888995.160   115027452.156 6      2021.866    21888998.640    89631788.405 6      1575.480
R17  21720405.880   116230292.115 7      5126.301    21720406.240   116230292.122 7      5126.301    21720420.400    90401393.294 7      3987.123    21720419.720    90401391.290 8      3987.123
G14  22145282.060   116374239.568 6      1795.897    22145280.440   116374239.578 4      1795.897    22145288.260    90681250.786 4      1399.400    22145289.460    90681255.747 7      1399.400
R02  19925662.380   106327148.915 8      5279.240    19925662.640   106327148.911 8      5279.240    19925671.920    82698938.019 8      4106.076    19925671.980    82698937.022 8      4106.076
G17  22389237.180   117656238.165 7      5349.393    22389236.520   117656238.159 6      5349.393    22389241.760    91680191.377 6      4168.359    22389242.140    91680209.374 7      4168.359
G04  22205382.380   116690081.212 7      5410.210    22205381.140   116690081.228 5      5410.210    22205390.380    90927360.752 5      4215.748    22205391.100    90927365.769 7      4215.748
G03  19982785.340   105010243.108 8      2059.902    19982784.320   105010243.110 8      2059.902    19982790.780    81826184.463 8      1605.119    19982791.780    81826188.464 8      1605.119
> 2024 06 03 14 38 18.0000000  0 14
G08  23118211.160   121487020.512 7      -395.072    23118210.040   121487020.511 6      -395.072    23118223.760    94665246.911 6      -307.849    23118224.620    94665256.886 7      -307.849
G22  23191733.460   121873386.484 7      3212.132    23191731.420   121873386.500 4      3212.132    23191738.700    94966265.101 4      2502.960
R01  19765730.400   105659152.045 7      1179.126    19765730.420   105659152.039 7      1179.126    19765741.640    82179392.812 7       917.098    19765740.900    82179389.792 7       917.098
R23  22969745.780   122872636.726 6       729.853    22969745.560   122872636.741 6       729.853
R24  20261684.820   108348327.726 7      2982.637    20261684.100   108348327.743 7      2982.637    20261694.720    84270973.828 8      2319.828    20261695.420    84270971.832 8      2319.828
G09  24401014.140   128228194.110 6      6164.765    24401012.400   128228194.112 5      6164.765    24401031.360    99918140.901 6      4803.713    24401032.000    99918143.930 6      4803.713
G21  22684954.660   119210246.079 7      1338.913    22684952.600   119210246.081 5      1338.913    22684959.440    92891104.927 5      1043.309
G02  21888611.780   115025430.468 8      2021.844    21888610.420   115025430.478 6      2021.844    21888613.880    89630213.067 6      1575.463
R17  21719448.280   116225165.944 7      5126.404    21719448.620   116225165.962 7      5126.404    21719462.280    90397406.272 7      3987.203    21719461.880    90397404.269 8      3987.203
G14  22144940.520   116372444.224 5      1795.414    22144938.740   116372444.237 4      1795.414    22144946.740    90679851.809 4      1399.024    22144948.200    90679856.749 7      1399.024
R02  19924673.140   106321870.178 8      5278.585    19924673.360   106321870.184 8      5278.585    19924682.520    82694832.343 8      4105.566    19924682.720    82694831.344 8      4105.566
G17  22388219.180   117650889.004 7      5349.266    22388218.700   117650889.001 6      5349.266    22388223.800    91676023.204 6      4168.259    22388224.500    91676041.207 7      4168.259
G04  22204353.300   116684671.282 6      5409.970    22204351.540   116684671.300 5      5409.970    22204360.800    90923145.231 5      4215.561    22204361.760    90923150.249 7      4215.561
G03  19982393.440   105008183.610 8      2059.373    19982392.400   105008183.609 8      2059.373    19982398.840    81824579.657 8      1604.706    19982399.980    81824583.658 8      1604.706
> 2024 06 03 14 38 19.0000000  0 14
G08  23118286.400   121487416.092 7      -395.992    23118285.360   121487416.100 6      -395.992    23118298.880    94665555.151 6      -308.565    23118300.000    94665565.131 7      -308.565
G22  23191122.480   121870174.927 7      3211.128    23191120.340   121870174.943 4      3211.128    23191127.460    94963762.593 4      2502.178
R01  19765509.360   105657973.659 7      1177.843    19765509.860   105657973.660 7      1177.843    19765521.360    82178476.293 7       916.100    19765520.580    82178473.273 7       916.100
R23  22969609.480   122871907.394 6       729.200    22969608.980   122871907.403 6       729.200
R24  20261127.480   108345345.512 7      2981.901    20261126.300   108345345.516 7      2981.901    20261137.140    84268654.322 8      2319.257    20261137.960    84268652.324 8      2319.257
G09  24399841.660   128222029.649 6      6164.228    24399839.180   128222029.648 5      6164.228    24399858.300    99913337.425 5      4803.295    24399858.640    99913340.447 6      4803.295
G21  22684699.800   119208907.484 7      1338.408    22684697.760   119208907.481 5      1338.408    22684704.720    92890061.859 5      1042.915
G02  21888227.280   115023408.964 8      2021.346    21888225.840   115023408.971 6      2021.346    21888229.300    89628637.865 6      1575.075
R17  21718490.560   116220039.808 7      5126.031    21718490.760   116220039.807 7      5126.031    21718504.580    90393419.270 7      3986.913    21718504.260    90393417.264 8      3986.913
G14  22144599.020   116370649.459 6      1794.303    22144597.120   116370649.469 3      1794.303    22144605.440    90678453.286 4      1398.159    22144607.120    90678458.237 7      1398.159
R02  19923684.040   106316592.258 8      5277.353    19923684.440   106316592.264 8      5277.353    19923693.440    82690727.296 8      4104.608    19923693.720    82690726.297 8      4104.608
G17  22387201.420   117645540.084 7      5348.668    22387200.860   117645540.081 6      5348.668    22387205.880    91671855.217 6      4167.793    22387206.640    91671873.224 7      4167.793
G04  22203323.820   116679261.722 6      5409.137    22203321.900   116679261.737 5      5409.137    22203331.320    90918929.997 5      4214.912    22203332.440    90918935.006 7      4214.912
G03  19982001.420   105006124.671 8      2058.507    19982000.640   105006124.671 8      2058.507    19982007.160    81822975.288 8      1604.032    19982008.180    81822979.290 8      1604.032
> 2024 06 03 14 38 20.0000000  0 14
G08  23118361.700   121487811.899 7      -396.009    23118360.660   121487811.901 6      -396.009    23118374.280    94665863.556 6      -308.578    23118375.140    94665873.531 7      -308.578
G22  23190511.280   121866963.919 7      3210.554    23190509.400   121866963.935 4      3210.554    23190516.460    94961260.509 4      2501.730
R01  19765289.740   105656796.115 7      1177.073    19765289.440   105656796.111 7      1177.073    19765301.000    82177560.421 7       915.501    19765300.380    82177557.404 7       915.501
R23  22969473.220   122871178.353 7       728.778    22969472.940   122871178.368 6       728.778
R24  20260569.840   108342363.529 7      2981.668    20260568.740   108342363.541 7      2981.668    20260579.440    84266335.008 8      2319.075    20260580.260    84266333.012 8      2319.075
G09  24398668.360   128215865.064 6      6164.511    24398666.040   128215865.058 5      6164.511    24398685.300    99908533.856 5      4803.515    24398685.900    99908536.866 6      4803.515
G21  22684445.360   119207568.917 7      1338.500    22684443.000   119207568.914 5      1338.500    22684449.940    92889018.819 5      1042.987
G02  21887842.480   115021387.551 8      2021.238    21887841.100   115021387.561 6      2021.238    21887844.620    89627062.743 6      1574.991
R17  21717532.640   116214913.662 7      5125.977    21717532.840   116214913.674 7      5125.977    21717546.540    90389432.283 8      3986.871    21717546.200    90389430.278 7      3986.871
G14  22144257.220   116368855.248 6      1793.635    22144255.620   116368855.258 3      1793.635    22144264.080    90677055.191 3      1397.637    22144265.560    90677060.155 7      1397.637
R02  19922695.260   106311315.074 8      5276.678    19922695.540   106311315.080 8      5276.678    19922704.500    82686622.824 8      4104.083    19922704.720    82686621.826 8      4104.083
G17  22386183.440   117640191.373 7      5348.420    22386183.040   117640191.370 6      5348.420    22386188.080    91667687.396 6      4167.600    22386189.040    91667705.399 7      4167.600
G04  22202294.360   116673852.380 6      5409.111    22202292.700   116673852.388 5      5409.111    22202301.960    90914714.928 5      4214.892    22202302.820    90914719.940 7      4214.892
G03  19981609.740   105004066.242 8      2058.035    19981608.900   105004066.242 8      2058.035    19981615.460    81821371.319 8      1603.664    19981616.600    81821375.322 8      1603.664
> 2024 06 03 14 38 21.0000000  0 14
G08  23118437.200   121488207.934 7      -396.231    23118435.940   121488207.942 6      -396.231    23118449.760    94666172.151 6      -308.752    23118450.340    94666182.124 7      -308.752
G22  23189900.400   121863753.418 7      3210.260    23189898.580   121863753.431 4      3210.260    23189905.480    94958758.818 4      2501.501
R01  19765069.200   105655619.351 7      1176.290    19765069.300   105655619.347 7      1176.290    19765080.440    82176645.159 7       914.892    19765080.120    82176642.143 7       914.892
R23  22969336.920   122870449.478 7       728.749    22969337.320   122870449.495 6       728.749
R24  20260012.260   108339381.785 7      2981.507    20260011.480   108339381.789 7      2981.507    20260021.980    84264015.864 8      2318.950    20260022.540    84264013.868 8      2318.950
G09  24397494.700   128209700.421 6      6164.555    24397493.140   128209700.418 6      6164.555    24397512.020    99903730.247 6      4803.549    24397512.540    99903733.267 6      4803.549
G21  22684190.920   119206230.336 7      1338.511    22684188.240   119206230.335 5      1338.511    22684195.380    92887975.766 5      1042.995
G02  21887457.880   115019366.155 8      2021.250    21887456.640   115019366.167 6      2021.250    21887459.960    89625487.626 6      1575.000
R17  21716574.640   116209787.438 7      5126.215    21716575.140   116209787.445 7      5126.215    21716588.580    90385445.216 8      3987.056    21716588.120    90385443.208 8      3987.056
G14  22143916.020   116367061.573 6      1793.196    22143914.200   116367061.583 3      1793.196    22143922.800    90675657.518 3      1397.295    22143924.360    90675662.478 7      1397.295
R02  19921706.440   106306038.581 8      5276.166    19921706.720   106306038.587 8      5276.166    19921715.540    82682518.885 8      4103.685    19921715.900    82682517.890 8      4103.685
G17  22385165.780   117634842.771 7      5348.507    22385165.180   117634842.771 6      5348.507    22385170.500    91663519.654 6      4167.668    22385171.080    91663537.659 7      4167.668
G04  22201265.240   116668443.299 7      5408.880    22201263.420   116668443.309 5      5408.880    22201272.760    90910500.067 5      4214.712    22201273.320    90910505.078 7      4214.712
G03  19981218.180   105002008.281 8      2057.704    19981217.320   105002008.283 8      2057.704    19981223.740    81819767.713 8      1603.405    19981225.120    81819771.718 8      1603.405
> 2024 06 03 14 38 22.0000000  0 14
G08  23118512.740   121488604.259 7      -396.612    23118511.500   121488604.266 6      -396.612    23118525.140    94666480.971 6      -309.048    23118526.100    94666490.938 7      -309.048
G22  23189289.620   121860543.417 7      3209.735    23189287.900   121860543.430 4      3209.735    23189294.540    94956257.518 4      2501.092
R01  19764849.320   105654443.440 7      1175.462    19764849.360   105654443.441 7      1175.462    19764860.420    82175730.567 7       914.248    19764860.220    82175727.551 7       914.248
R23  22969200.840   122869720.926 6       728.299    22969200.700   122869720.960 6       728.299
R24  20259454.600   108336400.387 8      2981.223    20259453.580   108336400.386 7      2981.223    20259464.400    84261696.998 8      2318.729    20259464.940    84261695.002 8      2318.729
G09  24396321.420   128203535.671 6      6164.753    24396320.040   128203535.673 6      6164.753    24396339.120    99898926.558 5      4803.704    24396339.580    99898929.565 6      4803.704
G21  22683936.240   119204891.831 7      1338.396    22683933.460   119204891.833 5      1338.396    22683940.640    92886932.780 5      1042.906
G02  21887073.180   115017344.863 8      2021.217    21887071.940   115017344.876 6      2021.217    21887075.420    89623912.594 6      1574.974
R17  21715616.340   116204661.174 7      5126.270    21715617.300   116204661.183 7      5126.270    21715630.840    90381458.122 8      3987.099    21715630.460    90381456.118 8      3987.099
G14  22143575.100   116365268.366 6      1792.853    22143573.140   116365268.381 3      1792.853    22143581.760    90674260.210 3      1397.028    22143583.220    90674265.192 7      1397.028
R02  19920717.740   106300762.816 8      5275.389    19920718.200   106300762.825 8      5275.389    19920726.620    82678415.516 8      4103.080    19920727.000    82678414.521 8      4103.080
G17  22384148.180   117629494.354 7      5348.395    22384147.420   117629494.353 6      5348.395    22384152.740    91659352.056 6      4167.580    22384153.200    91659370.063 7      4167.580
G04  22200235.680   116663034.475 7      5408.668    22200234.020   116663034.485 5      5408.668    22200243.440    90906285.407 5      4214.546    22200244.260    90906290.422 7      4214.546
G03  19980826.640   104999950.832 8      2057.166    19980825.720   104999950.837 8      2057.166    19980832.180    81818164.510 8      1602.987    19980833.140    81818168.513 8      1602.987
> 2024 06 03 14 38 23.0000000  0 14
G08  23118587.940   121489000.664 7      -396.594    23118586.920   121489000.666 6      -396.594    23118600.360    94666789.838 6      -309.035    23118601.260    94666799.813 7      -309.035
G22  23188678.760   121857333.849 7      3209.310    23188677.280   121857333.867 4      3209.310    23188683.680    94953756.558 4      2500.761
R01  19764629.760   105653268.235 7      1174.774    19764629.340   105653268.230 7      1174.774    19764640.760    82174816.512 7       913.713    19764640.360    82174813.499 7       913.713
R23  22969064.600   122868992.463 6       728.364    22969064.020   122868992.499 6       728.364
R24  20258897.180   108333419.165 8      2981.023    20258896.420   108333419.161 7      2981.023    20258906.740    84259378.268 8      2318.573    20258907.640    84259376.274 8      2318.573
G09  24395148.660   128197370.728 6      6164.961    24395146.800   128197370.728 6      6164.961    24395166.020    99894122.706 5      4803.866    24395165.720    99894125.708 6      4803.866
G21  22683681.220   119203553.226 7      1338.543    22683678.640   119203553.226 5      1338.543    22683685.800    92885889.707 5      1043.020
G02  21886688.580   115015323.535 8      2021.264    21886687.340   115015323.545 6      2021.264    21886690.800    89622337.533 6      1575.011
R17  21714658.100   116199534.762 7      5126.471    21714659.500   116199534.772 7      5126.471    21714672.860    90377470.919 8      3987.255    21714672.160    90377468.911 8      3987.255
G14  22143233.760   116363475.639 6      1792.341    22143232.120   116363475.657 3      1792.341    22143240.780    90672863.276 3      1396.629    22143241.960    90672868.246 7      1396.629
R02  19919729.100   106295487.593 8      5274.867    19919729.500   106295487.597 8      5274.867    19919738.140    82674312.563 8      4102.674    19919738.540    82674311.570 8      4102.674
G17  22383130.460   117624146.023 7      5348.238    22383129.760   117624146.023 6      5348.238    22383134.960    91655184.530 6      4167.458    22383135.420    91655202.531 7      4167.458
G04  22199206.520   116657625.811 6      5408.391    22199204.800   116657625.818 5      5408.391    22199214.220    90902070.870 5      4214.331    22199214.640    90902075.879 7      4214.331
G03  19980435.160   104997893.767 8      2056.774    19980434.320   104997893.769 8      2056.774    19980440.760    81816561.598 8      1602.681    19980441.940    81816565.605 8      1602.681
> 2024 06 03 14 38 24.0000000  0 14
G08  23118663.520   121489397.506 7      -396.890    23118662.420   121489397.508 6      -396.890    23118675.720    94667099.047 6      -309.265    23118676.920    94667109.022 7      -309.265
G22  23188068.040   121854124.896 7      3208.685    23188066.960   121854124.914 4      3208.685    23188073.100    94951256.073 4      2500.274
R01  19764410.240   105652094.021 7      1173.788    19764409.660   105652094.011 7      1173.788    19764421.120    82173903.227 7       912.946    19764420.680    82173900.215 7       912.946
R23  22968928.660   122868264.497 6       727.830    22968928.480   122868264.523 6       727.830
R24  20258339.440   108330438.345 8      2980.615    20258338.980   108330438.341 8      2980.615    20258349.320    84257059.858 8      2318.256    20258350.160    84257057.862 8      2318.256
G09  24393975.560   128191205.836 6      6164.834    24393973.700   128191205.833 5      6164.834    24393992.920    99889318.892 5      4803.767    24393992.500    99889321.902 6      4803.767
G21  22683426.260   119202214.834 7      1338.377    22683424.000   119202214.834 5      1338.377    22683431.060    92884846.796 5      1042.891
G02  21886303.960   115013302.445 8      2021.007    21886302.740   115013302.456 6      2021.007    21886306.060    89620762.660 6      1574.811
R17  21713700.160   116194408.479 7      5126.266    21713701.480   116194408.491 7      5126.266    21713714.760    90373483.812 7      3987.096    21713714.400    90373481.804 7      3987.096
G14  22142893.080   116361683.520 6      1791.785    22142891.220   116361683.535 3      1791.785    22142899.940    90671466.813 3      1396.196    22142900.860    90671471.785 7      1396.196
R02  19918740.620   106290213.176 8      5274.048    19918741.080   106290213.182 8      5274.048    19918749.740    82670210.245 8      4102.038    19918749.860    82670209.250 8      4102.038
G17  22382112.620   117618797.971 7      5347.824    22382112.040   117618797.970 6      5347.824    22382117.380    91651017.221 6      4167.136    22382117.760    91651035.228 7      4167.136
G04  22198177.500   116652217.541 7      5408.078    22198175.840   116652217.549 5      5408.078    22198185.080    90897856.638 5      4214.087    22198185.520    90897861.651 7      4214.087
G03  19980043.820   104995837.340 8      2056.110    19980042.840   104995837.340 8      2056.110    19980049.480    81814959.185 8      1602.163    19980050.520    81814963.192 8      1602.163
> 2024 06 03 14 38 25.0000000  0 14
G08  23118739.260   121489794.598 7      -397.165    23118738.060   121489794.605 6      -397.165    23118751.220    94667408.471 6      -309.480    23118752.300    94667418.450 7      -309.480
G22  23187457.580   121850916.568 7      3208.141    23187456.280   121850916.586 4      3208.141    23187462.500    94948756.077 4      2499.850
R01  19764190.640   105650920.600 7      1173.218    19764189.780   105650920.602 7      1173.218    19764201.660    82172990.573 7       912.503    19764200.980    82172987.557 7       912.503
R23  22968793.000   122867536.730 6       727.813    22968791.800   122867536.755 6       727.813
R24  20257782.180   108327457.751 8      2980.596    20257781.940   108327457.753 7      2980.596    20257791.980    84254741.623 8      2318.242    20257792.520    84254739.625 8      2318.242
G09  24392802.140   128185040.918 6      6165.017    24392800.340   128185040.920 5      6165.017    24392819.760    99884515.064 5      4803.909    24392819.600    99884518.084 6      4803.909
G21  22683171.720   119200876.450 7      1338.476    22683169.340   119200876.452 5      1338.476    22683176.320    92883803.898 5      1042.968
G02  21885919.460   115011281.430 8      2021.057    21885918.040   115011281.442 6      2021.057    21885921.480    89619187.843 6      1574.850
R17  21712742.000   116189282.212 7      5126.254    21712743.540   116189282.233 7      5126.254    21712756.980    90369496.730 7      3987.086    21712756.340    90369494.718 7      3987.086
G14  22142551.540   116359892.044 6      1791.157    22142550.520   116359892.062 3      1791.157    22142559.240    90670070.858 3      1395.707    22142560.480    90670075.834 7      1395.707
R02  19917752.520   106284939.501 8      5273.370    19917752.600   106284939.507 8      5273.370    19917761.420    82666108.499 8      4101.510    19917761.540    82666107.506 7      4101.510
G17  22381095.000   117613450.131 7      5347.822    22381094.360   117613450.131 6      5347.822    22381099.760    91646850.079 6      4167.134    22381100.120    91646868.078 7      4167.134
G04  22197148.120   116646809.550 6      5407.952    22197146.860   116646809.558 5      5407.952    22197155.880    90893642.625 5      4213.989    22197156.300    90893647.640 7      4213.989
G03  19979652.560   104993781.442 8      2055.714    19979651.700   104993781.444 8      2055.714    19979658.180    81813357.184 8      1601.855    19979659.260    81813361.191 8      1601.855
> 2024 06 03 14 38 26.0000000  0 14
G08  23118815.020   121490191.912 7      -397.499    23118813.860   121490191.920 6      -397.499    23118826.780    94667718.052 6      -309.740    23118827.960    94667728.030 7      -309.740
G22  23186847.000   121847708.718 7      3207.400    23186845.860   121847708.733 4      3207.400    23186852.040    94946256.456 4      2499.272
R01  19763971.380   105649748.030 7      1172.076    19763970.380   105649748.029 7      1172.076    19763982.400    82172078.576 7       911.615    19763981.880    82172075.562 7       911.615
R23  22968656.840   122866809.243 6       727.291    22968656.100   122866809.268 6       727.291
R24  20257224.640   108324477.441 7      2980.045    20257224.640   108324477.443 7      2980.045    20257234.780    84252423.604 8      2317.813    20257235.500    84252421.610 8      2317.813
G09  24391629.120   128178875.889 6      6165.066    24391627.220   128178875.883 5      6165.066    24391646.660    99879711.141 5      4803.948    24391646.760    99879714.147 6      4803.948
G21  22682917.180   119199538.090 7      1338.296    22682914.660   119199538.090 5      1338.296    22682921.680    92882761.015 5      1042.828
G02  21885534.900   115009260.480 8      2020.833    21885533.440   115009260.490 6      2020.833    21885537.000    89617613.072 6      1574.675
R17  21711784.340   116184155.873 7      5126.177    21711785.920   116184155.893 7      5126.177    21711798.840    90365509.578 7      3987.027    21711798.480    90365507.572 8      3987.027
G14  22142210.700   116358101.049 6      1790.566    22142209.760   116358101.067 3      1790.566    22142218.460    90668675.272 4      1395.246    22142219.620    90668680.247 7      1395.246
R02  19916764.500   106279666.503 8      5272.474    19916764.400   106279666.506 8      5272.474    19916773.160    82662007.283 8      4100.813    19916773.440    82662006.290 8      4100.813
G17  22380077.440   117608102.458 7      5347.445    22380076.860   117608102.460 6      5347.445    22380082.000    91642683.063 6      4166.840    22380082.720    91642701.066 7      4166.840
G04  22196119.180   116641401.801 7      5407.503    22196117.900   116641401.806 5      5407.503    22196126.840    90889428.803 5      4213.639    22196127.220    90889433.821 7      4213.639
G03  19979261.480   104991726.018 8      2055.057    19979260.580   104991726.021 8      2055.057    19979267.100    81811755.562 8      1601.343    19979267.920    81811759.569 8      1601.343
> 2024 06 03 14 38 27.0000000  0 14
G08  23118890.540   121490589.616 7      -397.647    23118889.600   121490589.621 6      -397.647    23118902.460    94668027.939 6      -309.855    23118903.880    94668037.916 7      -309.855
G22  23186236.880   121844501.544 7      3207.024    23186235.520   121844501.559 4      3207.024    23186241.680    94943757.363 4      2498.980
R01  19763752.120   105648576.377 7      1171.315    19763751.560   105648576.378 7      1171.315    19763763.080    82171167.290 7       911.023    19763762.620    82171164.280 7       911.023
R23  22968520.700   122866082.130 6       727.047    22968519.180   122866082.145 6       727.047
R24  20256667.460   108321497.511 7      2979.865    20256667.060   108321497.518 7      2979.865    20256677.400    84250105.885 8      2317.673    20256678.100    84250103.891 8      2317.673
G09  24390456.180   128172710.931 6      6165.164    24390454.120   128172710.928 6      6165.164    24390473.540    99874907.284 5      4804.024    24390473.500    99874910.298 6      4804.024
G21  22682662.160   119198199.887 7      1338.263    22682660.000   119198199.887 5      1338.263    22682667.120    92881718.258 5      1042.802
G02  21885150.340   115007239.729 7      2020.789    21885148.880   115007239.734 6      2020.789    21885152.340    89616038.458 6      1574.641
R17  21710826.400   116179029.601 7      5126.355    21710828.000   116179029.621 7      5126.355    21710840.860    90361522.483 8      3987.165    21710840.440    90361520.475 8      3987.165
G14  22141870.040   116356310.716 6      1790.276    22141869.200   116356310.734 3      1790.276    22141877.800    90667280.201 4      1395.020    22141879.100    90667285.183 7      1395.020
R02  19915776.180   106274394.402 8      5271.837    19915776.240   106274394.410 8      5271.837    19915785.180    82657906.766 8      4100.318    19915785.680    82657905.775 8      4100.318
G17  22379059.960   117602755.075 7      5347.326    22379059.300   117602755.075 6      5347.326    22379064.360    91638516.275 6      4166.747    22379064.560    91638534.285 7      4166.747
G04  22195090.080   116635994.453 7      5407.406    22195088.940   116635994.458 5      5407.406    22195097.800    90885215.292 5      4213.563    22195098.560    90885220.308 7      4213.563
G03  19978870.600   104989671.226 8      2054.633    19978869.640   104989671.231 8      2054.633    19978876.000    81810154.425 8      1601.013    19978876.520    81810158.432 8      1601.013
> 2024 06 03 14 38 28.0000000  0 14
G08  23118966.260   121490987.491 7      -397.751    23118965.380   121490987.498 6      -397.751    23118978.080    94668337.967 6      -309.936    23118979.980    94668347.946 7      -309.936
G22  23185626.540   121841294.768 7      3206.673    23185625.480   121841294.786 4      3206.673    23185631.340    94941258.573 4      2498.706
R01  19763533.080   105647405.483 7      1170.602    19763532.640   105647405.484 7      1170.602    19763543.380    82170256.590 7       910.468    19763543.460    82170253.576 7       910.468
R23  22968385.220   122865355.248 6       726.698    22968382.660   122865355.265 6       726.698
R24  20256110.100   108318517.803 8      2979.621    20256110.060   108318517.812 7      2979.621    20256120.140    84247788.330 8      2317.483    20256120.780    84247786.340 8      2317.483
G09  24389283.140   128166545.820 6      6165.236    24389281.020   128166545.822 5      6165.236    24389300.120    99870103.312 5      4804.080    24389300.260    99870106.324 6      4804.080
G21  22682407.660   119196861.661 7      1338.270    22682405.340   119196861.661 5      1338.270    22682412.480    92880675.488 5      1042.808
G02  21884765.640   115005219.000 8      2020.677    21884764.280   115005219.002 6      2020.677    21884767.880    89614463.865 6      1574.554
R17  21709868.620   116173903.243 7      5126.425    21709870.240   116173903.266 7      5126.425    21709882.740    90357535.322 8      3987.219    21709882.480    90357533.316 8      3987.219
G14  22141529.900   116354520.854 6      1789.621    22141528.580   116354520.872 3      1789.621    22141537.420    90665885.499 4      1394.510    22141538.280    90665890.487 7      1394.510
R02  19914788.320   106269122.943 8      5271.222    19914788.420   106269122.952 8      5271.222    19914797.260    82653806.745 8      4099.839    19914797.600    82653805.752 8      4099.839
G17  22378042.200   117597407.756 7      5347.329    22378041.740   117597407.756 6      5347.329    22378046.900    91634349.535 6      4166.750    22378047.400    91634367.542 7      4166.750
G04  22194061.580   116630587.311 7      5407.169    22194059.980   116630587.316 5      5407.169    22194068.920    90881001.940 5      4213.379    22194069.400    90881006.950 7      4213.379
G03  19978479.500   104987616.841 8      2054.229    19978478.580   104987616.846 8      2054.229    19978485.040    81808553.604 8      1600.698    19978485.620    81808557.611 8      1600.698
> 2024 06 03 14 38 29.0000000  0 14
G08  23119041.960   121491385.541 7      -398.124    23119041.040   121491385.551 6      -398.124    23119053.800    94668648.128 6      -310.226    23119055.720    94668658.112 7      -310.226
G22  23185016.180   121838088.482 7      3206.051    23185015.380   121838088.503 4      3206.051    23185021.100    94938760.173 4      2498.222
R01  19763314.360   105646235.334 7      1169.790    19763313.760   105646235.338 7      1169.790    19763325.160    82169346.479 7       909.836    19763324.360    82169343.467 7       909.836
R23  22968249.380   122864628.478 6       726.663    22968247.180   122864628.498 6       726.663
R24  20255553.080   108315538.247 8      2979.427    20255553.160   108315538.259 7      2979.427    20255562.980    84245470.899 8      2317.332    20255563.720    84245468.908 8      2317.332
G09  24388110.240   128160380.526 6      6165.289    24388107.940   128160380.528 5      6165.289    24388126.880    99865299.190 5      4804.122    24388126.840    99865302.198 6      4804.122
G21  22682153.080   119195523.372 7      1338.296    22682150.640   119195523.379 5      1338.296    22682157.700    92879632.663 5      1042.828
G02  21884381.180   115003198.252 8      2020.674    21884379.680   115003198.260 6      2020.674    21884383.480    89612889.259 6      1574.551
R17  21708910.520   116168776.842 7      5126.322    21708912.300   116168776.865 7      5126.322    21708924.880    90353548.122 7      3987.139    21708924.680    90353546.116 8      3987.139
G14  22141189.320   116352731.436 6      1789.029    22141188.180   116352731.456 3      1789.029    22141196.980    90664491.147 4      1394.048    22141197.940    90664496.128 7      1394.048
R02  19913800.520   106263852.083 8      5270.547    19913800.380   106263852.089 8      5270.547    19913809.500    82649707.189 8      4099.315    19913810.020    82649706.194 8      4099.315
G17  22377024.700   117592060.568 7      5347.039    22377024.320   117592060.573 6      5347.039    22377029.520    91630182.901 6      4166.524    22377029.940    91630200.909 7      4166.524
G04  22193032.440   116625180.321 7      5406.829    22193031.160   116625180.326 5      5406.829    22193039.840    90876788.711 5      4213.113    22193040.360    90876793.717 7      4213.113
G03  19978088.700   104985562.887 8      2053.702    19978087.720   104985562.889 8      2053.702    19978094.220    81806953.120 8      1600.287    19978094.820    81806957.127 8      1600.287
> 2024 06 03 14 38 30.0000000  0 14
G08  23119117.700   121491784.044 7      -398.653    23119116.920   121491784.051 6      -398.653    23119129.480    94668958.635 6      -310.639    23119131.340    94668968.615 7      -310.639
G22  23184406.220   121834882.866 7      3205.225    23184405.500   121834882.881 4      3205.225    23184411.120    94936262.290 4      2497.578
R01  19763095.260   105645066.222 7      1168.491    19763094.500   105645066.218 7      1168.491    19763106.580    82168437.161 7       908.826    19763105.820    82168434.150 7       908.826
R23  22968113.700   122863902.248 6       725.999    22968111.100   122863902.250 6       725.999
R24  20254995.900   108312559.153 8      2978.785    20254996.300   108312559.162 8      2978.785    20255005.940    84243153.825 8      2316.833    20255006.760    84243151.835 8      2316.833
G09  24386936.960   128154215.371 6      6164.974    24386934.760   128154215.368 5      6164.974    24386953.580    99860495.176 5      4803.876    24386954.200    99860498.181 6      4803.876
G21  22681898.560   119194185.316 7      1337.860    22681896.060   119194185.321 5      1337.860    22681903.000    92878590.023 5      1042.489
G02  21883996.700   115001177.770 8      2020.216    21883995.160   115001177.780 6      2020.216    21883998.960    89611314.857 6      1574.195
R17  21707952.840   116163650.495 7      5126.249    21707954.320   116163650.529 7      5126.249    21707966.860    90349560.975 7      3987.082    21707966.460    90349558.969 8      3987.082
G14  22140848.520   116350942.685 6      1788.452    22140847.840   116350942.705 3      1788.452    22140856.680    90663097.313 4      1393.599    22140857.040    90663102.301 7      1393.599
R02  19912812.800   106258582.113 8      5269.508    19912812.740   106258582.122 8      5269.508    19912821.920    82645608.330 8      4098.506    19912822.420    82645607.337 8      4098.506
G17  22376007.160   117586713.670 7      5346.730    22376006.840   117586713.672 6      5346.730    22376012.000    91626016.487 6      4166.283    22376012.120    91626034.496 7      4166.283
G04  22192003.400   116619773.814 7      5406.136    22192002.460   116619773.819 5      5406.136    22192010.980    90872575.857 5      4212.574    22192011.420    90872580.863 7      4212.574
G03  19977697.840   104983509.595 8      2052.917    19977697.060   104983509.602 8      2052.917    19977703.440    81805353.154 8      1599.676    19977704.080    81805357.161 8      1599.676
> 2024 06 03 14 38 31.0000000  0 14
G08  23119193.760   121492182.851 7      -398.833    23119192.920   121492182.856 6      -398.833    23119205.280    94669269.382 6      -310.779    23119206.860    94669279.355 7      -310.779
G22  23183796.420   121831677.715 7      3204.882    23183795.580   121831677.733 4      3204.882    23183801.260    94933764.773 4      2497.311
R01  19762876.640   105643897.923 7      1167.976    19762876.060   105643897.927 7      1167.976    19762888.060    82167528.488 7       908.426    19762887.240    82167525.479 7       908.426
R23  22967978.100   122863176.278 6       726.073    22967975.660   122863176.290 6       726.073
R24  20254438.880   108309580.362 8      2978.660    20254439.220   108309580.371 7      2978.660    20254448.780    84240836.989 8      2316.735    20254449.680    84240834.999 8      2316.735
G09  24385763.640   128148050.137 6      6165.316    24385761.480   128148050.131 5      6165.316    24385780.400    99855691.095 5      4804.143    24385780.420    99855694.105 6      4804.143
G21  22681644.020   119192847.303 7      1338.171    22681641.500   119192847.302 5      1338.171    22681648.240    92877547.411 5      1042.731
G02  21883612.340   114999157.374 7      2020.421    21883610.760   114999157.385 6      2020.421    21883614.500    89609740.525 6      1574.354
R17  21706995.020   116158524.108 7      5126.363    21706996.260   116158524.131 7      5126.363    21707009.100    90345573.777 8      3987.171    21707008.540    90345571.771 8      3987.171
G14  22140508.380   116349154.498 6      1787.836    22140507.580   116349154.519 3      1787.836    22140516.260    90661703.917 4      1393.119    22140516.880    90661708.903 7      1393.119
R02  19911825.640   106253312.843 8      5268.939    19911825.200   106253312.849 8      5268.939    19911834.520    82641510.013 8      4098.064    19911834.920    82641509.017 8      4098.064
G17  22374989.620   117581366.942 7      5346.518    22374989.280   117581366.941 6      5346.518    22374994.520    91621850.214 6      4166.118    22374994.600    91621868.217 7      4166.118
G04  22190974.580   116614367.568 7      5406.254    22190973.660   116614367.570 5      5406.254    22190982.140    90868363.202 5      4212.665    22190982.580    90868368.202 7      4212.665
G03  19977307.260   104981456.799 8      2052.554    19977306.300   104981456.806 8      2052.554    19977312.900    81803753.573 8      1599.392    19977313.420    81803757.584 8      1599.392
> 2024 06 03 14 38 32.0000000  0 14
G08  23119269.540   121492581.855 7      -399.267    23119268.980   121492581.865 6      -399.267    23119281.220    94669580.290 6      -311.117    23119282.820    94669590.272 7      -311.117
G22  23183186.440   121828473.299 7      3204.148    23183185.740   121828473.314 4      3204.148    23183191.320    94931267.828 4      2496.739
R01  19762658.180   105642730.520 7      1166.801    19762657.820   105642730.518 7      1166.801    19762669.480    82166620.504 7       907.512    19762668.820    82166617.492 7       907.512
R23  22967842.000   122862450.559 6       725.346    22967839.240   122862450.582 6       725.346
R24  20253881.980   108306601.864 8      2978.226    20253881.940   108306601.868 8      2978.226    20253892.000    84238520.374 8      2316.398    20253892.600    84238518.384 8      2316.398
G09  24384590.200   128141884.882 6      6165.059    24384588.220   128141884.882 6      6165.059    24384607.220    99850887.007 6      4803.942    24384607.620    99850890.025 6      4803.942
G21  22681389.240   119191509.339 7      1337.768    22681386.920   119191509.344 5      1337.768    22681393.640    92876504.840 5      1042.417
G02  21883227.740   114997137.100 7      2020.088    21883226.160   114997137.107 6      2020.088    21883230.160    89608166.281 6      1574.095
R17  21706037.060   116153397.806 7      5126.309    21706038.300   116153397.824 7      5126.309    21706050.780    90341586.651 8      3987.129    21706050.520    90341584.650 8      3987.129
G14  22140168.120   116347366.982 6      1787.131    22140167.580   116347367.006 4      1787.131    22140176.080    90660311.043 4      1392.570    22140176.720    90660316.027 7      1392.570
R02  19910838.400   106248044.309 8      5268.009    19910837.680   106248044.320 8      5268.009    19910847.180    82637412.268 8      4097.340    19910847.600    82637411.271 8      4097.340
G17  22373972.220   117576020.511 7      5346.321    22373971.940   117576020.513 6      5346.321    22373977.140    91617684.165 6      4165.964    22373977.240    91617702.173 7      4165.964
G04  22189946.340   116608961.602 7      5405.693    22189945.060   116608961.605 5      5405.693    22189953.340    90864150.767 5      4212.228    22189953.940    90864155.779 7      4212.228
G03  19976916.720   104979404.592 8      2051.837    19976915.880   104979404.597 8      2051.837    19976922.240    81802154.449 8      1598.834    19976922.900    81802158.456 8      1598.834
> 2024 06 03 14 38 33.0000000  0 14
G08  23119345.640   121492981.241 7      -399.571    23119344.900   121492981.253 6      -399.571    23119357.140    94669891.491 6      -311.354    23119358.760    94669901.473 7      -311.354
G22  23182576.640   121825269.412 7      3203.463    23182576.100   121825269.427 4      3203.463    23182581.600    94928771.293 4      2496.205
R01  19762440.400   105641564.003 7      1166.046    19762439.540   105641564.007 7      1166.046    19762451.400    82165713.211 7       906.924    19762450.520    82165710.203 7       906.924
R23  22967706.240   122861725.238 6       725.141    22967704.380   122861725.256 6       725.141
R24  20253324.700   108303623.731 8      2977.849    20253325.000   108303623.740 8      2977.849    20253334.840    84236204.046 8      2316.105    20253335.700    84236202.054 8      2316.105
G09  24383416.760   128135719.554 6      6165.272    24383415.080   128135719.558 6      6165.272    24383433.960    99846082.865 5      4804.108    24383434.520    99846085.883 6      4804.108
G21  22681134.620   119190171.530 7      1337.763    22681132.320   119190171.538 5      1337.763    22681139.120    92875462.389 5      1042.413
G02  21882843.400   114995117.004 7      2019.945    21882841.860   114995117.014 6      2019.945    21882845.700    89606592.180 6      1573.983
R17  21705079.300   116148271.526 7      5126.144    21705080.280   116148271.549 7      5126.144    21705092.980    90337599.557 8      3987.001    21705092.640    90337597.549 8      3987.001
G14  22139828.120   116345579.992 6      1786.621    22139827.600   116345580.010 4      1786.621    22139835.880    90658918.575 4      1392.172    22139836.820    90658923.563 7      1392.172
R02  19909850.980   106242776.556 8      5267.224    19909850.520   106242776.563 8      5267.224    19909860.260    82633315.125 8      4096.730    19909860.280    82633314.128 8      4096.730
G17  22372954.920   117570674.308 7      5345.951    22372954.720   117570674.305 6      5345.951    22372959.740    91613518.291 6      4165.676    22372960.000    91613536.299 7      4165.676
G04  22188917.320   116603556.018 7      5405.312    22188916.460   116603556.018 5      5405.312    22188924.640    90859938.628 5      4211.931    22188925.040    90859943.638 7      4211.931
G03  19976526.200   104977352.926 8      2051.349    19976525.500   104977352.934 8      2051.349    19976531.820    81800555.750 8      1598.454    19976532.400    81800559.753 8      1598.454
> 2024 06 03 14 38 34.0000000  0 14
G08  23119421.680   121493380.883 7      -399.548    23119421.120   121493380.894 6      -399.548    23119433.260    94670202.893 6      -311.336    23119434.880    94670212.883 7      -311.336
G22  23181967.180   121822066.089 7      3203.195    23181966.400   121822066.105 4      3203.195    23181972.200    94926275.197 4      2495.996
R01  19762222.540   105640398.353 7      1165.437    19762221.740   105640398.362 7      1165.437    19762233.140    82164806.596 7       906.451    19762232.600    82164803.589 7       906.451
R23  22967570.380   122861000.215 6       724.964    22967569.180   122861000.227 6       724.964
R24  20252768.140   108300645.875 8      2977.932    20252768.180   108300645.879 8      2977.932    20252778.000    84233887.929 8      2316.169    20252778.540    84233885.936 8      2316.169
G09  24382243.060   128129554.249 6      6165.458    24382241.900   128129554.254 5      6165.458    24382260.580    99841278.733 5      4804.253    24382260.860    99841281.743 6      4804.253
G21  22680880.180   119188833.796 7      1337.742    22680877.760   119188833.806 5      1337.742    22680884.520    92874419.998 5      1042.396
G02  21882459.120   114993097.005 7      2020.103    21882457.500   114993097.020 6      2020.103    21882461.240    89605018.155 6      1574.106
R17  21704121.080   116143145.262 7      5126.465    21704122.200   116143145.285 7      5126.465    21704134.960    90333612.464 8      3987.250    21704134.520    90333610.459 8      3987.250
G14  22139488.340   116343793.611 6      1786.159    22139487.840   116343793.626 4      1786.159    22139495.940    90657526.583 4      1391.813    22139496.400    90657531.569 7      1391.813
R02  19908863.880   106237509.527 8      5266.829    19908863.180   106237509.533 8      5266.829    19908873.140    82629218.553 8      4096.423    19908873.320    82629217.554 8      4096.423
G17  22371937.620   117565328.303 7      5346.006    22371937.420   117565328.302 6      5346.006    22371942.520    91609352.575 6      4165.719    22371942.400    91609370.586 7      4165.719
G04  22187889.020   116598150.683 7      5405.385    22187887.880   116598150.685 5      5405.385    22187895.960    90855726.683 5      4211.988    22187896.400    90855731.699 7      4211.988
G03  19976135.940   104975301.810 8      2050.994    19976135.140   104975301.823 8      2050.994    19976141.480    81798957.482 8      1598.177    19976142.060    81798961.485 8      1598.177
> 2024 06 03 14 38 35.0000000  0 14
G08  23119497.920   121493780.897 7      -400.174    23119497.280   121493780.899 6      -400.174    23119509.280    94670514.576 6      -311.824    23119510.480    94670524.567 7      -311.824
G22  23181357.760   121818863.374 7      3202.309    23181356.960   121818863.389 4      3202.309    23181363.060    94923779.573 4      2495.306
R01  19762004.480   105639233.630 7      1164.073    19762003.880   105639233.631 7      1164.073    19762015.520    82163900.690 7       905.390    19762014.660    82163897.683 7       905.390
R23  22967435.120   122860275.526 6       724.326    22967433.560   122860275.546 6       724.326
R24  20252211.340   108297668.386 8      2977.130    20252211.400   108297668.395 8      2977.130    20252221.320    84231572.109 8      2315.546    20252221.580    84231570.111 8      2315.546
G09  24381069.700   128123388.978 6      6165.036    24381068.540   128123388.978 5      6165.036    24381087.500    99836474.624 5      4803.925    24381087.800    99836477.640 6      4803.925
G21  22680625.620   119187496.134 7      1337.568    22680623.240   119187496.142 5      1337.568    22680629.960    92873377.661 5      1042.261
G02  21882074.700   114991077.171 8      2019.599    21882073.040   114991077.184 6      2019.599    21882076.860    89603444.265 6      1573.713
R17  21703163.140   116138019.040 7      5126.071    21703163.980   116138019.063 7      5126.071    21703177.080    90329625.412 8      3986.944    21703176.680    90329623.410 8      3986.944
G14  22139148.940   116342007.816 6      1785.402    22139148.060   116342007.831 4      1785.402    22139156.140    90656135.055 4      1391.222    22139156.580    90656140.034 7      1391.222
R02  19907876.800   106232243.349 8      5265.606    19907876.240   106232243.353 8      5265.606    19907886.380    82625122.639 8      4095.471    19907886.760    82625121.644 8      4095.471
G17  22370920.300   117559982.550 7      5345.456    22370920.120   117559982.549 6      5345.456    22370925.240    91605187.053 6      4165.290    22370925.340    91605205.064 7      4165.290
G04  22186860.300   116592745.766 7      5404.545    22186859.380   116592745.766 5      5404.545    22186867.360    90851515.071 5      4211.334    22186867.820    90851520.082 7      4211.334
G03  19975745.800   104973251.277 8      2050.103    19975745.000   104973251.284 8      2050.103    19975751.320    81797359.659 8      1597.483    19975751.880    81797363.660 8      1597.483
> 2024 06 03 14 38 36.0000000  0 14
G08  23119574.200   121494181.246 7      -400.365    23119573.540   121494181.251 6      -400.365    23119585.520    94670826.528 6      -311.973    23119586.700    94670836.522 7      -311.973
G22  23180748.380   121815661.294 7      3201.852    23180747.560   121815661.307 4      3201.852    23180753.780    94921284.448 4      2494.950
R01  19761786.580   105638069.784 7      1163.479    19761786.780   105638069.791 7      1163.479    19761797.800    82162995.479 7       904.928    19761797.060    82162992.473 7       904.928
R23  22967299.480   122859551.171 6       724.333    22967297.680   122859551.191 6       724.333
R24  20251654.500   108294691.271 8      2976.979    20251654.340   108294691.281 8      2976.979    20251664.580    84229256.571 8      2315.428    20251664.680    84229254.571 8      2315.428
G09  24379896.540   128117223.694 6      6165.389    24379895.400   128117223.691 5      6165.389    24379914.300    99831670.511 5      4804.199    24379914.500    99831673.523 6      4804.199
G21  22680371.200   119186158.636 7      1337.534    22680368.700   119186158.640 5      1337.534    22680375.360    92872335.450 5      1042.235
G02  21881690.260   114989057.509 7      2019.679    21881688.660   114989057.519 6      2019.679    21881692.620    89601870.494 6      1573.776
R17  21702205.280   116132892.889 7      5126.170    21702206.220   116132892.909 7      5126.170    21702219.140    90325638.403 8      3987.021    21702218.860    90325636.403 8      3987.021
G14  22138809.060   116340222.701 6      1784.854    22138808.520   116340222.717 4      1784.854    22138816.580    90654744.057 4      1390.796    22138816.840    90654749.044 7      1390.796
R02  19906890.240   106226977.971 8      5265.057    19906889.200   106226977.972 8      5265.057    19906899.700    82621027.345 8      4095.044    19906900.100    82621026.348 8      4095.044
G17  22369903.000   117554637.075 7      5345.379    22369902.920   117554637.075 6      5345.379    22369908.040    91601021.750 6      4165.230    22369908.060    91601039.761 7      4165.230
G04  22185831.680   116587341.144 7      5404.537    22185831.020   116587341.151 5      5404.537    22185838.820    90847303.685 5      4211.328    22185839.640    90847308.702 7      4211.328
G03  19975355.680   104971201.340 8      2049.713    19975354.980   104971201.347 8      2049.713    19975361.200    81795762.306 8      1597.179    19975361.620    81795766.305 8      1597.179
> 2024 06 03 14 38 37.0000000  0 14
G08  23119650.660   121494581.827 7      -400.676    23119649.740   121494581.829 6      -400.676    23119661.800    94671138.663 6      -312.215    23119662.880    94671148.654 7      -312.215
G22  23180139.060   121812459.724 7      3201.329    23180138.480   121812459.742 4      3201.329    23180144.560    94918789.722 4      2494.542
R01  19761569.220   105636906.758 7      1162.624    19761569.020   105636906.765 7      1162.624    19761580.520    82162090.913 7       904.263    19761579.520    82162087.908 7       904.263
R23  22967163.740   122858827.118 6       723.956    22967163.140   122858827.136 6       723.956
R24  20251097.840   108291714.434 8      2976.719    20251097.720   108291714.441 8      2976.719    20251107.860    84226941.251 8      2315.226    20251108.100    84226939.251 8      2315.226
G09  24378723.360   128111058.334 6      6165.325    24378722.040   128111058.326 5      6165.325    24378741.000    99826866.336 5      4804.149    24378741.620    99826869.344 6      4804.149
G21  22680116.760   119184821.145 7      1337.619    22680113.960   119184821.153 5      1337.619    22680120.820    92871293.252 5      1042.301
G02  21881306.080   114987037.909 7      2019.624    21881304.320   114987037.920 6      2019.624    21881308.440    89600296.782 6      1573.733
R17  21701247.380   116127766.675 7      5126.268    21701248.400   116127766.695 7      5126.268    21701261.020    90321651.354 8      3987.098    21701260.740    90321649.357 8      3987.098
G14  22138469.240   116338438.062 6      1784.444    22138469.080   116338438.072 4      1784.444    22138476.880    90653353.427 4      1390.476    22138477.060    90653358.412 7      1390.476
R02  19905903.820   106221713.298 8      5264.241    19905902.700   106221713.299 8      5264.241    19905913.160    82616932.608 8      4094.410    19905913.380    82616931.613 8      4094.410
G17  22368885.760   117549291.774 7      5345.204    22368885.840   117549291.771 6      5345.204    22368891.000    91596856.584 6      4165.094    22368890.740    91596874.594 7      4165.094
G04  22184803.220   116581936.807 7      5404.207    22184802.620   116581936.812 5      5404.207    22184810.420    90843092.520 5      4211.071    22184811.060    90843097.535 7      4211.071
G03  19974965.860   104969151.881 8      2049.240    19974964.920   104969151.889 8      2049.240    19974971.120    81794165.327 8      1596.810    19974971.560    81794169.328 8      1596.810
> 2024 06 03 14 38 38.0000000  0 14
G08  23119726.680   121494982.697 7      -401.018    23119726.120   121494982.699 6      -401.018    23119738.140    94671451.019 6      -312.482    23119739.540    94671461.014 7      -312.482
G22  23179529.720   121809258.690 7      3200.692    23179529.360   121809258.703 4      3200.692    23179535.260    94916295.408 4      2494.046
R01  19761351.720   105635744.553 7      1161.746    19761351.860   105635744.562 7      1161.746    19761362.860    82161186.970 7       903.580    19761361.880    82161183.967 7       903.580
R23  22967029.040   122858103.376 6       723.448    22967028.060   122858103.388 6       723.448
R24  20250541.400   108288737.900 8      2976.365    20250540.880   108288737.898 8      2976.365    20250551.380    84224626.162 8      2314.950    20250551.320    84224624.158 8      2314.950
G09  24377550.100   128104892.940 6      6165.297    24377549.020   128104892.929 5      6165.297    24377567.620    99822062.135 5      4804.127    24377567.300    99822065.143 6      4804.127
G21  22679862.060   119183483.741 7      1337.260    22679859.500   119183483.746 5      1337.260    22679866.300    92870251.123 5      1042.021
G02  21880921.880   114985018.405 7      2019.377    21880920.200   114985018.417 6      2019.377    21880924.260    89598723.138 6      1573.541
R17  21700289.740   116122640.395 7      5126.244    21700290.460   116122640.412 7      5126.244    21700303.300    90317664.255 8      3987.079    21700303.000    90317662.260 8      3987.079
G14  22138129.780   116336654.012 6      1783.692    22138129.700   116336654.022 4      1783.692    22138137.240    90651963.254 4      1389.890    22138137.680    90651968.237 7      1389.890
R02  19904917.580   106216449.353 8      5263.488    19904916.060   106216449.351 8      5263.488    19904926.640    82612838.428 8      4093.824    19904927.020    82612837.435 8      4093.824
G17  22367868.560   117543946.607 7      5345.050    22367868.660   117543946.609 6      5345.050    22367873.900    91592691.521 6      4164.974    22367873.840    91592709.530 7      4164.974
G04  22183774.920   116576532.776 7      5403.843    22183774.400   116576532.778 5      5403.843    22183782.040    90838881.595 5      4210.787    22183782.600    90838886.611 7      4210.787
G03  19974575.900   104967102.932 8      2048.621    19974575.000   104967102.940 8      2048.621    19974581.240    81792568.746 8      1596.328    19974581.780    81792572.745 8      1596.328
> 2024 06 03 14 38 39.0000000  0 14
G08  23119803.000   121495383.782 7      -400.946    23119802.400   121495383.793 6      -400.946    23119814.420    94671763.551 6      -312.426    23119815.640    94671773.553 7      -312.426
G22  23178920.920   121806058.090 7      3200.513    23178920.160   121806058.103 4      3200.513    23178926.500    94913801.429 4      2493.906
R01  19761134.540   105634583.171 7      1161.201    19761134.860   105634583.189 7      1161.201    19761146.020    82160283.675 7       903.156    19761144.860    82160280.667 7       903.156
R23  22966893.440   122857379.861 6       723.766    22966892.400   122857379.868 6       723.766
R24  20249984.500   108285761.616 8      2976.346    20249984.500   108285761.620 7      2976.346    20249994.620    84222311.277 8      2314.935    20249994.720    84222309.271 8      2314.935
G09  24376376.680   128098727.362 6      6165.640    24376375.720   128098727.362 5      6165.640    24376394.380    99817257.795 5      4804.394    24376394.140    99817260.815 6      4804.394
G21  22679607.800   119182146.390 7      1337.497    22679605.180   119182146.392 5      1337.497    22679611.940    92869209.027 5      1042.206
G02  21880537.340   114982998.973 7      2019.596    21880536.040   114982998.986 6      2019.596    21880539.940    89597149.553 6      1573.711
R17  21699331.480   116117514.050 7      5126.466    21699332.560   116117514.079 7      5126.466    21699345.120    90313677.109 7      3987.251    21699345.200    90313675.112 8      3987.251
G14  22137790.460   116334870.392 6      1783.508    22137790.360   116334870.403 4      1783.508    22137797.740    90650573.414 4      1389.746    22137798.620    90650578.385 7      1389.746
R02  19903931.180   106211186.027 8      5263.208    19903929.380   106211186.028 8      5263.208    19903940.400    82608744.741 8      4093.607    19903940.580    82608743.748 8      4093.607
G17  22366851.220   117538601.594 7      5345.042    22366851.400   117538601.599 6      5345.042    22366856.720    91588526.581 6      4164.968    22366856.500    91588544.594 7      4164.968
G04  22182746.500   116571128.962 7      5403.949    22182746.020   116571128.965 5      5403.949    22182753.620    90834670.837 5      4210.869    22182754.120    90834675.845 7      4210.869
G03  19974185.940   104965054.451 8      2048.418    19974185.160   104965054.456 8      2048.418    19974191.460    81790972.525 8      1596.170    19974192.000    81790976.524 8      1596.170
> 2024 06 03 14 38 40.0000000  0 14
G08  23119879.520   121495785.270 7      -401.794    23119878.800   121495785.282 6      -401.794    23119890.820    94672076.392 6      -313.086    23119892.380    94672086.390 7      -313.086
G22  23178312.260   121802858.262 7      3199.446    23178311.280   121802858.277 4      3199.446    23178317.560    94911308.061 4      2493.075
R01  19760917.200   105633422.741 7      1159.972    19760918.100   105633422.756 7      1159.972    19760928.920    82159381.120 7       902.200    19760927.620    82159378.111 7       902.200
R23  22966758.060   122856656.747 6       722.876    22966757.140   122856656.751 6       722.876
R24  20249428.000   108282785.702 8      2975.644    20249427.860   108282785.706 8      2975.644    20249438.160    84219996.677 8      2314.390    20249438.180    84219994.667 8      2314.390
G09  24375203.460   128092561.949 6      6165.260    24375202.360   128092561.952 5      6165.260    24375221.120    99812453.579 5      4804.099    24375220.380    99812456.583 6      4804.099
G21  22679353.320   119180809.154 7      1337.150    22679350.700   119180809.154 5      1337.150    22679357.440    92868167.021 5      1041.935
G02  21880153.240   114980979.742 7      2019.078    21880152.000   114980979.752 6      2019.078    21880155.700    89595576.123 6      1573.308
R17  21698373.420   116112387.883 7      5126.124    21698374.540   116112387.897 7      5126.124    21698387.180    90309690.087 8      3986.985    21698387.000    90309688.096 8      3986.985
G14  22137451.160   116333087.522 6      1782.608    22137451.200   116333087.529 4      1782.608    22137458.440    90649184.160 4      1389.045    22137459.460    90649189.148 7      1389.045
R02  19902945.060   106205923.566 8      5261.985    19902942.960   106205923.564 8      5261.985    19902954.240    82604651.717 8      4092.655    19902954.440    82604650.722 8      4092.655
G17  22365834.300   117533256.937 7      5344.409    22365834.260   117533256.942 6      5344.409    22365839.660    91584361.915 6      4164.474    22365839.600    91584379.926 7      4164.474
G04  22181718.300   116565725.585 7      5402.984    22181717.900   116565725.587 5      5402.984    22181725.380    90830460.420 5      4210.118    22181725.720    90830465.438 7      4210.118
G03  19973796.420   104963006.635 8      2047.435    19973795.540   104963006.642 8      2047.435    19973801.760    81789376.828 8      1595.404    19973802.520    81789380.829 8      1595.404
> 2024 06 03 14 38 41.0000000  0 14
G08  23119955.960   121496187.107 7      -402.049    23119955.240   121496187.114 6      -402.049    23119967.200    94672389.497 6      -313.285    23119968.620    94672399.505 7      -313.285
G22  23177703.340   121799658.960 7      3198.936    23177702.640   121799658.978 4      3198.936    23177708.760    94908815.100 4      2492.677
R01  19760700.580   105632263.259 7      1159.001    19760701.200   105632263.274 7      1159.001    19760712.000    82158479.295 7       901.445    19760710.640    82158476.292 7       901.445
R23  22966622.920   122855934.032 6       722.587    22966622.880   122855934.041 6       722.587
R24  20248871.980   108279810.159 8      2975.403    20248871.540   108279810.166 7      2975.403    20248881.760    84217682.366 8      2314.202    20248881.660    84217680.356 8      2314.202
G09  24374030.460   128086396.450 6      6165.562    24374029.200   128086396.460 5      6165.562    24374047.780    99807649.300 5      4804.334    24374047.720    99807652.326 6      4804.334
G21  22679098.700   119179472.118 7      1337.056    22679096.180   119179472.118 5      1337.056    22679102.880    92867125.170 5      1041.862
G02  21879769.220   114978960.702 7      2019.025    21879767.600   114978960.709 6      2019.025    21879771.300    89594002.848 6      1573.266
R17  21697415.560   116107261.768 7      5126.031    21697416.120   116107261.786 7      5126.031    21697429.220    90305703.114 8      3986.913    21697429.380    90305701.123 8      3986.913
G14  22137111.960   116331305.219 6      1781.945    22137112.060   116331305.226 4      1781.945    22137119.240    90647795.350 4      1388.529    22137119.860    90647800.340 7      1388.529
R02  19901958.740   106200661.846 8      5261.310    19901956.820   106200661.847 8      5261.310    19901968.140    82600559.275 8      4092.130    19901968.180    82600558.282 8      4092.130
G17  22364817.360   117527912.490 7      5344.279    22364817.280   117527912.495 6      5344.279    22364822.600    91580197.412 6      4164.373    22364822.620    91580215.415 7      4164.373
G04  22180690.300   116560322.515 7      5402.968    22180689.700   116560322.523 5      5402.968    22180697.180    90826250.241 5      4210.105    22180697.620    90826255.264 7      4210.105
G03  19973406.740   104960959.373 8      2046.915    19973406.020   104960959.380 8      2046.915    19973412.160    81787781.559 8      1594.999    19973413.080    81787785.556 8      1594.999
> 2024 06 03 14 38 42.0000000  0 14
G08  23120032.560   121496589.067 7      -402.173    23120031.780   121496589.074 6      -402.173    23120043.880    94672702.705 6      -313.382    23120045.400    94672712.715 7      -313.382
G22  23177094.580   121796460.154 7      3198.555    23177093.700   121796460.167 4      3198.555    23177100.000    94906322.520 4      2492.381
R01  19760483.980   105631104.425 7      1158.384    19760484.460   105631104.445 7      1158.384    19760495.460    82157577.985 7       900.965    19760494.260    82157574.980 7       900.965
R23  22966488.380   122855211.386 6       722.462    22966487.200   122855211.398 6       722.462
R24  20248315.280   108276834.742 8      2975.213    20248315.100   108276834.746 8      2975.213    20248325.560    84215368.149 8      2314.055    20248325.220    84215366.138 8      2314.055
G09  24372857.420   128080230.885 6      6165.648    24372855.820   128080230.890 5      6165.648    24372874.740    99802844.960 5      4804.401    24372874.560    99802847.978 6      4804.401
G21  22678844.440   119178134.932 7      1337.111    22678841.620   119178134.932 5      1337.111    22678848.380    92866083.210 5      1041.905
G02  21879385.000   114976941.578 7      2019.069    21879383.380   114976941.585 6      2019.069    21879387.240    89592429.502 6      1573.301
R17  21696457.440   116102135.501 7      5126.259    21696458.380   116102135.524 7      5126.259    21696470.820    90301716.024 8      3987.090    21696471.200    90301714.039 8      3987.090
G14  22136773.200   116329523.404 6      1781.587    22136773.040   116329523.417 4      1781.587    22136779.900    90646406.922 4      1388.250    22136780.700    90646411.920 7      1388.250
R02  19900972.840   106195400.743 8      5260.841    19900970.780   106195400.741 8      5260.841    19900982.280    82596467.305 8      4091.765    19900982.320    82596466.312 8      4091.765
G17  22363800.180   117522568.129 7      5344.299    22363800.220   117522568.134 6      5344.299    22363805.600    91576032.975 6      4164.389    22363805.420    91576050.983 7      4164.389
G04  22179661.920   116554919.632 7      5402.796    22179661.480   116554919.640 5      5402.796    22179669.020    90822040.211 5      4209.971    22179669.520    90822045.231 7      4209.971
G03  19973017.240   104958912.508 8      2046.626    19973016.640   104958912.513 8      2046.626    19973022.600    81786186.595 8      1594.774    19973023.700    81786190.596 8      1594.774
> 2024 06 03 14 38 43.0000000  0 14
G08  23120109.080   121496991.474 7      -402.791    23120108.240   121496991.473 6      -402.791    23120120.420    94673016.256 6      -313.863    23120121.740    94673026.266 7      -313.863
G22  23176486.120   121793262.039 7      3197.672    23176485.040   121793262.049 4      3197.672    23176491.440    94903830.485 4      2491.693
R01  19760267.380   105629946.678 7      1157.191    19760267.840   105629946.703 7      1157.191    19760279.060    82156677.518 7       900.038    19760277.600    82156674.514 7       900.038
R23  22966353.180   122854489.272 6       721.831    22966352.120   122854489.276 6       721.831
R24  20247758.920   108273859.838 8      2974.594    20247758.680   108273859.845 8      2974.594    20247769.300    84213054.337 8      2313.573    20247769.180    84213052.324 8      2313.573
G09  24371684.320   128074065.352 6      6165.376    24371682.520   128074065.359 5      6165.376    24371701.520    99798040.652 5      4804.189    24371701.140    99798043.672 6      4804.189
G21  22678590.020   119176798.043 7      1336.730    22678587.260   119176798.048 5      1336.730    22678594.000    92865041.476 5      1041.608
G02  21879000.880   114974922.788 7      2018.649    21878999.140   114974922.798 6      2018.649    21879003.040    89590856.417 6      1572.973
R17  21695499.380   116097009.416 7      5126.023    21695500.620   116097009.431 7      5126.023    21695512.820    90297729.071 8      3986.907    21695513.200    90297727.081 8      3986.907
G14  22136434.200   116327742.305 6      1780.692    22136434.120   116327742.317 4      1780.692    22136440.860    90645019.052 4      1387.553    22136441.680    90645024.035 7      1387.553
R02  19899986.860   106190140.581 8      5259.621    19899985.020   106190140.574 8      5259.621    19899996.580    82592376.069 8      4090.816    19899996.480    82592375.078 8      4090.816
G17  22362783.260   117517224.168 7      5343.705    22362783.420   117517224.170 6      5343.705    22362788.680    91571868.854 6      4163.926    22362788.860    91571886.865 7      4163.926
G04  22178634.140   116549517.193 7      5402.146    22178633.440   116549517.198 5      5402.146    22178640.820    90817830.522 5      4209.464    22178641.460    90817835.538 7      4209.464
G03  19972627.820   104956866.347 8      2045.786    19972627.260   104956866.354 8      2045.786    19972633.200    81784592.188 8      1594.119    19972634.240    81784596.187 8      1594.119
> 2024 06 03 14 38 44.0000000  0 14
G08  23120185.600   121497394.170 7      -402.816    23120184.660   121497394.175 6      -402.816    23120197.020    94673330.037 6      -313.882    23120198.280    94673340.045 7      -313.882
G22  23175877.500   121790064.473 7      3197.258    23175876.400   121790064.481 4      3197.258    23175882.820    94901338.873 4      2491.370
R01  19760050.980   105628789.735 7      1156.699    19760051.600   105628789.761 7      1156.699    19760062.540    82155777.673 7       899.655    19760061.500    82155774.666 7       899.655
R23  22966218.420   122853767.426 6       721.819    22966216.820   122853767.430 6       721.819
R24  20247202.700   108270885.196 8      2974.644    20247202.300   108270885.209 8      2974.644    20247213.020    84210740.728 8      2313.612    20247212.740    84210738.716 8      2313.612
G09  24370510.620   128067899.850 6      6165.474    24370509.140   128067899.860 5      6165.474    24370528.140    99793236.373 5      4804.265    24370528.500    99793239.387 6      4804.265
G21  22678335.580   119175461.178 7      1337.003    22678332.820   119175461.180 5      1337.003    22678339.340    92863999.761 5      1041.821
G02  21878616.740   114972904.076 8      2018.750    21878615.120   114972904.084 6      2018.750    21878618.960    89589283.393 6      1573.052
R17  21694541.620   116091883.267 7      5126.232    21694542.700   116091883.282 7      5126.232    21694554.740    90293742.070 8      3987.069    21694555.200    90293740.081 8      3987.069
G14  22136095.440   116325961.770 6      1780.315    22136095.400   116325961.777 4      1780.315    22136102.080    90643631.618 4      1387.259    22136102.900    90643636.604 7      1387.259
R02  19899001.420   106184881.204 8      5259.090    19898999.200   106184881.189 8      5259.090    19899010.920    82588285.442 8      4090.403    19899010.900    82588284.453 8      4090.403
G17  22361766.540   117511880.357 7      5343.750    22361766.380   117511880.361 6      5343.750    22361771.800    91567704.849 6      4163.961    22361772.120    91567722.858 7      4163.961
G04  22177606.020   116544115.069 7      5402.139    22177605.520   116544115.074 5      5402.139    22177612.780    90813621.083 5      4209.459    22177613.540    90813626.099 7      4209.459
G03  19972238.460   104954820.706 8      2045.444    19972238.120   104954820.713 8      2045.444    19972243.920    81782998.180 8      1593.853    19972244.940    81783002.179 8      1593.853
> 2024 06 03 14 38 45.0000000  0 14
G08  23120262.480   121497797.160 7      -403.123    23120261.480   121497797.162 6      -403.123    23120273.940    94673644.047 6      -314.122    23120275.180    94673654.055 7      -314.122
G22  23175269.280   121786867.428 7      3196.837    23175267.900   121786867.436 4      3196.837    23175274.520    94898847.671 4      2491.042
R01  19759834.380   105627633.723 7      1155.631    19759835.300   105627633.746 7      1155.631    19759846.200    82154878.547 7       898.824    19759845.060    82154875.541 7       898.824
R23  22966084.180   122853045.949 6       721.399    22966082.340   122853045.945 6       721.399
R24  20246646.380   108267910.961 7      2974.132    20246646.020   108267910.971 8      2974.132    20246656.760    84208427.428 8      2313.214    20246656.900    84208425.418 8      2313.214
G09  24369337.100   128061734.232 6      6165.790    24369335.740   128061734.242 5      6165.790    24369354.800    99788431.998 5      4804.512    24369354.560    99788435.006 6      4804.512
G21  22678081.060   119174124.457 7      1336.761    22678078.460   119174124.462 5      1336.761    22678085.200    92862958.158 5      1041.632
G02  21878232.460   114970885.533 7      2018.455    21878231.040   114970885.541 6      2018.455    21878234.680    89587710.500 6      1572.822
R17  21693583.780   116086757.126 7      5126.165    21693585.000   116086757.146 7      5126.165    21693596.540    90289755.080 8      3987.017    21693596.920    90289753.092 8      3987.017
G14  22135756.940   116324181.769 6      1779.785    22135756.760   116324181.776 4      1779.785    22135763.400    90642244.604 4      1386.845    22135764.060    90642249.581 7      1386.845
R02  19898015.980   106179622.566 8      5258.287    19898013.680   106179622.561 8      5258.287    19898025.240    82584195.398 8      4089.778    19898025.600    82584194.412 8      4089.778
G17  22360749.660   117506536.782 7      5343.500    22360749.440   117506536.789 6      5343.500    22360754.780    91563541.029 6      4163.767    22360755.120    91563559.038 7      4163.767
G04  22176578.360   116538713.258 7      5401.709    22176577.640   116538713.265 5      5401.709    22176584.840    90809411.890 5      4209.124    22176585.720    90809416.902 7      4209.124
G03  19971849.500   104952775.625 8      2044.807    19971848.880   104952775.630 8      2044.807    19971854.680    81781404.610 8      1593.356    19971855.860    81781408.609 8      1593.356
> 2024 06 03 14 38 46.0000000  0 14
G08  23120339.320   121498200.431 7      -403.313    23120338.180   121498200.434 6      -403.313    23120350.660    94673958.277 6      -314.270    23120351.740    94673968.291 7      -314.270
G22  23174660.880   121783671.019 7      3196.374    23174659.740   121783671.023 4      3196.374    23174666.220    94896356.962 4      2490.681
R01  19759618.020   105626478.531 7      1154.891    19759618.920   105626478.546 7      1154.891    19759629.940    82153980.056 7       898.248    19759629.020    82153977.055 7       898.248
R23  22965948.940   122852324.735 6       720.967    22965947.340   122852324.739 6       720.967
R24  20246090.340   108264936.961 8      2973.850    20246089.880   108264936.970 7      2973.850    20246100.600    84206114.319 8      2312.994    20246100.580    84206112.307 8      2312.994
G09  24368163.880   128055568.638 6      6165.804    24368162.480   128055568.654 5      6165.804    24368181.700    99783627.651 5      4804.522    24368181.360    99783630.659 6      4804.522
G21  22677826.720   119172787.760 7      1336.672    22677824.120   119172787.760 5      1336.672    22677830.740    92861916.574 5      1041.563
G02  21877848.260   114968867.077 7      2018.436    21877847.020   114968867.087 6      2018.436    21877850.720    89586137.675 6      1572.807
R17  21692626.500   116081631.028 7      5126.225    21692627.220   116081631.045 7      5126.225    21692638.580    90285768.118 8      3987.064    21692639.000    90285766.127 8      3987.064
G14  22135418.220   116322402.377 6      1779.315    22135418.260   116322402.387 4      1779.315    22135424.840    90640858.063 4      1386.479    22135425.120    90640863.051 7      1386.479
R02  19897030.360   106174364.688 8      5257.706    19897028.540   106174364.681 8      5257.706    19897039.800    82580105.940 8      4089.327    19897040.420    82580104.951 8      4089.327
G17  22359732.940   117501193.427 7      5343.431    22359732.760   117501193.432 6      5343.431    22359738.100    91559377.382 6      4163.712    22359738.280    91559395.387 7      4163.712
G04  22175550.340   116533311.749 7      5401.430    22175549.680   116533311.759 5      5401.430    22175557.160    90805202.928 5      4208.907    22175557.860    90805207.940 7      4208.907
G03  19971460.260   104950731.059 8      2044.426    19971459.900   104950731.063 8      2044.426    19971465.660    81779811.444 8      1593.059    19971466.900    81779815.443 8      1593.059
> 2024 06 03 14 38 47.0000000  0 14
G08  23120416.160   121498603.921 7      -403.526    23120415.020   121498603.926 6      -403.526    23120427.360    94674272.674 6      -314.436    23120428.240    94674282.684 7      -314.436
G22  23174052.460   121780475.024 7      3195.755    23174051.380   121780475.032 4      3195.755    23174057.960    94893866.581 4      2490.199
R01  19759401.840   105625324.109 7      1154.239    19759402.940   105625324.132 7      1154.239    19759414.140    82153082.180 7       897.741    19759412.760    82153079.173 7       897.741
R23  22965814.360   122851603.755 6       721.043    22965812.480   122851603.751 6       721.043
R24  20245534.460   108261963.138 8      2973.879    20245534.020   108261963.147 8      2973.879    20245544.520    84203801.343 8      2313.017    20245544.300    84203799.331 8      2313.017
G09  24366990.460   128049402.884 6      6165.992    24366989.180   128049402.887 5      6165.992    24367008.540    99778823.157 5      4804.669    24367008.020    99778826.165 6      4804.669
G21  22677572.160   119171451.053 7      1336.919    22677569.840   119171451.055 5      1336.919    22677576.400    92860874.983 5      1041.755
G02  21877464.080   114966848.660 7      2018.564    21877462.800   114966848.667 6      2018.564    21877466.560    89584564.885 6      1572.907
R17  21691668.180   116076504.822 7      5126.326    21691668.920   116076504.840 7      5126.326    21691680.660    90281781.070 8      3987.143    21691681.420    90281779.078 8      3987.143
G14  22135079.920   116320623.429 6      1778.653    22135079.800   116320623.439 4      1778.653    22135086.260    90639471.868 4      1385.963    22135086.260    90639476.843 7      1385.963
R02  19896045.180   106169107.440 8      5257.006    19896043.400   106169107.433 8      5257.006    19896054.480    82576016.972 8      4088.783    19896055.080    82576015.983 8      4088.783
G17  22358716.120   117495850.144 7      5343.361    22358715.980   117495850.146 6      5343.361    22358721.460    91555213.785 6      4163.658    22358721.260    91555231.792 7      4163.658
G04  22174522.460   116527910.437 7      5401.345    22174521.760   116527910.447 5      5401.345    22174529.260    90800994.119 5      4208.840    22174529.840    90800999.125 7      4208.840
G03  19971071.380   104948686.923 8      2044.029    19971070.940   104948686.926 8      2044.029    19971076.700    81778218.607 8      1592.750    19971077.980    81778222.604 8      1592.750
> 2024 06 03 14 38 48.0000000  0 14
G08  23120492.840   121499007.571 7      -403.844    23120491.740   121499007.576 6      -403.844    23120504.240    94674587.196 6      -314.684    23120504.760    94674597.202 7      -314.684
G22  23173444.380   121777279.521 7      3195.128    23173443.320   121777279.526 4      3195.128    23173450.220    94891376.577 4      2489.710
R01  19759186.180   105624170.449 7      1153.151    19759187.220   105624170.461 7      1153.151    19759198.460    82152184.881 7       896.895    19759197.300    82152181.869 7       896.895
R23  22965679.640   122850882.907 6       720.669    22965677.340   122850882.908 6       720.669
R24  20244978.040   108258989.533 8      2973.380    20244977.740   108258989.545 8      2973.380    20244988.380    84201488.542 8      2312.629    20244988.000    84201486.529 8      2312.629
G09  24365817.940   128043237.017 6      6165.893    24365815.840   128043237.014 5      6165.893    24365835.340    99774018.581 5      4804.592    24365835.040    99774021.589 6      4804.592
G21  22677317.980   119170114.256 7      1336.800    22677315.360   119170114.263 5      1336.800    22677321.940    92859833.321 5      1041.662
G02  21877080.220   114964830.216 7      2018.334    21877078.680   114964830.224 6      2018.334    21877082.520    89582992.067 6      1572.728
R17  21690709.860   116071378.521 7      5126.220    21690711.460   116071378.541 7      5126.220    21690722.360    90277793.952 8      3987.060    21690722.880    90277791.959 8      3987.060
G14  22134741.680   116318844.952 6      1778.242    22134741.500   116318844.964 4      1778.242    22134747.700    90638086.039 4      1385.643    22134748.420    90638091.019 7      1385.643
R02  19895060.300   106163850.822 8      5256.230    19895058.540   106163850.817 8      5256.230    19895069.300    82571928.497 8      4088.179    19895069.720    82571927.508 8      4088.179
G17  22357699.400   117490506.979 7      5343.033    22357699.060   117490506.987 6      5343.033    22357704.620    91551050.288 6      4163.402    22357704.660    91551068.295 7      4163.402
G04  22173494.900   116522509.330 7      5400.986    22173493.860   116522509.334 5      5400.986    22173501.660    90796785.466 5      4208.561    22173502.280    90796790.481 7      4208.561
G03  19970682.500   104946643.216 8      2043.387    19970682.060   104946643.224 8      2043.387    19970687.840    81776626.114 8      1592.250    19970688.940    81776630.113 8      1592.250
> 2024 06 03 14 38 49.0000000  0 14
G08  23120569.900   121499411.462 7      -404.045    23120568.480   121499411.467 6      -404.045    23120581.140    94674901.904 6      -314.840    23120582.320    94674911.916 7      -314.840
G22  23172836.480   121774084.536 7      3194.689    23172835.460   121774084.541 4      3194.689    23172842.140    94888886.978 4      2489.368
R01  19758970.520   105623017.628 7      1152.299    19758970.940   105623017.635 7      1152.299    19758982.460    82151288.236 7       896.232    19758981.560    82151285.222 7       896.232
R23  22965545.160   122850162.355 6       720.471    22965542.900   122850162.354 6       720.471
R24  20244422.200   108256016.252 7      2973.061    20244421.560   108256016.267 7      2973.061    20244432.480    84199175.990 8      2312.381    20244432.060    84199173.978 8      2312.381
G09  24364644.320   128037071.037 6      6166.028    24364642.480   128037071.031 5      6166.028    24364662.060    99769213.922 5      4804.697    24364661.600    99769216.948 6      4804.697
G21  22677063.440   119168777.548 7      1336.559    22677061.040   119168777.553 5      1336.559    22677067.400    92858791.727 5      1041.474
G02  21876696.060   114962811.881 7      2018.197    21876694.640   114962811.888 6      2018.197    21876698.400    89581419.338 6      1572.621
R17  21689752.020   116066252.187 8      5126.313    21689753.460   116066252.204 7      5126.313    21689764.200    90273806.800 7      3987.133    21689764.860    90273804.806 7      3987.133
G14  22134403.200   116317067.036 6      1777.657    22134403.240   116317067.052 4      1777.657    22134409.360    90636700.651 4      1385.187    22134410.000    90636705.624 7      1385.187
R02  19894075.240   106158594.908 8      5255.524    19894073.900   106158594.904 8      5255.524    19894084.620    82567840.568 8      4087.630    19894084.560    82567839.575 8      4087.630
G17  22356682.680   117485164.016 8      5342.822    22356682.240   117485164.021 6      5342.822    22356688.080    91546886.942 6      4163.238    22356687.740    91546904.951 7      4163.238
G04  22172466.980   116517108.493 7      5400.602    22172465.900   116517108.501 5      5400.602    22172473.820    90792577.031 5      4208.262    22172474.660    90792582.049 7      4208.262
G03  19970293.840   104944600.022 8      2042.873    19970293.200   104944600.027 8      2042.873    19970298.960    81775034.019 8      1591.849    19970299.920    81775038.020 8      1591.849
> 2024 06 03 14 38 50.0000000  0 14
G08  23120646.780   121499815.582 7      -404.484    23120645.420   121499815.593 6      -404.484    23120658.200    94675216.801 6      -315.183    23120659.360    94675226.809 7      -315.183
G22  23172228.720   121770890.089 7      3194.039    23172227.580   121770890.094 4      3194.039    23172234.320    94886397.803 4      2488.861
R01  19758755.260   105621865.636 7      1151.277    19758755.260   105621865.640 7      1151.277    19758767.220    82150392.242 7       895.437    19758766.120    82150389.232 7       895.437
R23  22965410.340   122849442.101 6       719.849    22965408.680   122849442.105 6       719.849
R24  20243866.580   108253043.252 8      2972.578    20243865.500   108253043.270 7      2972.578    20243876.300    84196863.659 8      2312.005    20243876.180    84196861.646 8      2312.005
G09  24363471.020   128030904.955 6      6165.863    24363469.100   128030904.959 5      6165.863    24363488.560    99764409.200 5      4804.568    24363488.220    99764412.225 6      4804.568
G21  22676809.080   119167440.859 7      1336.356    22676806.820   119167440.864 5      1336.356    22676813.060    92857750.147 5      1041.316
G02  21876312.060   114960793.624 7      2017.969    21876310.680   114960793.631 6      2017.969    21876314.160    89579846.669 6      1572.443
R17  21688793.860   116061125.818 8      5126.218    21688795.840   116061125.844 7      5126.218    21688806.540    90269819.639 8      3987.058    21688806.900    90269817.648 7      3987.058
G14  22134064.600   116315289.655 6      1776.939    22134065.060   116315289.667 4      1776.939    22134071.100    90635315.672 4      1384.627    22134071.720    90635320.649 7      1384.627
R02  19893090.320   106153339.666 8      5254.678    19893089.040   106153339.662 8      5254.678    19893099.700    82563753.160 8      4086.972    19893100.060    82563752.169 8      4086.972
G17  22355665.940   117479821.238 7      5342.501    22355665.460   117479821.242 6      5342.501    22355671.280    91542723.740 6      4162.988    22355671.340    91542741.749 7      4162.988
G04  22171439.360   116511707.883 7      5400.185    22171438.240   116511707.890 5      5400.185    22171446.060    90788368.773 5      4207.937    22171446.860    90788373.793 7      4207.937
G03  19969905.060   104942557.311 8      2042.275    19969904.380   104942557.321 8      2042.275    19969910.220    81773442.300 8      1591.383    19969911.320    81773446.301 8      1591.383
> 2024 06 03 14 38 51.0000000  0 14
G08  23120723.380   121500220.110 7      -404.759    23120722.440   121500220.120 6      -404.759    23120735.300    94675532.011 6      -315.397    23120735.980    94675542.009 7      -315.397
G22  23171621.100   121767696.368 7      3193.498    23171619.880   121767696.370 4      3193.498    23171626.620    94883909.187 4      2488.440
R01  19758540.020   105620714.590 7      1150.608    19758539.940   105620714.594 7      1150.608    19758552.120    82149496.986 7       894.917    19758550.700    82149493.978 7       894.917
R23  22965275.240   122848722.194 6       719.697    22965273.720   122848722.206 6       719.697
R24  20243310.640   108250070.672 7      2972.386    20243309.580   108250070.687 7      2972.386    20243320.100    84194551.648 8      2311.856    20243320.360    84194549.639 8      2311.856
G09  24362297.500   128024738.990 6      6165.826    24362295.800   128024738.998 5      6165.826    24362315.100    99759604.567 5      4804.540    24362315.100    99759607.589 6      4804.540
G21  22676554.660   119166104.327 7      1336.407    22676552.600   119166104.332 5      1336.407    22676558.660    92856708.692 5      1041.356
G02  21875927.920   114958775.575 8      2017.992    21875926.520   114958775.585 6      2017.992    21875930.280    89578274.165 6      1572.461
R17  21687835.900   116055999.608 7      5126.144    21687838.120   116055999.636 7      5126.144    21687848.620    90265832.590 8      3987.001    21687848.800    90265830.599 8      3987.001
G14  22133726.580   116313512.953 6      1776.454    22133726.920   116313512.966 4      1776.454    22133732.960    90633931.231 4      1384.250    22133733.380    90633936.215 7      1384.250
R02  19892105.720   106148085.284 8      5254.089    19892104.580   106148085.277 8      5254.089    19892115.000    82559666.422 8      4086.514    19892115.300    82559665.429 8      4086.514
G17  22354649.140   117474478.793 7      5342.395    22354649.060   117474478.795 6      5342.395    22354654.700    91538560.794 6      4162.905    22354654.740    91538578.803 7      4162.905
G04  22170411.560   116506307.700 7      5400.032    22170410.540   116506307.703 5      5400.032    22170418.520    90784160.843 5      4207.817    22170419.700    90784165.855 7      4207.817
G03  19969516.340   104940515.277 8      2041.797    19969515.720   104940515.285 8      2041.797    19969521.640    81771851.103 8      1591.011    19969522.800    81771855.102 8      1591.011
> 2024 06 03 14 38 52.0000000  0 14
G08  23120800.600   121500624.855 7      -405.024    23120799.360   121500624.860 6      -405.024    23120812.260    94675847.379 6      -315.603    23120813.180    94675857.378 7      -315.603
G22  23171013.460   121764503.040 7      3193.054    23171012.120   121764503.037 4      3193.054    23171019.060    94881420.879 4      2488.094
R01  19758324.880   105619564.356 7      1149.779    19758324.660   105619564.365 7      1149.779    19758336.560    82148602.362 7       894.272    19758335.360    82148599.354 7       894.272
R23  22965140.560   122848002.618 6       719.301    22965139.980   122848002.620 6       719.301
R24  20242754.860   108247098.338 8      2972.039    20242753.660   108247098.353 8      2972.039    20242764.200    84192239.834 8      2311.586    20242764.420    84192237.826 8      2311.586
G09  24361123.860   128018572.887 6      6166.026    24361122.580   128018572.889 5      6166.026    24361141.720    99754799.811 5      4804.696    24361141.100    99754802.819 6      4804.696
G21  22676300.320   119164767.822 7      1336.423    22676298.380   119164767.827 5      1336.423    22676304.300    92855667.253 5      1041.369
G02  21875543.960   114956757.596 7      2017.867    21875542.380   114956757.604 6      2017.867    21875546.320    89576701.716 6      1572.364
R17  21686878.060   116050873.276 8      5126.347    21686880.000   116050873.294 7      5126.347    21686890.640    90261845.438 8      3987.159    21686891.140    90261843.444 8      3987.159
G14  22133388.660   116311736.704 6      1775.921    22133388.780   116311736.722 4      1775.921    22133394.920    90632547.143 4      1383.835    22133395.380    90632552.123 7      1383.835
R02  19891121.120   106142831.601 8      5253.237    19891120.000   106142831.591 8      5253.237    19891130.500    82555580.228 8      4085.851    19891130.900    82555579.233 8      4085.851
G17  22353632.400   117469136.429 7      5342.253    22353632.420   117469136.426 6      5342.253    22353638.000    91534397.917 6      4162.795    22353638.440    91534415.928 7      4162.795
G04  22169383.960   116500907.734 7      5399.793    22169383.100   116500907.736 5      5399.793    22169390.960    90779953.083 5      4207.631    22169391.980    90779958.105 7      4207.631
G03  19969127.760   104938473.670 8      2041.322    19969127.220   104938473.675 8      2041.322    19969133.080    81770260.236 8      1590.640    19969134.340    81770264.239 8      1590.640
> 2024 06 03 14 38 53.0000000  0 14
G08  23120877.600   121501029.816 7      -405.065    23120876.480   121501029.818 6      -405.065    23120889.480    94676162.922 6      -315.635    23120890.140    94676172.914 7      -315.635
G22  23170405.780   121761310.178 7      3192.724    23170404.420   121761310.178 4      3192.724    23170411.600    94878932.939 4      2487.837
R01  19758109.500   105618414.847 7      1149.186    19758109.120   105618414.856 7      1149.186    19758121.520    82147708.303 7       893.811    19758120.000    82147705.289 7       893.811
R23  22965005.940   122847283.164 6       719.306    22965005.180   122847283.173 6       719.306
R24  20242198.760   108244126.108 7      2972.210    20242197.840   108244126.128 7      2972.210    20242208.420    84189928.104 8      2311.719    20242208.800    84189926.100 8      2311.719
G09  24359950.600   128012406.670 6      6166.473    24359949.020   128012406.672 5      6166.473    24359968.420    99749994.965 5      4805.044    24359967.660    99749997.983 6      4805.044
G21  22676045.760   119163431.267 7      1336.717    22676044.080   119163431.277 5      1336.717    22676050.000    92854625.779 5      1041.598
G02  21875159.860   114954739.594 7      2018.020    21875158.340   114954739.605 6      2018.020    21875162.260    89575129.249 6      1572.483
R17  21685919.680   116045746.846 8      5126.557    21685922.100   116045746.867 7      5126.557    21685932.520    90257858.222 8      3987.322    21685932.880    90257856.233 8      3987.322
G14  22133050.680   116309960.928 6      1775.698    22133050.700   116309960.943 4      1775.698    22133057.120    90631163.417 4      1383.661    22133057.260    90631168.397 7      1383.661
R02  19890136.460   106137578.603 8      5252.693    19890135.800   106137578.596 8      5252.693    19890146.180    82551494.565 8      4085.428    19890146.480    82551493.570 8      4085.428
G17  22352615.900   117463794.170 7      5342.252    22352615.920   117463794.173 6      5342.252    22352621.540    91530235.126 6      4162.794    22352621.780    91530253.134 7      4162.794
G04  22168356.480   116495508.022 7      5399.630    22168355.580   116495508.024 5      5399.630    22168363.560    90775745.519 5      4207.504    22168364.400    90775750.538 7      4207.504
G03  19968739.380   104936432.491 8      2041.091    19968738.900   104936432.493 8      2041.091    19968744.660    81768669.703 8      1590.461    19968745.940    81768673.705 8      1590.461
> 2024 06 03 14 38 54.0000000  0 14
G08  23120954.880   121501435.155 7      -405.605    23120953.500   121501435.158 6      -405.605    23120966.460    94676478.763 6      -316.056    23120966.900    94676488.767 7      -316.056
G22  23169798.280   121758117.949 7      3192.092    23169797.000   121758117.948 4      3192.092    23169804.220    94876445.488 4      2487.345
R01  19757894.500   105617266.294 7      1148.135    19757894.280   105617266.301 7      1148.135    19757906.560    82146814.972 7       892.994    19757905.220    82146811.958 7       892.994
R23  22964872.160   122846564.150 6       718.813    22964870.760   122846564.165 6       718.813
R24  20241643.280   108241154.287 7      2971.740    20241642.160   108241154.307 8      2971.740    20241652.560    84187616.690 8      2311.353    20241652.900    84187614.683 8      2311.353
G09  24358777.200   128006240.509 6      6166.180    24358775.480   128006240.514 5      6166.180    24358795.000    99745190.168 5      4804.815    24358794.200    99745193.184 6      4804.815
G21  22675791.700   119162094.893 7      1336.434    22675789.680   119162094.898 5      1336.434    22675795.540    92853584.445 5      1041.377
G02  21874776.040   114952721.792 8      2017.792    21874774.320   114952721.800 6      2017.792    21874778.060    89573556.934 6      1572.305
R17  21684961.880   116040620.499 7      5126.366    21684964.160   116040620.525 7      5126.366    21684974.420    90253871.070 8      3987.173    21684975.120    90253869.076 8      3987.173
G14  22132712.640   116308185.774 6      1775.120    22132712.840   116308185.792 4      1775.120    22132719.220    90629780.180 4      1383.211    22132719.440    90629785.160 7      1383.211
R02  19889152.520   106132326.403 8      5251.870    19889151.660   106132326.398 8      5251.870    19889161.800    82547409.527 8      4084.787    19889162.080    82547408.534 8      4084.787
G17  22351599.340   117458452.182 7      5341.890    22351599.160   117458452.187 6      5341.890    22351604.860    91526072.544 6      4162.511    22351605.080    91526090.552 7      4162.511
G04  22167328.940   116490108.683 7      5399.157    22167328.060   116490108.685 5      5399.157    22167336.140    90771538.252 5      4207.135    22167337.020    90771543.273 7      4207.135
G03  19968351.240   104934391.908 8      2040.431    19968350.560   104934391.910 8      2040.431    19968356.280    81767079.642 8      1589.946    19968357.460    81767083.643 8      1589.946
> 2024 06 03 14 38 55.0000000  0 14
G08  23121031.960   121501840.524 7      -405.601    23121030.720   121501840.531 6      -405.601    23121043.540    94676794.628 6      -316.053    23121044.000    94676804.624 7      -316.053
G22  23169191.020   121754926.153 7      3191.483    23169189.580   121754926.153 4      3191.483    23169196.820    94873958.376 4      2486.870
R01  19757680.060   105616118.354 7      1147.435    19757679.040   105616118.360 7      1147.435    19757691.740    82145922.134 7       892.450    19757690.800    82145919.116 7       892.450
R23  22964737.500   122845845.166 6       718.789    22964736.840   122845845.191 6       718.789
R24  20241087.660   108238182.594 7      2971.451    20241086.580   108238182.606 8      2971.451    20241096.720    84185305.373 8      2311.129    20241097.320    84185303.367 8      2311.129
G09  24357603.740   128000074.127 6      6166.391    24357602.000   128000074.126 5      6166.391    24357621.600    99740385.189 5      4804.980    24357621.060    99740388.207 6      4804.980
G21  22675537.480   119160758.330 7      1336.518    22675535.320   119160758.329 5      1336.518    22675541.300    92852542.963 5      1041.442
G02  21874392.040   114950703.901 7      2017.754    21874390.360   114950703.911 6      2017.754    21874394.120    89571984.559 6      1572.276
R17  21684003.880   116035494.005 8      5126.371    21684006.680   116035494.033 7      5126.371    21684016.460    90249883.796 8      3987.177    21684016.900    90249881.799 7      3987.177
G14  22132374.480   116306411.128 6      1774.339    22132375.180   116306411.143 4      1774.339    22132381.500    90628397.335 4      1382.602    22132382.080    90628402.304 7      1382.602
R02  19888168.420   106127074.758 8      5251.228    19888167.580   106127074.753 8      5251.228    19888177.620    82543324.912 8      4084.288    19888177.900    82543323.917 8      4084.288
G17  22350582.920   117453110.271 7      5341.716    22350582.700   117453110.276 6      5341.716    22350588.220    91521910.018 6      4162.376    22350588.260    91521928.027 7      4162.376
G04  22166301.580   116484709.423 7      5399.199    22166300.520   116484709.428 5      5399.199    22166308.780    90767331.045 5      4207.168    22166309.720    90767336.059 7      4207.168
G03  19967962.920   104932351.709 8      2039.853    19967962.180   104932351.711 8      2039.853    19967968.080    81765489.876 8      1589.496    19967969.200    81765493.881 8      1589.496
> 2024 06 03 14 38 56.0000000  0 14
G08  23121109.160   121502246.178 7      -405.815    23121107.960   121502246.183 6      -405.815    23121120.760    94677110.712 6      -316.220    23121121.120    94677120.706 7      -316.220
G22  23168583.760   121751734.904 7      3190.986    23168582.320   121751734.904 4      3190.986    23168589.580    94871471.693 4      2486.483
R01  19757465.660   105614971.279 7      1146.720    19757464.460   105614971.286 7      1146.720    19757476.980    82145029.960 7       891.893    19757476.180    82145026.945 7       891.893
R23  22964603.240   122845126.527 6       718.489    22964602.240   122845126.534 6       718.489
R24  20240532.020   108235211.228 7      2971.290    20240530.740   108235211.240 8      2971.290    20240540.860    84182994.304 8      2311.003    20240541.700    84182992.304 8      2311.003
G09  24356430.100   127993907.666 6      6166.425    24356428.540   127993907.660 5      6166.425    24356447.980    99735580.150 5      4805.006    24356447.280    99735583.166 6      4805.006
G21  22675283.240   119159421.864 7      1336.525    22675281.040   119159421.869 5      1336.525    22675286.820    92851501.561 5      1041.448
G02  21874008.080   114948686.133 7      2017.784    21874006.220   114948686.145 6      2017.784    21874010.100    89570412.268 6      1572.299
R17  21683045.780   116030367.489 8      5126.601    21683048.260   116030367.512 7      5126.601    21683058.600    90245896.504 7      3987.357    21683059.200    90245894.509 7      3987.357
G14  22132036.980   116304636.952 6      1773.830    22132037.440   116304636.964 4      1773.830    22132043.960    90627014.860 4      1382.205    22132044.260    90627019.852 7      1382.205
R02  19887184.400   106121823.817 8      5250.579    19887183.720   106121823.807 8      5250.579    19887193.760    82539240.847 8      4083.783    19887194.080    82539239.854 8      4083.783
G17  22349566.420   117447768.548 7      5341.688    22349566.160   117447768.558 6      5341.688    22349571.720    91517747.645 6      4162.354    22349571.900    91517765.652 7      4162.354
G04  22165274.260   116479310.468 7      5398.827    22165273.160   116479310.468 5      5398.827    22165281.140    90763124.071 5      4206.879    22165282.400    90763129.081 7      4206.879
G03  19967574.880   104930312.014 8      2039.485    19967573.880   104930312.016 8      2039.485    19967579.980    81763900.504 8      1589.209    19967581.120    81763904.509 8      1589.209
> 2024 06 03 14 38 57.0000000  0 14
G08  23121186.480   121502652.153 7      -406.144    23121185.180   121502652.161 6      -406.144    23121198.100    94677427.046 6      -316.476    23121198.420    94677437.034 7      -316.476
G22  23167976.460   121748544.283 7      3190.163    23167974.980   121748544.285 4      3190.163    23167982.480    94868985.497 4      2485.841
R01  19757251.440   105613825.087 7      1145.624    19757249.840   105613825.104 7      1145.624    19757262.920    82144138.490 7       891.041    19757261.920    82144135.476 7       891.041
R23  22964468.980   122844408.187 6       718.195    22964467.400   122844408.205 6       718.195
R24  20239976.360   108232240.174 8      2970.869    20239974.920   108232240.186 7      2970.869    20239985.220    84180683.481 8      2310.676    20239986.040    84180681.483 8      2310.676
G09  24355256.460   127987741.199 6      6166.410    24355255.220   127987741.199 5      6166.410    24355274.360    99730775.120 5      4804.995    24355274.260    99730778.138 6      4804.995
G21  22675029.020   119158085.511 7      1336.223    22675026.960   119158085.513 5      1336.223    22675032.480    92850460.247 5      1041.213
G02  21873624.260   114946668.506 7      2017.560    21873622.360   114946668.514 6      2017.560    21873626.220    89568840.086 6      1572.125
R17  21682087.740   116025241.003 7      5126.411    21682090.100   116025241.031 7      5126.411    21682100.720    90241909.246 8      3987.208    21682100.940    90241907.254 8      3987.208
G14  22131699.720   116302863.414 6      1773.229    22131699.600   116302863.429 4      1773.229    22131706.380    90625632.885 4      1381.737    22131706.500    90625637.852 7      1381.737
R02  19886200.540   106116573.685 8      5249.624    19886199.840   106116573.673 8      5249.624    19886209.720    82535157.419 8      4083.041    19886210.240    82535156.424 8      4083.041
G17  22348549.940   117442427.083 7      5341.305    22348549.740   117442427.091 6      5341.305    22348555.520    91513585.466 6      4162.055    22348555.960    91513603.468 7      4162.055
G04  22164246.900   116473911.855 7      5398.371    22164245.920   116473911.854 5      5398.371    22164253.740    90758917.363 5      4206.523    22164254.940    90758922.382 7      4206.523
G03  19967186.800   104928272.884 8      2038.797    19967185.820   104928272.889 8      2038.797    19967191.940    81762311.574 8      1588.673    19967193.180    81762315.579 8      1588.673
> 2024 06 03 14 38 58.0000000  0 14
G08  23121263.540   121503058.481 7      -406.289    23121262.620   121503058.483 6      -406.289    23121275.580    94677743.651 6      -316.589    23121275.980    94677753.648 7      -316.589
G22  23167369.480   121745354.174 7      3190.004    23167367.860   121745354.171 4      3190.004    23167375.480    94866499.696 4      2485.718
R01  19757037.040   105612679.779 7      1145.035    19757035.640   105612679.794 7      1145.035    19757048.440    82143247.691 7       890.582    19757047.560    82143244.675 7       890.582
R23  22964334.380   122843690.222 6       718.043    22964332.960   122843690.240 6       718.043
R24  20239420.580   108229269.423 7      2970.676    20239419.280   108229269.443 7      2970.676    20239429.720    84178372.902 8      2310.526    20239430.300    84178370.907 8      2310.526
G09  24354083.400   127981574.759 6      6166.491    24354081.860   127981574.759 5      6166.491    24354100.980    99725970.108 5      4805.058    24354101.040    99725973.120 6      4805.058
G21  22674774.620   119156749.245 7      1336.199    22674772.560   119156749.250 5      1336.199    22674778.360    92849418.999 5      1041.194
G02  21873240.340   114944651.019 7      2017.511    21873238.560   114944651.027 6      2017.511    21873242.120    89567268.018 6      1572.086
R17  21681129.560   116020114.535 7      5126.543    21681132.160   116020114.558 7      5126.543    21681143.020    90237921.989 8      3987.311    21681142.980    90237919.995 8      3987.311
G14  22131362.280   116301090.441 6      1772.774    22131362.140   116301090.457 4      1772.774    22131368.980    90624251.341 4      1381.382    22131369.240    90624256.325 7      1381.382
R02  19885216.660   106111324.327 8      5249.076    19885216.100   106111324.322 8      5249.076    19885225.980    82531074.589 8      4082.615    19885226.460    82531073.596 8      4082.615
G17  22347533.720   117437085.799 7      5341.368    22347533.420   117437085.804 6      5341.368    22347539.080    91509423.429 6      4162.105    22347539.440    91509441.438 7      4162.105
G04  22163219.560   116468513.569 7      5398.298    22163218.720   116468513.566 5      5398.298    22163226.540    90754710.916 5      4206.466    22163227.560    90754715.930 7      4206.466
G03  19966799.020   104926234.311 8      2038.391    19966797.760   104926234.311 8      2038.391    19966803.940    81760723.075 8      1588.357    19966805.020    81760727.080 8      1588.357
> 2024 06 03 14 38 59.0000000  0 14
G08  23121340.940   121503465.218 7      -407.056    23121340.020   121503465.225 6      -407.056    23121352.760    94678060.583 6      -317.187    23121353.320    94678070.578 7      -317.187
G22  23166762.540   121742164.707 7      3189.028    23166760.880   121742164.707 4      3189.028    23166768.640    94864014.396 4      2484.957
R01  19756822.900   105611535.471 7      1143.782    19756821.320   105611535.478 7      1143.782    19756834.440    82142357.671 7       889.609    19756833.460    82142354.658 7       889.609
R23  22964200.200   122842972.765 6       717.122    22964199.120   122842972.772 6       717.122
R24  20238865.240   108226299.126 7      2970.035    20238864.000   108226299.141 7      2970.035    20238874.320    84176062.669 8      2310.027    20238874.840    84176060.674 8      2310.027
G09  24352909.860   127975408.346 6      6166.236    24352908.480   127975408.345 5      6166.236    24352927.600    99721165.110 5      4804.859    24352927.580    99721168.126 6      4804.859
G21  22674520.580   119155413.178 7      1335.919    22674518.300   119155413.183 5      1335.919    22674524.100    92848377.908 5      1040.976
G02  21872856.480   114942633.766 7      2017.062    21872854.640   114942633.771 6      2017.062    21872858.240    89565696.128 6      1571.737
R17  21680171.680   116014988.129 7      5126.169    21680174.260   116014988.155 7      5126.169    21680184.780    90233934.788 8      3987.020    21680184.980    90233932.791 7      3987.020
G14  22131025.500   116299318.091 6      1771.801    22131024.740   116299318.106 4      1771.801    22131031.780    90622870.291 4      1380.625    22131032.080    90622875.271 7      1380.625
R02  19884232.960   106106075.779 8      5247.995    19884232.540   106106075.777 8      5247.995    19884242.300    82526992.390 8      4081.774    19884242.840    82526991.395 8      4081.774
G17  22346517.400   117431744.841 7      5340.673    22346516.880   117431744.846 6      5340.673    22346522.460    91505261.646 6      4161.564    22346523.060    91505279.651 7      4161.564
G04  22162192.320   116463115.715 7      5397.493    22162191.560   116463115.718 5      5397.493    22162199.340    90750504.804 5      4205.838    22162200.100    90750509.826 7      4205.838
G03  19966410.940   104924196.356 8      2037.544    19966409.900   104924196.358 8      2037.544    19966416.060    81759135.058 8      1587.697    19966417.060    81759139.065 8      1587.697
> 2024 06 03 14 39  0.0000000  0 14
G08  23121418.520   121503872.152 7      -407.200    23121417.620   121503872.157 6      -407.200    23121430.160    94678377.660 6      -317.298    23121430.440    94678387.651 7      -317.298
G22  23166155.520   121738975.809 7      3188.550    23166154.260   121738975.806 4      3188.550    23166161.980    94861529.541 4      2484.585
R01  19756608.860   105610391.975 7      1142.913    19756607.640   105610391.982 7      1142.913    19756620.460    82141468.284 7       888.932    19756619.160    82141465.268 7       888.932
R23  22964066.240   122842255.458 6       717.028    22964064.980   122842255.468 6       717.028
R24  20238309.480   108223329.123 7      2969.762    20238308.620   108223329.127 7      2969.762    20238318.720    84173752.657 8      2309.815    20238319.460    84173750.665 8      2309.815
G09  24351736.520   127969241.851 6      6166.376    24351735.200   127969241.856 5      6166.376    24351754.160    99716360.051 5      4804.968    24351753.720    99716363.065 6      4804.968
G21  22674266.220   119154077.138 7      1335.806    22674264.160   119154077.146 5      1335.806    22674269.860    92847336.835 5      1040.888
G02  21872472.580   114940616.571 8      2017.051    21872470.720   114940616.578 6      2017.051    21872474.360    89564124.292 6      1571.728
R17  21679213.760   116009861.731 7      5126.308    21679216.280   116009861.759 7      5126.308    21679226.900    90229947.594 8      3987.128    21679226.800    90229945.599 8      3987.128
G14  22130688.820   116297546.327 6      1771.320    22130687.580   116297546.342 4      1771.320    22130694.680    90621489.696 4      1380.249    22130694.740    90621494.680 7      1380.249
R02  19883249.880   106100827.918 8      5247.390    19883249.040   106100827.916 8      5247.390    19883258.800    82522910.722 8      4081.303    19883259.160    82522909.727 8      4081.303
G17  22345500.880   117426404.078 7      5340.532    22345500.420   117426404.085 6      5340.532    22345506.260    91501100.016 6      4161.454    22345507.080    91501118.017 7      4161.454
G04  22161165.120   116457718.084 7      5397.348    22161164.400   116457718.089 5      5397.348    22161172.340    90746298.866 5      4205.726    22161173.200    90746303.884 7      4205.726
G03  19966023.280   104922158.921 8      2037.008    19966022.140   104922158.923 8      2037.008    19966028.420    81757547.447 8      1587.279    19966029.360    81757551.450 8      1587.279
> 2024 06 03 14 39  1.0000000  0 14
G08  23121496.120   121504279.625 7      -407.455    23121495.300   121504279.632 6      -407.455    23121507.800    94678695.163 6      -317.497    23121508.240    94678705.161 7      -317.497
G22  23165548.640   121735787.713 7      3188.097    23165547.520   121735787.710 4      3188.097    23165555.500    94859045.312 4      2484.231
R01  19756394.700   105609249.560 7      1142.159    19756393.880   105609249.574 7      1142.159    19756406.540    82140579.749 7       888.346    19756405.760    82140576.735 7       888.346
R23  22963932.260   122841538.718 6       716.679    22963930.680   122841538.730 6       716.679
R24  20237754.540   108220359.634 7      2969.567    20237753.380   108220359.648 7      2969.567    20237763.500    84171443.064 8      2309.663    20237764.100    84171441.068 8      2309.663
G09  24350563.300   127963075.600 6      6166.379    24350561.860   127963075.602 5      6166.379    24350580.800    99711555.182 5      4804.971    24350580.280    99711558.196 6      4804.971
G21  22674012.040   119152741.363 7      1335.993    22674009.980   119152741.373 5      1335.993    22674015.540    92846295.966 5      1041.033
G02  21872088.800   114938599.744 8      2016.943    21872086.880   114938599.751 6      2016.943    21872090.660    89562552.732 6      1571.644
R17  21678255.940   116004735.593 7      5126.378    21678258.220   116004735.621 7      5126.378    21678269.140    90225960.606 8      3987.183    21678269.100    90225958.606 8      3987.183
G14  22130351.420   116295775.367 6      1770.942    22130350.580   116295775.385 4      1770.942    22130357.560    90620109.723 4      1379.955    22130358.080    90620114.707 7      1379.955
R02  19882266.560   106095581.057 8      5246.675    19882265.640   106095581.055 8      5246.675    19882275.600    82518829.838 8      4080.747    19882275.700    82518828.841 8      4080.747
G17  22344484.520   117421063.756 7      5340.412    22344484.180   117421063.761 6      5340.412    22344489.980    91496938.726 6      4161.360    22344490.600    91496956.731 7      4161.360
G04  22160138.500   116452321.011 7      5397.174    22160137.340   116452321.018 5      5397.174    22160145.380    90742093.364 5      4205.590    22160146.180    90742098.380 7      4205.590
G03  19965635.760   104920122.243 8      2036.569    19965634.520   104920122.245 8      2036.569    19965640.840    81755960.427 8      1586.937    19965641.620    81755964.429 8      1586.937
> 2024 06 03 14 39  2.0000000  0 14
G08  23121573.740   121504687.381 7      -408.087    23121572.920   121504687.389 6      -408.087    23121585.400    94679012.889 6      -317.990    23121585.320    94679022.885 7      -317.990
G22  23164942.140   121732600.146 7      3187.133    23164941.000   121732600.143 4      3187.133    23164949.180    94856561.493 4      2483.480
R01  19756181.200   105608108.042 7      1140.879    19756180.440   105608108.056 7      1140.879    19756192.880    82139691.901 7       887.350    19756192.220    82139688.886 7       887.350
R23  22963798.580   122840822.320 6       715.962    22963797.500   122840822.327 6       715.962
R24  20237199.340   108217390.473 7      2968.890    20237198.360   108217390.488 7      2968.890    20237208.060    84169133.717 8      2309.137    20237208.620    84169131.725 8      2309.137
G09  24349389.860   127956909.242 6      6166.216    24349388.380   127956909.241 5      6166.216    24349407.560    99706750.232 5      4804.843    24349407.200    99706753.254 6      4804.843
G21  22673757.800   119151405.743 7      1335.427    22673755.880   119151405.748 5      1335.427    22673761.480    92845255.221 5      1040.593
G02  21871704.880   114936583.047 8      2016.460    21871703.140   114936583.055 6      2016.460    21871706.820    89560981.284 6      1571.268
R17  21677298.220   115999609.465 7      5125.926    21677300.200   115999609.493 7      5125.926    21677311.260    90221973.622 8      3986.831    21677311.280    90221971.626 8      3986.831
G14  22130014.720   116294004.935 6      1769.925    22130013.600   116294004.953 4      1769.925    22130020.660    90618730.168 4      1379.162    22130021.540    90618735.164 7      1379.162
R02  19881283.060   106090334.937 8      5245.614    19881282.520   106090334.938 8      5245.614    19881292.380    82514749.527 8      4079.922    19881292.880    82514748.532 8      4079.922
G17  22343468.000   117415723.620 7      5339.870    22343467.780   117415723.628 6      5339.870    22343473.840    91492777.588 6      4160.938    22343474.360    91492795.593 7      4160.938
G04  22159111.220   116446924.255 7      5396.470    22159110.260   116446924.260 5      5396.470    22159118.580    90737888.102 5      4205.042    22159119.340    90737893.126 7      4205.042
G03  19965248.220   104918086.092 8      2035.697    19965247.100   104918086.095 8      2035.697    19965253.420    81754373.818 8      1586.257    19965253.980    81754377.821 8      1586.257
> 2024 06 03 14 39  3.0000000  0 14
G08  23121651.340   121505095.385 7      -408.081    23121650.600   121505095.390 6      -408.081    23121662.940    94679330.802 6      -317.985    23121662.900    94679340.793 7      -317.985
G22  23164335.540   121729413.108 7      3186.786    23164334.560   121729413.105 4      3186.786    23164342.780    94854078.088 4      2483.210
R01  19755967.740   105606967.286 7      1140.316    19755967.340   105606967.295 7      1140.316    19755979.380    82138804.640 7       886.912    19755978.480    82138801.627 7       886.912
R23  22963664.540   122840106.123 6       716.067    22963664.000   122840106.133 6       716.067
R24  20236644.260   108214421.516 8      2968.844    20236643.120   108214421.528 7      2968.844    20236652.960    84166824.524 8      2309.101    20236653.560    84166822.528 8      2309.101
G09  24348216.600   127950742.859 6      6166.577    24348214.920   127950742.862 5      6166.577    24348234.100    99701945.255 5      4805.125    24348233.300    99701948.254 6      4805.125
G21  22673503.480   119150070.089 7      1335.600    22673501.920   119150070.094 5      1335.600    22673507.180    92844214.450 5      1040.727
G02  21871321.120   114934566.383 7      2016.609    21871319.420   114934566.390 6      2016.609    21871323.100    89559409.856 6      1571.384
R17  21676340.040   115994483.254 7      5126.151    21676342.380   115994483.285 7      5126.151    21676353.200    90217986.569 8      3987.006    21676353.400    90217984.569 8      3987.006
G14  22129677.540   116292235.039 6      1769.746    22129676.580   116292235.054 4      1769.746    22129683.860    90617351.024 4      1379.023    22129684.280    90617356.003 7      1379.023
R02  19880300.080   106085089.562 8      5245.020    19880299.580   106085089.563 8      5245.020    19880309.400    82510669.793 8      4079.460    19880309.800    82510668.794 8      4079.460
G17  22342451.780   117410383.645 7      5339.827    22342451.560   117410383.655 6      5339.827    22342457.720    91488616.576 6      4160.905    22342457.960    91488634.588 8      4160.905
G04  22158084.220   116441527.751 7      5396.462    22158083.320   116441527.756 5      5396.462    22158091.800    90733683.042 5      4205.036    22158092.160    90733688.056 7      4205.036
G03  19964860.800   104916050.418 8      2035.404    19964859.700   104916050.417 8      2035.404    19964866.020    81752787.574 8      1586.029    19964866.700    81752791.579 8      1586.029
> 2024 06 03 14 39  4.0000000  0 14
G08  23121729.120   121505503.599 7      -408.454    23121728.440   121505503.604 6      -408.454    23121740.540    94679648.880 6      -318.276    23121740.820    94679658.880 7      -318.276
G22  23163729.360   121726226.576 7      3186.218    23163728.120   121726226.573 4      3186.218    23163736.460    94851595.077 4      2482.768
R01  19755754.380   105605827.332 7      1139.407    19755754.140   105605827.346 7      1139.407    19755766.020    82137918.016 7       886.205    19755765.180    82137915.000 7       886.205
R23  22963530.740   122839390.172 6       715.689    22963530.340   122839390.173 6       715.689
R24  20236089.180   108211452.842 8      2968.409    20236088.220   108211452.851 7      2968.409    20236097.920    84164515.557 8      2308.763    20236098.220    84164513.559 8      2308.763
G09  24347042.980   127944576.343 6      6166.374    24347041.420   127944576.340 5      6166.374    24347060.660    99697140.175 5      4804.967    24347060.540    99697143.195 6      4804.967
G21  22673249.480   119148734.459 7      1335.496    22673247.740   119148734.464 5      1335.496    22673253.080    92843173.695 5      1040.646
G02  21870937.380   114932549.795 7      2016.418    21870935.620   114932549.799 6      2016.418    21870939.520    89557838.484 6      1571.235
R17  21675382.180   115989357.033 7      5126.025    21675384.480   115989357.064 7      5126.025    21675395.580    90213999.514 8      3986.908    21675395.300    90213997.512 8      3986.908
G14  22129340.900   116290465.666 6      1768.894    22129340.040   116290465.684 4      1768.894    22129347.140    90615972.290 4      1378.359    22129347.880    90615977.285 7      1378.359
R02  19879317.300   106079844.854 8      5244.305    19879316.720   106079844.852 8      5244.305    19879326.360    82506590.576 8      4078.904    19879326.600    82506589.579 8      4078.904
G17  22341435.820   117405043.833 7      5339.624    22341435.340   117405043.840 6      5339.624    22341441.580    91484455.686 6      4160.746    22341441.720    91484473.691 7      4160.746
G04  22157057.300   116436131.473 7      5395.945    22157056.500   116436131.483 5      5395.945    22157064.900    90729478.163 5      4204.633    22157065.300    90729483.185 7      4204.633
G03  19964473.380   104914015.229 8      2034.757    19964472.320   104914015.234 8      2034.757    19964478.740    81751201.715 8      1585.525    19964479.160    81751205.718 8      1585.525
> 2024 06 03 14 39  5.0000000  0 14
G08  23121806.620   121505912.052 7      -408.548    23121806.140   121505912.059 6      -408.548    23121818.320    94679967.149 6      -318.349    23121818.660    94679977.137 7      -318.349
G22  23163123.040   121723040.619 7      3185.635    23163121.940   121723040.616 4      3185.635    23163130.180    94849112.511 4      2482.313
R01  19755541.200   105604688.217 7      1138.656    19755541.060   105604688.234 7      1138.656    19755553.000    82137032.033 7       885.621    19755552.320    82137029.024 7       885.621
R23  22963397.360   122838674.472 6       715.454    22963396.440   122838674.487 6       715.454
R24  20235534.240   108208484.465 8      2968.257    20235533.020   108208484.477 8      2968.257    20235542.960    84162206.820 8      2308.644    20235543.320    84162204.824 8      2308.644
G09  24345869.360   127938409.754 6      6166.596    24345867.980   127938409.756 5      6166.596    24345887.280    99692335.047 5      4805.140    24345887.040    99692338.075 6      4805.140
G21  22672995.180   119147398.863 7      1335.518    22672993.760   119147398.868 5      1335.518    22672998.940    92842132.968 5      1040.663
G02  21870553.800   114930533.275 7      2016.499    21870551.820   114930533.279 6      2016.499    21870555.740    89556267.168 6      1571.298
R17  21674424.380   115984230.803 7      5126.221    21674426.360   115984230.829 7      5126.221    21674437.540    90210012.443 8      3987.061    21674437.580    90210010.445 8      3987.061
G14  22129003.920   116288696.842 6      1768.586    22129003.320   116288696.855 4      1768.586    22129010.520    90614593.983 4      1378.119    22129011.260    90614598.977 7      1378.119
R02  19878334.560   106074600.877 8      5243.657    19878333.860   106074600.873 8      5243.657    19878343.680    82502511.929 8      4078.400    19878343.980    82502510.932 8      4078.400
G17  22340419.980   117399704.228 7      5339.535    22340419.260   117399704.236 6      5339.535    22340425.500    91480294.961 6      4160.677    22340425.800    91480312.958 7      4160.677
G04  22156030.680   116430735.472 7      5395.807    22156029.740   116430735.479 5      5395.807    22156037.840    90725273.492 5      4204.525    22156038.620    90725278.508 7      4204.525
G03  19964086.300   104911980.545 8      2034.390    19964085.100   104911980.550 8      2034.390    19964091.460    81749616.247 8      1585.239    19964092.220    81749620.250 8      1585.239
> 2024 06 03 14 39  6.0000000  0 14
G08  23121884.580   121506320.775 7      -408.880    23121883.980   121506320.783 6      -408.880    23121896.060    94680285.625 6      -318.608    23121896.360    94680295.624 7      -318.608
G22  23162516.960   121719855.100 7      3185.230    23162515.700   121719855.100 4      3185.230    23162524.180    94846630.287 4      2481.997
R01  19755328.040   105603549.901 7      1137.878    19755328.180   105603549.913 7      1137.878    19755340.320    82136146.679 7       885.016    19755339.460    82136143.667 7       885.016
R23  22963263.680   122837959.032 6       715.349    22963263.200   122837959.050 6       715.349
R24  20234979.040   108205516.363 8      2968.128    20234978.140   108205516.369 8      2968.128    20234987.760    84159898.296 8      2308.544    20234988.240    84159896.296 8      2308.544
G09  24344695.740   127932243.096 6      6166.724    24344694.460   127932243.100 5      6166.724    24344713.820    99687529.863 5      4805.240    24344714.040    99687532.877 6      4805.240
G21  22672740.860   119146063.277 7      1335.597    22672739.600   119146063.285 5      1335.597    22672744.780    92841092.252 5      1040.725
G02  21870170.120   114928516.836 7      2016.377    21870168.060   114928516.841 6      2016.377    21870171.960    89554695.919 6      1571.203
R17  21673466.320   115979104.467 7      5126.385    21673468.160   115979104.501 7      5126.385    21673479.420    90206025.300 8      3987.188    21673479.460    90206023.301 8      3987.188
G14  22128667.100   116286928.483 6      1768.080    22128666.860   116286928.496 4      1768.080    22128673.940    90613216.041 4      1377.725    22128675.140    90613221.037 7      1377.725
R02  19877351.620   106069357.578 8      5242.981    19877351.300   106069357.576 8      5242.981    19877361.100    82498433.812 8      4077.874    19877361.760    82498432.817 8      4077.874
G17  22339403.720   117394364.744 7      5339.341    22339403.080   117394364.752 6      5339.341    22339409.420    91476134.326 6      4160.525    22339409.660    91476152.329 8      4160.525
G04  22155003.760   116425339.733 7      5395.586    22155003.060   116425339.737 5      5395.586    22155011.040    90721069.026 5      4204.353    22155011.940    90721074.041 7      4204.353
G03  19963699.220   104909946.310 8      2034.020    19963698.020   104909946.310 8      2034.020    19963704.460    81748031.129 8      1584.951    19963705.060    81748035.132 8      1584.951
> 2024 06 03 14 39  7.0000000  0 14
G08  23121962.220   121506729.814 7      -409.030    23121961.880   121506729.819 6      -409.030    23121973.900    94680604.350 6      -318.724    23121974.360    94680614.348 7      -318.724
G22  23161911.160   121716670.244 7      3184.757    23161909.500   121716670.246 4      3184.757    23161918.060    94844148.581 4      2481.629
R01  19755115.900   105602412.521 7      1137.051    19755115.440   105602412.522 7      1137.051    19755127.360    82135262.041 7       884.373    19755126.800    82135259.036 7       884.373
R23  22963129.900   122837243.932 6       715.108    22963128.960   122837243.952 6       715.108
R24  20234423.900   108202548.614 8      2967.769    20234423.040   108202548.621 7      2967.769    20234432.980    84157590.049 8      2308.265    20234433.200    84157588.049 8      2308.265
G09  24343521.780   127926076.456 6      6166.984    24343520.920   127926076.461 5      6166.984    24343540.360    99682724.691 5      4805.442    24343540.120    99682727.699 6      4805.442
G21  22672486.920   119144727.815 7      1335.598    22672485.580   119144727.823 5      1335.598    22672490.680    92840051.630 5      1040.726
G02  21869786.480   114926500.542 7      2016.340    21869784.340   114926500.549 6      2016.340    21869788.220    89553124.779 6      1571.174
R17  21672508.280   115973978.224 7      5126.421    21672510.020   115973978.252 7      5126.421    21672521.780    90202038.227 8      3987.216    21672521.580    90202036.225 8      3987.216
G14  22128331.000   116285160.831 6      1767.393    22128330.500   116285160.841 4      1767.393    22128337.480    90611838.652 4      1377.190    22128338.600    90611843.652 7      1377.190
R02  19876369.300   106064115.061 8      5242.292    19876368.520   106064115.059 8      5242.292    19876378.640    82494356.303 8      4077.338    19876379.020    82494355.312 8      4077.338
G17  22338387.940   117389025.547 7      5339.219    22338387.040   117389025.554 6      5339.219    22338393.200    91471973.916 6      4160.430    22338393.720    91471991.926 7      4160.430
G04  22153977.220   116419944.340 7      5395.412    22153976.300   116419944.345 5      5395.412    22153984.360    90716864.833 5      4204.217    22153985.040    90716869.845 7      4204.217
G03  19963312.360   104907912.704 8      2033.469    19963311.020   104907912.709 8      2033.469    19963317.440    81746446.502 8      1584.521    19963318.020    81746450.505 8      1584.521
> 2024 06 03 14 39  8.0000000  0 14
G08  23122040.260   121507139.052 7      -409.414    23122039.680   121507139.060 6      -409.414    23122051.820    94680923.231 6      -319.024    23122052.040    94680933.229 7      -319.024
G22  23161305.320   121713485.879 7      3184.168    23161303.580   121713485.881 4      3184.168    23161312.220    94841667.253 4      2481.170
R01  19754903.380   105601275.926 7      1136.037    19754902.860   105601275.930 7      1136.037    19754914.800    82134378.030 7       883.584    19754914.260    82134375.016 7       883.584
R23  22962995.440   122836529.066 6       714.726    22962995.420   122836529.092 6       714.726
R24  20233869.340   108199581.058 8      2967.337    20233868.300   108199581.064 7      2967.337    20233878.100    84155281.948 8      2307.928    20233878.600    84155279.947 8      2307.928
G09  24342348.100   127919909.717 6      6166.816    24342347.560   127919909.719 5      6166.816    24342366.860    99677919.443 5      4805.311    24342367.220    99677922.464 6      4805.311
G21  22672233.020   119143392.358 7      1335.373    22672231.480   119143392.368 5      1335.373    22672236.540    92839011.015 5      1040.551
G02  21869402.800   114924484.293 7      2016.126    21869400.760   114924484.300 6      2016.126    21869404.560    89551553.675 6      1571.007
R17  21671550.300   115968851.906 7      5126.300    21671551.260   115968851.935 7      5126.300    21671563.860    90198051.101 8      3987.122    21671563.460    90198049.097 8      3987.122
G14  22127994.520   116283393.631 6      1766.873    22127994.080   116283393.641 4      1766.873    22128001.220    90610461.613 4      1376.784    22128002.420    90610466.607 7      1376.784
R02  19875386.800   106058873.202 8      5241.524    19875386.140   106058873.201 8      5241.524    19875396.340    82490279.304 8      4076.741    19875397.000    82490278.308 8      4076.741
G17  22337371.860   117383686.496 7      5338.963    22337370.920   117383686.506 6      5338.963    22337377.180    91467813.624 6      4160.231    22337377.600    91467831.627 8      4160.231
G04  22152950.480   116414549.185 7      5394.970    22152949.760   116414549.184 5      5394.970    22152957.580    90712660.821 5      4203.873    22152958.380    90712665.830 7      4203.873
G03  19962925.580   104905879.541 8      2032.791    19962924.080   104905879.546 8      2032.791    19962930.600    81744862.222 8      1583.993    19962931.040    81744866.222 8      1583.993
> 2024 06 03 14 39  9.0000000  0 14
G08  23122118.120   121507548.525 7      -409.833    23122117.600   121507548.530 6      -409.833    23122129.940    94681242.288 6      -319.350    23122130.160    94681252.284 7      -319.350
G22  23160699.260   121710302.053 7      3183.391    23160697.660   121710302.055 4      3183.391    23160706.580    94839186.346 4      2480.564
R01  19754690.460   105600140.144 7      1135.175    19754690.500   105600140.151 7      1135.175    19754702.460    82133494.637 7       882.914    19754701.820    82133491.630 7       882.914
R23  22962861.720   122835814.477 6       714.294    22962862.160   122835814.502 6       714.294
R24  20233314.060   108196613.777 7      2966.916    20233313.220   108196613.778 7      2966.916    20233323.300    84152974.060 8      2307.602    20233323.540    84152972.060 8      2307.602
G09  24341174.560   127913742.867 6      6166.710    24341174.120   127913742.877 5      6166.710    24341193.340    99673114.108 5      4805.228    24341193.300    99673117.118 6      4805.228
G21  22671978.800   119142056.946 7      1335.206    22671977.540   119142056.951 5      1335.206    22671982.400    92837970.427 5      1040.420
G02  21869019.000   114922468.133 7      2015.911    21869016.940   114922468.135 6      2015.911    21869020.900    89549982.637 6      1570.840
R17  21670592.460   115963725.586 7      5126.130    21670592.880   115963725.612 7      5126.130    21670605.860    90194063.959 8      3986.990    21670605.700    90194061.955 8      3986.990
G14  22127658.820   116281626.972 6      1766.186    22127658.060   116281626.980 4      1766.186    22127664.940    90609084.996 4      1376.249    22127666.560    90609089.996 7      1376.249
R02  19874405.040   106053632.075 8      5240.470    19874403.980   106053632.068 8      5240.470    19874414.200    82486202.869 8      4075.921    19874414.800    82486201.876 8      4075.921
G17  22336355.820   117378347.646 7      5338.573    22336355.160   117378347.653 6      5338.573    22336361.200    91463653.478 6      4159.927    22336361.960    91463671.473 7      4159.927
G04  22151923.880   116409154.265 7      5394.567    22151923.000   116409154.268 5      5394.567    22151931.080    90708456.992 5      4203.559    22151931.540    90708461.998 7      4203.559
G03  19962538.660   104903846.878 8      2032.209    19962537.320   104903846.882 8      2032.209    19962543.860    81743278.324 8      1583.540    19962544.380    81743282.327 8      1583.540
> 2024 06 03 14 39 10.0000000  0 14
G08  23122195.960   121507958.276 7      -409.693    23122195.660   121507958.283 6      -409.693    23122207.880    94681561.566 6      -319.241    23122208.380    94681571.562 7      -319.241
G22  23160093.340   121707118.744 7      3183.201    23160091.860   121707118.746 4      3183.201    23160100.980    94836705.847 4      2480.416
R01  19754477.800   105599005.186 7      1134.579    19754478.160   105599005.192 7      1134.579    19754490.060    82132611.894 7       882.451    19754489.500    82132608.890 7       882.451
R23  22962728.120   122835100.173 6       714.319    22962727.920   122835100.201 6       714.319
R24  20232759.200   108193646.771 7      2966.995    20232758.360   108193646.778 7      2966.995    20232768.700    84150666.391 8      2307.663    20232768.860    84150664.391 8      2307.663
G09  24340001.480   127907576.014 6      6167.112    24340000.680   127907576.017 5      6167.112    24340019.840    99668308.768 5      4805.542    24340019.960    99668311.778 6      4805.542
G21  22671724.720   119140721.555 7      1335.412    22671723.500   119140721.565 5      1335.412    22671728.420    92836929.861 5      1040.581
G02  21868635.260   114920452.015 7      2016.243    21868633.220   114920452.019 6      2016.243    21868637.240    89548411.636 6      1571.098
R17  21669634.580   115958599.188 7      5126.501    21669634.300   115958599.208 7      5126.501    21669648.160    90190076.762 8      3987.279    21669647.720    90190074.757 7      3987.279
G14  22127322.660   116279860.870 6      1765.962    22127322.060   116279860.878 4      1765.962    22127328.860    90607708.810 4      1376.075    22127330.600    90607713.806 7      1376.075
R02  19873422.820   106048391.695 8      5240.168    19873421.840   106048391.685 8      5240.168    19873432.240    82482127.022 8      4075.686    19873432.760    82482126.029 8      4075.686
G17  22335339.980   117373008.926 7      5338.756    22335339.200   117373008.934 6      5338.756    22335345.160    91459493.441 6      4160.070    22335345.780    91459511.440 7      4160.070
G04  22150897.220   116403759.661 7      5394.616    22150896.460   116403759.666 5      5394.616    22150904.720    90704253.411 5      4203.597    22150905.040    90704258.423 7      4203.597
G03  19962152.000   104901814.703 8      2032.041    19962150.740   104901814.708 8      2032.041    19962157.100    81741694.811 8      1583.408    19962157.640    81741698.814 8      1583.408
> 2024 06 03 14 39 11.0000000  0 14
G08  23122273.980   121508368.392 7      -410.336    23122273.900   121508368.399 6      -410.336    23122285.740    94681881.129 6      -319.742    23122286.540    94681891.119 7      -319.742
G22  23159488.000   121703936.034 7      3182.536    23159486.080   121703936.045 4      3182.536    23159495.480    94834225.816 4      2479.898
R01  19754266.040   105597871.162 7      1133.709    19754266.080   105597871.166 7      1133.709    19754278.140    82131729.876 7       881.774    19754277.480    82131726.870 7       881.774
R23  22962594.480   122834386.268 6       713.827    22962594.980   122834386.296 6       713.827
R24  20232204.400   108190680.215 8      2966.458    20232204.040   108190680.227 7      2966.458    20232214.160    84148359.080 8      2307.245    20232214.240    84148357.082 8      2307.245
G09  24338828.200   127901409.117 6      6166.793    24338827.220   127901409.125 5      6166.793    24338846.400    99663503.400 5      4805.293    24338846.440    99663506.422 6      4805.293
G21  22671470.720   119139386.316 7      1335.315    22671469.380   119139386.326 5      1335.315    22671474.520    92835889.417 5      1040.505
G02  21868251.620   114918436.138 7      2015.927    21868249.780   114918436.141 6      2015.927    21868253.560    89546840.826 6      1570.852
R17  21668676.220   115953472.860 7      5126.501    21668675.820   115953472.880 7      5126.501    21668690.120    90186089.626 8      3987.278    21668689.560    90186087.623 8      3987.278
G14  22126987.160   116278095.354 6      1765.266    22126986.100   116278095.365 4      1765.266    22126992.920    90606333.088 4      1375.532    22126994.540    90606338.096 7      1375.532
R02  19872441.080   106043152.123 8      5239.158    19872439.940   106043152.118 8      5239.158    19872450.320    82478051.810 8      4074.901    19872450.920    82478050.819 8      4074.901
G17  22334324.280   117367670.491 7      5338.479    22334323.380   117367670.498 6      5338.479    22334329.400    91455333.628 6      4159.854    22334330.020    91455351.625 7      4159.854
G04  22149870.620   116398365.394 7      5394.181    22149870.040   116398365.399 5      5394.181    22149878.180    90700050.094 5      4203.258    22149878.760    90700055.104 7      4203.258
G03  19961765.440   104899783.127 8      2031.364    19961764.080   104899783.135 8      2031.364    19961770.560    81740111.771 8      1582.881    19961771.240    81740115.774 8      1582.881
> 2024 06 03 14 39 12.0000000  0 14
G08  23122352.320   121508778.836 7      -410.624    23122351.980   121508778.839 6      -410.624    23122363.900    94682200.948 6      -319.967    23122364.340    94682210.942 7      -319.967
G22  23158882.280   121700753.890 7      3181.844    23158880.560   121700753.902 4      3181.844    23158890.020    94831746.225 4      2479.359
R01  19754054.160   105596738.024 7      1132.672    19754054.400   105596738.020 7      1132.672    19754066.440    82130848.540 7       880.967    19754064.840    82130845.532 7       880.967
R23  22962461.300   122833672.770 6       713.369    22962461.080   122833672.774 6       713.369
R24  20231649.600   108187713.968 8      2966.026    20231649.200   108187713.970 8      2966.026    20231659.440    84146051.993 8      2306.909    20231659.860    84146049.991 8      2306.909
G09  24337654.520   127895242.246 6      6166.883    24337653.720   127895242.254 5      6166.883    24337672.720    99658698.050 5      4805.363    24337672.440    99658701.073 6      4805.363
G21  22671216.440   119138051.227 7      1334.891    22671215.300   119138051.237 5      1334.891    22671220.340    92834849.086 5      1040.175
G02  21867868.200   114916420.391 7      2015.615    21867866.100   114916420.396 6      2015.615    21867870.020    89545270.115 6      1570.609
R17  21667718.220   115948346.523 7      5126.346    21667717.720   115948346.543 7      5126.346    21667732.000    90182102.482 8      3987.158    21667731.360    90182100.472 8      3987.158
G14  22126651.100   116276330.411 6      1764.714    22126650.300   116276330.422 4      1764.714    22126657.100    90604957.803 4      1375.102    22126658.820    90604962.810 7      1375.102
R02  19871459.660   106037913.341 8      5238.419    19871458.280   106037913.323 8      5238.419    19871468.780    82473977.193 8      4074.326    19871468.700    82473976.202 8      4074.326
G17  22333308.320   117362332.252 7      5338.129    22333307.360   117362332.265 6      5338.129    22333313.540    91451173.971 6      4159.581    22333314.140    91451191.968 7      4159.581
G04  22148844.320   116392971.515 7      5393.659    22148843.720   116392971.525 5      5393.659    22148851.680    90695847.082 5      4202.851    22148852.300    90695852.102 8      4202.851
G03  19961378.940   104897752.095 8      2030.730    19961377.560   104897752.103 8      2030.730    19961384.060    81738529.147 8      1582.387    19961384.560    81738533.148 8      1582.387
> 2024 06 03 14 39 13.0000000  0 14
G08  23122430.400   121509189.499 7      -411.092    23122430.200   121509189.499 6      -411.092    23122442.060    94682520.932 6      -320.331    23122442.320    94682530.934 7      -320.331
G22  23158276.760   121697572.323 7      3181.078    23158275.180   121697572.333 4      3181.078    23158284.660    94829267.074 4      2478.762
R01  19753842.320   105595605.690 7      1131.613    19753842.460   105595605.680 7      1131.613    19753854.320    82129967.825 7       880.143    19753853.580    82129964.824 7       880.143
R23  22962328.580   122832959.456 6       712.865    22962327.400   122832959.466 6       712.865
R24  20231095.060   108184747.960 8      2965.550    20231094.700   108184747.967 8      2965.550    20231104.880    84143745.102 8      2306.539    20231105.180    84143743.104 8      2306.539
G09  24336481.020   127889075.328 6      6166.739    24336480.300   127889075.330 5      6166.739    24336499.140    99653892.656 5      4805.251    24336498.400    99653895.674 6      4805.251
G21  22670962.260   119136716.114 7      1334.777    22670961.320   119136716.122 5      1334.777    22670966.260    92833808.732 5      1040.086
G02  21867484.740   114914404.709 8      2015.363    21867482.480   114914404.711 6      2015.363    21867486.440    89543699.450 6      1570.413
R17  21666760.420   115943220.192 7      5126.109    21666759.540   115943220.210 7      5126.109    21666773.820    90178115.334 8      3986.973    21666773.580    90178113.330 8      3986.973
G14  22126315.100   116274566.049 6      1763.972    22126314.520   116274566.056 4      1763.972    22126321.280    90603582.974 4      1374.523    22126322.440    90603587.976 7      1374.523
R02  19870477.940   106032675.215 8      5237.516    19870476.620   106032675.205 8      5237.516    19870487.240    82469903.102 8      4073.623    19870487.660    82469902.113 8      4073.623
G17  22332292.320   117356994.243 7      5337.643    22332291.580   117356994.250 6      5337.643    22332297.780    91447014.483 6      4159.202    22332298.500    91447032.478 7      4159.202
G04  22147817.820   116387577.881 7      5393.278    22147817.360   116387577.888 5      5393.278    22147825.240    90691644.258 5      4202.554    22147825.980    90691649.264 8      4202.554
G03  19960992.340   104895721.573 8      2030.032    19960991.340   104895721.578 8      2030.032    19960997.760    81736946.926 8      1581.843    19960998.560    81736950.923 8      1581.843
> 2024 06 03 14 39 14.0000000  0 14
G08  23122508.820   121509600.469 7      -411.079    23122508.260   121509600.471 6      -411.079    23122520.240    94682841.161 6      -320.322    23122520.580    94682851.165 7      -320.322
G22  23157671.660   121694391.306 7      3180.731    23157669.840   121694391.316 4      3180.731    23157679.340    94826788.361 4      2478.492
R01  19753630.420   105594474.230 7      1131.073    19753630.620   105594474.226 7      1131.073    19753642.720    82129087.802 7       879.724    19753641.880    82129084.797 7       879.724
R23  22962195.380   122832246.477 6       712.921    22962194.280   122832246.483 6       712.921
R24  20230540.260   108181782.286 8      2965.583    20230540.000   108181782.293 8      2965.583    20230550.440    84141438.467 8      2306.564    20230550.620    84141436.469 8      2306.564
G09  24335307.120   127882908.334 6      6167.191    24335306.760   127882908.339 5      6167.191    24335325.420    99649087.212 5      4805.603    24335325.360    99649090.230 6      4805.603
G21  22670708.240   119135381.122 7      1334.926    22670707.220   119135381.130 5      1334.926    22670712.380    92832768.479 5      1040.202
G02  21867101.100   114912389.182 8      2015.548    21867099.040   114912389.184 6      2015.548    21867103.080    89542128.910 6      1570.557
R17  21665802.440   115938093.925 7      5126.350    21665801.740   115938093.935 7      5126.350    21665815.820    90174128.237 8      3987.161    21665815.700    90174126.229 8      3987.161
G14  22125979.120   116272802.270 6      1763.615    22125978.820   116272802.277 4      1763.615    22125985.720    90602208.602 4      1374.245    22125987.240    90602213.604 7      1374.245
R02  19869496.540   106027437.834 8      5237.088    19869495.140   106027437.826 8      5237.088    19869505.740    82465829.589 8      4073.291    19869506.200    82465828.600 8      4073.291
G17  22331276.720   117351656.456 7      5337.761    22331275.860   117351656.461 6      5337.761    22331282.000    91442855.169 6      4159.294    22331282.620    91442873.164 7      4159.294
G04  22146791.740   116382184.559 7      5393.187    22146791.020   116382184.561 5      5393.187    22146798.920    90687441.673 5      4202.484    22146799.560    90687446.688 7      4202.484
G03  19960606.260   104893691.608 8      2029.774    19960605.140   104893691.613 8      2029.774    19960611.440    81735365.131 8      1581.642    19960612.060    81735369.132 8      1581.642
> 2024 06 03 14 39 15.0000000  0 14
G08  23122586.780   121510011.880 7      -411.559    23122586.520   121510011.888 6      -411.559    23122598.500    94683161.737 6      -320.695    23122599.080    94683171.737 7      -320.695
G22  23157066.540   121691210.998 7      3179.949    23157064.760   121691211.013 4      3179.949    23157074.080    94824310.201 4      2477.882
R01  19753419.060   105593343.769 7      1130.037    19753419.340   105593343.765 7      1130.037    19753431.080    82128208.556 7       878.917    19753430.400    82128205.550 7       878.917
R23  22962062.740   122831533.954 6       712.340    22962060.920   122831533.969 6       712.340
R24  20229985.580   108178817.069 8      2965.091    20229985.200   108178817.079 8      2965.091    20229996.080    84139132.189 8      2306.182    20229996.220    84139130.191 8      2306.182
G09  24334133.820   127876741.503 6      6166.959    24334133.100   127876741.499 5      6166.959    24334151.800    99644281.886 5      4805.422    24334152.540    99644284.902 6      4805.422
G21  22670454.240   119134046.335 7      1334.682    22670453.220   119134046.343 5      1334.682    22670458.400    92831728.385 5      1040.012
G02  21866717.640   114910373.913 8      2015.259    21866715.480   114910373.912 6      2015.259    21866719.520    89540558.564 6      1570.332
R17  21664844.700   115932967.768 7      5126.217    21664843.700   115932967.785 7      5126.217    21664857.880    90170141.236 8      3987.057    21664857.580    90170139.226 8      3987.057
G14  22125643.900   116271039.161 6      1762.928    22125643.180   116271039.171 4      1762.928    22125650.260    90600834.749 4      1373.710    22125651.560    90600839.767 7      1373.710
R02  19868515.080   106022201.367 8      5236.073    19868514.000   106022201.363 8      5236.073    19868524.640    82461756.788 8      4072.501    19868524.980    82461755.797 8      4072.501
G17  22330260.880   117346318.990 7      5337.388    22330260.140   117346318.998 6      5337.388    22330266.220    91438696.111 6      4159.004    22330267.140    91438714.106 7      4159.004
G04  22145765.620   116376791.697 7      5392.703    22145764.820   116376791.702 5      5392.703    22145772.720    90683239.452 5      4202.106    22145773.300    90683244.464 7      4202.106
G03  19960219.900   104891662.308 8      2029.059    19960219.040   104891662.315 8      2029.059    19960225.340    81733783.858 8      1581.085    19960225.960    81733787.861 8      1581.085
> 2024 06 03 14 39 16.0000000  0 14
G08  23122665.180   121510423.662 7      -412.133    23122665.060   121510423.667 6      -412.133    23122676.920    94683482.596 6      -321.143    23122677.060    94683492.598 7      -321.143
G22  23156461.320   121688031.331 7      3179.275    23156459.600   121688031.349 4      3179.275    23156468.920    94821832.536 4      2477.358
R01  19753208.000   105592214.252 7      1128.877    19753208.000   105592214.254 7      1128.877    19753219.840    82127330.046 7       878.016    19753218.920    82127327.043 7       878.016
R23  22961929.580   122830821.820 7       711.759    22961928.020   122830821.824 6       711.759
R24  20229430.860   108175852.275 8      2964.512    20229430.700   108175852.287 7      2964.512    20229441.640    84136826.242 8      2305.732    20229441.900    84136824.246 8      2305.732
G09  24332960.240   127870574.697 6      6166.655    24332959.460   127870574.700 5      6166.655    24332978.300    99639476.590 5      4805.186    24332979.320    99639479.600 6      4805.186
G21  22670200.520   119132711.696 7      1334.438    22670199.240   119132711.703 5      1334.438    22670204.540    92830688.404 5      1039.822
G02  21866334.100   114908358.846 7      2014.863    21866332.080   114908358.848 6      2014.863    21866336.240    89538988.384 6      1570.023
R17  21663886.660   115927841.755 7      5125.897    21663885.620   115927841.770 7      5125.897    21663899.900    90166154.338 8      3986.809    21663899.660    90166152.328 8      3986.809
G14  22125308.200   116269276.748 6      1762.025    22125307.560   116269276.763 4      1762.025    22125315.020    90599461.446 4      1373.006    22125316.440    90599466.455 7      1373.006
R02  19867533.800   106016965.742 8      5235.049    19867532.980   106016965.732 8      5235.049    19867543.340    82457684.635 8      4071.705    19867543.560    82457683.642 8      4071.705
G17  22329245.220   117340981.866 7      5336.824    22329244.480   117340981.873 6      5336.824    22329250.540    91434537.315 6      4158.564    22329251.460    91434555.310 7      4158.564
G04  22144739.320   116371399.219 7      5392.145    22144738.640   116371399.224 5      5392.145    22144746.720    90679037.527 5      4201.671    22144747.280    90679042.539 7      4201.671
G03  19959833.880   104889633.630 8      2028.277    19959833.040   104889633.638 8      2028.277    19959839.300    81732203.073 8      1580.476    19959839.940    81732207.077 8      1580.476
> 2024 06 03 14 39 17.0000000  0 14
G08  23122743.720   121510835.744 7      -412.215    23122743.420   121510835.751 6      -412.215    23122755.260    94683803.690 6      -321.206    23122755.880    94683813.690 7      -321.206
G22  23155856.340   121684852.352 7      3178.691    23155854.560   121684852.373 4      3178.691    23155863.880    94819355.412 4      2476.902
R01  19752997.080   105591085.636 7      1128.219    19752996.900   105591085.637 7      1128.219    19753008.980    82126452.232 7       877.504    19753007.700    82126449.226 7       877.504
R23  22961796.300   122830109.961 7       711.795    22961794.400   122830109.963 6       711.795
R24  20228876.780   108172887.857 7      2964.338    20228876.440   108172887.864 8      2964.338    20228887.480    84134520.578 8      2305.597    20228887.660    84134518.582 8      2305.597
G09  24331787.200   127864407.897 6      6167.059    24331786.000   127864407.897 5      6167.059    24331804.720    99634671.291 5      4805.501    24331805.260    99634674.299 6      4805.501
G21  22669946.780   119131377.151 7      1334.589    22669945.280   119131377.161 5      1334.589    22669950.620    92829648.501 5      1039.939
G02  21865950.680   114906343.921 8      2014.953    21865948.740   114906343.926 6      2014.953    21865952.940    89537418.310 6      1570.093
R17  21662928.600   115922715.791 7      5126.105    21662927.960   115922715.805 7      5126.105    21662942.160    90162167.478 8      3986.970    21662941.800    90162165.473 8      3986.970
G14  22124973.140   116267514.979 6      1761.576    22124972.340   116267515.000 4      1761.576    22124979.780    90598088.639 4      1372.657    22124980.980    90598093.652 7      1372.657
R02  19866552.880   106011730.908 8      5234.540    19866552.100   106011730.904 8      5234.540    19866562.340    82453613.104 8      4071.309    19866562.780    82453612.111 8      4071.309
G17  22328229.640   117335645.028 7      5336.737    22328229.000   117335645.030 6      5336.737    22328234.940    91430378.740 6      4158.496    22328235.540    91430396.726 7      4158.496
G04  22143713.320   116366007.085 7      5392.082    22143712.520   116366007.089 5      5392.082    22143720.560    90674835.870 5      4201.622    22143721.100    90674840.878 7      4201.622
G03  19959447.940   104887605.552 8      2027.872    19959447.180   104887605.557 8      2027.872    19959453.420    81730622.750 8      1580.160    19959454.020    81730626.755 8      1580.160
> 2024 06 03 14 39 18.0000000  0 14
G08  23122822.480   121511248.028 7      -412.426    23122821.940   121511248.030 6      -412.426    23122833.920    94684124.942 6      -321.371    23122834.680    94684134.938 7      -321.371
G22  23155251.540   121681673.765 7      3178.526    23155249.720   121681673.780 4      3178.526    23155259.060    94816878.583 4      2476.773
R01  19752785.880   105589957.774 7      1127.404    19752785.960   105589957.778 7      1127.404    19752797.860    82125575.008 7       876.870    19752796.680    82125572.004 7       876.870
R23  22961662.940   122829398.356 6       711.448    22961661.660   122829398.363 6       711.448
R24  20228322.380   108169923.606 8      2964.233    20228322.080   108169923.607 7      2964.233    20228333.280    84132215.045 8      2305.514    20228333.220    84132213.049 8      2305.514
G09  24330613.920   127858240.979 6      6167.058    24330612.600   127858240.982 5      6167.058    24330631.340    99629865.909 5      4805.500    24330632.000    99629868.921 6      4805.500
G21  22669692.460   119130042.603 7      1334.569    22669691.300   119130042.615 5      1334.569    22669696.820    92828608.595 5      1039.924
G02  21865567.400   114904329.009 7      2015.007    21865565.400   114904329.011 6      2015.007    21865569.600    89535848.253 6      1570.135
R17  21661970.820   115917589.714 7      5126.142    21661970.300   115917589.715 7      5126.142    21661984.400    90158180.521 8      3986.999    21661984.040    90158178.515 8      3986.999
G14  22124638.300   116265753.654 6      1761.072    22124637.040   116265753.675 4      1761.072    22124644.860    90596716.178 4      1372.264    22124645.800    90596721.191 7      1372.264
R02  19865572.080   106006496.745 8      5233.845    19865571.560   106006496.738 8      5233.845    19865581.680    82449542.088 8      4070.768    19865581.720    82449541.097 8      4070.768
G17  22327214.260   117330308.237 7      5336.801    22327213.720   117330308.242 6      5336.801    22327219.440    91426220.204 6      4158.546    22327220.080    91426238.192 7      4158.546
G04  22142687.260   116360615.169 7      5391.765    22142686.480   116360615.171 5      5391.765    22142694.500    90670634.381 5      4201.376    22142694.960    90670639.391 8      4201.376
G03  19959062.160   104885577.873 8      2027.541    19959061.420   104885577.880 8      2027.541    19959067.540    81729042.740 8      1579.902    19959068.520    81729046.747 8      1579.902
> 2024 06 03 14 39 19.0000000  0 14
G08  23122901.000   121511660.558 7      -412.623    23122900.320   121511660.566 6      -412.623    23122912.280    94684446.388 6      -321.525    23122913.120    94684456.386 7      -321.525
G22  23154646.460   121678495.562 7      3177.827    23154644.900   121678495.580 4      3177.827    23154654.200    94814402.061 4      2476.228
R01  19752575.340   105588830.692 7      1126.594    19752575.120   105588830.704 7      1126.594    19752586.780    82124698.390 7       876.240    19752586.080    82124695.383 7       876.240
R23  22961529.640   122828687.019 6       711.303    22961528.240   122828687.031 6       711.303
R24  20227768.060   108166959.598 7      2963.829    20227767.800   108166959.602 7      2963.829    20227779.080    84129909.705 8      2305.200    20227779.020    84129907.709 8      2305.200
G09  24329439.960   127852073.956 6      6166.981    24329438.980   127852073.953 5      6166.981    24329457.960    99625060.430 5      4805.440    24329458.020    99625063.442 6      4805.440
G21  22669438.600   119128708.084 7      1334.504    22669437.340   119128708.097 5      1334.504    22669442.760    92827568.707 5      1039.873
G02  21865183.840   114902314.189 8      2014.689    21865182.000   114902314.188 6      2014.689    21865186.120    89534278.259 6      1569.887
R17  21661012.620   115912463.466 7      5126.060    21661012.220   115912463.480 7      5126.060    21661026.320    90154193.454 8      3986.936    21661025.960    90154191.444 8      3986.936
G14  22124303.060   116263992.728 6      1760.458    22124301.920   116263992.752 4      1760.458    22124309.800    90595344.027 4      1371.786    22124310.660    90595349.045 7      1371.786
R02  19864591.440   106001263.243 8      5233.188    19864590.580   106001263.238 8      5233.188    19864600.880    82445471.593 8      4070.258    19864600.980    82445470.597 8      4070.258
G17  22326198.720   117324971.502 7      5336.557    22326197.920   117324971.506 6      5336.557    22326203.840    91422061.719 6      4158.356    22326204.960    91422079.714 7      4158.356
G04  22141661.060   116355223.489 7      5391.510    22141660.500   116355223.494 5      5391.510    22141668.400    90666433.087 5      4201.177    22141669.220    90666438.097 7      4201.177
G03  19958676.480   104883550.630 8      2026.871    19958675.680   104883550.640 8      2026.871    19958681.760    81727463.074 8      1579.380    19958682.740    81727467.079 8      1579.380
> 2024 06 03 14 39 20.0000000  0 14
G08  23122979.520   121512073.468 7      -413.194    23122978.860   121512073.475 6      -413.194    23122990.940    94684768.130 6      -321.969    23122991.920    94684778.127 7      -321.969
G22  23154041.760   121675318.217 7      3176.959    23154040.360   121675318.233 4      3176.959    23154049.340    94811926.206 4      2475.553
R01  19752364.560   105587704.623 7      1125.465    19752364.960   105587704.637 7      1125.465    19752376.400    82123822.553 7       875.362    19752375.260    82123819.547 7       875.362
R23  22961396.780   122827976.070 6       710.624    22961394.760   122827976.074 6       710.624
R24  20227213.860   108163996.004 8      2963.246    20227213.480   108163996.013 7      2963.246    20227224.820    84127604.692 8      2304.747    20227224.820    84127602.694 8      2304.747
G09  24328266.660   127845907.009 6      6166.972    24328265.580   127845907.011 5      6166.972    24328284.460    99620255.023 5      4805.432    24328284.660    99620258.045 6      4805.432
G21  22669184.600   119127373.738 7      1334.118    22669183.580   119127373.751 5      1334.118    22669188.820    92826528.959 5      1039.573
G02  21864800.520   114900299.571 7      2014.421    21864798.580   114900299.573 6      2014.421    21864802.560    89532708.423 6      1569.678
R17  21660054.880   115907337.477 7      5125.873    21660054.220   115907337.486 7      5125.873    21660068.480    90150206.572 8      3986.790    21660068.140    90150204.568 8      3986.790
G14  22123967.920   116262232.620 6      1759.693    22123966.940   116262232.641 4      1759.693    22123974.920    90593972.513 4      1371.189    22123976.140    90593977.530 7      1371.189
R02  19863610.280   105996030.659 8      5232.113    19863610.200   105996030.654 8      5232.113    19863620.480    82441401.809 8      4069.421    19863620.720    82441400.814 8      4069.421
G17  22325183.380   117319635.252 7      5336.128    22325182.440   117319635.252 6      5336.128    22325188.300    91417903.602 6      4158.022    22325189.360    91417921.593 7      4158.022
G04  22140635.080   116349832.248 7      5390.963    22140634.560   116349832.251 5      5390.963    22140642.640    90662232.124 5      4200.750    22140643.160    90662237.128 7      4200.750
G03  19958290.660   104881524.107 8      2026.125    19958290.120   104881524.114 8      2026.125    19958296.260    81725883.963 8      1578.798    19958297.340    81725887.968 8      1578.798
> 2024 06 03 14 39 21.0000000  0 14
G08  23123058.140   121512486.876 7      -413.537    23123057.360   121512486.878 6      -413.537    23123069.720    94685090.254 6      -322.237    23123070.400    94685100.256 7      -322.237
G22  23153437.380   121672141.496 7      3176.312    23153436.040   121672141.517 4      3176.312    23153444.720    94809450.839 4      2475.049
R01  19752154.220   105586579.583 7      1124.666    19752154.840   105586579.595 7      1124.666    19752165.900    82122947.517 7       874.740    19752164.840    82122944.512 7       874.740
R23  22961264.320   122827265.642 6       710.385    22961262.180   122827265.651 6       710.385
R24  20226659.760   108161032.920 7      2962.887    20226659.420   108161032.930 8      2962.887    20226670.440    84125300.074 8      2304.468    20226670.600    84125298.073 8      2304.468
G09  24327093.280   127839740.207 6      6166.957    24327091.900   127839740.211 5      6166.957    24327111.020    99615449.722 5      4805.421    24327111.700    99615452.732 6      4805.421
G21  22668930.780   119126039.674 7      1334.043    22668929.600   119126039.684 5      1334.043    22668935.020    92825489.428 5      1039.514
G02  21864417.280   114898285.277 7      2014.225    21864415.300   114898285.279 6      2014.225    21864419.420    89531138.845 6      1569.526
R17  21659097.360   115902211.587 7      5125.818    21659096.780   115902211.589 7      5125.818    21659110.660    90146219.760 8      3986.747    21659110.260    90146217.755 8      3986.747
G14  22123632.620   116260473.210 6      1759.022    22123631.760   116260473.231 4      1759.022    22123639.780    90592601.543 4      1370.667    22123640.920    90592606.541 7      1370.667
R02  19862630.020   105990798.974 8      5231.328    19862629.780   105990798.975 8      5231.328    19862640.080    82437332.731 8      4068.810    19862640.260    82437331.732 8      4068.810
G17  22324167.820   117314299.300 7      5335.765    22324167.020   117314299.302 6      5335.765    22324172.980    91413745.723 6      4157.739    22324174.000    91413763.712 7      4157.739
G04  22139609.380   116344441.486 7      5390.625    22139609.020   116344441.491 5      5390.625    22139616.760    90658031.542 5      4200.487    22139617.380    90658036.550 8      4200.487
G03  19957905.160   104879498.241 8      2025.509    19957904.740   104879498.251 8      2025.509    19957910.700    81724305.370 8      1578.319    19957911.560    81724309.377 8      1578.319
> 2024 06 03 14 39 22.0000000  0 15
G08  23123136.840   121512900.468 7      -413.759    23123136.040   121512900.468 6      -413.759    23123148.320    94685412.521 6      -322.409    23123149.800    94685422.521 7      -322.409
G22  23152833.000   121668965.282 7      3175.879    23152831.620   121668965.300 4      3175.879    23152840.120    94806975.864 4      2474.711
R03  23562627.780   126132593.971 6      7104.942
R01  19751944.000   105585455.320 7      1123.792    19751944.420   105585455.340 7      1123.792    19751955.400    82122073.095 7       874.061    19751954.520    82122070.088 7       874.061
R23  22961131.860   122826555.460 6       709.840    22961129.980   122826555.472 6       709.840
R24  20226105.900   108158070.070 8      2962.703    20226105.460   108158070.074 7      2962.703    20226116.500    84122995.636 8      2304.324    20226116.540    84122993.638 8      2304.324
G09  24325919.280   127833573.299 6      6166.968    24325918.440   127833573.306 5      6166.968    24325937.320    99610644.339 5      4805.429    24325938.260    99610647.347 6      4805.429
G21  22668676.720   119124705.597 7      1334.012    22668675.780   119124705.609 5      1334.012    22668681.100    92824449.883 5      1039.490
G02  21864033.920   114896271.019 7      2014.154    21864032.000   114896271.024 6      2014.154    21864036.260    89529569.287 6      1569.471
R17  21658139.640   115897085.617 7      5125.917    21658138.360   115897085.638 7      5125.917    21658152.380    90142232.918 8      3986.825    21658152.240    90142230.914 8      3986.825
G14  22123297.460   116258714.253 6      1758.579    22123296.880   116258714.271 4      1758.579    22123304.900    90591230.929 4      1370.321    22123306.480    90591235.935 7      1370.321
R02  19861649.880   105985567.961 8      5230.591    19861649.380   105985567.962 8      5230.591    19861659.860    82433264.170 8      4068.237    19861659.800    82433263.171 8      4068.237
G17  22323152.400   117308963.502 7      5335.619    22323151.560   117308963.507 6      5335.619    22323157.480    91409587.963 6      4157.625    22323158.520    91409605.956 7      4157.625
G04  22138583.560   116339050.968 7      5390.261    22138583.180   116339050.972 5      5390.261    22138591.080    90653831.146 5      4200.203    22138591.640    90653836.148 8      4200.203
G03  19957519.660   104877472.840 8      2025.080    19957519.300   104877472.845 8      2025.080    19957525.280    81722727.136 8      1577.984    19957526.360    81722731.143 8      1577.984
