     3.05           OBSERVATION DATA    MIXED               RINEX VERSION / TYPE
TPS2RIN 1.0.28.3459 TPS-USER            20260427 162732 UTC PGM / RUN BY / DATE
Win64 build Jun 01, 2022 (c) Topcon Positioning Systems     COMMENT
SRC: 20240603_GUI22.tps                                     COMMENT
Observer            Agency                                  OBSERVER / AGENCY
O0M3X53SBGM         TPS HIPER_SR        4.8 HSR Jul,08,2022 REC # / TYPE / VERS
FW: 4.8 HSR Jul,08,2022 p3                                  COMMENT
SN: HiPer SR 1212-12575                                     COMMENT
000                 TPSHIPER_SR     NONE                    ANT # / TYPE
        1.8000        0.0000        0.0000                  ANTENNA: DELTA H/E/N
GUI22                                                       MARKER NAME
  5390781.0560 -1595761.5614  3006775.7572                  APPROX POSITION XYZ
  2024     6     3    12    58    4.0000000     GPS         TIME OF FIRST OBS
  2024     6     3    13    13   14.0000000     GPS         TIME OF LAST OBS
     1.000                                                  INTERVAL
   911 EPOCHS                                               COMMENT
G   12 C1C L1C D1C C1W L1W D1W C2W L2W D2W C2X L2X D2X      SYS / # / OBS TYPES
R   12 C1C L1C D1C C1P L1P D1P C2P L2P D2P C2C L2C D2C      SYS / # / OBS TYPES
    14                                                      # OF SATELLITES
   G02   911   911   911   911   911   911   911   911   911PRN / # OF OBS
           0     0     0                                    PRN / # OF OBS
   G03   911   911   911   911   911   911   911   911   911PRN / # OF OBS
         911   911   911                                    PRN / # OF OBS
   G08   911   911   911   911   911   911   911   911   911PRN / # OF OBS
         911   911   911                                    PRN / # OF OBS
   G14   911   911   911   911   911   911   911   911   911PRN / # OF OBS
         911   911   911                                    PRN / # OF OBS
   G16   752   752   752   752   752   752   752   752   752PRN / # OF OBS
           0     0     0                                    PRN / # OF OBS
   G21   911   911   911   911   911   911   911   911   911PRN / # OF OBS
           0     0     0                                    PRN / # OF OBS
   G27   911   911   911   911   911   911   911   911   911PRN / # OF OBS
         911   911   911                                    PRN / # OF OBS
   G32   911   911   911   911   911   911   911   911   911PRN / # OF OBS
         911   911   911                                    PRN / # OF OBS
   R01   911   911   911   911   911   911   911   911   911PRN / # OF OBS
         911   911   911                                    PRN / # OF OBS
   R02   623   623   623   623   623   623   623   623   623PRN / # OF OBS
         623   623   623                                    PRN / # OF OBS
   R08   911   911   911   911   911   911   911   911   911PRN / # OF OBS
         911   911   911                                    PRN / # OF OBS
   R14   911   911   911   911   911   911   911   911   911PRN / # OF OBS
         911   911   911                                    PRN / # OF OBS
   R23   911   911   911   911   911   911     0     0     0PRN / # OF OBS
           0     0     0                                    PRN / # OF OBS
   R24   911   911   911   911   911   911   911   911   911PRN / # OF OBS
         911   911   911                                    PRN / # OF OBS
G L1C                                                       SYS / PHASE SHIFT
G L1W -0.25000                                              SYS / PHASE SHIFT
G L2W  0.00000                                              SYS / PHASE SHIFT
G L2X  0.25000                                              SYS / PHASE SHIFT
R L1C                                                       SYS / PHASE SHIFT
R L1P -0.25000                                              SYS / PHASE SHIFT
R L2P -0.25000                                              SYS / PHASE SHIFT
R L2C                                                       SYS / PHASE SHIFT
  6 R01  1 R02 -4 R08  6 R14 -7 R23  3 R24  2               GLONASS SLOT / FRQ #
                                                            GLONASS COD/PHS/BIS
               *** Undefined LeapSeconds ***                COMMENT
                                                            END OF HEADER
> 2024 06 03 12 58  4.0000000  0 13
R23  21423493.740   114601238.397 7      1668.590    21423493.040   114601238.407 7      1668.590
R14  21151589.760   112749874.425 8      2362.933    21151586.900   112749874.425 7      2362.933    21151597.400    87694378.204 8      1837.837    21151598.100    87694380.208 8      1837.837
G16  25076224.180   131776441.976 6      -944.660    25076223.200   131776441.987 3      -944.660    25076238.540   102682977.916 3      -736.099
R24  21102961.620   112847018.397 7      3677.028    21102960.540   112847018.406 7      3677.028    21102972.740    87769948.983 8      2859.911    21102972.560    87769948.981 8      2859.911
G21  21265005.040   111748349.174 7      1523.190    21265003.240   111748349.182 6      1523.190    21265007.840    87076649.290 6      1186.901
G32  24801386.580   130332164.860 6      2448.919    24801386.220   130332164.870 6      2448.919    24801400.060   101557587.593 6      1908.248    24801400.140   101557591.602 7      1908.248
R01  20978055.820   112139731.481 7      5997.287    20978055.620   112139731.493 7      5997.287    20978069.880    87219848.486 7      4664.556    20978068.720    87219842.479 7      4664.556
R08  21097589.380   112976635.677 7      2190.576    21097590.940   112976635.716 7      2190.576    21097602.120    87870765.251 7      1703.782    21097601.600    87870764.250 7      1703.782
G14  23196783.120   121899920.993 7      5244.522    23196782.240   121899921.000 5      5244.522    23196790.860    94986977.576 5      4086.640    23196791.460    94986982.585 8      4086.640
G27  23024984.880   120997110.692 7       321.552    23024984.100   120997110.704 7       321.552    23024994.820    94283499.568 7       250.560    23024995.160    94283502.572 7       250.560
G08  20810296.360   109358842.606 8      1788.936    20810295.260   109358842.608 8      1788.936    20810302.440    85214731.223 8      1393.976    20810303.840    85214713.225 8      1393.976
G02  21388881.180   112399343.344 7      2447.889    21388879.580   112399343.349 6      2447.889    21388882.440    87583925.246 6      1907.446
G03  21258975.380   111716665.827 7      5441.085    21258974.720   111716665.832 6      5441.085    21258982.480    87051982.974 6      4239.807    21258982.960    87051982.980 8      4239.807
> 2024 06 03 12 58  5.0000000  0 13
R23  21423181.960   114599569.972 7      1668.080    21423181.240   114599569.984 7      1668.080
R14  21151146.440   112747511.919 7      2362.138    21151143.780   112747511.920 7      2362.138    21151154.380    87692540.704 8      1837.218    21151154.940    87692542.706 8      1837.218
G16  25076404.520   131777386.611 6      -944.575    25076402.940   131777386.621 3      -944.575    25076418.220   102683713.981 3      -736.032
R24  21102273.980   112843341.435 7      3676.906    21102273.020   112843341.444 7      3676.906    21102285.340    87767089.125 8      2859.816    21102285.180    87767089.124 8      2859.816
G21  21264715.100   111746826.044 7      1522.870    21264713.160   111746826.049 6      1522.870    21264717.980    87075462.424 6      1186.652
G32  24800920.780   130329716.311 6      2448.100    24800920.160   130329716.313 6      2448.100    24800933.300   101555679.628 6      1907.611    24800933.880   101555683.650 7      1907.611
R01  20976934.080   112133734.419 7      5996.733    20976933.640   112133734.437 7      5996.733    20976947.460    87215184.129 7      4664.126    20976946.880    87215178.120 7      4664.126
R08  21097180.700   112974445.667 7      2189.310    21097182.100   112974445.714 7      2189.310    21097192.600    87869061.920 7      1702.796    21097192.660    87869060.923 7      1702.796
G14  23195785.240   121894676.727 7      5244.144    23195784.320   121894676.732 5      5244.144    23195792.840    94982891.146 5      4086.346    23195793.500    94982896.154 8      4086.346
G27  23024923.920   120996789.309 7       321.071    23024923.060   120996789.320 7       321.071    23024933.420    94283249.147 7       250.185    23024934.380    94283252.163 7       250.185
G08  20809955.960   109357053.916 8      1788.396    20809954.920   109357053.918 8      1788.396    20809962.020    85213337.443 8      1393.555    20809963.500    85213319.446 8      1393.555
G02  21388415.400   112396895.561 7      2447.615    21388413.900   112396895.566 6      2447.615    21388416.740    87582017.888 6      1907.232
G03  21257939.920   111711224.960 7      5440.709    21257939.180   111711224.965 6      5440.709    21257947.140    87047743.345 6      4239.513    21257947.920    87047743.352 8      4239.513
> 2024 06 03 12 58  6.0000000  0 13
R23  21422869.920   114597901.812 7      1668.355    21422869.000   114597901.829 6      1668.355
R14  21150703.660   112745149.982 8      2361.261    21150700.940   112745149.971 7      2361.261    21150711.520    87690703.606 8      1836.536    21150712.160    87690705.614 8      1836.536
G16  25076584.720   131778331.167 6      -944.745    25076582.620   131778331.180 3      -944.745    25076597.840   102684449.994 3      -736.165
R24  21101586.060   112839664.422 7      3676.847    21101585.560   112839664.428 7      3676.847    21101597.300    87764229.218 8      2859.770    21101597.280    87764229.219 8      2859.770
G21  21264425.140   111745302.998 8      1522.946    21264423.460   111745303.003 6      1522.946    21264427.900    87074275.637 6      1186.711
G32  24800454.920   130327268.499 6      2447.688    24800454.360   130327268.501 6      2447.688    24800468.340   101553772.231 6      1907.290    24800468.620   101553776.227 7      1907.290
R01  20975812.400   112127737.910 7      5996.152    20975810.920   112127737.922 7      5996.152    20975825.720    87210520.180 7      4663.674    20975824.940    87210514.171 7      4663.674
R08  21096771.720   112972256.687 7      2188.658    21096773.400   112972256.732 7      2188.658    21096783.980    87867359.353 7      1702.289    21096783.760    87867358.350 7      1702.289
G14  23194787.300   121889432.759 7      5243.507    23194786.320   121889432.772 5      5243.507    23194794.940    94978804.945 5      4085.850    23194795.080    94978809.945 8      4085.850
G27  23024862.800   120996468.405 7       320.866    23024861.660   120996468.410 7       320.866    23024872.600    94282999.055 7       250.025    23024873.260    94283002.036 7       250.025
G08  20809615.720   109355265.737 8      1787.954    20809614.500   109355265.737 8      1787.954    20809621.680    85211944.057 8      1393.211    20809623.120    85211926.063 8      1393.211
G02  21387949.620   112394447.831 7      2447.533    21387948.120   112394447.836 6      2447.533    21387951.000    87580110.564 6      1907.168
G03  21256904.740   111705784.414 7      5439.990    21256903.880   111705784.414 6      5439.990    21256912.040    87043503.953 6      4238.953    21256912.780    87043503.945 8      4238.953
> 2024 06 03 12 58  7.0000000  0 13
R23  21422558.400   114596233.630 7      1669.052    21422557.520   114596233.634 6      1669.052
R14  21150260.980   112742789.555 8      2360.314    21150258.320   112742789.550 7      2360.314    21150268.820    87688867.734 8      1835.800    21150269.300    87688869.735 8      1835.800
G16  25076764.700   131779275.799 6      -944.815    25076762.480   131779275.809 3      -944.815    25076777.560   102685186.061 3      -736.220
R24  21100898.700   112835987.924 8      3677.110    21100898.020   112835987.934 7      3677.110    21100909.680    87761369.731 8      2859.975    21100909.780    87761369.729 8      2859.975
G21  21264135.380   111743780.294 8      1523.290    21264133.880   111743780.299 6      1523.290    21264137.960    87073089.108 6      1186.980
G32  24799988.920   130324821.001 6      2447.908    24799988.180   130324820.998 6      2447.908    24800002.620   101551865.085 6      1907.461    24800003.020   101551869.071 7      1907.461
R01  20974690.240   112121741.832 7      5995.997    20974688.940   112121741.841 7      5995.997    20974704.480    87205856.561 7      4663.553    20974703.280    87205850.554 7      4663.553
R08  21096362.760   112970068.439 7      2188.442    21096364.580   112970068.472 7      2188.442    21096375.320    87865657.397 7      1702.122    21096374.900    87865656.397 7      1702.122
G14  23193789.320   121884189.863 7      5243.310    23193788.600   121884189.875 5      5243.310    23193797.320    94974719.576 5      4085.696    23193797.420    94974724.576 7      4085.696
G27  23024801.560   120996147.509 7       320.998    23024800.560   120996147.514 7       320.998    23024811.640    94282748.988 7       250.128    23024812.060    94282751.987 7       250.128
G08  20809275.480   109353477.880 8      1788.126    20809274.240   109353477.879 8      1788.126    20809281.480    85210550.919 8      1393.345    20809282.980    85210532.923 8      1393.345
G02  21387484.020   112392000.619 7      2447.819    21387482.320   112392000.622 6      2447.819    21387485.440    87578203.635 6      1907.391
G03  21255869.420   111700344.685 7      5439.408    21255868.940   111700344.690 6      5439.408    21255876.940    87039265.209 6      4238.499    21255877.740    87039265.213 8      4238.499
> 2024 06 03 12 58  8.0000000  0 13
R23  21422246.360   114594565.410 7      1667.660    21422245.740   114594565.433 6      1667.660
R14  21149818.260   112740429.851 7      2358.927    21149815.560   112740429.846 7      2358.927    21149825.980    87687032.394 8      1834.721    21149826.620    87687034.397 8      1834.721
G16  25076943.920   131780220.202 6      -944.537    25076942.000   131780220.210 3      -944.537    25076957.420   102685921.945 3      -736.003
R24  21100211.220   112832311.414 8      3676.047    21100210.440   112832311.415 7      3676.047    21100222.280    87758510.189 8      2859.148    21100222.380    87758510.192 8      2859.148
G21  21263845.560   111742257.566 7      1522.300    21263843.720   111742257.571 6      1522.300    21263848.200    87071902.542 6      1186.208
G32  24799523.380   130322373.870 6      2446.494    24799522.280   130322373.869 6      2446.494    24799536.440   101549958.199 6      1906.359    24799537.300   101549962.206 7      1906.359
R01  20973568.600   112115746.114 6      5995.379    20973568.000   112115746.118 6      5995.379    20973582.780    87201193.194 7      4663.072    20973581.720    87201187.187 7      4663.072
R08  21095954.120   112967880.990 7      2186.681    21095956.400   112967881.027 7      2186.681    21095967.120    87863956.034 7      1700.752    21095966.420    87863955.034 7      1700.752
G14  23192791.760   121878947.326 7      5241.864    23192790.980   121878947.339 5      5241.864    23192799.800    94970634.478 5      4084.569    23192799.980    94970639.470 8      4084.569
G27  23024740.060   120995826.721 6       320.407    23024739.160   120995826.723 6       320.407    23024750.800    94282499.023 6       249.668    23024750.920    94282502.016 7       249.668
G08  20808935.280   109351690.324 8      1787.067    20808934.460   109351690.321 8      1787.067    20808941.200    85209157.994 8      1392.520    20808942.740    85209139.996 8      1392.520
G02  21387018.340   112389553.457 7      2446.647    21387016.620   112389553.459 6      2446.647    21387019.840    87576296.745 6      1906.478
G03  21254834.300   111694905.298 7      5438.973    21254833.940   111694905.297 6      5438.973    21254841.960    87035026.713 6      4238.161    21254842.440    87035026.711 8      4238.161
> 2024 06 03 12 58  9.0000000  0 13
R23  21421934.960   114592897.512 7      1668.024    21421933.660   114592897.524 6      1668.024
R14  21149375.620   112738071.154 8      2358.330    21149372.880   112738071.160 7      2358.330    21149383.400    87685197.868 8      1834.256    21149383.940    87685199.874 8      1834.256
G16  25077123.860   131781164.703 6      -944.058    25077121.740   131781164.711 3      -944.058    25077137.060   102686657.912 3      -735.630
R24  21099523.940   112828635.171 7      3676.259    21099522.920   112828635.175 7      3676.259    21099535.040    87755650.906 8      2859.313    21099534.920    87755650.908 8      2859.313
G21  21263556.140   111740735.166 7      1522.591    21263554.040   111740735.174 6      1522.591    21263558.540    87070716.252 6      1186.435
G32  24799057.920   130319927.488 6      2446.509    24799056.400   130319927.493 6      2446.509    24799070.380   101548051.937 6      1906.370    24799071.440   101548055.949 7      1906.370
R01  20972447.340   112109751.016 7      5995.178    20972446.520   112109751.023 6      5995.178    20972461.500    87196530.357 7      4662.916    20972460.260    87196524.358 7      4662.916
R08  21095545.760   112965694.619 7      2186.161    21095547.820   112965694.658 7      2186.161    21095558.760    87862255.537 8      1700.348    21095558.500    87862254.540 8      1700.348
G14  23191794.300   121873705.420 7      5241.798    23191793.520   121873705.431 5      5241.798    23191802.200    94966549.880 5      4084.518    23191802.460    94966554.889 7      4084.518
G27  23024679.320   120995506.419 6       320.533    23024678.500   120995506.424 6       320.533    23024689.820    94282249.428 6       249.766    23024690.300    94282252.432 7       249.766
G08  20808595.360   109349903.341 8      1787.043    20808594.560   109349903.344 8      1787.043    20808601.160    85207765.540 8      1392.501    20808602.400    85207747.544 8      1392.501
G02  21386552.780   112387106.607 8      2446.861    21386551.080   112387106.612 6      2446.861    21386554.140    87574390.111 6      1906.645
G03  21253799.260   111689466.486 7      5438.803    21253799.080   111689466.488 6      5438.803    21253807.160    87030788.682 6      4238.028    21253807.500    87030788.688 8      4238.028
> 2024 06 03 12 58 10.0000000  0 13
R23  21421622.400   114591229.718 7      1667.677    21421621.620   114591229.725 7      1667.677
R14  21148933.360   112735713.238 8      2357.520    21148930.580   112735713.234 7      2357.520    21148940.980    87683363.934 8      1833.627    21148941.480    87683365.940 8      1833.627
G16  25077303.300   131782109.172 6      -944.567    25077301.480   131782109.180 3      -944.567    25077316.780   102687393.852 3      -736.026
R24  21098836.400   112824958.965 7      3676.225    21098835.420   112824958.964 7      3676.225    21098847.500    87752791.626 8      2859.286    21098847.440    87752791.627 8      2859.286
G21  21263266.440   111739212.877 8      1522.218    21263264.520   111739212.885 6      1522.218    21263269.020    87069530.053 6      1186.144
G32  24798592.120   130317481.763 7      2445.375    24798591.220   130317481.765 6      2445.375    24798604.940   101546146.182 6      1905.487    24798605.760   101546150.187 7      1905.487
R01  20971325.940   112103756.419 7      5994.251    20971325.220   112103756.425 6      5994.251    20971339.920    87191867.913 7      4662.195    20971338.880    87191861.903 7      4662.195
R08  21095137.760   112963509.179 7      2184.811    21095139.980   112963509.226 7      2184.811    21095151.080    87860555.748 8      1699.298    21095150.260    87860554.753 8      1699.298
G14  23190796.940   121868463.943 7      5241.296    23190796.080   121868463.950 5      5241.296    23190804.640    94962465.618 5      4084.127    23190805.200    94962470.625 7      4084.127
G27  23024618.380   120995186.489 7       319.528    23024617.580   120995186.497 6       319.528    23024628.920    94282000.120 6       248.983    23024629.340    94282003.124 7       248.983
G08  20808255.440   109348116.803 8      1786.172    20808254.420   109348116.808 8      1786.172    20808261.240    85206373.432 8      1391.823    20808262.600    85206355.436 8      1391.823
G02  21386087.120   112384659.879 8      2446.629    21386085.400   112384659.884 6      2446.629    21386088.360    87572483.565 6      1906.464
G03  21252764.460   111684028.100 7      5438.098    21252764.160   111684028.097 6      5438.098    21252771.980    87026550.980 6      4237.479    21252772.720    87026550.983 8      4237.479
> 2024 06 03 12 58 11.0000000  0 13
R23  21421310.440   114589562.031 6      1667.578    21421309.880   114589562.038 6      1667.578
R14  21148491.320   112733356.223 7      2356.447    21148488.160   112733356.216 7      2356.447    21148499.040    87681530.692 8      1832.792    21148499.520    87681532.695 8      1832.792
G16  25077483.260   131783053.859 6      -944.806    25077481.380   131783053.870 3      -944.806    25077496.600   102688129.961 3      -736.212
R24  21098148.960   112821282.810 7      3675.945    21098148.160   112821282.814 7      3675.945    21098160.080    87749932.399 8      2859.068    21098160.160    87749932.397 8      2859.068
G21  21262976.640   111737690.712 8      1522.033    21262975.080   111737690.719 6      1522.033    21262979.260    87068343.956 6      1186.000
G32  24798127.160   130315036.629 7      2444.734    24798126.040   130315036.629 6      2444.734    24798140.540   101544240.891 6      1904.988    24798141.100   101544244.900 7      1904.988
R01  20970204.520   112097762.550 7      5993.546    20970203.400   112097762.549 7      5993.546    20970218.700    87187206.017 7      4661.647    20970218.040    87187200.010 7      4661.647
R08  21094729.940   112961324.748 7      2183.778    21094731.960   112961324.785 7      2183.778    21094743.260    87858856.747 8      1698.494    21094742.600    87858855.745 8      1698.494
G14  23189799.640   121863222.878 7      5240.773    23189798.780   121863222.891 5      5240.773    23189807.060    94958381.680 5      4083.719    23189807.660    94958386.680 7      4083.719
G27  23024557.500   120994866.981 6       319.206    23024556.460   120994866.980 6       319.206    23024568.060    94281751.153 6       248.732    23024568.480    94281754.150 7       248.732
G08  20807915.520   109346330.758 8      1785.798    20807914.520   109346330.763 8      1785.798    20807921.400    85204981.705 8      1391.531    20807922.660    85204963.706 8      1391.531
G02  21385621.460   112382213.313 7      2446.392    21385619.920   112382213.315 6      2446.392    21385622.720    87570577.148 6      1906.279
G03  21251729.640   111678590.344 7      5437.397    21251729.220   111678590.344 6      5437.397    21251737.120    87022313.774 6      4236.933    21251737.820    87022313.779 8      4236.933
> 2024 06 03 12 58 12.0000000  0 13
R23  21420998.480   114587894.314 6      1667.553    21420998.020   114587894.332 6      1667.553
R14  21148049.160   112730999.997 7      2355.832    21148046.080   112730999.993 7      2355.832    21148056.920    87679698.073 8      1832.314    21148057.540    87679700.075 8      1832.314
G16  25077662.900   131783998.421 6      -944.516    25077661.160   131783998.428 3      -944.516    25077676.200   102688865.975 3      -735.987
R24  21097461.600   112817606.647 7      3676.095    21097460.740   112817606.654 7      3676.095    21097472.520    87747073.165 8      2859.185    21097472.720    87747073.168 8      2859.185
G21  21262687.080   111736168.585 8      1522.062    21262685.400   111736168.593 6      1522.062    21262689.660    87067157.881 6      1186.022
G32  24797661.840   130312591.876 6      2444.391    24797660.700   130312591.884 6      2444.391    24797675.420   101542335.887 6      1904.721    24797676.180   101542339.892 7      1904.721
R01  20969083.440   112091769.073 7      5993.122    20969082.420   112091769.076 7      5993.122    20969097.540    87182544.430 7      4661.317    20969096.800    87182538.422 7      4661.317
R08  21094322.280   112959141.051 7      2183.167    21094323.680   112959141.101 7      2183.167    21094335.240    87857158.322 8      1698.018    21094334.780    87857157.325 8      1698.018
G14  23188802.600   121857982.286 7      5240.222    23188801.540   121857982.296 5      5240.222    23188809.840    94954298.102 5      4083.290    23188810.240    94954303.106 7      4083.290
G27  23024496.880   120994547.609 7       319.136    23024495.720   120994547.616 6       319.136    23024507.260    94281502.289 6       248.677    23024507.900    94281505.291 7       248.677
G08  20807575.640   109344545.018 8      1785.494    20807574.760   109344545.021 8      1785.494    20807581.540    85203590.223 8      1391.294    20807582.740    85203572.229 8      1391.294
G02  21385156.060   112379766.844 7      2446.280    21385154.440   112379766.844 6      2446.280    21385157.280    87568670.817 6      1906.192
G03  21250694.960   111673153.001 7      5437.044    21250694.580   111673152.998 6      5437.044    21250702.480    87018076.885 6      4236.658    21250703.260    87018076.884 8      4236.658
> 2024 06 03 12 58 13.0000000  0 13
R23  21420686.600   114586226.550 7      1667.919    21420685.980   114586226.565 6      1667.919
R14  21147607.360   112728644.672 7      2355.029    21147604.300   112728644.670 7      2355.029    21147615.000    87677866.150 8      1831.689    21147615.780    87677868.154 8      1831.689
G16  25077842.480   131784942.961 6      -944.559    25077840.840   131784942.968 3      -944.559    25077855.960   102689601.974 3      -736.020
R24  21096774.220   112813930.567 8      3676.151    21096773.320   112813930.571 7      3676.151    21096785.180    87744213.990 8      2859.228    21096785.280    87744213.992 8      2859.228
G21  21262397.280   111734646.522 8      1522.123    21262395.840   111734646.530 6      1522.123    21262400.060    87065971.860 6      1186.070
G32  24797196.640   130310147.546 6      2444.149    24797195.620   130310147.546 6      2444.149    24797210.180   101540431.214 6      1904.532    24797210.660   101540435.215 7      1904.532
R01  20967962.380   112085776.057 7      5992.671    20967961.260   112085776.050 7      5992.671    20967976.360    87177883.199 7      4660.967    20967975.520    87177877.192 7      4660.967
R08  21093914.520   112956958.144 7      2182.459    21093916.460   112956958.189 7      2182.459    21093927.380    87855460.507 7      1697.468    21093927.000    87855459.510 8      1697.468
G14  23187805.280   121852742.154 7      5239.975    23187804.420   121852742.164 5      5239.975    23187812.680    94950214.886 5      4083.097    23187813.260    94950219.890 8      4083.097
G27  23024436.080   120994228.457 6       318.983    23024434.960   120994228.462 6       318.983    23024446.520    94281253.596 6       248.558    23024447.080    94281256.595 7       248.558
G08  20807235.920   109342759.609 8      1785.237    20807235.000   109342759.614 8      1785.237    20807241.780    85202198.994 8      1391.094    20807243.020    85202180.997 8      1391.094
G02  21384690.420   112377320.494 8      2446.347    21384688.880   112377320.499 6      2446.347    21384691.700    87566764.570 6      1906.244
G03  21249660.400   111667716.144 7      5436.631    21249659.840   111667716.146 6      5436.631    21249667.920    87013840.378 6      4236.336    21249668.460    87013840.382 8      4236.336
> 2024 06 03 12 58 14.0000000  0 13
R23  21420374.880   114584559.112 7      1667.391    21420374.700   114584559.118 6      1667.391
R14  21147165.720   112726290.176 7      2354.188    21147162.680   112726290.174 7      2354.188    21147173.160    87676034.875 8      1831.035    21147173.860    87676036.879 8      1831.035
G16  25078022.480   131785887.616 6      -944.491    25078020.720   131785887.621 3      -944.491    25078035.640   102690338.061 3      -735.967
R24  21096086.640   112810254.610 7      3675.960    21096085.560   112810254.614 7      3675.960    21096097.840    87741354.918 8      2859.080    21096097.760    87741354.921 8      2859.080
G21  21262107.860   111733124.695 8      1521.884    21262106.180   111733124.705 6      1521.884    21262110.580    87064786.021 6      1185.884
G32  24796731.740   130307703.968 7      2443.356    24796730.660   130307703.978 6      2443.356    24796745.020   101538527.131 6      1903.914    24796745.460   101538531.148 7      1903.914
R01  20966841.540   112079783.688 7      5992.292    20966840.520   112079783.681 7      5992.292    20966855.460    87173222.466 7      4660.672    20966854.580    87173216.459 7      4660.672
R08  21093506.800   112954776.356 7      2181.383    21093509.040   112954776.404 7      2181.383    21093520.080    87853763.561 8      1696.631    21093519.560    87853762.564 8      1696.631
G14  23186808.360   121847502.484 7      5239.506    23186807.420   121847502.494 5      5239.506    23186815.620    94946132.039 5      4082.732    23186816.180    94946137.045 7      4082.732
G27  23024375.440   120993909.792 6       318.605    23024374.440   120993909.799 6       318.605    23024385.800    94281005.283 6       248.263    23024386.300    94281008.289 7       248.263
G08  20806896.400   109340974.787 8      1784.658    20806895.380   109340974.791 8      1784.658    20806902.200    85200808.229 8      1390.643    20806903.260    85200790.230 8      1390.643
G02  21384224.940   112374874.364 7      2446.021    21384223.340   112374874.372 6      2446.021    21384226.200    87564858.503 6      1905.990
G03  21248625.820   111662279.836 7      5436.173    21248625.280   111662279.833 6      5436.173    21248633.580    87009604.298 6      4235.979    21248634.080    87009604.300 8      4235.979
> 2024 06 03 12 58 15.0000000  0 13
R23  21420063.240   114582891.703 7      1667.450    21420062.880   114582891.715 6      1667.450
R14  21146724.180   112723936.650 8      2353.035    21146721.200   112723936.653 7      2353.035    21146731.780    87674204.359 8      1830.138    21146732.480    87674206.363 8      1830.138
G16  25078201.920   131786832.390 6      -944.704    25078200.460   131786832.392 3      -944.704    25078215.480   102691074.238 3      -736.133
R24  21095399.600   112806578.800 8      3675.790    21095398.440   112806578.799 7      3675.790    21095410.420    87738495.967 8      2858.948    21095410.480    87738495.970 8      2858.948
G21  21261818.180   111731603.013 8      1521.684    21261816.520   111731603.023 6      1521.684    21261820.920    87063600.299 6      1185.728
G32  24796266.960   130305260.944 7      2442.815    24796265.720   130305260.952 6      2442.815    24796280.220   101536623.484 6      1903.492    24796280.500   101536627.491 7      1903.492
R01  20965720.880   112073791.940 7      5991.609    20965719.320   112073791.943 7      5991.609    20965734.600    87168562.240 7      4660.140    20965733.740    87168556.235 7      4660.140
R08  21093099.560   112952595.492 7      2180.565    21093101.700   112952595.534 7      2180.565    21093112.820    87852067.332 8      1695.995    21093112.440    87852066.334 8      1695.995
G14  23185811.360   121842263.377 7      5238.783    23185810.500   121842263.387 5      5238.783    23185818.660    94942049.623 5      4082.168    23185819.100    94942054.625 7      4082.168
G27  23024314.640   120993591.486 6       318.349    23024313.700   120993591.494 6       318.349    23024325.300    94280757.251 6       248.064    23024325.880    94280760.250 7       248.064
G08  20806556.760   109339190.408 8      1784.271    20806555.900   109339190.410 8      1784.271    20806562.680    85199417.804 8      1390.341    20806563.880    85199399.809 8      1390.341
G02  21383759.660   112372428.431 8      2445.891    21383757.800   112372428.436 6      2445.891    21383760.740    87562952.581 6      1905.889
G03  21247591.420   111656844.127 7      5435.571    21247591.140   111656844.129 6      5435.571    21247599.080    87005368.682 6      4235.510    21247599.760    87005368.689 8      4235.510
> 2024 06 03 12 58 16.0000000  0 13
R23  21419751.800   114581224.374 6      1667.411    21419750.900   114581224.378 6      1667.411
R14  21146282.620   112721583.958 7      2352.456    21146279.920   112721583.956 7      2352.456    21146290.320    87672374.479 8      1829.688    21146290.880    87672376.483 8      1829.688
G16  25078382.360   131787777.017 6      -944.499    25078380.240   131787777.025 3      -944.499    25078395.200   102691810.309 3      -735.973
R24  21094711.960   112802903.084 7      3675.919    21094710.960   112802903.085 7      3675.919    21094722.960    87735637.073 8      2859.048    21094723.160    87735637.075 8      2859.048
G21  21261528.640   111730081.423 8      1521.724    21261526.940   111730081.433 6      1521.724    21261531.400    87062414.642 6      1185.759
G32  24795802.280   130302818.380 7      2442.659    24795800.960   130302818.382 6      2442.659    24795815.500   101534720.190 6      1903.370    24795815.880   101534724.188 7      1903.370
R01  20964599.540   112067800.605 7      5991.232    20964598.540   112067800.617 6      5991.232    20964613.720    87163902.322 7      4659.847    20964612.520    87163896.314 7      4659.847
R08  21092692.600   112950415.479 7      2179.727    21092694.600   112950415.527 7      2179.727    21092705.680    87850371.772 7      1695.343    21092705.260    87850370.775 8      1695.343
G14  23184814.480   121837024.711 7      5238.632    23184813.640   121837024.718 5      5238.632    23184821.820    94937967.550 5      4082.051    23184822.340    94937972.564 7      4082.051
G27  23024253.900   120993273.389 7       318.144    23024253.220   120993273.399 6       318.144    23024264.960    94280509.378 6       247.905    23024265.460    94280512.380 7       247.905
G08  20806217.260   109337406.389 8      1783.954    20806216.360   109337406.391 8      1783.954    20806223.120    85198027.659 8      1390.094    20806224.280    85198009.663 8      1390.094
G02  21383294.180   112369982.641 8      2445.890    21383292.460   112369982.648 6      2445.890    21383295.440    87561046.770 6      1905.888
G03  21246557.060   111651408.844 7      5435.273    21246556.780   111651408.849 6      5435.273    21246564.760    87001133.405 6      4235.278    21246565.440    87001133.409 8      4235.278
> 2024 06 03 12 58 17.0000000  0 13
R23  21419440.400   114579556.981 6      1667.508    21419439.760   114579556.991 6      1667.508
R14  21145840.960   112719231.975 8      2351.760    21145838.500   112719231.973 7      2351.760    21145849.100    87670545.161 8      1829.147    21145849.660    87670547.163 8      1829.147
G16  25078562.220   131788721.562 6      -944.410    25078559.940   131788721.570 3      -944.410    25078574.920   102692546.308 3      -735.904
R24  21094024.740   112799227.287 7      3675.886    21094023.620   112799227.291 7      3675.886    21094035.500    87732778.122 8      2859.023    21094035.600    87732778.127 8      2859.023
G21  21261239.200   111728559.848 8      1521.699    21261237.380   111728559.858 6      1521.699    21261241.800    87061228.996 6      1185.739
G32  24795337.140   130300376.289 7      2442.162    24795336.120   130300376.288 6      2442.162    24795350.680   101532817.255 6      1902.984    24795351.440   101532821.258 7      1902.984
R01  20963479.060   112061809.677 7      5990.884    20963477.600   112061809.681 6      5990.884    20963492.940    87159242.705 7      4659.576    20963491.820    87159236.704 7      4659.576
R08  21092285.800   112948236.270 7      2179.002    21092287.820   112948236.312 7      2179.002    21092298.740    87848676.825 8      1694.779    21092298.420    87848675.826 8      1694.779
G14  23183817.920   121831786.423 7      5238.265    23183816.760   121831786.430 5      5238.265    23183825.020    94933885.774 5      4081.765    23183825.340    94933890.780 7      4081.765
G27  23024193.640   120992955.485 7       318.000    23024192.560   120992955.493 6       318.000    23024204.360    94280261.651 6       247.792    23024204.820    94280264.659 7       247.792
G08  20805877.700   109335622.662 8      1783.729    20805877.020   109335622.667 8      1783.729    20805883.640    85196637.742 8      1389.919    20805884.880    85196619.747 8      1389.919
G02  21382828.760   112367536.887 7      2445.889    21382827.040   112367536.892 6      2445.889    21382829.960    87559140.988 6      1905.887
G03  21245522.800   111645973.944 7      5434.907    21245522.560   111645973.946 6      5434.907    21245530.460    86996898.422 6      4234.993    21245531.200    86996898.425 8      4234.993
> 2024 06 03 12 58 18.0000000  0 13
R23  21419128.960   114577889.532 7      1667.546    21419128.140   114577889.547 6      1667.546
R14  21145399.940   112716880.672 7      2351.063    21145397.440   112716880.675 7      2351.063    21145408.260    87668716.370 8      1828.605    21145408.560    87668718.376 8      1828.605
G16  25078741.620   131789665.934 6      -944.174    25078739.660   131789665.942 3      -944.174    25078754.660   102693282.176 3      -735.720
R24  21093337.200   112795551.405 7      3675.994    21093336.180   112795551.412 7      3675.994    21093348.320    87729919.105 8      2859.106    21093348.080    87729919.105 8      2859.106
G21  21260949.480   111727038.229 8      1521.703    21260947.800   111727038.237 6      1521.703    21260952.360    87060043.320 6      1185.742
G32  24794872.660   130297934.592 6      2441.592    24794871.500   130297934.597 6      2441.592    24794886.220   101530914.636 6      1902.540    24794886.760   101530918.649 7      1902.540
R01  20962358.620   112055819.094 7      5990.572    20962356.840   112055819.098 6      5990.572    20962372.440    87154583.377 7      4659.334    20962371.300    87154577.373 7      4659.334
R08  21091878.800   112946057.797 7      2178.234    21091880.880   112946057.841 7      2178.234    21091891.880    87846982.462 8      1694.182    21091891.560    87846981.464 8      1694.182
G14  23182821.000   121826548.466 7      5237.780    23182820.160   121826548.469 5      5237.780    23182828.360    94929804.253 5      4081.387    23182828.420    94929809.253 7      4081.387
G27  23024133.420   120992637.726 6       317.845    23024131.960   120992637.731 6       317.845    23024143.740    94280014.045 6       247.671    23024144.320    94280017.040 7       247.671
G08  20805538.380   109333839.205 8      1783.446    20805537.600   109333839.207 8      1783.446    20805544.360    85195248.035 8      1389.698    20805545.680    85195230.039 8      1389.698
G02  21382363.300   112365091.141 8      2445.845    21382361.560   112365091.143 6      2445.845    21382364.500    87557235.210 6      1905.853
G03  21244488.860   111640539.370 8      5434.442    21244488.280   111640539.373 6      5434.442    21244496.200    86992663.692 6      4234.630    21244497.260    86992663.698 8      4234.630
> 2024 06 03 12 58 19.0000000  0 13
R23  21418816.840   114576221.960 7      1667.538    21418816.400   114576221.970 6      1667.538
R14  21144958.920   112714530.160 7      2350.213    21144956.660   112714530.164 7      2350.213    21144967.280    87666888.198 8      1827.943    21144967.660    87666890.198 8      1827.943
G16  25078921.540   131790610.219 6      -944.168    25078919.280   131790610.227 3      -944.168    25078934.340   102694017.981 3      -735.716
R24  21092649.680   112791875.469 7      3675.930    21092648.800   112791875.473 7      3675.930    21092660.680    87727060.048 8      2859.057    21092660.840    87727060.048 8      2859.057
G21  21260659.940   111725516.573 8      1521.695    21260658.340   111725516.578 6      1521.695    21260662.700    87058857.616 6      1185.737
G32  24794408.040   130295493.194 7      2441.269    24794406.940   130295493.189 6      2441.269    24794421.620   101529012.249 6      1902.287    24794422.320   101529016.260 7      1902.287
R01  20961238.040   112049828.943 7      5990.058    20961236.500   112049828.934 6      5990.058    20961251.680    87149924.371 7      4658.934    20961250.460    87149918.364 7      4658.934
R08  21091471.980   112943880.014 7      2177.411    21091474.480   112943880.059 7      2177.411    21091485.240    87845288.633 8      1693.542    21091484.980    87845287.635 7      1693.542
G14  23181824.180   121821310.846 7      5237.379    23181823.520   121821310.851 5      5237.379    23181831.540    94925722.997 5      4081.075    23181832.000    94925727.999 8      4081.075
G27  23024072.880   120992320.122 6       317.524    23024071.560   120992320.125 6       317.524    23024083.480    94279766.551 6       247.421    23024083.980    94279769.553 7       247.421
G08  20805198.900   109332056.014 8      1783.034    20805198.300   109332056.019 8      1783.034    20805204.980    85193858.540 8      1389.377    20805206.300    85193840.539 8      1389.377
G02  21381898.020   112362645.405 8      2445.817    21381896.160   112362645.405 6      2445.817    21381899.120    87555329.438 6      1905.831
G03  21243454.760   111635105.225 7      5433.948    21243454.260   111635105.227 6      5433.948    21243462.200    86988429.305 6      4234.245    21243463.080    86988429.305 8      4234.245
> 2024 06 03 12 58 20.0000000  0 13
R23  21418504.800   114574554.511 7      1667.663    21418504.500   114574554.512 6      1667.663
R14  21144518.300   112712180.515 8      2349.190    21144515.860   112712180.513 7      2349.190    21144526.360    87665060.686 8      1827.147    21144526.940    87665062.690 8      1827.147
G16  25079101.180   131791554.478 6      -944.172    25079098.880   131791554.486 3      -944.172    25079114.120   102694753.755 3      -735.718
R24  21091962.240   112788199.641 8      3675.846    21091961.180   112788199.647 7      3675.846    21091973.520    87724201.070 8      2858.991    21091973.340    87724201.072 8      2858.991
G21  21260370.640   111723995.077 7      1521.482    21260368.760   111723995.082 6      1521.482    21260373.140    87057672.029 6      1185.570
G32  24793943.540   130293052.435 6      2440.506    24793942.400   130293052.435 6      2440.506    24793957.040   101527110.367 6      1901.693    24793957.760   101527114.380 7      1901.693
R01  20960117.200   112043839.301 7      5989.567    20960116.020   112043839.297 6      5989.567    20960131.120    87145265.772 7      4658.552    20960129.940    87145259.767 7      4658.552
R08  21091065.440   112941703.182 7      2176.539    21091067.700   112941703.230 7      2176.539    21091078.780    87843595.546 8      1692.864    21091078.220    87843594.548 8      1692.864
G14  23180828.040   121816073.693 7      5236.905    23180826.760   121816073.704 5      5236.905    23180834.840    94921642.105 5      4080.705    23180835.720    94921647.105 7      4080.705
G27  23024012.580   120992002.839 6       317.232    23024011.240   120992002.844 6       317.232    23024022.920    94279519.313 6       247.194    23024023.360    94279522.307 7       247.194
G08  20804859.640   109330273.269 8      1782.517    20804859.100   109330273.277 8      1782.517    20804865.720    85192469.388 8      1388.974    20804867.000    85192451.390 8      1388.974
G02  21381432.540   112360199.854 7      2445.523    21381430.800   112360199.853 6      2445.523    21381433.720    87553423.813 6      1905.602
G03  21242420.600   111629671.529 7      5433.442    21242420.260   111629671.528 6      5433.442    21242428.060    86984195.256 6      4233.851    21242429.100    86984195.262 8      4233.851
> 2024 06 03 12 58 21.0000000  0 13
R23  21418193.180   114572887.233 6      1667.148    21418192.740   114572887.229 6      1667.148
R14  21144077.980   112709831.813 8      2348.306    21144075.260   112709831.814 7      2348.306    21144085.780    87663233.918 8      1826.460    21144086.460    87663235.919 8      1826.460
G16  25079280.580   131792498.848 6      -944.299    25079278.740   131792498.860 3      -944.299    25079293.740   102695489.619 3      -735.818
R24  21091274.800   112784523.989 7      3675.590    21091274.060   112784523.993 7      3675.590    21091285.920    87721342.231 8      2858.792    21091286.120    87721342.234 8      2858.792
G21  21260080.940   111722473.739 7      1521.267    21260079.280   111722473.750 6      1521.267    21260083.620    87056486.573 6      1185.403
G32  24793479.220   130290612.238 6      2439.954    24793478.080   130290612.238 6      2439.954    24793492.600   101525208.919 6      1901.263    24793493.240   101525212.917 7      1901.263
R01  20958996.980   112037850.273 6      5988.860    20958995.440   112037850.272 6      5988.860    20959010.600    87140607.650 7      4658.002    20959009.540    87140601.647 7      4658.002
R08  21090659.180   112939527.357 7      2175.288    21090661.600   112939527.407 7      2175.288    21090672.400    87841903.239 8      1691.891    21090671.900    87841902.242 7      1691.891
G14  23179831.120   121810837.074 7      5236.414    23179830.180   121810837.087 5      5236.414    23179838.460    94917561.632 5      4080.323    23179838.940    94917566.635 8      4080.323
G27  23023952.540   120991685.926 6       316.735    23023951.000   120991685.931 6       316.735    23023962.740    94279272.364 6       246.806    23023962.660    94279275.364 7       246.806
G08  20804520.660   109328490.987 8      1782.102    20804519.880   109328490.992 8      1782.102    20804526.580    85191080.595 8      1388.651    20804527.940    85191062.599 8      1388.651
G02  21380967.360   112357754.499 7      2445.225    21380965.440   112357754.504 6      2445.225    21380968.480    87551518.346 6      1905.370
G03  21241387.140   111624238.434 7      5432.885    21241386.420   111624238.437 6      5432.885    21241394.220    86979961.680 6      4233.417    21241395.200    86979961.684 8      4233.417
> 2024 06 03 12 58 22.0000000  0 13
R23  21417881.780   114571219.923 6      1667.277    21417881.100   114571219.927 6      1667.277
R14  21143637.580   112707483.871 8      2347.650    21143634.980   112707483.871 7      2347.650    21143645.360    87661407.738 8      1825.950    21143645.820    87661409.744 8      1825.950
G16  25079460.020   131793443.170 6      -944.367    25079458.360   131793443.177 3      -944.367    25079473.360   102696225.440 3      -735.870
R24  21090587.400   112780848.299 7      3675.763    21090586.660   112780848.306 7      3675.763    21090598.500    87718483.370 8      2858.926    21090598.500    87718483.370 8      2858.926
G21  21259791.580   111720952.454 7      1521.349    21259789.720   111720952.461 6      1521.349    21259794.100    87055301.160 6      1185.467
G32  24793014.820   130288172.520 7      2439.445    24793013.800   130288172.517 6      2439.445    24793028.380   101523307.843 6      1900.867    24793028.680   101523311.848 7      1900.867
R01  20957876.840   112031861.684 7      5988.445    20957874.960   112031861.680 6      5988.445    20957890.320    87135949.867 7      4657.679    20957889.440    87135943.861 7      4657.679
R08  21090253.160   112937352.327 7      2174.696    21090255.300   112937352.375 7      2174.696    21090266.280    87840211.549 8      1691.430    21090265.920    87840210.550 8      1691.430
G14  23178835.040   121805600.881 7      5236.008    23178833.860   121805600.891 5      5236.008    23178842.060    94913481.484 5      4080.006    23178842.700    94913486.486 8      4080.006
G27  23023892.200   120991369.247 7       316.575    23023890.780   120991369.252 6       316.575    23023902.420    94279025.593 6       246.682    23023902.560    94279028.595 7       246.682
G08  20804181.560   109326709.060 8      1781.814    20804180.720   109326709.068 8      1781.814    20804187.440    85189692.084 8      1388.426    20804188.640    85189674.084 8      1388.426
G02  21380501.920   112355309.208 7      2445.350    21380500.040   112355309.215 6      2445.350    21380503.200    87549612.926 6      1905.468
G03  21240353.040   111618805.766 7      5432.489    21240352.620   111618805.768 6      5432.489    21240360.380    86975728.433 6      4233.108    21240361.040    86975728.438 8      4233.108
> 2024 06 03 12 58 23.0000000  0 13
R23  21417570.540   114569552.779 7      1667.206    21417569.320   114569552.773 6      1667.206
R14  21143197.300   112705136.811 8      2346.662    21143194.500   112705136.809 7      2346.662    21143205.060    87659582.243 8      1825.181    21143205.460    87659584.247 8      1825.181
G16  25079639.640   131794387.557 6      -944.539    25079638.020   131794387.565 3      -944.539    25079652.860   102696961.324 3      -736.005
R24  21089900.040   112777172.756 7      3675.504    21089899.260   112777172.766 7      3675.504    21089911.140    87715624.617 8      2858.726    21089911.280    87715624.621 8      2858.726
G21  21259501.940   111719431.352 7      1521.088    21259500.260   111719431.363 6      1521.088    21259504.700    87054115.888 6      1185.263
G32  24792550.920   130285733.424 7      2438.792    24792549.580   130285733.429 6      2438.792    24792564.080   101521407.253 6      1900.357    24792564.300   101521411.258 7      1900.357
R01  20956756.260   112025873.693 7      5987.837    20956755.220   112025873.694 6      5987.837    20956770.260    87131292.547 7      4657.207    20956768.980    87131286.544 7      4657.207
R08  21089846.760   112935178.299 7      2173.607    21089849.200   112935178.351 7      2173.607    21089860.000    87838520.642 8      1690.583    21089859.900    87838519.643 7      1690.583
G14  23177838.680   121800365.200 7      5235.464    23177837.500   121800365.204 5      5235.464    23177845.760    94909401.734 5      4079.583    23177846.240    94909406.736 7      4079.583
G27  23023832.080   120991052.955 6       316.236    23023830.360   120991052.957 6       316.236    23023842.140    94278779.125 6       246.418    23023842.820    94278782.125 7       246.418
G08  20803842.600   109324927.632 8      1781.286    20803841.760   109324927.637 8      1781.286    20803848.400    85188303.957 8      1388.015    20803849.560    85188285.958 8      1388.015
G02  21380036.700   112352864.153 7      2445.047    21380034.900   112352864.157 6      2445.047    21380037.800    87547707.689 6      1905.232
G03  21239319.640   111613373.651 7      5431.949    21239318.960   111613373.651 6      5431.949    21239326.800    86971495.623 6      4232.687    21239327.580    86971495.628 8      4232.687
> 2024 06 03 12 58 24.0000000  0 13
R23  21417258.800   114567885.838 7      1666.964    21417258.000   114567885.834 6      1666.964
R14  21142757.140   112702790.742 8      2345.526    21142754.420   112702790.748 7      2345.526    21142764.820    87657757.527 8      1824.298    21142765.460    87657759.531 8      1824.298
G16  25079819.620   131795332.024 6      -944.563    25079817.840   131795332.029 3      -944.563    25079832.660   102697697.264 3      -736.023
R24  21089212.740   112773497.409 8      3675.275    21089211.860   112773497.413 7      3675.275    21089224.020    87712766.013 8      2858.547    21089224.160    87712766.015 8      2858.547
G21  21259212.520   111717910.501 7      1520.802    21259210.860   111717910.508 6      1520.802    21259215.420    87052930.807 6      1185.040
G32  24792086.900   130283294.993 6      2438.039    24792085.520   130283294.995 6      2438.039    24792099.920   101519507.173 6      1899.771    24792100.340   101519511.180 7      1899.771
R01  20955636.240   112019886.336 7      5987.076    20955635.040   112019886.342 6      5987.076    20955650.100    87126635.722 7      4656.614    20955648.940    87126629.719 7      4656.614
R08  21089440.960   112933005.245 7      2172.640    21089443.700   112933005.289 7      2172.640    21089454.180    87836830.481 7      1689.831    21089454.180    87836829.479 8      1689.831
G14  23176842.520   121795130.128 7      5234.734    23176841.300   121795130.135 5      5234.734    23176849.640    94905322.464 5      4079.014    23176849.940    94905327.470 7      4079.014
G27  23023772.200   120990737.075 6       315.621    23023770.120   120990737.085 6       315.621    23023782.100    94278532.985 6       245.939    23023782.780    94278535.988 7       245.939
G08  20803503.700   109323146.735 7      1780.665    20803502.680   109323146.734 8      1780.665    20803509.520    85186916.240 8      1387.531    20803510.640    85186898.244 8      1387.531
G02  21379571.560   112350419.392 7      2444.571    21379569.560   112350419.397 6      2444.571    21379572.700    87545802.682 6      1904.860
G03  21238286.040   111607942.186 7      5431.054    21238285.260   111607942.185 6      5431.054    21238293.200    86967263.317 6      4231.990    21238293.880    86967263.317 8      4231.990
> 2024 06 03 12 58 25.0000000  0 13
R23  21416947.480   114566219.120 7      1666.855    21416946.400   114566219.118 6      1666.855
R14  21142317.460   112700445.745 8      2344.682    21142314.520   112700445.748 7      2344.682    21142324.900    87655933.638 8      1823.642    21142325.320    87655935.640 8      1823.642
G16  25079999.320   131796276.674 6      -944.541    25079997.640   131796276.677 3      -944.541    25080012.480   102698433.345 3      -736.006
R24  21088525.520   112769822.289 7      3675.257    21088524.680   112769822.293 7      3675.257    21088536.580    87709907.590 8      2858.533    21088536.860    87709907.589 8      2858.533
G21  21258923.400   111716389.909 7      1520.636    21258921.440   111716389.919 6      1520.636    21258926.060    87051745.932 6      1184.911
G32  24791623.080   130280857.208 7      2437.623    24791621.560   130280857.203 6      2437.623    24791636.180   101517607.601 6      1899.447    24791636.700   101517611.604 7      1899.447
R01  20954516.440   112013899.660 7      5986.500    20954515.300   112013899.667 6      5986.500    20954530.020    87121979.429 7      4656.167    20954529.280    87121973.424 7      4656.167
R08  21089035.300   112930833.232 7      2171.608    21089037.960   112930833.280 7      2171.608    21089048.620    87835141.144 8      1689.028    21089048.320    87835140.143 8      1689.028
G14  23175846.360   121789895.703 7      5234.340    23175845.180   121789895.708 5      5234.340    23175853.460    94901243.693 5      4078.706    23175854.120    94901248.695 7      4078.706
G27  23023712.220   120990421.620 6       315.366    23023710.080   120990421.630 6       315.366    23023722.100    94278287.170 6       245.740    23023722.560    94278290.171 7       245.740
G08  20803165.020   109321366.397 7      1780.243    20803163.960   109321366.397 8      1780.243    20803170.780    85185528.964 8      1387.202    20803171.820    85185510.965 8      1387.202
G02  21379106.260   112347974.925 7      2444.440    21379104.420   112347974.928 6      2444.440    21379107.560    87543897.901 6      1904.759
G03  21237252.580   111602511.322 7      5430.854    21237251.820   111602511.319 6      5430.854    21237259.660    86963031.477 6      4231.835    21237260.240    86963031.477 8      4231.835
> 2024 06 03 12 58 26.0000000  0 13
R23  21416635.620   114564552.513 6      1666.556    21416634.580   114564552.517 6      1666.556
R14  21141877.400   112698101.681 7      2343.628    21141874.800   112698101.679 7      2343.628    21141885.320    87654110.475 8      1822.822    21141885.760    87654112.479 8      1822.822
G16  25080178.960   131797221.301 6      -944.620    25080177.440   131797221.306 3      -944.620    25080192.240   102699169.411 3      -736.068
R24  21087838.220   112766147.337 7      3674.920    21087837.440   112766147.349 7      3674.920    21087849.380    87707049.299 8      2858.271    21087849.580    87707049.299 8      2858.271
G21  21258634.000   111714869.477 7      1520.264    21258632.120   111714869.487 6      1520.264    21258636.720    87050561.180 6      1184.621
G32  24791159.040   130278419.981 7      2436.938    24791157.860   130278419.970 6      2436.938    24791172.400   101515708.458 6      1898.912    24791173.000   101515712.469 7      1898.912
R01  20953396.220   112007913.503 7      5985.889    20953395.360   112007913.501 6      5985.889    20953410.380    87117323.533 7      4655.692    20953409.240    87117317.528 7      4655.692
R08  21088629.780   112928662.163 7      2170.509    21088632.560   112928662.204 7      2170.509    21088643.360    87833452.532 8      1688.173    21088643.080    87833451.535 8      1688.173
G14  23174850.400   121784661.782 7      5233.638    23174849.300   121784661.792 5      5233.638    23174857.540    94897165.321 5      4078.159    23174858.060    94897170.329 8      4078.159
G27  23023652.240   120990106.465 6       315.055    23023650.240   120990106.467 6       315.055    23023662.180    94278041.584 6       245.497    23023662.820    94278044.586 7       245.497
G08  20802826.220   109319586.482 8      1779.646    20802825.380   109319586.487 8      1779.646    20802832.080    85184142.020 8      1386.737    20802833.380    85184124.021 8      1386.737
G02  21378641.080   112345530.645 7      2444.129    21378639.260   112345530.648 6      2444.129    21378642.340    87541993.268 6      1904.516
G03  21236219.120   111597081.021 7      5430.054    21236218.480   111597081.020 6      5430.054    21236226.320    86958800.077 6      4231.211    21236226.820    86958800.079 8      4231.211
> 2024 06 03 12 58 27.0000000  0 13
R23  21416324.360   114562885.837 6      1666.371    21416322.660   114562885.849 6      1666.371
R14  21141437.700   112695758.259 8      2342.872    21141435.380   112695758.259 7      2342.872    21141445.840    87652287.816 8      1822.234    21141446.180    87652289.821 8      1822.234
G16  25080358.620   131798165.770 6      -944.609    25080357.120   131798165.775 3      -944.609    25080371.940   102699905.355 3      -736.059
R24  21087150.960   112762472.302 7      3674.863    21087150.000   112762472.309 7      3674.863    21087162.020    87704190.936 8      2858.227    21087162.340    87704190.939 8      2858.227
G21  21258344.580   111713348.954 7      1520.326    21258342.780   111713348.959 6      1520.326    21258347.380    87049376.357 6      1184.670
G32  24790695.180   130275983.147 7      2436.305    24790694.180   130275983.142 6      2436.305    24790708.600   101513809.639 6      1898.420    24790709.440   101513813.644 7      1898.420
R01  20952276.100   112001927.704 7      5985.370    20952275.680   112001927.713 6      5985.370    20952290.200    87112667.928 7      4655.287    20952289.600    87112661.923 7      4655.287
R08  21088224.900   112926491.845 7      2169.648    21088227.280   112926491.879 7      2169.648    21088237.820    87831764.503 8      1687.504    21088237.580    87831763.506 7      1687.504
G14  23173854.320   121779428.156 7      5233.236    23173853.380   121779428.163 5      5233.236    23173861.480    94893087.177 5      4077.846    23173862.140    94893092.181 8      4077.846
G27  23023592.160   120989791.473 6       314.588    23023590.400   120989791.480 6       314.588    23023602.120    94277796.142 6       245.134    23023602.440    94277799.142 7       245.134
G08  20802487.600   109317806.815 8      1779.207    20802486.500   109317806.822 8      1779.207    20802493.500    85182755.270 8      1386.395    20802494.640    85182737.273 8      1386.395
G02  21378175.960   112343086.337 7      2444.047    21378174.140   112343086.341 6      2444.047    21378177.180    87540088.611 6      1904.453
G03  21235185.860   111591651.014 7      5429.588    21235185.260   111591651.016 6      5429.588    21235193.100    86954568.909 6      4230.848    21235193.640    86954568.913 8      4230.848
> 2024 06 03 12 58 28.0000000  0 13
R23  21416012.420   114561219.316 6      1666.557    21416011.740   114561219.326 6      1666.557
R14  21140998.260   112693415.788 8      2341.981    21140995.700   112693415.786 7      2341.981    21141006.440    87650465.892 8      1821.540    21141006.740    87650467.896 8      1821.540
G16  25080538.520   131799110.402 6      -944.690    25080536.680   131799110.410 3      -944.690    25080551.740   102700641.426 3      -736.122
R24  21086463.580   112758797.391 7      3674.862    21086462.920   112758797.400 7      3674.862    21086474.840    87701332.674 8      2858.226    21086475.100    87701332.678 8      2858.226
G21  21258055.340   111711828.656 7      1520.225    21258053.460   111711828.666 6      1520.225    21258058.100    87048191.713 6      1184.591
G32  24790231.940   130273546.923 7      2436.032    24790230.640   130273546.920 6      2436.032    24790245.200   101511911.283 6      1898.207    24790245.980   101511915.292 7      1898.207
R01  20951156.540   111995942.610 7      5984.550    20951156.000   111995942.620 6      5984.550    20951170.900    87108012.860 7      4654.650    20951169.840    87108006.852 7      4654.650
R08  21087819.900   112924322.513 7      2168.950    21087822.380   112924322.549 7      2168.950    21087832.820    87830077.247 8      1686.961    21087832.440    87830076.249 8      1686.961
G14  23172858.260   121774195.073 7      5232.980    23172857.640   121774195.078 5      5232.980    23172865.660    94889009.452 5      4077.647    23172866.280    94889014.456 7      4077.647
G27  23023531.660   120989476.883 6       314.322    23023530.620   120989476.890 6       314.322    23023542.220    94277551.005 6       244.926    23023542.700    94277554.008 7       244.926
G08  20802149.080   109316027.664 8      1778.905    20802148.060   109316027.672 8      1778.905    20802154.940    85181368.917 8      1386.159    20802156.160    85181350.918 8      1386.159
G02  21377710.880   112340642.264 7      2444.041    21377709.060   112340642.267 6      2444.041    21377712.220    87538184.142 6      1904.447
G03  21234152.660   111586221.648 7      5429.031    21234151.940   111586221.647 6      5429.031    21234159.940    86950338.234 6      4230.413    21234160.640    86950338.236 8      4230.413
> 2024 06 03 12 58 29.0000000  0 13
R23  21415701.000   114559552.993 6      1666.375    21415700.360   114559553.000 6      1666.375
R14  21140559.020   112691074.197 8      2341.104    21140556.560   112691074.198 7      2341.104    21140567.080    87648644.655 8      1820.859    21140567.580    87648646.654 8      1820.859
G16  25080718.100   131800055.113 6      -944.749    25080716.400   131800055.118 3      -944.749    25080731.640   102701377.560 3      -736.168
R24  21085776.400   112755122.578 7      3674.778    21085775.920   112755122.587 7      3674.778    21085787.840    87698474.495 8      2858.161    21085787.800    87698474.497 8      2858.161
G21  21257766.000   111710308.550 7      1520.097    21257764.220   111710308.561 6      1520.097    21257768.720    87047007.211 6      1184.491
G32  24789768.340   130271111.382 7      2435.244    24789767.320   130271111.385 6      2435.244    24789781.720   101510013.465 6      1897.593    24789782.520   101510017.476 7      1897.593
R01  20950037.440   111989958.110 7      5984.081    20950036.520   111989958.114 6      5984.081    20950051.500    87103358.255 7      4654.285    20950050.400    87103352.245 7      4654.285
R08  21087414.920   112922154.179 7      2167.905    21087417.220   112922154.229 7      2167.905    21087428.140    87828390.780 8      1686.148    21087427.680    87828389.780 8      1686.148
G14  23171862.820   121768962.526 7      5232.341    23171861.880   121768962.531 5      5232.341    23171870.100    94884932.149 5      4077.149    23171870.260    94884937.154 8      4077.149
G27  23023472.180   120989162.737 6       313.837    23023470.840   120989162.742 6       313.837    23023482.480    94277306.203 6       244.548    23023482.840    94277309.201 7       244.548
G08  20801810.460   109314249.040 8      1778.411    20801809.500   109314249.047 8      1778.411    20801816.400    85179982.978 8      1385.775    20801817.620    85179964.981 8      1385.775
G02  21377245.880   112338198.436 7      2443.713    21377243.980   112338198.439 6      2443.713    21377247.040    87536279.862 6      1904.192
G03  21233119.440   111580792.815 7      5428.622    21233118.820   111580792.815 6      5428.622    21233126.760    86946107.977 6      4230.095    21233127.600    86946107.983 8      4230.095
> 2024 06 03 12 58 30.0000000  0 13
R23  21415389.680   114557886.659 7      1666.545    21415388.580   114557886.688 6      1666.545
R14  21140120.040   112688733.483 8      2340.375    21140117.240   112688733.484 7      2340.375    21140127.980    87646824.097 8      1820.291    21140128.420    87646826.099 8      1820.291
G16  25080898.060   131800999.819 6      -944.590    25080896.060   131800999.826 3      -944.590    25080911.460   102702113.690 3      -736.044
R24  21085089.000   112751447.824 7      3674.786    21085088.420   112751447.831 7      3674.786    21085100.440    87695616.353 8      2858.167    21085100.580    87695616.353 8      2858.167
G21  21257476.860   111708788.537 7      1520.168    21257475.060   111708788.547 6      1520.168    21257479.380    87045822.785 6      1184.547
G32  24789305.300   130268676.309 7      2434.996    24789304.080   130268676.309 6      2434.996    24789318.520   101508116.003 6      1897.400    24789319.740   101508120.012 7      1897.400
R01  20948917.840   111983974.089 7      5983.966    20948916.600   111983974.085 6      5983.966    20948931.900    87098704.005 7      4654.196    20948930.920    87098698.002 7      4654.196
R08  21087010.040   112919986.668 7      2167.345    21087012.320   112919986.717 7      2167.345    21087023.060    87826704.937 8      1685.713    21087023.020    87826703.942 8      1685.713
G14  23170866.960   121763730.448 7      5231.911    23170866.340   121763730.452 5      5231.911    23170874.560    94880855.209 5      4076.814    23170874.660    94880860.217 8      4076.814
G27  23023412.500   120988848.785 7       314.024    23023410.880   120988848.793 6       314.024    23023422.760    94277061.562 6       244.694    23023423.280    94277064.563 7       244.694
G08  20801472.160   109312470.775 8      1778.291    20801471.220   109312470.783 8      1778.291    20801477.980    85178597.319 8      1385.682    20801479.320    85178579.325 8      1385.682
G02  21376780.740   112335754.719 7      2443.738    21376779.040   112335754.718 6      2443.738    21376782.140    87534375.664 6      1904.212
G03  21232086.240   111575364.508 7      5428.221    21232085.960   111575364.507 6      5428.221    21232093.820    86941878.135 6      4229.782    21232094.740    86941878.142 8      4229.782
> 2024 06 03 12 58 31.0000000  0 13
R23  21415077.880   114556220.430 6      1666.072    21415077.380   114556220.448 6      1666.072
R14  21139681.040   112686393.731 7      2339.037    21139678.440   112686393.735 7      2339.037    21139689.220    87645004.290 8      1819.251    21139689.540    87645006.294 8      1819.251
G16  25081078.020   131801944.401 6      -944.874    25081075.860   131801944.406 3      -944.874    25081091.220   102702849.722 3      -736.266
R24  21084402.160   112747773.223 7      3674.342    21084401.420   112747773.227 7      3674.342    21084413.360    87692758.325 8      2857.822    21084413.420    87692758.326 8      2857.822
G21  21257187.620   111707268.662 7      1519.579    21257185.740   111707268.672 6      1519.579    21257190.140    87044638.467 6      1184.087
G32  24788842.000   130266241.712 7      2434.084    24788840.880   130266241.714 6      2434.084    24788855.280   101506218.916 6      1896.689    24788855.940   101506222.925 7      1896.689
R01  20947798.360   111977990.460 7      5983.185    20947797.600   111977990.467 6      5983.185    20947812.740    87094050.099 7      4653.588    20947811.480    87094044.089 7      4653.588
R08  21086605.480   112917820.026 7      2166.001    21086607.820   112917820.071 7      2166.001    21086618.680    87825019.770 8      1684.667    21086618.500    87825018.772 8      1684.667
G14  23169871.240   121758498.944 7      5231.081    23169870.780   121758498.952 5      5231.081    23169879.000    94876778.715 5      4076.167    23169879.220    94876783.717 8      4076.167
G27  23023353.100   120988535.049 7       313.459    23023351.300   120988535.049 6       313.459    23023363.040    94276817.082 6       244.253    23023363.500    94276820.079 7       244.253
G08  20801133.680   109310692.881 8      1777.496    20801132.820   109310692.886 8      1777.496    20801139.680    85177211.943 8      1385.062    20801140.880    85177193.944 8      1385.062
G02  21376315.880   112333311.201 7      2443.241    21376313.960   112333311.203 6      2443.241    21376317.140    87532471.627 6      1903.824
G03  21231053.420   111569936.632 8      5427.452    21231053.120   111569936.629 6      5427.452    21231060.940    86937648.624 6      4229.183    21231061.620    86937648.628 8      4229.183
> 2024 06 03 12 58 32.0000000  0 13
R23  21414766.420   114554554.292 6      1666.245    21414765.680   114554554.314 6      1666.245
R14  21139242.140   112684054.824 7      2338.620    21139239.640   112684054.830 7      2338.620    21139250.340    87643185.144 8      1818.926    21139250.580    87643187.150 8      1818.926
G16  25081257.720   131802889.101 6      -944.642    25081255.580   131802889.109 3      -944.642    25081271.040   102703585.848 3      -736.085
R24  21083714.860   112744098.669 7      3674.697    21083714.340   112744098.673 7      3674.697    21083726.220    87689900.339 8      2858.097    21083726.180    87689900.340 8      2858.097
G21  21256898.660   111705748.890 7      1519.900    21256896.500   111705748.898 6      1519.900    21256901.100    87043454.229 6      1184.338
G32  24788378.700   130263807.687 7      2433.957    24788377.500   130263807.689 6      2433.957    24788391.980   101504322.278 6      1896.590    24788392.520   101504326.291 7      1896.590
R01  20946678.780   111972007.510 7      5982.804    20946678.620   111972007.514 6      5982.804    20946693.540    87089396.693 7      4653.292    20946692.260    87089390.688 7      4653.292
R08  21086200.680   112915654.359 7      2165.269    21086203.360   112915654.412 7      2165.269    21086213.980    87823335.371 8      1684.098    21086213.800    87823334.373 8      1684.098
G14  23168875.920   121753267.822 7      5231.135    23168875.160   121753267.829 5      5231.135    23168883.540    94872702.528 5      4076.209    23168883.860    94872707.532 7      4076.209
G27  23023293.660   120988221.736 6       313.300    23023291.700   120988221.741 6       313.300    23023303.340    94276572.940 6       244.130    23023303.840    94276575.939 7       244.130
G08  20800795.600   109308915.478 8      1777.268    20800794.600   109308915.483 8      1777.268    20800801.440    85175826.954 8      1384.884    20800802.620    85175808.957 8      1384.884
G02  21375850.660   112330867.817 8      2443.483    21375849.020   112330867.822 6      2443.483    21375851.980    87530567.691 6      1904.012
G03  21230020.620   111564509.349 7      5427.195    21230020.460   111564509.354 6      5427.195    21230028.180    86933419.579 6      4228.983    21230029.160    86933419.589 8      4228.983
> 2024 06 03 12 58 33.0000000  0 13
R23  21414454.980   114552888.338 7      1665.698    21414454.380   114552888.342 6      1665.698
R14  21138803.620   112681716.786 8      2337.446    21138801.180   112681716.795 7      2337.446    21138811.780    87641366.672 8      1818.014    21138812.000    87641368.670 8      1818.014
G16  25081437.360   131803833.867 6      -944.831    25081435.400   131803833.880 3      -944.831    25081450.700   102704322.024 3      -736.232
R24  21083027.760   112740424.252 7      3674.224    21083027.060   112740424.264 7      3674.224    21083039.020    87687042.470 8      2857.730    21083038.940    87687042.470 8      2857.730
G21  21256609.400   111704229.310 7      1519.356    21256607.420   111704229.320 6      1519.356    21256611.780    87042270.141 6      1183.914
G32  24787915.340   130261374.346 7      2432.915    24787914.580   130261374.351 6      2432.915    24787928.860   101502426.174 6      1895.778    24787929.180   101502430.181 7      1895.778
R01  20945559.720   111966025.111 7      5982.023    20945559.140   111966025.115 7      5982.023    20945574.240    87084743.724 7      4652.685    20945572.940    87084737.713 7      4652.685
R08  21085796.340   112913489.670 7      2164.075    21085799.220   112913489.709 7      2164.075    21085809.840    87821651.719 7      1683.169    21085810.000    87821650.722 7      1683.169
G14  23167880.640   121748037.227 7      5230.171    23167879.760   121748037.240 5      5230.171    23167888.080    94868626.750 5      4075.458    23167888.680    94868631.752 7      4075.458
G27  23023233.960   120987908.835 6       312.427    23023232.040   120987908.840 6       312.427    23023243.780    94276329.119 6       243.450    23023244.020    94276332.121 7       243.450
G08  20800457.380   109307138.551 8      1776.541    20800456.540   109307138.556 8      1776.541    20800463.300    85174442.337 8      1384.318    20800464.740    85174424.341 8      1384.318
G02  21375385.880   112328424.635 8      2442.939    21375384.120   112328424.640 6      2442.939    21375387.080    87528663.915 6      1903.589
G03  21228987.940   111559082.587 7      5426.349    21228987.800   111559082.592 6      5426.349    21228995.440    86929190.939 6      4228.324    21228996.160    86929190.943 8      4228.324
> 2024 06 03 12 58 34.0000000  0 13
R23  21414143.480   114551222.392 6      1665.928    21414142.560   114551222.401 6      1665.928
R14  21138365.360   112679379.588 8      2336.898    21138362.540   112679379.588 7      2336.898    21138373.380    87639548.843 8      1817.588    21138373.680    87639550.849 8      1817.588
G16  25081616.820   131804778.536 6      -944.539    25081615.200   131804778.549 3      -944.539    25081630.580   102705058.121 3      -736.004
R24  21082340.640   112736749.897 7      3674.410    21082339.960   112736749.904 7      3674.410    21082351.920    87684184.638 8      2857.874    21082351.880    87684184.638 8      2857.874
G21  21256320.180   111702709.809 8      1519.627    21256318.160   111702709.816 6      1519.627    21256322.700    87041086.114 6      1184.125
G32  24787452.340   130258941.448 7      2432.825    24787451.680   130258941.453 6      2432.825    24787466.400   101500530.409 6      1895.708    24787466.780   101500534.421 7      1895.708
R01  20944440.720   111960043.153 7      5981.756    20944440.000   111960043.157 7      5981.756    20944455.600    87080091.099 7      4652.477    20944454.240    87080085.091 7      4652.477
R08  21085392.240   112911325.808 7      2163.496    21085394.780   112911325.849 7      2163.496    21085405.760    87819968.717 8      1682.719    21085405.520    87819967.722 7      1682.719
G14  23166885.340   121742807.117 7      5229.930    23166884.600   121742807.127 5      5229.930    23166892.880    94864551.341 5      4075.270    23166893.260    94864556.343 8      4075.270
G27  23023174.300   120987596.103 6       312.713    23023172.440   120987596.108 6       312.713    23023184.220    94276085.423 6       243.672    23023184.520    94276088.419 7       243.672
G08  20800119.400   109305361.968 8      1776.471    20800118.480   109305361.976 8      1776.471    20800125.260    85173057.991 8      1384.263    20800126.560    85173039.996 8      1384.263
G02  21374920.980   112325981.593 8      2442.994    21374919.320   112325981.598 6      2442.994    21374922.260    87526760.248 6      1903.631
G03  21227955.500   111553656.264 8      5426.165    21227955.120   111553656.266 6      5426.165    21227963.020    86924962.637 6      4228.181    21227963.660    86924962.641 8      4228.181
> 2024 06 03 12 58 35.0000000  0 13
R23  21413831.860   114549556.344 6      1665.982    21413831.320   114549556.351 6      1665.982
R14  21137927.040   112677043.125 8      2335.962    21137924.240   112677043.125 7      2335.962    21137935.020    87637731.596 8      1816.859    21137935.320    87637733.600 8      1816.859
G16  25081796.640   131805723.116 6      -944.695    25081794.960   131805723.128 3      -944.695    25081810.360   102705794.153 3      -736.126
R24  21081653.380   112733075.448 7      3674.365    21081653.120   112733075.455 7      3674.365    21081664.740    87681326.731 8      2857.839    21081664.620    87681326.731 8      2857.839
G21  21256030.920   111701190.289 7      1519.404    21256029.060   111701190.294 6      1519.404    21256033.620    87039902.072 6      1183.951
G32  24786989.120   130256508.953 7      2432.038    24786988.820   130256508.963 6      2432.038    24787003.580   101498634.967 6      1895.094    24787003.820   101498638.970 7      1895.094
R01  20943321.900   111954061.609 7      5981.051    20943321.380   111954061.605 6      5981.051    20943336.500    87075438.789 7      4651.929    20943335.440    87075432.786 7      4651.929
R08  21084988.600   112909162.666 7      2162.552    21084990.680   112909162.708 7      2162.552    21085001.820    87818286.276 8      1681.985    21085001.800    87818285.278 8      1681.985
G14  23165889.980   121737577.332 7      5229.569    23165889.420   121737577.336 5      5229.569    23165897.640    94860476.188 5      4074.989    23165898.160    94860481.188 8      4074.989
G27  23023114.680   120987283.573 6       312.113    23023113.120   120987283.578 6       312.113    23023124.900    94275841.889 6       243.205    23023125.240    94275844.889 7       243.205
G08  20799781.300   109303585.674 8      1776.057    20799780.420   109303585.679 8      1776.057    20799787.120    85171673.864 8      1383.941    20799788.480    85171655.865 8      1383.941
G02  21374456.300   112323538.545 7      2442.905    21374454.360   112323538.550 6      2442.905    21374457.380    87524856.574 6      1903.562
G03  21226923.000   111548230.337 7      5425.635    21226922.680   111548230.337 6      5425.635    21226930.480    86920734.644 6      4227.768    21226931.020    86920734.647 8      4227.768
> 2024 06 03 12 58 36.0000000  0 13
R23  21413520.560   114547890.538 7      1665.713    21413520.200   114547890.542 6      1665.713
R14  21137488.940   112674707.691 8      2334.890    21137486.140   112674707.694 7      2334.890    21137496.980    87635915.150 8      1816.026    21137497.400    87635917.153 8      1816.026
G16  25081976.520   131806667.826 6      -944.721    25081974.840   131806667.842 3      -944.721    25081990.180   102706530.285 3      -736.146
R24  21080966.400   112729401.280 7      3674.036    21080965.760   112729401.286 7      3674.036    21080977.740    87678469.049 8      2857.583    21080977.700    87678469.049 8      2857.583
G21  21255741.900   111699671.026 7      1519.078    21255739.980   111699671.034 6      1519.078    21255744.540    87038718.229 6      1183.697
G32  24786526.340   130254077.104 7      2431.496    24786526.060   130254077.111 6      2431.496    24786540.660   101496740.019 6      1894.672    24786540.900   101496744.024 7      1894.672
R01  20942203.260   111948080.680 7      5980.561    20942202.220   111948080.689 6      5980.561    20942217.340    87070786.972 7      4651.547    20942216.280    87070780.960 7      4651.547
R08  21084584.820   112907000.579 7      2161.530    21084587.140   112907000.623 7      2161.530    21084598.060    87816604.654 8      1681.190    21084598.240    87816603.659 8      1681.190
G14  23164895.140   121732348.217 7      5228.754    23164894.300   121732348.221 5      5228.754    23164902.680    94856401.555 5      4074.354    23164903.080    94856406.557 8      4074.354
G27  23023055.160   120986971.419 6       311.933    23023053.700   120986971.423 6       311.933    23023065.440    94275598.642 6       243.064    23023065.940    94275601.637 7       243.064
G08  20799443.540   109301809.945 8      1775.405    20799442.400   109301809.950 8      1775.405    20799449.340    85170290.179 8      1383.432    20799450.600    85170272.182 8      1383.432
G02  21373991.440   112321095.805 7      2442.577    21373989.480   112321095.813 6      2442.577    21373992.580    87522953.143 6      1903.306
G03  21225890.580   111542805.052 7      5425.032    21225890.120   111542805.051 6      5425.032    21225898.040    86916507.151 6      4227.298    21225898.500    86916507.153 8      4227.298
> 2024 06 03 12 58 37.0000000  0 13
R23  21413208.860   114546224.859 7      1665.457    21413208.580   114546224.866 6      1665.457
R14  21137050.740   112672373.216 8      2333.875    21137048.280   112672373.214 7      2333.875    21137059.100    87634099.441 8      1815.236    21137059.420    87634101.447 8      1815.236
G16  25082156.260   131807612.598 6      -945.107    25082154.680   131807612.610 3      -945.107    25082169.900   102707266.466 3      -736.447
R24  21080279.300   112725727.293 7      3673.799    21080278.800   112725727.302 7      3673.799    21080290.500    87675611.514 8      2857.400    21080290.860    87675611.514 8      2857.400
G21  21255452.760   111698151.938 8      1518.831    21255450.880   111698151.945 6      1518.831    21255455.360    87037534.526 6      1183.505
G32  24786063.980   130251645.848 7      2430.700    24786063.340   130251645.861 6      2430.700    24786077.660   101494845.539 6      1894.052    24786077.860   101494849.552 7      1894.052
R01  20941084.100   111942100.400 7      5979.700    20941083.640   111942100.404 6      5979.700    20941098.460    87066135.645 7      4650.878    20941097.920    87066129.640 7      4650.878
R08  21084181.180   112904839.469 7      2160.481    21084183.640   112904839.508 7      2160.481    21084194.640    87814923.787 8      1680.374    21084194.500    87814922.788 8      1680.374
G14  23163900.260   121727119.656 7      5228.092    23163899.400   121727119.663 5      5228.092    23163907.560    94852327.356 5      4073.838    23163908.160    94852332.358 8      4073.838
G27  23022996.080   120986659.635 7       311.421    23022994.620   120986659.637 6       311.421    23023006.140    94275355.689 6       242.666    23023006.720    94275358.689 7       242.666
G08  20799105.600   109300034.676 8      1774.814    20799104.600   109300034.676 8      1774.814    20799111.460    85168906.848 8      1382.972    20799112.660    85168888.854 8      1382.972
G02  21373526.540   112318653.315 8      2442.163    21373524.820   112318653.322 6      2442.163    21373527.680    87521049.903 6      1902.984
G03  21224858.140   111537380.355 7      5424.180    21224857.960   111537380.357 6      5424.180    21224865.680    86912280.123 6      4226.634    21224866.100    86912280.127 8      4226.634
> 2024 06 03 12 58 38.0000000  0 13
R23  21412897.600   114544559.293 7      1665.591    21412897.020   114544559.319 6      1665.591
R14  21136613.000   112670039.557 7      2333.276    21136610.400   112670039.557 7      2333.276    21136621.180    87632284.375 8      1814.770    21136621.640    87632286.378 8      1814.770
G16  25082336.720   131808557.414 6      -944.381    25082334.440   131808557.426 3      -944.381    25082349.740   102708002.685 3      -735.881
R24  21079592.140   112722053.395 7      3673.894    21079591.700   112722053.404 7      3673.894    21079603.720    87672754.039 8      2857.473    21079603.640    87672754.038 8      2857.473
G21  21255163.940   111696633.004 7      1518.900    21255161.700   111696633.009 6      1518.900    21255166.220    87036350.939 6      1183.558
G32  24785601.540   130249215.229 7      2430.472    24785600.800   130249215.239 6      2430.472    24785614.840   101492951.550 6      1893.874    24785615.460   101492955.557 7      1893.874
R01  20939965.960   111936120.751 7      5979.605    20939965.220   111936120.736 7      5979.605    20939980.100    87061484.799 7      4650.804    20939979.060    87061478.789 7      4650.804
R08  21083777.720   112902679.326 7      2159.765    21083780.000   112902679.370 7      2159.765    21083791.240    87813243.680 8      1679.817    21083791.060    87813242.682 8      1679.817
G14  23162905.200   121721891.513 7      5227.866    23162904.580   121721891.523 5      5227.866    23162912.620    94848253.491 5      4073.662    23162913.160    94848258.495 7      4073.662
G27  23022937.120   120986348.263 6       311.511    23022935.360   120986348.271 6       311.511    23022946.880    94275113.060 6       242.735    23022947.160    94275116.060 7       242.735
G08  20798768.000   109298259.896 8      1774.683    20798766.980   109298259.898 8      1774.683    20798773.700    85167523.906 8      1382.870    20798775.100    85167505.910 8      1382.870
G02  21373061.580   112316210.961 8      2442.240    21373059.920   112316210.968 6      2442.240    21373063.120    87519146.772 6      1903.044
G03  21223826.320   111531956.186 7      5424.132    21223825.700   111531956.183 6      5424.132    21223833.460    86908053.496 6      4226.596    21223834.100    86908053.498 8      4226.596
> 2024 06 03 12 58 39.0000000  0 13
R23  21412586.500   114542893.909 6      1665.173    21412586.100   114542893.927 6      1665.173
R14  21136175.160   112667706.767 8      2332.114    21136172.820   112667706.765 7      2332.114    21136183.580    87630469.989 8      1813.867    21136183.900    87630471.992 8      1813.867
G16  25082516.360   131809502.285 6      -945.233    25082514.320   131809502.298 3      -945.233    25082529.500   102708738.944 3      -736.545
R24  21078905.040   112718379.598 7      3673.509    21078904.560   112718379.605 7      3673.509    21078916.580    87669896.642 8      2857.174    21078916.440    87669896.638 8      2857.174
G21  21254874.900   111695114.225 7      1518.531    21254872.760   111695114.235 6      1518.531    21254877.340    87035167.475 6      1183.271
G32  24785139.400   130246785.174 7      2429.638    24785138.400   130246785.182 6      2429.638    24785152.820   101491057.999 6      1893.224    24785153.120   101491062.001 7      1893.224
R01  20938847.620   111930141.572 7      5978.755    20938846.780   111930141.571 7      5978.755    20938861.660    87056834.335 7      4650.143    20938860.480    87056828.327 7      4650.143
R08  21083374.580   112900520.098 7      2158.519    21083376.900   112900520.145 7      2158.519    21083387.820    87811564.287 8      1678.848    21083387.800    87811563.285 8      1678.848
G14  23161910.540   121716663.938 7      5227.040    23161909.820   121716663.948 5      5227.040    23161917.920    94844180.060 5      4073.018    23161918.420    94844185.060 7      4073.018
G27  23022877.580   120986037.215 6       310.560    23022876.240   120986037.215 6       310.560    23022887.620    94274870.677 6       241.995    23022888.000    94274873.674 7       241.995
G08  20798430.060   109296485.551 8      1773.873    20798429.280   109296485.556 8      1773.873    20798436.120    85166141.302 8      1382.239    20798437.440    85166123.310 8      1382.239
G02  21372596.760   112313768.820 8      2441.844    21372595.320   112313768.822 6      2441.844    21372598.360    87517243.803 6      1902.736
G03  21222793.980   111526532.511 7      5423.085    21222793.760   111526532.513 6      5423.085    21222801.460    86903827.260 6      4225.780    21222801.860    86903827.264 8      4225.780
> 2024 06 03 12 58 40.0000000  0 13
R23  21412275.160   114541228.645 6      1665.342    21412274.820   114541228.652 6      1665.342
R14  21135738.000   112665375.005 8      2331.548    21135735.300   112665375.006 7      2331.548    21135746.140    87628656.394 8      1813.426    21135746.800    87628658.398 8      1813.426
G16  25082695.940   131810447.253 6      -944.696    25082694.220   131810447.266 3      -944.696    25082709.300   102709475.274 3      -736.127
R24  21078218.180   112714705.919 8      3673.810    21078217.900   112714705.928 7      3673.810    21078229.540    87667039.338 8      2857.408    21078229.440    87667039.337 8      2857.408
G21  21254585.760   111693595.646 8      1518.723    21254583.820   111693595.653 6      1518.723    21254588.260    87033984.162 6      1183.421
G32  24784676.720   130244355.700 7      2429.386    24784676.160   130244355.708 6      2429.386    24784690.340   101489164.902 6      1893.028    24784690.980   101489168.911 7      1893.028
R01  20937729.640   111924163.091 7      5978.423    20937728.220   111924163.085 7      5978.423    20937743.000    87052184.413 7      4649.884    20937742.080    87052178.408 7      4649.884
R08  21082971.560   112898361.805 7      2158.001    21082973.880   112898361.850 7      2158.001    21082984.900    87809885.617 8      1678.445    21082984.940    87809884.619 8      1678.445
G14  23160915.840   121711436.927 7      5226.929    23160915.020   121711436.935 5      5226.929    23160923.240    94840107.067 5      4072.931    23160923.460    94840112.071 7      4072.931
G27  23022818.420   120985726.514 6       310.709    23022817.080   120985726.513 6       310.709    23022828.520    94274628.565 6       242.111    23022828.820    94274631.567 7       242.111
G08  20798092.580   109294711.682 8      1773.876    20798091.800   109294711.687 8      1773.876    20798098.580    85164759.069 8      1382.241    20798100.000    85164741.070 8      1382.241
G02  21372132.120   112311326.918 8      2442.056    21372130.680   112311326.917 6      2442.056    21372133.560    87515341.016 6      1902.901
G03  21221762.160   111521109.470 7      5423.096    21221761.740   111521109.472 6      5423.096    21221769.360    86899601.519 6      4225.789    21221770.100    86899601.523 8      4225.789
> 2024 06 03 12 58 41.0000000  0 13
R23  21411963.940   114539563.234 7      1665.296    21411963.300   114539563.246 7      1665.296
R14  21135300.720   112663043.785 8      2330.759    21135297.860   112663043.788 8      2330.759    21135308.820    87626843.223 8      1812.812    21135309.300    87626845.225 8      1812.812
G16  25082875.840   131811391.990 6      -944.839    25082874.260   131811391.998 3      -944.839    25082888.940   102710211.429 3      -736.238
R24  21077531.340   112711032.082 8      3673.768    21077530.780   112711032.086 8      3673.768    21077542.680    87664181.903 8      2857.375    21077542.520    87664181.904 8      2857.375
G21  21254296.880   111692076.951 8      1518.582    21254294.840   111692076.959 6      1518.582    21254299.380    87032800.764 6      1183.311
G32  24784214.600   130241926.571 7      2428.872    24784213.820   130241926.586 6      2428.872    24784228.040   101487272.082 6      1892.627    24784228.900   101487276.095 7      1892.627
R01  20936611.180   111918184.872 7      5977.918    20936609.980   111918184.874 7      5977.918    20936624.840    87047534.696 7      4649.492    20936623.900    87047528.686 7      4649.492
R08  21082568.620   112896204.275 7      2156.973    21082570.620   112896204.304 7      2156.973    21082581.940    87808207.525 8      1677.646    21082582.000    87808206.528 8      1677.646
G14  23159921.080   121706210.109 7      5226.539    23159920.360   121706210.119 5      5226.539    23159928.760    94836034.229 5      4072.628    23159928.880    94836039.236 8      4072.628
G27  23022759.440   120985415.915 7       310.394    23022757.980   120985415.912 6       310.394    23022769.460    94274386.532 6       241.865    23022769.940    94274389.534 7       241.865
G08  20797755.060   109292938.048 8      1773.346    20797754.240   109292938.052 8      1773.346    20797761.120    85163377.016 8      1381.828    20797762.320    85163359.021 8      1381.828
G02  21371667.440   112308884.934 8      2441.798    21371666.000   112308884.936 6      2441.798    21371668.940    87513438.176 6      1902.700
G03  21220730.340   111515686.691 8      5422.409    21220729.720   111515686.696 6      5422.409    21220737.440    86895375.981 6      4225.253    21220738.240    86895375.984 8      4225.253
> 2024 06 03 12 58 42.0000000  0 13
R23  21411652.380   114537898.048 7      1665.277    21411652.180   114537898.058 7      1665.277
R14  21134863.500   112660713.610 8      2329.834    21134860.800   112660713.610 7      2329.834    21134871.700    87625030.860 8      1812.093    21134871.980    87625032.864 8      1812.093
G16  25083055.660   131812336.864 6      -944.930    25083054.160   131812336.872 3      -944.930    25083068.680   102710947.688 3      -736.309
R24  21076844.240   112707358.497 8      3673.574    21076843.700   112707358.504 8      3673.574    21076855.540    87661324.681 8      2857.224    21076855.640    87661324.683 8      2857.224
G21  21254007.940   111690558.503 8      1518.472    21254005.880   111690558.513 6      1518.472    21254010.380    87031617.562 6      1183.225
G32  24783752.520   130239498.111 7      2428.213    24783751.720   130239498.121 6      2428.213    24783765.940   101485379.776 6      1892.114    24783767.000   101485383.781 7      1892.114
R01  20935492.240   111912207.322 7      5977.421    20935491.760   111912207.312 7      5977.421    20935506.520    87042885.488 7      4649.105    20935505.700    87042879.480 7      4649.105
R08  21082165.760   112894047.760 7      2156.092    21082168.180   112894047.797 7      2156.092    21082179.340    87806530.242 8      1676.961    21082179.140    87806529.249 8      1676.961
G14  23158926.540   121700983.950 7      5226.051    23158925.840   121700983.957 5      5226.051    23158934.100    94831961.900 5      4072.248    23158934.280    94831966.902 8      4072.248
G27  23022700.440   120985105.752 6       309.876    23022699.040   120985105.757 6       309.876    23022710.480    94274144.847 6       241.462    23022710.800    94274147.851 7       241.462
G08  20797417.760   109291164.930 8      1772.914    20797416.700   109291164.935 8      1772.914    20797423.640    85161995.366 8      1381.491    20797424.800    85161977.369 8      1381.491
G02  21371202.820   112306443.234 8      2441.700    21371201.340   112306443.237 6      2441.700    21371204.240    87511535.555 6      1902.623
G03  21219698.320   111510264.556 7      5421.887    21219697.920   111510264.553 6      5421.887    21219705.660    86891150.939 6      4224.847    21219706.340    86891150.947 8      4224.847
> 2024 06 03 12 58 43.0000000  0 13
R23  21411341.680   114536232.980 7      1664.758    21411340.800   114536232.997 7      1664.758
R14  21134426.420   112658384.364 8      2328.631    21134424.040   112658384.362 7      2328.631    21134434.780    87623219.219 8      1811.158    21134435.160    87623221.222 8      1811.158
G16  25083235.620   131813281.767 6      -945.069    25083233.880   131813281.772 3      -945.069    25083248.380   102711683.966 3      -736.418
R24  21076157.440   112703685.045 8      3673.206    21076156.580   112703685.052 7      3673.206    21076168.660    87658467.552 8      2856.938    21076168.760    87658467.548 8      2856.938
G21  21253719.000   111689040.208 8      1518.036    21253716.940   111689040.221 6      1518.036    21253721.320    87030434.475 6      1182.885
G32  24783290.240   130237070.188 7      2427.458    24783289.620   130237070.195 6      2427.458    24783303.660   101483487.891 6      1891.526    24783304.760   101483491.898 7      1891.526
R01  20934374.300   111906230.321 7      5976.585    20934373.640   111906230.317 7      5976.585    20934388.300    87038236.720 7      4648.455    20934387.460    87038230.711 7      4648.455
R08  21081763.080   112891892.120 7      2154.956    21081765.700   112891892.162 7      2154.956    21081776.720    87804853.640 8      1676.077    21081776.620    87804852.642 8      1676.077
G14  23157932.180   121695758.308 7      5225.253    23157931.400   121695758.313 5      5225.253    23157939.680    94827889.980 5      4071.626    23157939.940    94827894.986 7      4071.626
G27  23022641.240   120984795.884 7       309.468    23022640.200   120984795.891 6       309.468    23022651.480    94273903.389 6       241.144    23022651.720    94273906.391 7       241.144
G08  20797080.300   109289392.257 8      1772.273    20797079.320   109289392.262 8      1772.273    20797086.340    85160614.060 8      1380.992    20797087.540    85160596.062 8      1380.992
G02  21370738.400   112304001.748 7      2441.151    21370736.740   112304001.750 6      2441.151    21370739.620    87509633.098 6      1902.195
G03  21218666.700   111504842.954 7      5421.305    21218666.380   111504842.954 6      5421.305    21218673.860    86886926.322 6      4224.394    21218674.640    86886926.321 8      4224.394
> 2024 06 03 12 58 44.0000000  0 13
R23  21411030.600   114534568.125 6      1664.927    21411030.020   114534568.140 6      1664.927
R14  21133989.660   112656055.940 8      2327.962    21133987.260   112656055.938 7      2327.962    21133997.840    87621408.226 8      1810.637    21133998.060    87621410.230 8      1810.637
G16  25083415.600   131814226.711 6      -944.814    25083413.800   131814226.714 3      -944.814    25083428.160   102712420.278 3      -736.219
R24  21075470.260   112700011.695 7      3673.402    21075469.620   112700011.702 7      3673.402    21075481.560    87655610.497 8      2857.090    21075481.800    87655610.498 8      2857.090
G21  21253429.980   111687522.128 8      1518.091    21253428.100   111687522.136 6      1518.091    21253432.580    87029251.555 6      1182.928
G32  24782828.740   130234642.947 7      2427.205    24782827.800   130234642.955 6      2427.205    24782842.100   101481596.537 6      1891.329    24782842.940   101481600.546 7      1891.329
R01  20933256.440   111900253.869 7      5976.257    20933255.520   111900253.876 7      5976.257    20933270.600    87033588.387 7      4648.200    20933269.540    87033582.380 7      4648.200
R08  21081360.920   112889737.512 7      2154.319    21081362.920   112889737.545 7      2154.319    21081374.420    87803177.827 8      1675.581    21081374.240    87803176.827 8      1675.581
G14  23156937.720   121690533.187 7      5224.785    23156937.040   121690533.195 5      5224.785    23156945.200    94823818.459 5      4071.261    23156945.780    94823823.463 7      4071.261
G27  23022582.240   120984486.412 7       309.541    23022581.100   120984486.412 6       309.541    23022592.680    94273662.234 6       241.201    23022593.020    94273665.230 7       241.201
G08  20796743.220   109287620.088 8      1772.085    20796742.180   109287620.093 8      1772.085    20796749.120    85159233.149 8      1380.846    20796750.260    85159215.153 8      1380.846
G02  21370273.840   112301560.453 7      2441.262    21370272.220   112301560.457 6      2441.262    21370275.120    87507730.794 6      1902.282
G03  21217635.160   111499421.859 7      5420.811    21217634.700   111499421.859 6      5420.811    21217642.280    86882702.093 6      4224.009    21217643.000    86882702.095 8      4224.009
> 2024 06 03 12 58 45.0000000  0 13
R23  21410719.420   114532903.345 6      1664.669    21410718.660   114532903.363 6      1664.669
R14  21133553.100   112653728.565 8      2326.869    21133550.400   112653728.563 7      2326.869    21133561.280    87619598.048 8      1809.787    21133561.540    87619600.048 8      1809.787
G16  25083595.060   131815171.764 6      -945.083    25083593.680   131815171.766 3      -945.083    25083608.020   102713156.677 3      -736.428
R24  21074783.140   112696338.508 7      3672.955    21074782.800   112696338.517 7      3672.955    21074794.700    87652753.586 8      2856.743    21074794.640    87652753.585 8      2856.743
G21  21253140.940   111686004.211 8      1517.783    21253139.320   111686004.219 6      1517.783    21253143.720    87028068.759 6      1182.688
G32  24782366.920   130232216.237 7      2426.351    24782365.900   130232216.242 6      2426.351    24782380.340   101479705.599 6      1890.663    24782381.120   101479709.618 7      1890.663
R01  20932138.440   111894278.016 7      5975.656    20932137.540   111894278.025 6      5975.656    20932152.260    87028940.507 7      4647.732    20932151.580    87028934.498 7      4647.732
R08  21080958.760   112887583.832 7      2153.090    21080960.760   112887583.860 7      2153.090    21080972.280    87801502.738 8      1674.625    21080972.160    87801501.741 8      1674.625
G14  23155943.680   121685308.621 7      5224.285    23155942.840   121685308.631 5      5224.285    23155951.060    94819747.378 5      4070.872    23155951.980    94819752.386 7      4070.872
G27  23022523.440   120984177.295 6       308.845    23022522.380   120984177.297 6       308.845    23022533.840    94273421.360 6       240.658    23022534.380    94273424.361 7       240.658
G08  20796406.180   109285848.387 8      1771.455    20796405.000   109285848.392 8      1771.455    20796411.940    85157852.603 8      1380.355    20796412.940    85157834.605 8      1380.355
G02  21369809.460   112299119.415 8      2440.885    21369807.700   112299119.420 6      2440.885    21369810.560    87505828.689 6      1901.988
G03  21216603.920   111494001.385 7      5420.298    21216603.120   111494001.384 6      5420.298    21216610.820    86878478.351 6      4223.609    21216611.660    86878478.353 8      4223.609
> 2024 06 03 12 58 46.0000000  0 13
R23  21410407.740   114531238.734 7      1664.358    21410406.920   114531238.757 6      1664.358
R14  21133116.800   112651402.076 7      2325.783    21133113.960   112651402.068 7      2325.783    21133124.900    87617788.560 8      1808.942    21133125.260    87617790.564 8      1808.942
G16  25083774.720   131816116.822 6      -945.529    25083773.660   131816116.824 3      -945.529    25083787.840   102713893.079 3      -736.776
R24  21074096.020   112692665.436 7      3672.762    21074096.200   112692665.445 7      3672.762    21074107.960    87649896.757 8      2856.593    21074107.600    87649896.755 8      2856.593
G21  21252852.060   111684486.468 8      1517.491    21252850.540   111684486.472 6      1517.491    21252854.900    87026886.101 6      1182.461
G32  24781905.300   130229790.140 7      2425.723    24781904.440   130229790.155 6      2425.723    24781918.820   101477815.141 6      1890.174    24781919.280   101477819.150 7      1890.174
R01  20931020.000   111888302.750 7      5974.698    20931020.000   111888302.759 7      5974.698    20931034.920    87024293.087 7      4646.987    20931033.680    87024287.077 7      4646.987
R08  21080556.880   112885431.116 7      2152.093    21080558.340   112885431.155 7      2152.093    21080570.060    87799828.408 8      1673.850    21080570.200    87799827.410 8      1673.850
G14  23154949.640   121680084.579 7      5223.600    23154948.800   121680084.589 5      5223.600    23154956.920    94815676.702 5      4070.338    23154957.680    94815681.709 7      4070.338
G27  23022464.680   120983868.507 6       308.380    23022463.600   120983868.514 6       308.380    23022475.000    94273180.747 6       240.296    23022475.000    94273183.749 7       240.296
G08  20796068.840   109284077.157 8      1770.812    20796067.820   109284077.159 8      1770.812    20796074.920    85156472.419 8      1379.854    20796076.340    85156454.423 8      1379.854
G02  21369345.060   112296678.556 8      2440.574    21369343.180   112296678.556 6      2440.574    21369346.140    87503926.719 6      1901.746
G03  21215572.420   111488581.425 7      5419.311    21215571.820   111488581.428 6      5419.311    21215579.520    86874255.014 6      4222.840    21215580.180    86874255.018 8      4222.840
> 2024 06 03 12 58 47.0000000  0 13
R23  21410096.200   114529574.171 7      1664.708    21410096.100   114529574.194 6      1664.708
R14  21132680.540   112649076.506 7      2325.224    21132677.740   112649076.512 7      2325.224    21132688.640    87615979.786 8      1808.508    21132688.920    87615981.792 8      1808.508
G16  25083954.280   131817062.032 6      -944.978    25083953.500   131817062.034 3      -944.978    25083967.780   102714629.602 3      -736.347
R24  21073409.260   112688992.463 7      3672.933    21073409.100   112688992.472 7      3672.933    21073420.960    87647040.000 8      2856.726    21073421.000    87647039.996 8      2856.726
G21  21252563.360   111682968.829 8      1517.637    21252561.660   111682968.837 6      1517.637    21252566.100    87025703.530 6      1182.574
G32  24781443.620   130227364.618 6      2425.463    24781442.880   130227364.625 6      2425.463    24781456.900   101475925.122 6      1889.971    24781457.760   101475929.129 7      1889.971
R01  20929902.320   111882328.142 7      5974.627    20929902.280   111882328.143 7      5974.627    20929916.740    87019646.171 7      4646.932    20929916.260    87019640.160 7      4646.932
R08  21080154.740   112883279.321 7      2151.513    21080156.380   112883279.368 7      2151.513    21080168.240    87798154.806 8      1673.399    21080168.180    87798153.809 8      1673.399
G14  23153955.760   121674861.003 7      5223.390    23153954.880   121674861.013 5      5223.390    23153963.120    94811606.387 5      4070.174    23153963.600    94811611.392 7      4070.174
G27  23022406.120   120983560.152 6       308.402    23022404.860   120983560.157 6       308.402    23022416.420    94272940.460 6       240.313    23022416.540    94272943.460 7       240.313
G08  20795731.820   109282306.388 8      1770.678    20795731.040   109282306.396 8      1770.678    20795737.880    85155092.610 8      1379.749    20795739.160    85155074.616 8      1379.749
G02  21368880.460   112294237.850 8      2440.758    21368878.860   112294237.857 6      2440.758    21368881.720    87502024.876 6      1901.889
G03  21214541.060   111483162.091 8      5419.347    21214540.520   111483162.091 6      5419.347    21214548.300    86870032.158 6      4222.867    21214548.860    86870032.162 8      4222.867
> 2024 06 03 12 58 48.0000000  0 13
R23  21409784.760   114527909.768 6      1664.250    21409785.000   114527909.789 6      1664.250
R14  21132244.300   112646751.792 7      2324.166    21132241.500   112646751.795 7      2324.166    21132252.420    87614171.673 8      1807.685    21132252.820    87614173.674 8      1807.685
G16  25084134.340   131818007.084 6      -945.092    25084133.300   131818007.089 3      -945.092    25084147.820   102715365.999 3      -736.435
R24  21072722.580   112685319.623 7      3672.714    21072722.200   112685319.630 7      3672.714    21072734.180    87644183.347 8      2856.555    21072734.080    87644183.347 8      2856.555
G21  21252274.600   111681451.359 7      1517.345    21252272.960   111681451.369 6      1517.345    21252277.320    87024521.084 6      1182.347
G32  24780982.020   130224939.645 7      2424.646    24780981.280   130224939.650 6      2424.646    24780995.480   101474035.529 6      1889.334    24780996.780   101474039.536 7      1889.334
R01  20928784.720   111876353.935 7      5973.831    20928784.340   111876353.939 6      5973.831    20928799.320    87014999.574 7      4646.313    20928798.440    87014993.567 7      4646.313
R08  21079753.360   112881128.466 7      2150.277    21079754.440   112881128.508 7      2150.277    21079766.820    87796481.913 8      1672.438    21079766.660    87796480.913 8      1672.438
G14  23152961.980   121669637.973 7      5222.569    23152960.880   121669637.983 5      5222.569    23152969.160    94807536.502 5      4069.534    23152969.560    94807541.509 7      4069.534
G27  23022347.840   120983251.994 6       307.812    23022346.180   120983251.999 6       307.812    23022357.740    94272700.333 6       239.853    23022357.980    94272703.333 7       239.853
G08  20795395.080   109280536.009 8      1770.075    20795394.120   109280536.014 8      1770.075    20795401.100    85153713.092 8      1379.279    20795402.240    85153695.093 8      1379.279
G02  21368415.960   112291797.366 7      2440.270    21368414.440   112291797.371 6      2440.270    21368417.300    87500123.197 6      1901.509
G03  21213509.700   111477743.167 7      5418.439    21213509.320   111477743.169 6      5418.439    21213516.940    86865809.624 6      4222.160    21213517.500    86865809.626 8      4222.160
> 2024 06 03 12 58 49.0000000  0 13
R23  21409473.900   114526245.443 7      1664.408    21409474.120   114526245.456 6      1664.408
R14  21131808.240   112644427.978 7      2323.483    21131805.600   112644427.981 7      2323.483    21131816.660    87612364.266 8      1807.153    21131816.940    87612366.268 8      1807.153
G16  25084314.060   131818952.250 6      -945.143    25084313.120   131818952.252 3      -945.143    25084327.540   102716102.487 3      -736.475
R24  21072036.140   112681646.907 7      3672.780    21072035.460   112681646.908 7      3672.780    21072047.360    87641326.788 8      2856.607    21072047.340    87641326.784 8      2856.607
G21  21251985.980   111679934.030 8      1517.383    21251984.100   111679934.040 6      1517.383    21251988.740    87023338.754 6      1182.377
G32  24780520.660   130222515.200 7      2424.285    24780520.100   130222515.203 6      2424.285    24780534.280   101472146.359 6      1889.053    24780535.140   101472150.374 7      1889.053
R01  20927667.640   111870380.313 7      5973.603    20927667.180   111870380.306 6      5973.603    20927681.920    87010353.424 7      4646.135    20927680.880    87010347.414 7      4646.135
R08  21079351.620   112878978.519 7      2149.687    21079353.380   112878978.555 7      2149.687    21079365.220    87794809.727 8      1671.978    21079365.260    87794808.730 8      1671.978
G14  23151968.100   121664415.467 7      5222.282    23151967.100   121664415.477 5      5222.282    23151975.360    94803467.021 5      4069.310    23151975.820    94803472.029 7      4069.310
G27  23022289.500   120982944.170 7       307.763    23022287.620   120982944.175 6       307.763    23022299.280    94272460.464 6       239.816    23022299.300    94272463.460 7       239.816
G08  20795058.280   109278766.079 8      1769.882    20795057.100   109278766.086 8      1769.882    20795064.300    85152333.925 8      1379.129    20795065.500    85152315.927 8      1379.129
G02  21367951.680   112289357.057 8      2440.351    21367950.040   112289357.062 6      2440.351    21367952.940    87498221.659 6      1901.573
G03  21212478.680   111472324.797 7      5418.204    21212478.080   111472324.797 6      5418.204    21212485.800    86861587.521 6      4221.977    21212486.480    86861587.524 8      4221.977
> 2024 06 03 12 58 50.0000000  0 13
R23  21409163.120   114524581.036 7      1664.143    21409162.620   114524581.058 6      1664.143
R14  21131372.440   112642104.943 8      2322.500    21131369.660   112642104.946 7      2322.500    21131380.880    87610557.461 8      1806.389    21131381.160    87610559.467 8      1806.389
G16  25084493.660   131819897.334 6      -945.366    25084492.760   131819897.338 3      -945.366    25084507.280   102716838.910 3      -736.649
R24  21071349.100   112677974.174 7      3672.524    21071348.800   112677974.178 7      3672.524    21071360.480    87638470.224 8      2856.407    21071360.260    87638470.225 8      2856.407
G21  21251697.340   111678416.710 8      1517.135    21251695.480   111678416.715 6      1517.135    21251699.920    87022156.428 6      1182.183
G32  24780059.540   130220091.184 7      2423.586    24780058.720   130220091.186 6      2423.586    24780072.780   101470257.519 6      1888.508    24780073.680   101470261.530 7      1888.508
R01  20926550.260   111864407.202 7      5972.615    20926549.880   111864407.192 6      5972.615    20926564.480    87005707.675 7      4645.367    20926563.640    87005701.667 7      4645.367
R08  21078950.020   112876829.329 7      2148.548    21078952.100   112876829.371 7      2148.548    21078963.860    87793138.144 8      1671.093    21078963.820    87793137.146 8      1671.093
G14  23150974.320   121659193.325 7      5221.867    23150973.320   121659193.330 5      5221.867    23150981.540    94799397.824 5      4068.987    23150982.300    94799402.830 7      4068.987
G27  23022230.740   120982636.566 6       307.184    23022229.220   120982636.571 6       307.184    23022240.720    94272220.771 6       239.364    23022241.160    94272223.775 7       239.364
G08  20794721.360   109276996.480 8      1769.237    20794720.400   109276996.487 8      1769.237    20794727.440    85150955.023 8      1378.626    20794728.740    85150937.029 8      1378.626
G02  21367487.260   112286916.810 7      2440.037    21367485.740   112286916.818 6      2440.037    21367488.640    87496320.172 6      1901.328
G03  21211447.700   111466906.890 7      5417.592    21211447.220   111466906.889 6      5417.592    21211454.780    86857365.782 6      4221.500    21211455.600    86857365.784 8      4221.500
> 2024 06 03 12 58 51.0000000  0 13
R23  21408852.140   114522916.702 6      1664.363    21408851.760   114522916.723 6      1664.363
R14  21130936.820   112639782.627 7      2321.732    21130934.280   112639782.620 7      2321.732    21130945.100    87608751.205 8      1805.792    21130945.320    87608753.211 8      1805.792
G16  25084673.740   131820842.407 6      -944.949    25084672.600   131820842.412 3      -944.949    25084687.020   102717575.327 3      -736.324
R24  21070662.380   112674301.412 7      3672.680    21070661.820   112674301.414 7      3672.680    21070673.820    87635613.627 8      2856.529    21070673.720    87635613.626 8      2856.529
G21  21251408.660   111676899.439 7      1517.175    21251406.700   111676899.447 6      1517.175    21251411.060    87020974.137 6      1182.214
G32  24779598.440   130217667.743 7      2423.152    24779597.460   130217667.748 6      2423.152    24779611.480   101468369.126 6      1888.171    24779612.340   101468373.133 7      1888.171
R01  20925432.760   111858434.569 7      5972.429    20925432.120   111858434.562 6      5972.429    20925447.380    87001062.298 7      4645.223    20925446.120    87001056.290 7      4645.223
R08  21078549.260   112874681.069 7      2147.795    21078551.180   112874681.108 7      2147.795    21078562.720    87791467.262 8      1670.507    21078562.620    87791466.267 8      1670.507
G14  23149980.380   121653971.514 7      5221.548    23149979.640   121653971.522 5      5221.548    23149987.880    94795328.886 5      4068.738    23149988.440    94795333.884 7      4068.738
G27  23022172.260   120982329.286 6       307.228    23022170.760   120982329.291 6       307.228    23022182.380    94271981.324 6       239.399    23022182.640    94271984.327 7       239.399
G08  20794384.900   109275227.293 8      1768.911    20794383.900   109275227.306 8      1768.911    20794390.800    85149576.438 8      1378.372    20794392.240    85149558.442 8      1378.372
G02  21367022.980   112284476.608 7      2440.099    21367021.380   112284476.610 6      2440.099    21367024.320    87494418.714 6      1901.376
G03  21210417.020   111461489.410 7      5417.216    21210416.260   111461489.410 6      5417.216    21210423.860    86853144.373 6      4221.207    21210424.760    86853144.376 8      4221.207
> 2024 06 03 12 58 52.0000000  0 13
R23  21408541.120   114521252.591 6      1664.136    21408540.880   114521252.609 6      1664.136
R14  21130501.260   112637461.370 7      2320.680    21130498.860   112637461.370 7      2320.680    21130509.540    87606945.785 8      1804.973    21130510.060    87606947.786 8      1804.973
G16  25084854.000   131821787.575 6      -945.217    25084852.400   131821787.577 3      -945.217    25084866.920   102718311.811 3      -736.533
R24  21069975.420   112670628.920 7      3672.353    21069974.960   112670628.930 7      3672.353    21069986.880    87632757.255 8      2856.274    21069986.780    87632757.256 8      2856.274
G21  21251120.000   111675382.455 7      1516.849    21251118.040   111675382.465 6      1516.849    21251122.420    87019792.068 6      1181.961
G32  24779137.320   130215244.935 6      2422.442    24779136.580   130215244.940 6      2422.442    24779150.740   101466481.225 6      1887.617    24779151.160   101466485.234 7      1887.617
R01  20924315.760   111852462.569 7      5971.696    20924315.300   111852462.565 6      5971.696    20924330.000    86996417.420 7      4644.653    20924328.900    86996411.412 7      4644.653
R08  21078148.420   112872533.826 7      2146.772    21078150.400   112872533.852 7      2146.772    21078161.780    87789797.176 8      1669.711    21078161.760    87789796.180 8      1669.711
G14  23148986.860   121648750.400 7      5220.897    23148986.100   121648750.408 5      5220.897    23148994.280    94791260.490 5      4068.232    23148994.760    94791265.494 7      4068.232
G27  23022113.740   120982022.397 6       306.722    23022112.320   120982022.407 6       306.722    23022123.980    94271742.192 6       239.005    23022124.380    94271745.191 7       239.005
G08  20794048.240   109273458.627 8      1768.338    20794047.180   109273458.637 8      1768.338    20794054.360    85148198.257 8      1377.926    20794055.580    85148180.258 8      1377.926
G02  21366558.560   112282036.750 7      2439.706    21366557.160   112282036.758 6      2439.706    21366559.960    87492517.526 6      1901.070
G03  21209386.340   111456072.578 7      5416.457    21209385.580   111456072.580 6      5416.457    21209393.180    86848923.469 6      4220.616    21209394.080    86848923.469 8      4220.616
> 2024 06 03 12 58 53.0000000  0 13
R23  21408229.900   114519588.753 6      1663.744    21408228.860   114519588.773 6      1663.744
R14  21130066.180   112635141.162 8      2319.728    21130063.340   112635141.158 7      2319.728    21130074.300    87605141.175 8      1804.233    21130074.840    87605143.179 8      1804.233
G16  25085033.740   131822732.901 6      -945.330    25085032.380   131822732.906 3      -945.330    25085046.820   102719048.426 3      -736.621
R24  21069288.700   112666956.674 7      3672.136    21069288.340   112666956.681 7      3672.136    21069300.180    87629901.064 8      2856.105    21069300.120    87629901.062 8      2856.105
G21  21250831.220   111673865.760 7      1516.588    21250829.320   111673865.770 6      1516.588    21250833.820    87018610.227 6      1181.756
G32  24778676.100   130212822.831 7      2421.833    24778675.620   130212822.836 6      2421.833    24778689.980   101464593.876 6      1887.143    24778690.200   101464597.877 7      1887.143
R01  20923198.900   111846491.246 7      5970.975    20923198.380   111846491.253 6      5970.975    20923213.300    86991773.074 7      4644.092    20923212.100    86991767.060 7      4644.092
R08  21077747.560   112870387.646 7      2145.790    21077749.440   112870387.677 7      2145.790    21077760.880    87788127.931 7      1668.947    21077760.900    87788126.933 8      1668.947
G14  23147993.640   121643529.985 7      5220.056    23147992.660   121643529.992 5      5220.056    23148001.000    94787192.640 5      4067.576    23148001.400    94787197.636 7      4067.576
G27  23022055.440   120981715.971 6       306.299    23022053.980   120981715.976 6       306.299    23022065.620    94271503.412 6       238.675    23022066.260    94271506.413 7       238.675
G08  20793711.860   109271690.544 7      1767.818    20793710.860   109271690.549 8      1767.818    20793717.940    85146820.530 8      1377.520    20793719.240    85146802.531 8      1377.520
G02  21366094.440   112279597.218 7      2439.450    21366092.860   112279597.226 6      2439.450    21366095.660    87490616.594 6      1900.870
G03  21208355.460   111450656.389 7      5415.866    21208354.800   111450656.394 6      5415.866    21208362.460    86844703.064 6      4220.155    21208363.260    86844703.072 8      4220.155
> 2024 06 03 12 58 54.0000000  0 13
R23  21407919.240   114517925.070 7      1663.599    21407918.860   114517925.082 6      1663.599
R14  21129631.040   112632821.901 8      2318.835    21129628.280   112632821.902 7      2318.835    21129639.140    87603337.309 8      1803.538    21129639.580    87603339.313 8      1803.538
G16  25085213.360   131823678.266 6      -945.421    25085212.220   131823678.271 3      -945.421    25085226.720   102719785.071 3      -736.691
R24  21068602.060   112663284.608 7      3671.926    21068601.940   112663284.614 7      3671.926    21068613.620    87627045.016 8      2855.943    21068613.440    87627045.017 8      2855.943
G21  21250542.900   111672349.267 7      1516.422    21250540.820   111672349.274 6      1516.422    21250545.300    87017428.544 6      1181.627
G32  24778215.580   130210401.356 6      2421.174    24778214.840   130210401.360 6      2421.174    24778229.200   101462707.016 6      1886.629    24778229.780   101462711.019 7      1886.629
R01  20922082.140   111840520.495 7      5970.395    20922081.300   111840520.504 6      5970.395    20922096.260    86987129.169 7      4643.641    20922095.020    86987123.163 7      4643.641
R08  21077347.060   112868242.432 7      2144.771    21077348.920   112868242.466 7      2144.771    21077360.360    87786459.442 8      1668.155    21077360.240    87786458.444 8      1668.155
G14  23147000.200   121638310.095 7      5219.653    23146999.340   121638310.105 5      5219.653    23147007.640    94783125.197 5      4067.262    23147007.980    94783130.201 7      4067.262
G27  23021996.920   120981409.917 7       305.836    23021995.820   120981409.917 6       305.836    23022007.300    94271264.916 6       238.314    23022008.040    94271267.918 7       238.314
G08  20793375.400   109269922.952 7      1767.297    20793374.200   109269922.962 8      1767.297    20793381.460    85145443.184 8      1377.114    20793382.820    85145425.189 8      1377.114
G02  21365630.100   112277157.957 7      2439.173    21365628.820   112277157.959 6      2439.173    21365631.660    87488715.867 6      1900.654
G03  21207324.920   111445240.780 7      5415.236    21207324.220   111445240.785 6      5415.236    21207331.940    86840483.115 6      4219.665    21207332.780    86840483.122 8      4219.665
> 2024 06 03 12 58 55.0000000  0 13
R23  21407608.220   114516261.360 7      1663.756    21407607.560   114516261.388 6      1663.756
R14  21129196.140   112630503.421 7      2318.077    21129193.460   112630503.413 7      2318.077    21129204.220    87601534.045 8      1802.949    21129204.780    87601536.046 8      1802.949
G16  25085393.560   131824623.694 6      -945.547    25085392.080   131824623.702 3      -945.547    25085406.840   102720521.764 3      -736.790
R24  21067915.400   112659612.512 7      3672.008    21067915.100   112659612.518 7      3672.008    21067926.720    87624188.943 8      2856.006    21067926.700    87624188.942 8      2856.006
G21  21250254.200   111670832.808 7      1516.388    21250252.320   111670832.816 6      1516.388    21250256.720    87016246.886 6      1181.601
G32  24777754.620   130207980.350 6      2420.759    24777754.260   130207980.347 6      2420.759    24777768.500   101460820.514 6      1886.306    24777768.920   101460824.517 7      1886.306
R01  20920965.960   111834550.283 7      5969.904    20920964.300   111834550.274 6      5969.904    20920979.220    86982485.662 7      4643.259    20920978.180    86982479.653 7      4643.259
R08  21076946.540   112866098.049 7      2143.839    21076948.100   112866098.088 7      2143.839    21076959.760    87784791.586 8      1667.430    21076960.060    87784790.588 8      1667.430
G14  23146007.080   121633090.605 7      5219.239    23146006.080   121633090.612 5      5219.239    23146014.440    94779058.066 5      4066.939    23146014.940    94779063.070 7      4066.939
G27  23021938.740   120981104.095 6       305.733    23021937.660   120981104.098 6       305.733    23021949.140    94271026.613 6       238.234    23021949.820    94271029.615 7       238.234
G08  20793039.180   109268155.713 7      1766.972    20793038.020   109268155.723 8      1766.972    20793045.240    85144066.118 8      1376.862    20793046.520    85144048.121 8      1376.862
G02  21365166.060   112274718.725 7      2439.195    21365164.620   112274718.732 6      2439.195    21365167.380    87486815.168 6      1900.671
G03  21206294.340   111439825.650 7      5414.746    21206293.700   111439825.650 6      5414.746    21206301.540    86836263.538 6      4219.283    21206302.140    86836263.536 8      4219.283
> 2024 06 03 12 58 56.0000000  0 13
R23  21407297.240   114514598.132 7      1663.111    21407297.060   114514598.160 6      1663.111
R14  21128761.580   112628186.180 8      2316.883    21128758.780   112628186.175 7      2316.883    21128769.620    87599731.746 8      1802.020    21128770.140    87599733.752 8      1802.020
G16  25085574.120   131825569.459 6      -945.567    25085572.040   131825569.463 3      -945.567    25085586.860   102721258.713 3      -736.806
R24  21067228.700   112655940.891 7      3671.538    21067228.420   112655940.893 7      3671.538    21067240.160    87621333.239 8      2855.641    21067240.200    87621333.237 8      2855.641
G21  21249965.660   111669316.814 7      1515.930    21249963.820   111669316.822 6      1515.930    21249968.160    87015065.593 6      1181.244
G32  24777294.040   130205560.241 6      2419.777    24777293.660   130205560.243 6      2419.777    24777307.660   101458934.717 6      1885.541    24777308.200   101458938.728 7      1885.541
R01  20919849.360   111828580.981 7      5969.161    20919848.000   111828580.987 6      5969.161    20919862.440    86977842.882 7      4642.681    20919861.480    86977836.879 7      4642.681
R08  21076546.100   112863954.923 7      2142.698    21076547.800   112863954.955 7      2142.698    21076559.660    87783124.711 8      1666.543    21076559.580    87783123.715 8      1666.543
G14  23145014.240   121627871.942 7      5218.401    23145013.040   121627871.947 5      5218.401    23145021.160    94774991.582 5      4066.286    23145021.880    94774996.588 7      4066.286
G27  23021880.800   120980798.988 6       305.135    23021879.440   120980798.993 6       305.135    23021891.140    94270788.859 6       237.767    23021891.720    94270791.861 7       237.767
G08  20792703.200   109266389.269 7      1766.295    20792701.960   109266389.280 8      1766.295    20792708.960    85142689.669 8      1376.334    20792710.340    85142671.674 8      1376.334
G02  21364702.180   112272280.020 7      2438.622    21364700.500   112272280.025 6      2438.622    21364703.200    87484914.879 6      1900.225
G03  21205263.980   111434411.392 7      5414.232    21205263.340   111434411.389 6      5414.232    21205271.340    86832044.635 6      4218.882    21205272.020    86832044.636 8      4218.882
> 2024 06 03 12 58 57.0000000  0 13
R23  21406986.300   114512934.842 7      1663.227    21406985.820   114512934.865 6      1663.227
R14  21128326.880   112625869.621 8      2316.033    21128323.980   112625869.617 7      2316.033    21128334.920    87597929.976 8      1801.359    21128335.460    87597931.980 8      1801.359
G16  25085754.020   131826515.023 6      -945.632    25085752.040   131826515.028 3      -945.632    25085766.860   102721995.510 3      -736.856
R24  21066542.080   112652269.196 8      3671.680    21066541.780   112652269.198 7      3671.680    21066553.360    87618477.480 8      2855.751    21066553.580    87618477.481 8      2855.751
G21  21249677.100   111667800.805 8      1515.965    21249675.200   111667800.815 6      1515.965    21249679.720    87013884.289 6      1181.272
G32  24776833.360   130203140.502 6      2419.502    24776833.100   130203140.507 6      2419.502    24776847.260   101457049.212 6      1885.326    24776847.840   101457053.219 7      1885.326
R01  20918732.440   111822612.007 7      5968.727    20918731.180   111822612.008 6      5968.727    20918745.940    86973200.353 7      4642.343    20918744.680    86973194.342 7      4642.343
R08  21076146.060   112861812.580 7      2141.943    21076147.820   112861812.614 7      2141.943    21076159.800    87781458.446 8      1665.956    21076159.540    87781457.448 8      1665.956
G14  23144021.320   121622653.613 7      5217.969    23144019.940   121622653.623 5      5217.969    23144028.220    94770925.360 5      4065.950    23144028.720    94770930.372 7      4065.950
G27  23021822.840   120980494.007 6       304.710    23021821.520   120980494.004 6       304.710    23021833.100    94270551.207 6       237.436    23021833.840    94270554.211 7       237.436
G08  20792366.980   109264623.081 8      1765.972    20792365.900   109264623.086 8      1765.972    20792372.880    85141313.418 8      1376.082    20792374.220    85141295.419 8      1376.082
G02  21364237.940   112269841.313 8      2438.653    21364236.500   112269841.316 6      2438.653    21364239.180    87483014.590 6      1900.249
G03  21204233.740   111428997.455 7      5413.656    21204233.160   111428997.452 6      5413.656    21204241.000    86827825.989 6      4218.433    21204241.720    86827825.993 8      4218.433
> 2024 06 03 12 58 58.0000000  0 13
R23  21406675.660   114511271.536 6      1663.248    21406674.440   114511271.559 6      1663.248
R14  21127892.360   112623553.889 7      2315.281    21127889.900   112623553.884 7      2315.281    21127900.480    87596128.849 8      1800.774    21127900.840    87596130.853 8      1800.774
G16  25085933.620   131827460.517 6      -945.510    25085932.080   131827460.522 3      -945.510    25085946.780   102722732.255 3      -736.761
R24  21065855.200   112648597.525 7      3671.615    21065855.220   112648597.534 7      3671.615    21065866.700    87615621.744 8      2855.700    21065866.900    87615621.747 8      2855.700
G21  21249388.440   111666284.832 7      1515.928    21249386.800   111666284.840 6      1515.928    21249391.160    87012703.011 6      1181.243
G32  24776373.040   130200721.181 6      2419.056    24776372.560   130200721.186 6      2419.056    24776386.780   101455164.037 6      1884.979    24776387.260   101455168.052 7      1884.979
R01  20917615.880   111816643.482 7      5968.302    20917614.880   111816643.483 6      5968.302    20917629.460    86968558.171 7      4642.013    20917628.140    86968552.162 7      4642.013
R08  21075745.980   112859671.037 7      2141.045    21075748.060   112859671.082 7      2141.045    21075759.740    87779792.806 8      1665.257    21075759.620    87779791.808 8      1665.257
G14  23143027.840   121617435.723 7      5217.630    23143027.020   121617435.730 5      5217.630    23143035.180    94766859.479 5      4065.686    23143035.680    94766864.481 7      4065.686
G27  23021764.780   120980189.167 7       304.713    23021763.540   120980189.167 6       304.713    23021775.080    94270313.666 6       237.438    23021775.720    94270316.666 7       237.438
G08  20792030.900   109262857.200 8      1765.620    20792029.760   109262857.210 8      1765.620    20792036.880    85139937.411 8      1375.808    20792038.100    85139919.414 8      1375.808
G02  21363773.920   112267402.698 8      2438.655    21363772.340   112267402.701 6      2438.655    21363775.180    87481114.368 6      1900.250
G03  21203203.480   111423583.959 7      5413.279    21203203.020   111423583.959 6      5413.279    21203210.900    86823607.685 6      4218.140    21203211.580    86823607.687 8      4218.140
> 2024 06 03 12 58 59.0000000  0 13
R23  21406364.380   114509608.377 6      1663.105    21406363.940   114509608.384 6      1663.105
R14  21127458.540   112621238.972 7      2314.500    21127455.520   112621238.970 7      2314.500    21127466.160    87594328.362 8      1800.167    21127466.880    87594330.366 8      1800.167
G16  25086113.840   131828405.990 6      -945.393    25086112.180   131828405.995 3      -945.393    25086126.700   102723468.979 3      -736.670
R24  21065168.740   112644925.910 7      3671.670    21065168.760   112644925.912 7      3671.670    21065180.120    87612766.040 8      2855.743    21065180.260    87612766.038 8      2855.743
G21  21249100.240   111664768.981 8      1515.885    21249098.380   111664768.991 6      1515.885    21249102.800    87011521.830 6      1181.209
G32  24775913.040   130198302.482 6      2418.614    24775912.240   130198302.487 6      2418.614    24775926.520   101453279.335 6      1884.634    24775927.160   101453283.344 7      1884.634
R01  20916499.360   111810675.500 7      5967.709    20916497.920   111810675.509 6      5967.709    20916513.100    86963916.420 7      4641.551    20916511.540    86963910.417 7      4641.551
R08  21075346.280   112857530.397 7      2140.285    21075348.300   112857530.433 7      2140.285    21075360.180    87778127.861 8      1664.666    21075359.980    87778126.861 8      1664.666
G14  23142034.960   121612218.250 7      5217.380    23142034.080   121612218.263 5      5217.380    23142042.220    94762793.922 5      4065.491    23142042.880    94762798.927 7      4065.491
G27  23021706.820   120979884.701 6       304.293    23021705.840   120979884.709 6       304.293    23021717.200    94270076.420 6       237.112    23021717.820    94270079.428 7       237.112
G08  20791694.880   109261091.755 7      1765.337    20791693.940   109261091.762 8      1765.337    20791701.000    85138561.737 8      1375.588    20791702.260    85138543.743 8      1375.588
G02  21363309.840   112264964.231 8      2438.523    21363308.400   112264964.233 6      2438.523    21363311.120    87479214.266 6      1900.147
G03  21202173.380   111418170.921 7      5412.868    21202172.780   111418170.923 6      5412.868    21202180.700    86819389.739 6      4217.819    21202181.600    86819389.743 8      4217.819
> 2024 06 03 12 59  0.0000000  0 13
R23  21406053.780   114507945.325 6      1663.116    21406053.000   114507945.335 6      1663.116
R14  21127024.380   112618925.066 8      2313.553    21127021.300   112618925.053 7      2313.553    21127032.160    87592528.647 8      1799.430    21127032.680    87592530.651 8      1799.430
G16  25086293.720   131829351.605 6      -945.450    25086292.040   131829351.610 3      -945.450    25086306.680   102724205.819 3      -736.714
R24  21064482.280   112641254.450 7      3671.500    21064482.000   112641254.452 7      3671.500    21064493.600    87609910.462 8      2855.611    21064493.740    87609910.460 8      2855.611
G21  21248811.660   111663253.339 8      1515.724    21248809.860   111663253.349 6      1515.724    21248814.400    87010340.811 6      1181.084
G32  24775452.980   130195884.415 6      2417.811    24775452.240   130195884.417 6      2417.811    24775466.340   101451395.128 6      1884.009    24775466.900   101451399.135 7      1884.009
R01  20915383.220   111804708.167 7      5967.284    20915382.000   111804708.163 6      5967.284    20915396.480    86959275.169 7      4641.221    20915395.340    86959269.160 7      4641.221
R08  21074947.260   112855390.739 7      2139.367    21074948.660   112855390.776 7      2139.367    21074960.420    87776463.681 8      1663.952    21074960.400    87776462.683 8      1663.952
G14  23141042.200   121607001.385 7      5216.669    23141041.400   121607001.395 5      5216.669    23141049.700    94758728.836 5      4064.937    23141050.320    94758733.843 7      4064.937
G27  23021649.120   120979580.647 7       304.043    23021647.860   120979580.652 6       304.043    23021659.420    94269839.489 6       236.916    23021659.720    94269842.486 7       236.916
G08  20791359.000   109259326.849 8      1764.815    20791358.000   109259326.859 8      1764.815    20791365.200    85137186.488 8      1375.180    20791366.280    85137168.495 8      1375.180
G02  21362845.980   112262526.018 8      2438.176    21362844.420   112262526.020 6      2438.176    21362847.120    87477314.361 6      1899.877
G03  21201143.520   111412758.529 7      5412.303    21201142.940   111412758.528 6      5412.303    21201150.860    86815172.296 6      4217.379    21201151.680    86815172.299 8      4217.379
> 2024 06 03 12 59  1.0000000  0 13
R23  21405742.740   114506282.303 6      1663.044    21405741.680   114506282.323 6      1663.044
R14  21126590.420   112616611.953 8      2312.820    21126587.320   112616611.948 7      2312.820    21126598.120    87590729.566 8      1798.860    21126598.800    87590731.571 8      1798.860
G16  25086473.860   131830297.164 6      -945.453    25086471.960   131830297.172 3      -945.453    25086486.460   102724942.615 3      -736.716
R24  21063795.940   112637583.025 8      3671.535    21063795.220   112637583.024 7      3671.535    21063807.020    87607054.909 8      2855.638    21063807.120    87607054.907 8      2855.638
G21  21248523.240   111661737.774 7      1515.672    21248521.440   111661737.781 6      1515.672    21248525.940    87009159.849 6      1181.043
G32  24774992.860   130193466.757 6      2417.559    24774992.220   130193466.770 6      2417.559    24775006.180   101449511.247 6      1883.812    24775006.720   101449515.260 7      1883.812
R01  20914266.640   111798741.284 7      5966.767    20914265.740   111798741.298 6      5966.767    20914280.240    86954634.276 7      4640.819    20914279.160    86954628.269 7      4640.819
R08  21074548.020   112853251.922 7      2138.519    21074549.540   112853251.969 7      2138.519    21074561.300    87774800.162 8      1663.292    21074561.000    87774799.165 8      1663.292
G14  23140049.700   121601784.963 7      5216.296    23140048.880   121601784.968 5      5216.296    23140057.040    94754664.099 5      4064.646    23140057.580    94754669.103 7      4064.646
G27  23021591.360   120979276.812 7       303.744    23021590.020   120979276.814 6       303.744    23021601.580    94269602.727 6       236.683    23021601.960    94269605.731 7       236.683
G08  20791023.220   109257562.292 8      1764.442    20791022.120   109257562.299 8      1764.442    20791029.400    85135811.508 8      1374.890    20791030.460    85135793.512 8      1374.890
G02  21362381.840   112260087.894 7      2438.189    21362380.500   112260087.896 6      2438.189    21362383.300    87475414.525 6      1899.888
G03  21200113.640   111407346.596 7      5411.791    21200113.040   111407346.604 6      5411.791    21200121.020    86810955.210 6      4216.980    21200121.740    86810955.211 8      4216.980
> 2024 06 03 12 59  2.0000000  0 13
R23  21405431.600   114504619.382 6      1662.833    21405431.340   114504619.405 6      1662.833
R14  21126156.460   112614299.656 7      2311.745    21126153.440   112614299.654 7      2311.745    21126164.400    87588931.115 8      1798.024    21126164.920    87588933.120 8      1798.024
G16  25086653.480   131831242.755 6      -945.660    25086652.000   131831242.763 3      -945.660    25086666.520   102725679.433 3      -736.878
R24  21063109.320   112633911.675 8      3671.175    21063108.840   112633911.676 7      3671.175    21063120.240    87604199.423 8      2855.359    21063120.360    87604199.423 8      2855.359
G21  21248234.960   111660222.340 7      1515.257    21248233.140   111660222.347 6      1515.257    21248237.700    87007978.993 6      1180.720
G32  24774532.980   130191049.766 6      2416.590    24774532.320   130191049.774 6      2416.590    24774546.280   101447627.880 6      1883.057    24774547.160   101447631.887 7      1883.057
R01  20913150.400   111792774.969 7      5966.014    20913149.720   111792774.992 6      5966.014    20913164.280    86949993.810 7      4640.233    20913163.340    86949987.813 7      4640.233
R08  21074148.620   112851114.093 7      2137.349    21074149.920   112851114.135 7      2137.349    21074161.680    87773137.404 8      1662.383    21074161.840    87773136.409 8      1662.383
G14  23139057.200   121596568.983 7      5215.630    23139056.120   121596568.988 5      5215.630    23139064.500    94750599.703 5      4064.127    23139064.860    94750604.711 8      4064.127
G27  23021533.700   120978973.310 6       303.239    23021532.240   120978973.312 6       303.239    23021543.800    94269366.230 6       236.290    23021544.040    94269369.234 7       236.290
G08  20790687.440   109255798.171 8      1763.873    20790686.440   109255798.176 8      1763.873    20790693.740    85134436.867 8      1374.447    20790694.700    85134418.870 8      1374.447
G02  21361917.760   112257649.944 8      2437.758    21361916.400   112257649.949 6      2437.758    21361919.300    87473514.825 6      1899.551
G03  21199083.660   111401935.142 7      5411.121    21199083.140   111401935.144 6      5411.121    21199091.180    86806738.495 6      4216.458    21199091.960    86806738.499 8      4216.458
> 2024 06 03 12 59  3.0000000  0 13
R23  21405120.540   114502956.657 6      1662.662    21405120.640   114502956.669 6      1662.662
R14  21125722.540   112611988.338 7      2310.579    21125719.980   112611988.341 7      2310.579    21125730.640    87587133.426 8      1797.117    21125731.080    87587135.428 8      1797.117
G16  25086833.720   131832188.399 6      -945.807    25086831.900   131832188.407 3      -945.807    25086846.460   102726416.288 3      -736.993
R24  21062422.780   112630240.509 7      3670.994    21062422.480   112630240.513 7      3670.994    21062433.940    87601344.069 8      2855.218    21062434.100    87601344.070 8      2855.218
G21  21247946.860   111658707.103 8      1515.059    21247944.820   111658707.110 6      1515.059    21247949.300    87006798.291 6      1180.565
G32  24774072.780   130188633.367 6      2415.969    24774072.440   130188633.367 6      2415.969    24774086.660   101445744.967 6      1882.573    24774087.080   101445748.972 7      1882.573
R01  20912034.580   111786809.283 7      5965.236    20912033.440   111786809.287 6      5965.236    20912048.120    86945353.831 7      4639.628    20912047.140    86945347.822 7      4639.628
R08  21073749.740   112848977.212 7      2136.374    21073750.780   112848977.254 7      2136.374    21073762.940    87771475.388 7      1661.624    21073762.720    87771474.390 8      1661.624
G14  23138064.400   121591353.592 7      5215.072    23138063.700   121591353.599 5      5215.072    23138072.020    94746535.763 5      4063.692    23138072.400    94746540.769 7      4063.692
G27  23021475.860   120978670.197 6       302.854    23021474.500   120978670.202 6       302.854    23021486.280    94269130.034 6       235.990    23021486.560    94269133.030 7       235.990
G08  20790351.840   109254034.558 8      1763.314    20790350.840   109254034.560 8      1763.314    20790358.080    85133062.622 8      1374.011    20790359.200    85133044.622 8      1374.011
G02  21361453.800   112255212.235 8      2437.498    21361452.600   112255212.240 6      2437.498    21361455.480    87471615.308 6      1899.349
G03  21198054.200   111396524.282 7      5410.470    21198053.620   111396524.284 6      5410.470    21198061.480    86802522.244 6      4215.950    21198062.300    86802522.248 8      4215.950
> 2024 06 03 12 59  4.0000000  0 13
R23  21404809.900   114501293.979 7      1662.458    21404809.820   114501293.986 6      1662.458
R14  21125289.360   112609677.960 7      2309.729    21125286.660   112609677.952 7      2309.729    21125297.280    87585336.460 8      1796.456    21125297.700    87585338.461 8      1796.456
G16  25087013.140   131833134.051 6      -945.898    25087011.980   131833134.058 3      -945.898    25087026.600   102727153.155 3      -737.063
R24  21061736.080   112626569.440 7      3670.762    21061735.940   112626569.449 7      3670.762    21061747.400    87598488.799 8      2855.037    21061747.440    87598488.798 8      2855.037
G21  21247658.540   111657191.989 8      1514.815    21247656.420   111657191.999 6      1514.815    21247660.880    87005617.683 6      1180.375
G32  24773612.820   130186217.462 6      2415.295    24773612.740   130186217.461 6      2415.295    24773627.000   101443862.448 6      1882.048    24773627.440   101443866.459 7      1882.048
R01  20910918.500   111780844.099 7      5964.694    20910917.340   111780844.098 6      5964.694    20910932.320    86940714.248 7      4639.207    20910931.080    86940708.243 7      4639.207
R08  21073350.560   112846841.193 7      2135.411    21073352.120   112846841.227 7      2135.411    21073363.880    87769814.038 8      1660.875    21073363.840    87769813.038 8      1660.875
G14  23137072.220   121586138.731 7      5214.471    23137071.500   121586138.741 5      5214.471    23137079.640    94742472.242 5      4063.224    23137079.980    94742477.244 7      4063.224
G27  23021418.300   120978367.349 7       302.353    23021417.040   120978367.359 6       302.353    23021428.500    94268894.049 6       235.600    23021428.940    94268897.051 7       235.600
G08  20790016.360   109252271.333 8      1762.829    20790015.300   109252271.338 8      1762.829    20790022.580    85131688.683 8      1373.633    20790023.680    85131670.687 8      1373.633
G02  21360990.140   112252774.698 7      2437.245    21360988.680   112252774.705 6      2437.245    21360991.540    87469715.932 6      1899.152
G03  21197024.760   111391113.962 7      5409.795    21197024.040   111391113.970 6      5409.795    21197032.040    86798306.421 6      4215.425    21197032.680    86798306.421 8      4215.425
> 2024 06 03 12 59  5.0000000  0 13
R23  21404499.320   114499631.513 7      1662.322    21404498.640   114499631.522 6      1662.322
R14  21124856.000   112607368.496 7      2308.987    21124853.380   112607368.494 7      2308.987    21124864.080    87583540.212 8      1795.879    21124864.560    87583542.218 8      1795.879
G16  25087193.100   131834079.841 6      -945.876    25087191.920   131834079.849 3      -945.876    25087206.600   102727890.131 3      -737.047
R24  21061049.620   112622898.517 7      3670.801    21061049.240   112622898.524 7      3670.801    21061060.620    87595633.640 8      2855.068    21061060.940    87595633.638 8      2855.068
G21  21247370.200   111655677.086 7      1514.730    21247368.120   111655677.091 6      1514.730    21247372.600    87004437.235 6      1180.309
G32  24773153.440   130183802.216 6      2414.801    24773153.200   130183802.218 6      2414.801    24773167.220   101441980.440 6      1881.663    24773167.740   101441984.445 7      1881.663
R01  20909802.580   111774879.586 7      5964.213    20909802.080   111774879.601 6      5964.213    20909816.460    86936075.199 7      4638.832    20909815.400    86936069.192 7      4638.832
R08  21072951.960   112844706.199 7      2134.429    21072953.400   112844706.236 7      2134.429    21072965.320    87768153.483 8      1660.111    21072965.280    87768152.485 8      1660.111
G14  23136079.560   121580924.409 7      5213.987    23136079.240   121580924.419 5      5213.987    23136087.340    94738409.136 5      4062.847    23136087.920    94738414.146 7      4062.847
G27  23021361.020   120978064.953 6       302.059    23021359.460   120978064.956 6       302.059    23021370.940    94268658.402 6       235.371    23021371.000    94268661.397 7       235.371
G08  20789680.840   109250508.673 8      1762.332    20789679.900   109250508.681 8      1762.332    20789687.060    85130315.182 8      1373.246    20789688.300    85130297.185 8      1373.246
G02  21360526.220   112250337.396 8      2437.168    21360524.900   112250337.404 6      2437.168    21360527.840    87467816.739 6      1899.092
G03  21195995.660   111385704.263 7      5409.281    21195994.720   111385704.268 6      5409.281    21196002.580    86794091.071 6      4215.024    21196003.340    86794091.071 8      4215.024
> 2024 06 03 12 59  6.0000000  0 13
R23  21404188.660   114497969.213 6      1662.390    21404187.980   114497969.219 6      1662.390
R14  21124422.680   112605059.997 7      2308.195    21124420.120   112605059.993 7      2308.195    21124430.980    87581744.711 8      1795.263    21124431.300    87581746.717 8      1795.263
G16  25087373.040   131835025.708 6      -945.596    25087371.980   131835025.718 3      -945.596    25087386.580   102728627.162 3      -736.828
R24  21060363.280   112619227.790 7      3670.838    21060363.080   112619227.797 7      3670.838    21060374.580    87592778.628 8      2855.096    21060374.580    87592778.628 8      2855.096
G21  21247082.220   111654162.369 8      1514.809    21247079.900   111654162.377 6      1514.809    21247084.300    87003256.936 6      1180.370
G32  24772694.600   130181387.580 6      2414.504    24772693.540   130181387.582 6      2414.504    24772707.600   101440098.905 6      1881.432    24772708.240   101440102.917 7      1881.432
R01  20908686.380   111768915.672 7      5963.849    20908685.820   111768915.686 6      5963.849    20908700.500    86931436.607 7      4638.549    20908699.540    86931430.598 7      4638.549
R08  21072553.500   112842572.185 7      2133.586    21072554.960   112842572.230 7      2133.586    21072566.820    87766493.705 8      1659.456    21072566.660    87766492.709 8      1659.456
G14  23135087.620   121575710.649 7      5213.634    23135087.100   121575710.662 5      5213.634    23135095.120    94734346.476 5      4062.572    23135096.000    94734351.484 8      4062.572
G27  23021303.460   120977762.899 7       302.162    23021301.760   120977762.899 6       302.162    23021313.620    94268423.024 6       235.451    23021313.600    94268426.022 7       235.451
G08  20789345.560   109248746.473 8      1762.172    20789344.560   109248746.483 8      1762.172    20789351.740    85128942.041 8      1373.121    20789353.060    85128924.045 8      1373.121
G02  21360062.420   112247900.339 8      2437.117    21360061.200   112247900.344 6      2437.117    21360063.940    87465917.731 6      1899.052
G03  21194966.160   111380295.121 7      5409.010    21194965.380   111380295.121 6      5409.010    21194973.160    86789876.159 6      4214.813    21194974.060    86789876.154 8      4214.813
> 2024 06 03 12 59  7.0000000  0 13
R23  21403877.780   114496306.875 6      1662.324    21403876.820   114496306.884 6      1662.324
R14  21123989.800   112602752.200 8      2307.441    21123987.220   112602752.203 7      2307.441    21123998.040    87579949.761 8      1794.676    21123998.440    87579951.763 8      1794.676
G16  25087553.140   131835971.449 6      -945.782    25087551.900   131835971.459 3      -945.782    25087566.540   102729364.097 3      -736.973
R24  21059676.980   112615557.015 7      3670.858    21059676.540   112615557.019 7      3670.858    21059687.900    87589923.580 8      2855.112    21059688.300    87589923.580 8      2855.112
G21  21246793.700   111652647.653 7      1514.778    21246791.820   111652647.660 6      1514.778    21246796.100    87002076.637 6      1180.347
G32  24772234.700   130178973.364 6      2413.861    24772234.180   130178973.366 6      2413.861    24772248.240   101438217.698 6      1880.930    24772248.880   101438221.703 7      1880.930
R01  20907570.760   111762952.174 7      5963.220    20907570.200   111762952.184 6      5963.220    20907585.160    86926798.334 7      4638.060    20907584.060    86926792.329 7      4638.060
R08  21072154.900   112840438.956 7      2132.768    21072156.220   112840439.006 7      2132.768    21072168.580    87764834.531 8      1658.820    21072168.480    87764833.533 8      1658.820
G14  23134095.700   121570497.257 7      5213.255    23134094.880   121570497.270 5      5213.255    23134103.100    94730284.099 5      4062.276    23134103.780    94730289.107 8      4062.276
G27  23021245.880   120977461.034 6       301.719    23021244.440   120977461.034 6       301.719    23021256.200    94268187.801 6       235.106    23021256.540    94268190.799 7       235.106
G08  20789010.360   109246984.591 8      1761.725    20789009.260   109246984.593 8      1761.725    20789016.480    85127569.142 8      1372.773    20789017.620    85127551.143 8      1372.773
G02  21359598.800   112245463.312 8      2437.016    21359597.580   112245463.314 6      2437.016    21359600.120    87464018.748 6      1898.973
G03  21193936.680   111374886.363 7      5408.528    21193935.980   111374886.370 6      5408.528    21193943.960    86785661.547 6      4214.437    21193944.780    86785661.549 8      4214.437
> 2024 06 03 12 59  8.0000000  0 13
R23  21403566.900   114494644.700 6      1662.225    21403566.280   114494644.715 6      1662.225
R14  21123557.080   112600445.335 7      2306.619    21123554.540   112600445.338 7      2306.619    21123565.080    87578155.535 8      1794.037    21123565.660    87578157.539 8      1794.037
G16  25087733.540   131836917.208 6      -945.336    25087732.000   131836917.216 3      -945.336    25087746.480   102730101.042 3      -736.626
R24  21058990.360   112611886.405 7      3670.700    21058990.220   112611886.412 7      3670.700    21059001.400    87587068.666 8      2854.989    21059001.580    87587068.668 8      2854.989
G21  21246505.440   111651133.123 7      1514.705    21246503.680   111651133.130 6      1514.705    21246507.920    87000896.484 6      1180.289
G32  24771774.940   130176559.726 6      2413.598    24771774.660   130176559.733 6      2413.598    24771788.740   101436336.946 6      1880.726    24771789.800   101436340.963 7      1880.726
R01  20906455.460   111756989.233 7      5962.954    20906454.760   111756989.234 6      5962.954    20906469.640    86922160.495 7      4637.853    20906468.460    86922154.485 7      4637.853
R08  21071756.740   112838306.704 7      2131.961    21071758.560   112838306.749 7      2131.961    21071770.340    87763176.106 8      1658.192    21071770.200    87763175.109 8      1658.192
G14  23133103.580   121565284.441 7      5212.739    23133102.840   121565284.451 5      5212.739    23133111.140    94726222.168 5      4061.875    23133111.860    94726227.170 7      4061.875
G27  23021188.340   120977159.537 6       301.520    23021187.140   120977159.537 6       301.520    23021198.800    94267952.860 6       234.951    23021199.220    94267955.860 7       234.951
G08  20788675.040   109245223.177 8      1761.372    20788674.040   109245223.182 8      1761.372    20788681.260    85126196.611 8      1372.498    20788682.620    85126178.615 8      1372.498
G02  21359135.040   112243026.510 8      2436.906    21359133.780   112243026.512 6      2436.906    21359136.380    87462119.944 6      1898.887
G03  21192907.760   111369478.156 7      5408.205    21192906.820   111369478.159 6      5408.205    21192914.880    86781447.362 6      4214.186    21192915.600    86781447.362 8      4214.186
> 2024 06 03 12 59  9.0000000  0 13
R23  21403256.240   114492982.652 6      1661.746    21403255.560   114492982.680 6      1661.746
R14  21123124.500   112598139.389 7      2305.461    21123121.760   112598139.390 7      2305.461    21123132.660    87576362.022 8      1793.136    21123133.280    87576364.024 8      1793.136
G16  25087913.180   131837863.073 6      -945.756    25087911.860   131837863.078 3      -945.756    25087926.520   102730838.077 3      -736.953
R24  21058304.000   112608215.884 8      3670.420    21058303.740   112608215.896 7      3670.420    21058314.980    87584213.824 8      2854.771    21058315.200    87584213.824 8      2854.771
G21  21246217.100   111649618.769 8      1514.235    21246215.460   111649618.773 6      1514.235    21246219.780    86999716.464 6      1179.923
G32  24771316.040   130174146.721 6      2412.696    24771315.560   130174146.724 6      2412.696    24771329.460   101434456.684 6      1880.023    24771330.400   101434460.691 7      1880.023
R01  20905339.580   111751026.885 7      5962.098    20905339.600   111751026.892 6      5962.098    20905354.360    86917523.123 7      4637.187    20905353.120    86917517.120 7      4637.187
R08  21071358.680   112836175.387 7      2130.729    21071360.480   112836175.429 7      2130.729    21071372.300    87761518.411 8      1657.234    21071372.220    87761517.415 8      1657.234
G14  23132111.820   121560072.102 7      5212.035    23132110.980   121560072.113 5      5212.035    23132119.260    94722160.612 5      4061.326    23132120.120    94722165.616 7      4061.326
G27  23021131.460   120976858.371 6       301.092    23021129.780   120976858.368 6       301.092    23021141.440    94267718.177 6       234.617    23021141.980    94267721.176 7       234.617
G08  20788340.100   109243462.241 8      1760.574    20788338.860   109243462.243 8      1760.574    20788346.200    85124824.453 8      1371.876    20788347.560    85124806.459 8      1371.876
G02  21358671.460   112240589.889 8      2436.419    21358669.980   112240589.894 6      2436.419    21358672.780    87460221.282 6      1898.508
G03  21191878.720   111364070.517 7      5407.347    21191877.740   111364070.519 6      5407.347    21191885.780    86777233.621 6      4213.517    21191886.580    86777233.625 8      4213.517
> 2024 06 03 12 59 10.0000000  0 13
R23  21402945.640   114491320.892 6      1661.541    21402944.820   114491320.909 6      1661.541
R14  21122691.920   112595834.568 8      2304.148    21122689.600   112595834.566 7      2304.148    21122700.180    87574569.380 8      1792.115    21122700.600    87574571.383 8      1792.115
G16  25088093.800   131838809.155 6      -946.308    25088091.780   131838809.160 3      -946.308    25088106.660   102731575.280 3      -737.383
R24  21057617.560   112604545.683 8      3669.957    21057617.400   112604545.695 7      3669.957    21057628.760    87581359.226 8      2854.411    21057628.900    87581359.224 8      2854.411
G21  21245929.140   111648104.756 8      1513.676    21245927.300   111648104.758 6      1513.676    21245931.600    86998536.716 6      1179.488
G32  24770857.140   130171734.463 6      2411.813    24770856.620   130171734.471 6      2411.813    24770870.580   101432577.009 6      1879.335    24770871.340   101432581.018 7      1879.335
R01  20904224.760   111745065.334 7      5961.008    20904224.200   111745065.343 6      5961.008    20904239.080    86912886.369 7      4636.340    20904237.900    86912880.360 7      4636.340
R08  21070960.920   112834045.205 7      2129.418    21070962.540   112834045.252 7      2129.418    21070974.560    87759861.611 8      1656.214    21070974.500    87759860.611 8      1656.214
G14  23131120.040   121554860.495 7      5211.098    23131119.340   121554860.505 5      5211.098    23131127.600    94718099.623 5      4060.596    23131128.200    94718104.618 7      4060.596
G27  23021074.320   120976557.788 6       300.230    23021072.600   120976557.785 6       300.230    23021084.300    94267483.954 6       233.946    23021084.640    94267486.952 7       233.946
G08  20788005.020   109241701.933 7      1759.890    20788003.940   109241701.937 8      1759.890    20788011.240    85123452.789 8      1371.343    20788012.420    85123434.792 8      1371.343
G02  21358207.860   112238153.644 7      2436.001    21358206.380   112238153.646 6      2436.001    21358209.200    87458322.905 6      1898.182
G03  21190849.720   111358663.614 7      5406.394    21190848.880   111358663.616 6      5406.394    21190856.820    86773020.454 6      4212.774    21190857.560    86773020.458 8      4212.774
> 2024 06 03 12 59 11.0000000  0 13
R23  21402635.360   114489659.426 7      1661.612    21402634.720   114489659.438 6      1661.612
R14  21122259.560   112593530.808 7      2303.361    21122257.420   112593530.814 7      2303.361    21122268.060    87572777.566 8      1791.503    21122268.200    87572779.572 8      1791.503
G16  25088273.680   131839755.390 6      -946.156    25088271.840   131839755.395 3      -946.156    25088286.620   102732312.599 3      -737.264
R24  21056931.740   112600875.782 7      3669.928    21056931.040   112600875.797 7      3669.928    21056942.440    87578504.862 8      2854.389    21056942.960    87578504.861 8      2854.389
G21  21245640.960   111646591.054 8      1513.674    21245639.280   111646591.064 6      1513.674    21245643.560    86997357.209 6      1179.486
G32  24770398.040   130169322.961 6      2411.258    24770397.560   130169322.974 6      2411.258    24770411.620   101430697.921 6      1878.902    24770412.160   101430701.928 7      1878.902
R01  20903109.840   111739104.461 7      5960.541    20903109.040   111739104.457 6      5960.541    20903123.880    86908250.131 7      4635.976    20903122.840    86908244.124 7      4635.976
R08  21070563.260   112831916.099 7      2128.688    21070564.760   112831916.157 7      2128.688    21070577.000    87758205.644 8      1655.646    21070576.680    87758204.650 8      1655.646
G14  23130128.420   121549649.570 7      5210.763    23130127.760   121549649.580 5      5210.763    23130135.820    94714039.172 5      4060.334    23130136.360    94714044.176 7      4060.334
G27  23021016.940   120976257.641 6       299.985    23021015.640   120976257.636 6       299.985    23021027.200    94267250.066 6       233.755    23021027.400    94267253.067 7       233.755
G08  20787670.200   109239942.245 7      1759.437    20787669.020   109239942.252 7      1759.437    20787676.340    85122081.607 8      1370.990    20787677.660    85122063.611 8      1370.990
G02  21357744.320   112235717.780 7      2435.850    21357742.820   112235717.787 6      2435.850    21357745.720    87456424.834 6      1898.065
G03  21189820.720   111353257.383 7      5405.929    21189820.240   111353257.385 6      5405.929    21189828.120    86768807.813 6      4212.412    21189828.600    86768807.815 8      4212.412
> 2024 06 03 12 59 12.0000000  0 13
R23  21402324.380   114487998.046 7      1661.352    21402323.960   114487998.074 6      1661.352
R14  21121827.800   112591227.912 7      2302.647    21121825.400   112591227.907 7      2302.647    21121835.940    87570986.418 8      1790.948    21121836.360    87570988.422 8      1790.948
G16  25088453.160   131840701.725 6      -946.245    25088451.860   131840701.730 3      -946.245    25088466.460   102733049.999 3      -737.334
R24  21056244.780   112597205.970 8      3669.839    21056244.920   112597205.982 7      3669.839    21056255.960    87575650.559 8      2854.319    21056256.080    87575650.558 8      2854.319
G21  21245353.340   111645077.482 8      1513.592    21245351.260   111645077.490 6      1513.592    21245355.720    86996177.803 6      1179.422
G32  24769939.520   130166911.996 6      2410.829    24769938.860   130166912.006 6      2410.829    24769952.740   101428819.248 6      1878.568    24769953.960   101428823.255 7      1878.568
R01  20901994.900   111733144.184 7      5960.086    20901994.520   111733144.180 6      5960.086    20902008.700    86903614.366 7      4635.623    20902007.860    86903608.357 7      4635.623
R08  21070165.660   112829787.954 7      2127.770    21070167.460   112829788.004 7      2127.770    21070179.600    87756550.414 8      1654.932    21070179.380    87756549.414 8      1654.932
G14  23129137.160   121544439.152 7      5210.277    23129136.300   121544439.157 5      5210.277    23129144.380    94709979.106 5      4059.956    23129145.020    94709984.102 7      4059.956
G27  23020959.760   120975957.847 7       299.703    23020958.620   120975957.841 6       299.703    23020970.220    94267016.456 6       233.535    23020970.300    94267019.455 7       233.535
G08  20787335.600   109238182.987 7      1759.175    20787334.200   109238183.000 8      1759.175    20787341.580    85120710.758 8      1370.786    20787342.920    85120692.761 8      1370.786
G02  21357281.080   112233282.076 7      2435.727    21357279.400   112233282.084 6      2435.727    21357282.160    87454526.881 6      1897.969
G03  21188792.180   111347851.730 7      5405.492    21188791.360   111347851.733 6      5405.492    21188799.340    86764595.620 6      4212.071    21188800.160    86764595.618 8      4212.071
> 2024 06 03 12 59 13.0000000  0 13
R23  21402013.600   114486336.724 7      1661.225    21402013.800   114486336.742 6      1661.225
R14  21121396.120   112588925.762 8      2301.750    21121393.580   112588925.757 7      2301.750    21121404.220    87569195.855 8      1790.250    21121404.520    87569197.861 8      1790.250
G16  25088633.420   131841647.938 6      -946.301    25088632.000   131841647.943 3      -946.301    25088646.600   102733787.302 3      -737.378
R24  21055558.600   112593536.189 8      3669.709    21055558.500   112593536.201 7      3669.709    21055569.700    87572796.288 8      2854.218    21055569.900    87572796.288 8      2854.218
G21  21245065.080   111643563.988 7      1513.418    21245063.340   111643563.992 6      1513.418    21245067.720    86994998.455 6      1179.286
G32  24769481.000   130164501.579 6      2410.086    24769480.240   130164501.584 6      2410.086    24769494.160   101426940.997 6      1877.989    24769495.160   101426945.009 7      1877.989
R01  20900880.460   111727184.349 7      5959.487    20900879.600   111727184.339 6      5959.487    20900893.880    86898978.943 7      4635.156    20900892.920    86898972.936 7      4635.156
R08  21069768.420   112827660.682 7      2126.743    21069770.320   112827660.722 7      2126.743    21069782.580    87754895.861 8      1654.134    21069782.280    87754894.863 8      1654.134
G14  23128145.720   121539229.126 7      5209.788    23128144.860   121539229.128 5      5209.788    23128153.140    94705919.346 5      4059.575    23128153.560    94705924.350 7      4059.575
G27  23020902.700   120975658.284 6       299.370    23020901.580   120975658.283 6       299.370    23020913.140    94266783.028 6       233.275    23020913.640    94266786.031 7       233.275
G08  20787000.700   109236424.138 8      1758.548    20786999.560   109236424.142 8      1758.548    20787006.800    85119340.219 8      1370.297    20787008.120    85119322.221 8      1370.297
G02  21356817.560   112230846.467 7      2435.477    21356815.800   112230846.477 6      2435.477    21356818.700    87452629.006 6      1897.774
G03  21187763.540   111342446.475 7      5404.838    21187762.840   111342446.474 6      5404.838    21187770.860    86760383.732 6      4211.562    21187771.700    86760383.738 8      4211.562
> 2024 06 03 12 59 14.0000000  0 13
R23  21401702.980   114484675.325 7      1661.520    21401702.780   114484675.345 6      1661.520
R14  21120964.540   112586624.465 8      2300.922    21120962.020   112586624.463 7      2300.922    21120972.460    87567405.959 8      1789.606    21120973.080    87567407.967 8      1789.606
G16  25088813.160   131842594.173 6      -946.224    25088812.060   131842594.178 3      -946.224    25088826.720   102734524.622 3      -737.318
R24  21054872.420   112589866.403 8      3669.878    21054872.280   112589866.409 7      3669.878    21054883.520    87569942.005 8      2854.349    21054883.460    87569942.006 8      2854.349
G21  21244776.840   111642050.485 8      1513.605    21244775.420   111642050.492 6      1513.605    21244779.620    86993819.104 6      1179.433
G32  24769022.060   130162091.523 6      2410.114    24769021.560   130162091.525 6      2410.114    24769035.680   101425063.029 6      1878.011    24769036.660   101425067.038 7      1878.011
R01  20899764.900   111721225.034 7      5959.027    20899764.500   111721225.033 6      5959.027    20899779.420    86894343.933 7      4634.799    20899777.920    86894337.924 7      4634.799
R08  21069371.260   112825534.150 7      2126.351    21069373.240   112825534.189 7      2126.351    21069385.360    87753241.889 8      1653.829    21069385.180    87753240.891 8      1653.829
G14  23127154.400   121534019.505 7      5209.515    23127153.320   121534019.510 5      5209.515    23127161.700    94701859.903 5      4059.362    23127162.100    94701864.909 8      4059.362
G27  23020845.840   120975358.983 6       299.330    23020844.440   120975358.985 6       299.330    23020856.080    94266549.798 6       233.244    23020856.760    94266552.802 7       233.244
G08  20786666.240   109234665.585 8      1758.502    20786664.840   109234665.589 8      1758.502    20786672.340    85117969.920 8      1370.261    20786673.500    85117951.924 8      1370.261
G02  21356354.140   112228410.929 8      2435.514    21356352.320   112228410.934 6      2435.514    21356355.240    87450731.184 6      1897.803
G03  21186735.140   111337041.715 7      5404.576    21186734.280   111337041.712 6      5404.576    21186742.420    86756172.235 6      4211.358    21186743.200    86756172.236 8      4211.358
> 2024 06 03 12 59 15.0000000  0 13
R23  21401392.880   114483014.202 7      1660.978    21401392.440   114483014.211 6      1660.978
R14  21120532.500   112584324.212 8      2299.688    21120530.440   112584324.210 7      2299.688    21120540.840    87565616.872 8      1788.646    21120541.380    87565618.876 8      1788.646
G16  25088993.580   131843540.442 6      -946.647    25088992.160   131843540.447 3      -946.647    25089006.800   102735261.970 3      -737.647
R24  21054186.480   112586196.895 8      3669.239    21054186.260   112586196.904 7      3669.239    21054197.200    87567087.950 8      2853.853    21054197.260    87567087.950 8      2853.853
G21  21244488.980   111640537.292 8      1513.052    21244487.300   111640537.300 6      1513.052    21244491.820    86992639.991 6      1179.002
G32  24768563.660   130159682.205 6      2408.838    24768563.000   130159682.210 6      2408.838    24768576.940   101423185.645 6      1877.017    24768578.300   101423189.658 7      1877.017
R01  20898650.220   111715266.284 7      5958.247    20898649.940   111715266.283 6      5958.247    20898664.500    86889709.358 7      4634.192    20898663.280    86889703.348 7      4634.192
R08  21068974.960   112823408.696 7      2124.870    21068976.260   112823408.743 7      2124.870    21068988.440    87751588.764 8      1652.676    21068988.280    87751587.767 8      1652.676
G14  23126163.160   121528810.559 7      5208.541    23126162.020   121528810.566 5      5208.541    23126170.440    94697800.992 5      4058.603    23126170.820    94697806.000 7      4058.603
G27  23020788.740   120975060.061 6       298.510    23020787.860   120975060.063 6       298.510    23020799.340    94266316.870 6       232.605    23020799.560    94266319.878 7       232.605
G08  20786331.360   109232907.576 8      1757.649    20786330.300   109232907.580 8      1757.649    20786337.780    85116600.043 8      1369.597    20786338.900    85116582.047 8      1369.597
G02  21355890.780   112225975.704 7      2435.017    21355888.860   112225975.708 6      2435.017    21355891.820    87448833.607 6      1897.416
G03  21185706.660   111331637.521 7      5403.781    21185705.960   111331637.520 6      5403.781    21185713.900    86751961.181 6      4210.739    21185714.540    86751961.187 8      4210.739
> 2024 06 03 12 59 16.0000000  0 13
R23  21401082.280   114481353.135 6      1660.871    21401081.920   114481353.160 6      1660.871
R14  21120101.520   112582024.805 8      2298.870    21120099.080   112582024.803 7      2298.870    21120109.540    87563828.446 8      1788.010    21120109.880    87563830.448 8      1788.010
G16  25089173.620   131844486.759 6      -946.400    25089172.180   131844486.763 3      -946.400    25089186.880   102735999.353 3      -737.455
R24  21053500.240   112582527.363 8      3669.420    21053499.800   112582527.361 7      3669.420    21053510.820    87564233.865 8      2853.993    21053511.160    87564233.863 8      2853.993
G21  21244201.000   111639024.207 8      1512.858    21244199.500   111639024.215 6      1512.858    21244203.800    86991460.963 6      1178.850
G32  24768105.320   130157273.438 6      2408.266    24768104.720   130157273.441 6      2408.266    24768118.600   101421308.686 6      1876.571    24768119.780   101421312.693 7      1876.571
R01  20897535.880   111709308.167 7      5957.677    20897535.380   111709308.171 6      5957.677    20897549.980    86885075.275 7      4633.749    20897548.780    86885069.268 7      4633.749
R08  21068578.100   112821284.169 7      2123.953    21068579.540   112821284.205 7      2123.953    21068591.800    87749936.350 8      1651.963    21068591.380    87749935.351 8      1651.963
G14  23125171.960   121523602.046 7      5208.051    23125171.140   121523602.053 5      5208.051    23125179.300    94693742.412 5      4058.222    23125180.040    94693747.421 7      4058.222
G27  23020731.920   120974761.488 7       298.344    23020730.960   120974761.490 6       298.344    23020742.460    94266084.207 6       232.476    23020742.940    94266087.211 7       232.476
G08  20785996.920   109231150.039 8      1757.187    20785995.840   109231150.036 8      1757.187    20786003.280    85115230.530 8      1369.236    20786004.360    85115212.532 8      1369.236
G02  21355427.320   112223540.604 7      2434.857    21355425.440   112223540.614 6      2434.857    21355428.420    87446936.132 6      1897.291
G03  21184678.500   111326233.883 7      5403.302    21184677.660   111326233.883 6      5403.302    21184685.660    86747750.561 6      4210.365    21184686.480    86747750.559 8      4210.365
> 2024 06 03 12 59 17.0000000  0 13
R23  21400771.740   114479692.284 6      1660.944    21400771.780   114479692.304 6      1660.944
R14  21119670.620   112579726.346 8      2298.265    21119668.000   112579726.344 7      2298.265    21119678.460    87562040.756 8      1787.539    21119678.740    87562042.762 8      1787.539
G16  25089354.120   131845433.138 6      -946.368    25089352.340   131845433.145 3      -946.368    25089367.140   102736736.784 3      -737.429
R24  21052813.920   112578858.031 7      3669.519    21052813.820   112578858.035 7      3669.519    21052824.860    87561379.945 8      2854.070    21052824.760    87561379.943 8      2854.070
G21  21243913.220   111637511.324 8      1512.982    21243911.500   111637511.332 6      1512.982    21243915.940    86990282.094 6      1178.947
G32  24767647.240   130154865.282 6      2407.952    24767646.440   130154865.284 6      2407.952    24767660.420   101419432.206 6      1876.327    24767661.400   101419436.215 7      1876.327
R01  20896421.760   111703350.622 7      5957.352    20896420.720   111703350.618 7      5957.352    20896435.360    86880441.631 7      4633.496    20896434.460    86880435.626 7      4633.496
R08  21068181.460   112819160.613 7      2123.273    21068182.940   112819160.650 7      2123.273    21068195.280    87748284.700 8      1651.434    21068195.140    87748283.700 8      1651.434
G14  23124181.040   121518394.109 7      5207.829    23124180.040   121518394.121 5      5207.829    23124188.200    94689684.290 5      4058.049    23124188.920    94689689.298 8      4058.049
G27  23020675.040   120974463.294 7       298.140    23020674.180   120974463.291 6       298.140    23020685.700    94265851.842 6       232.317    23020686.120    94265854.848 7       232.317
G08  20785662.620   109229392.968 8      1756.963    20785661.380   109229392.973 8      1756.963    20785668.920    85113861.388 8      1369.062    20785670.040    85113843.390 8      1369.062
G02  21354963.900   112221105.781 8      2434.866    21354962.240   112221105.793 6      2434.866    21354965.020    87445038.869 6      1897.298
G03  21183650.280   111320830.814 8      5402.924    21183649.420   111320830.813 6      5402.924    21183657.360    86743540.378 6      4210.070    21183658.280    86743540.377 8      4210.070
> 2024 06 03 12 59 18.0000000  0 13
R23  21400461.140   114478031.618 7      1660.568    21400461.100   114478031.630 6      1660.568
R14  21119239.280   112577428.882 8      2296.932    21119237.080   112577428.885 7      2296.932    21119247.460    87560253.841 8      1786.502    21119247.740    87560255.847 8      1786.502
G16  25089533.820   131846379.683 6      -946.545    25089532.460   131846379.688 3      -946.545    25089547.180   102737474.345 3      -737.568
R24  21052127.740   112575188.895 7      3668.977    21052127.700   112575188.907 7      3668.977    21052138.600    87558526.184 8      2853.649    21052138.620    87558526.183 8      2853.649
G21  21243625.400   111635998.670 8      1512.485    21243623.660   111635998.678 6      1512.485    21243628.180    86989103.404 6      1178.560
G32  24767189.100   130152457.776 6      2407.129    24767188.340   130152457.776 6      2407.129    24767202.460   101417556.228 6      1875.685    24767203.240   101417560.241 7      1875.685
R01  20895307.040   111697393.772 7      5956.489    20895306.080   111697393.762 7      5956.489    20895321.100    86875808.532 7      4632.825    20895319.840    86875802.522 7      4632.825
R08  21067785.060   112817038.043 7      2122.006    21067786.760   112817038.093 7      2122.006    21067798.840    87746633.820 8      1650.449    21067798.500    87746632.825 8      1650.449
G14  23123190.140   121513186.765 7      5207.046    23123189.120   121513186.778 5      5207.046    23123197.320    94685626.628 5      4057.438    23123198.240    94685631.634 7      4057.438
G27  23020618.380   120974165.546 7       297.453    23020617.520   120974165.541 6       297.453    23020629.040    94265619.825 6       231.782    23020629.140    94265622.824 7       231.782
G08  20785328.560   109227636.454 8      1756.198    20785327.160   109227636.462 8      1756.198    20785334.740    85112492.682 8      1368.466    20785336.060    85112474.686 8      1368.466
G02  21354500.520   112218671.212 8      2434.389    21354498.780   112218671.220 6      2434.389    21354501.800    87443141.798 6      1896.927
G03  21182622.120   111315428.411 7      5401.971    21182621.380   111315428.411 6      5401.971    21182629.280    86739330.718 6      4209.328    21182630.280    86739330.725 8      4209.328
> 2024 06 03 12 59 19.0000000  0 13
R23  21400150.940   114476371.083 7      1660.350    21400150.240   114476371.098 6      1660.350
R14  21118808.680   112575132.302 8      2296.134    21118805.960   112575132.300 7      2296.134    21118816.580    87558467.610 8      1785.882    21118816.940    87558469.612 8      1785.882
G16  25089714.340   131847326.278 6      -946.657    25089712.660   131847326.282 3      -946.657    25089727.440   102738211.939 3      -737.655
R24  21051441.540   112571519.930 7      3668.797    21051441.620   112571519.939 7      3668.797    21051452.580    87555672.545 8      2853.509    21051452.740    87555672.541 8      2853.509
G21  21243337.640   111634486.166 8      1512.387    21243335.860   111634486.176 6      1512.387    21243340.260    86987924.834 6      1178.483
G32  24766731.280   130150050.833 6      2406.726    24766730.360   130150050.833 6      2406.726    24766744.400   101415680.692 6      1875.371    24766745.220   101415684.697 7      1875.371
R01  20894193.080   111691437.446 7      5956.083    20894192.180   111691437.447 7      5956.083    20894206.940    86871175.846 7      4632.509    20894205.780    86871169.837 7      4632.509
R08  21067388.860   112814916.415 7      2121.149    21067390.700   112814916.471 7      2121.149    21067402.540    87744983.670 8      1649.783    21067402.560    87744982.670 8      1649.783
G14  23122199.080   121507979.987 7      5206.366    23122198.120   121507980.002 5      5206.366    23122206.600    94681569.406 5      4056.908    23122207.040    94681574.410 7      4056.908
G27  23020562.100   120973868.101 6       297.366    23020560.940   120973868.090 6       297.366    23020572.480    94265388.039 6       231.714    23020572.740    94265391.041 7       231.714
G08  20784994.160   109225880.395 8      1755.743    20784992.940   109225880.405 8      1755.743    20785000.520    85111124.324 8      1368.112    20785001.680    85111106.328 8      1368.112
G02  21354037.500   112216236.856 7      2434.134    21354035.580   112216236.864 6      2434.134    21354038.480    87441244.899 6      1896.728
G03  21181594.340   111310026.553 7      5401.484    21181593.380   111310026.550 6      5401.484    21181601.460    86735121.480 6      4208.948    21181602.360    86735121.484 8      4208.948
> 2024 06 03 12 59 20.0000000  0 13
R23  21399840.240   114474710.754 6      1660.466    21399840.340   114474710.766 6      1660.466
R14  21118378.000   112572836.711 8      2295.287    21118375.400   112572836.712 7      2295.287    21118386.040    87556682.151 8      1785.223    21118386.420    87556684.153 8      1785.223
G16  25089894.560   131848272.956 6      -946.552    25089892.760   131848272.964 3      -946.552    25089907.580   102738949.609 3      -737.573
R24  21050755.360   112567851.184 8      3668.866    21050755.440   112567851.188 7      3668.866    21050766.340    87552819.072 8      2853.562    21050766.600    87552819.072 8      2853.562
G21  21243049.660   111632973.927 8      1512.357    21243048.060   111632973.932 6      1512.357    21243052.340    86986746.462 6      1178.460
G32  24766273.260   130147644.582 6      2406.193    24766272.240   130147644.584 6      2406.193    24766286.480   101413805.693 6      1874.956    24766287.140   101413809.702 7      1874.956
R01  20893078.840   111685481.793 7      5955.609    20893077.820   111685481.786 6      5955.609    20893092.720    86866543.678 7      4632.140    20893091.260    86866537.669 7      4632.140
R08  21066992.640   112812795.853 7      2120.319    21066994.760   112812795.901 7      2120.319    21067006.760    87743334.335 8      1649.137    21067006.620    87743333.338 8      1649.137
G14  23121208.200   121502773.818 7      5205.959    23121207.400   121502773.831 5      5205.959    23121215.840    94677512.655 5      4056.592    23121216.560    94677517.659 7      4056.592
G27  23020505.600   120973571.094 7       296.897    23020504.440   120973571.096 6       296.897    23020515.920    94265156.609 6       231.348    23020516.420    94265159.613 7       231.348
G08  20784660.360   109224124.874 8      1755.459    20784658.840   109224124.876 8      1755.459    20784666.420    85109756.382 8      1367.890    20784667.660    85109738.385 8      1367.890
G02  21353574.100   112213802.774 8      2434.136    21353572.400   112213802.781 6      2434.136    21353575.340    87439348.212 6      1896.729
G03  21180566.380   111304625.291 7      5401.211    21180565.560   111304625.290 6      5401.211    21180573.580    86730912.710 6      4208.736    21180574.280    86730912.711 8      4208.736
> 2024 06 03 12 59 21.0000000  0 13
R23  21399530.000   114473050.508 6      1660.072    21399530.200   114473050.520 6      1660.072
R14  21117947.260   112570541.931 7      2294.136    21117945.120   112570541.931 7      2294.136    21117955.680    87554897.322 8      1784.328    21117955.840    87554899.327 8      1784.328
G16  25090074.420   131849219.627 6      -946.824    25090072.980   131849219.635 3      -946.824    25090087.660   102739687.270 3      -737.785
R24  21050069.420   112564182.520 7      3668.474    21050069.560   112564182.530 8      3668.474    21050080.260    87549965.673 8      2853.257    21050080.380    87549965.674 8      2853.257
G21  21242761.940   111631461.793 8      1511.953    21242760.340   111631461.798 6      1511.953    21242764.720    86985568.178 6      1178.145
G32  24765816.020   130145238.874 6      2405.360    24765814.560   130145238.876 6      2405.360    24765828.700   101411931.117 6      1874.307    24765829.400   101411935.127 7      1874.307
R01  20891964.480   111679526.635 7      5954.863    20891963.760   111679526.644 6      5954.863    20891979.060    86861911.901 7      4631.560    20891977.200    86861905.891 7      4631.560
R08  21066596.980   112810676.204 7      2119.083    21066598.680   112810676.252 7      2119.083    21066610.920    87741685.722 8      1648.176    21066610.700    87741684.724 8      1648.176
G14  23120217.480   121497568.090 7      5205.355    23120216.760   121497568.101 5      5205.355    23120225.280    94673456.246 5      4056.121    23120225.800    94673461.254 7      4056.121
G27  23020449.160   120973274.355 7       296.466    23020448.080   120973274.360 6       296.466    23020459.480    94264925.384 6       231.012    23020459.560    94264928.388 7       231.012
G08  20784326.380   109222369.758 8      1754.817    20784324.800   109222369.766 8      1754.817    20784332.540    85108388.765 8      1367.390    20784333.820    85108370.764 8      1367.390
G02  21353111.020   112211368.831 7      2433.777    21353109.260   112211368.835 6      2433.777    21353112.240    87437451.635 6      1896.450
G03  21179538.680   111299224.528 7      5400.335    21179537.980   111299224.530 6      5400.335    21179546.020    86726704.330 6      4208.053    21179546.560    86726704.336 8      4208.053
> 2024 06 03 12 59 22.0000000  0 13
R23  21399220.240   114471390.243 6      1660.542    21399219.160   114471390.244 6      1660.542
R14  21117517.080   112568247.960 8      2293.786    21117514.560   112568247.955 7      2293.786    21117525.320    87553113.118 8      1784.055    21117525.620    87553115.120 8      1784.055
G16  25090254.300   131850166.293 6      -946.416    25090253.020   131850166.298 3      -946.416    25090267.780   102740424.926 3      -737.467
R24  21049383.460   112560513.828 7      3668.944    21049383.300   112560513.837 7      3668.944    21049394.140    87547112.250 8      2853.623    21049394.720    87547112.250 8      2853.623
G21  21242474.200   111629949.688 8      1512.303    21242472.600   111629949.696 6      1512.303    21242476.920    86984389.914 6      1178.418
G32  24765357.980   130142833.623 6      2405.194    24765356.720   130142833.633 6      2405.194    24765370.940   101410056.902 6      1874.177    24765371.460   101410060.911 7      1874.177
R01  20890850.800   111673572.014 7      5954.583    20890850.280   111673572.028 6      5954.583    20890864.920    86857280.543 7      4631.342    20890863.460    86857274.538 7      4631.342
R08  21066201.240   112808557.359 7      2118.671    21066203.080   112808557.400 7      2118.671    21066215.200    87740037.722 8      1647.855    21066214.940    87740036.723 8      1647.855
G14  23119226.840   121492362.781 7      5205.361    23119226.140   121492362.788 5      5205.361    23119234.680    94669400.165 5      4056.125    23119235.400    94669405.167 7      4056.125
G27  23020392.640   120972977.895 6       296.632    23020391.840   120972977.895 6       296.632    23020403.120    94264694.366 6       231.142    23020403.360    94264697.364 7       231.142
G08  20783992.340   109220615.015 8      1754.814    20783990.920   109220615.017 8      1754.814    20783998.580    85107021.427 8      1367.387    20783999.960    85107003.428 8      1367.387
G02  21352647.900   112208934.971 8      2434.068    21352646.100   112208934.976 6      2434.068    21352649.100    87435555.123 6      1896.676
G03  21178510.960   111293824.248 7      5400.279    21178510.280   111293824.251 6      5400.279    21178518.280    86722496.320 6      4208.010    21178518.940    86722496.324 8      4208.010
> 2024 06 03 12 59 23.0000000  0 13
R23  21398909.560   114469729.954 7      1660.048    21398909.120   114469729.961 6      1660.048
R14  21117087.120   112565954.731 8      2292.593    21117084.720   112565954.726 7      2292.593    21117094.980    87551329.495 8      1783.128    21117095.380    87551331.499 8      1783.128
G16  25090435.020   131851112.822 6      -946.782    25090433.140   131851112.827 3      -946.782    25090447.880   102741162.475 3      -737.752
R24  21048697.400   112556845.063 7      3668.519    21048697.100   112556845.081 7      3668.519    21048708.140    87544258.772 7      2853.293    21048708.420    87544258.771 8      2853.293
G21  21242186.580   111628437.583 8      1511.792    21242184.880   111628437.594 6      1511.792    21242189.040    86983211.652 6      1178.020
G32  24764899.960   130140428.816 6      2404.231    24764899.000   130140428.824 6      2404.231    24764913.280   101408183.031 6      1873.427    24764913.780   101408187.046 7      1873.427
R01  20889736.720   111667617.842 7      5953.592    20889736.280   111667617.848 6      5953.592    20889750.920    86852649.514 7      4630.572    20889749.620    86852643.507 7      4630.572
R08  21065806.000   112806439.279 7      2117.462    21065807.500   112806439.320 7      2117.462    21065819.680    87738390.324 8      1646.915    21065819.620    87738389.327 8      1646.915
G14  23118236.720   121487157.802 7      5204.516    23118235.720   121487157.810 5      5204.516    23118244.200    94665344.345 5      4055.467    23118244.900    94665349.349 7      4055.467
G27  23020336.540   120972681.616 6       295.963    23020335.320   120972681.621 6       295.963    23020346.540    94264463.491 6       230.620    23020346.960    94264466.493 7       230.620
G08  20783658.520   109218860.574 8      1753.966    20783657.040   109218860.582 8      1753.966    20783664.720    85105654.336 7      1366.727    20783666.120    85105636.339 8      1366.727
G02  21352184.820   112206501.131 8      2433.532    21352182.960   112206501.141 6      2433.532    21352185.920    87433658.626 6      1896.259
G03  21177483.400   111288424.321 7      5399.406    21177482.680   111288424.326 6      5399.406    21177490.720    86718288.595 6      4207.329    21177491.460    86718288.597 8      4207.329
> 2024 06 03 12 59 24.0000000  0 13
R23  21398599.140   114468069.892 7      1659.807    21398598.040   114468069.910 6      1659.807
R14  21116657.200   112563662.557 8      2291.650    21116654.680   112563662.555 7      2291.650    21116665.040    87549546.696 8      1782.394    21116665.520    87549548.699 8      1782.394
G16  25090614.860   131852059.509 6      -946.775    25090613.300   131852059.511 3      -946.775    25090627.920   102741900.145 3      -737.747
R24  21048011.560   112553176.569 7      3668.332    21048011.300   112553176.581 7      3668.332    21048022.180    87541405.497 8      2853.147    21048022.380    87541405.497 8      2853.147
G21  21241898.900   111626925.736 8      1511.686    21241897.300   111626925.746 6      1511.686    21241901.460    86982033.594 6      1177.937
G32  24764442.420   130138024.695 6      2403.617    24764441.660   130138024.698 6      2403.617    24764455.720   101406309.688 6      1872.949    24764456.420   101406313.699 7      1872.949
R01  20888623.240   111661664.322 7      5953.189    20888622.300   111661664.323 6      5953.189    20888637.240    86848019.007 7      4630.258    20888635.920    86848013.004 7      4630.258
R08  21065410.720   112804322.259 7      2116.410    21065412.600   112804322.309 7      2116.410    21065424.280    87736743.762 8      1646.097    21065424.100    87736742.764 8      1646.097
G14  23117246.160   121481953.472 7      5203.963    23117245.360   121481953.480 5      5203.963    23117253.880    94661289.026 5      4055.036    23117254.360    94661294.034 7      4055.036
G27  23020280.660   120972385.800 7       295.601    23020278.900   120972385.797 6       295.601    23020290.360    94264232.977 6       230.338    23020290.640    94264235.976 7       230.338
G08  20783324.760   109217106.693 8      1753.496    20783323.440   109217106.695 8      1753.496    20783330.900    85104287.675 7      1366.361    20783332.340    85104269.677 8      1366.361
G02  21351721.860   112204067.595 8      2433.368    21351719.900   112204067.600 6      2433.368    21351722.880    87431762.364 6      1896.131
G03  21176456.040   111283025.077 7      5398.852    21176455.300   111283025.082 6      5398.852    21176463.320    86714081.395 6      4206.898    21176463.880    86714081.396 8      4206.898
> 2024 06 03 12 59 25.0000000  0 13
R23  21398288.720   114466410.053 6      1660.000    21398288.380   114466410.065 6      1660.000
R14  21116227.100   112561371.366 8      2290.960    21116224.760   112561371.370 7      2290.960    21116235.260    87547764.661 8      1781.858    21116235.480    87547766.666 8      1781.858
G16  25090794.660   131853006.206 6      -946.445    25090793.380   131853006.211 3      -946.445    25090808.060   102742637.827 3      -737.489
R24  21047325.160   112549508.304 8      3668.428    21047325.180   112549508.313 7      3668.428    21047336.360    87538552.402 8      2853.222    21047336.260    87538552.400 8      2853.222
G21  21241611.300   111625414.157 8      1511.756    21241609.640   111625414.161 6      1511.756    21241613.820    86980855.733 6      1177.992
G32  24763984.860   130135621.181 6      2403.463    24763984.300   130135621.186 6      2403.463    24763998.520   101404436.824 6      1872.828    24763999.140   101404440.835 7      1872.828
R01  20887509.620   111655711.412 7      5953.055    20887508.780   111655711.418 6      5953.055    20887523.660    86843388.976 7      4630.154    20887522.280    86843382.971 7      4630.154
R08  21065015.500   112802206.262 7      2115.752    21065017.180   112802206.301 7      2115.752    21065029.240    87735097.980 8      1645.585    21065029.180    87735096.983 8      1645.585
G14  23116256.120   121476749.789 7      5203.554    23116255.280   121476749.802 5      5203.554    23116263.620    94657234.214 5      4054.717    23116264.180    94657239.222 7      4054.717
G27  23020224.100   120972090.335 7       295.535    23020222.660   120972090.338 6       295.535    23020234.220    94264002.740 6       230.287    23020234.540    94264005.744 7       230.287
G08  20782991.020   109215353.303 8      1753.398    20782989.700   109215353.308 8      1753.398    20782997.280    85102921.395 8      1366.284    20782998.660    85102903.401 8      1366.284
G02  21351258.640   112201634.358 8      2433.349    21351256.820   112201634.363 6      2433.349    21351259.880    87429866.332 6      1896.116
G03  21175428.880   111277626.395 7      5398.609    21175427.900   111277626.395 6      5398.609    21175435.880    86709874.628 6      4206.708    21175436.460    86709874.631 8      4206.708
> 2024 06 03 12 59 26.0000000  0 13
R23  21397978.540   114464750.069 7      1660.085    21397977.900   114464750.081 6      1660.085
R14  21115797.480   112559080.858 8      2290.313    21115795.080   112559080.851 7      2290.313    21115805.660    87545983.144 8      1781.355    21115806.060    87545985.146 8      1781.355
G16  25090974.940   131853952.783 6      -946.534    25090973.520   131853952.785 3      -946.534    25090988.340   102743375.411 3      -737.559
R24  21046639.500   112545839.905 7      3668.542    21046639.260   112545839.920 7      3668.542    21046650.100    87535699.207 8      2853.311    21046650.620    87535699.210 8      2853.311
G21  21241323.580   111623902.488 8      1511.746    21241321.960   111623902.495 6      1511.746    21241326.160    86979677.810 6      1177.984
G32  24763528.300   130133217.996 6      2403.160    24763527.020   130133217.998 6      2403.160    24763541.120   101402564.214 6      1872.593    24763541.880   101402568.219 7      1872.593
R01  20886395.940   111649758.910 7      5952.240    20886395.240   111649758.920 6      5952.240    20886409.740    86838759.259 7      4629.520    20886408.920    86838753.256 7      4629.520
R08  21064620.660   112800090.953 7      2114.992    21064621.860   112800090.982 7      2114.992    21064634.320    87733452.730 8      1644.993    21064634.060    87733451.730 8      1644.993
G14  23115265.960   121471546.398 7      5203.243    23115265.120   121471546.408 5      5203.243    23115273.460    94653179.631 5      4054.475    23115273.980    94653184.633 7      4054.475
G27  23020167.740   120971794.958 6       295.418    23020166.680   120971794.957 7       295.418    23020177.880    94263772.570 6       230.196    23020178.260    94263775.574 7       230.196
G08  20782657.520   109213600.160 7      1753.019    20782655.980   109213600.165 8      1753.019    20782663.760    85101555.310 8      1365.989    20782664.880    85101537.313 8      1365.989
G02  21350795.580   112199201.072 7      2433.399    21350793.820   112199201.079 6      2433.399    21350796.880    87427970.266 6      1896.155
G03  21174401.480   111272228.068 7      5398.232    21174400.580   111272228.068 6      5398.232    21174408.560    86705668.146 6      4206.414    21174409.240    86705668.144 8      4206.414
> 2024 06 03 12 59 27.0000000  0 13
R23  21397668.080   114463090.307 7      1659.612    21397667.880   114463090.316 6      1659.612
R14  21115367.760   112556791.251 8      2289.183    21115365.760   112556791.254 7      2289.183    21115376.140    87544202.342 8      1780.476    21115376.480    87544204.346 8      1780.476
G16  25091155.640   131854899.533 6      -946.778    25091153.700   131854899.532 3      -946.778    25091168.480   102744113.132 3      -737.749
R24  21045953.340   112542171.662 7      3668.186    21045953.220   112542171.677 7      3668.186    21045964.060    87532846.135 8      2853.034    21045964.340    87532846.134 8      2853.034
G21  21241035.880   111622391.027 8      1511.429    21241034.400   111622391.032 6      1511.429    21241038.500    86978500.046 6      1177.737
G32  24763070.900   130130815.525 6      2402.107    24763069.660   130130815.533 6      2402.107    24763083.580   101400692.163 6      1871.772    24763084.320   101400696.176 7      1871.772
R01  20885282.400   111643807.072 7      5951.617    20885282.060   111643807.084 7      5951.617    20885296.720    86834130.060 7      4629.035    20885295.600    86834124.055 7      4629.035
R08  21064225.680   112797976.678 7      2113.739    21064227.120   112797976.714 7      2113.739    21064239.500    87731808.302 8      1644.019    21064239.140    87731807.302 8      1644.019
G14  23114276.000   121466343.524 7      5202.702    23114274.860   121466343.534 5      5202.702    23114283.380    94649125.448 5      4054.054    23114283.860    94649130.456 7      4054.054
G27  23020111.680   120971500.087 7       294.698    23020110.620   120971500.089 6       294.698    23020121.800    94263542.799 6       229.635    23020122.240    94263545.802 7       229.635
G08  20782324.060   109211847.558 8      1752.430    20782322.480   109211847.561 8      1752.430    20782330.100    85100189.646 8      1365.530    20782331.440    85100171.648 8      1365.530
G02  21350332.620   112196768.032 7      2432.987    21350330.740   112196768.040 6      2432.987    21350333.860    87426074.393 6      1895.834
G03  21173374.320   111266830.408 7      5397.400    21173373.440   111266830.405 6      5397.400    21173381.540    86701462.179 6      4205.766    21173382.180    86701462.181 8      4205.766
> 2024 06 03 12 59 28.0000000  0 13
R23  21397357.520   114461430.660 6      1659.595    21397357.080   114461430.669 6      1659.595
R14  21114938.540   112554502.534 8      2288.307    21114936.180   112554502.534 7      2288.307    21114946.840    87542422.227 8      1779.794    21114947.260    87542424.229 8      1779.794
G16  25091335.160   131855846.253 6      -946.763    25091333.920   131855846.256 3      -946.763    25091348.700   102744850.830 3      -737.737
R24  21045267.300   112538503.512 8      3668.240    21045267.260   112538503.527 7      3668.240    21045278.180    87529993.128 8      2853.075    21045278.560    87529993.128 8      2853.075
G21  21240748.260   111620879.726 8      1511.270    21240746.700   111620879.733 6      1511.270    21240750.980    86977322.411 6      1177.613
G32  24762613.860   130128413.614 6      2401.621    24762612.440   130128413.616 6      2401.621    24762626.360   101398820.542 6      1871.393    24762627.180   101398824.553 7      1871.393
R01  20884168.800   111637855.762 7      5950.989    20884168.480   111637855.772 7      5950.989    20884183.360    86829501.274 7      4628.547    20884182.320    86829495.267 7      4628.547
R08  21063831.040   112795863.316 7      2112.798    21063832.160   112795863.363 7      2112.798    21063844.820    87730164.584 8      1643.288    21063844.500    87730163.584 8      1643.288
G14  23113285.760   121461141.209 7      5202.149    23113285.100   121461141.222 5      5202.149    23113293.320    94645071.702 5      4053.623    23113293.840    94645076.713 7      4053.623
G27  23020055.540   120971205.506 7       294.414    23020054.520   120971205.500 6       294.414    23020065.840    94263313.244 6       229.413    23020066.640    94263316.246 7       229.413
G08  20781990.580   109210095.404 8      1751.945    20781988.940   109210095.408 8      1751.945    20781996.680    85098824.333 8      1365.152    20781998.020    85098806.334 8      1365.152
G02  21349869.600   112194335.185 7      2432.838    21349867.800   112194335.192 6      2432.838    21349870.840    87424178.668 6      1895.718
G03  21172347.360   111261433.198 7      5396.901    21172346.500   111261433.200 6      5396.901    21172354.380    86697256.569 6      4205.378    21172355.200    86697256.571 8      4205.378
> 2024 06 03 12 59 29.0000000  0 13
R23  21397047.620   114459771.154 6      1659.484    21397046.840   114459771.164 6      1659.484
R14  21114509.480   112552214.744 8      2287.279    21114506.840   112552214.737 7      2287.279    21114517.500    87540642.829 8      1778.995    21114518.080    87540644.833 8      1778.995
G16  25091515.340   131856793.051 6      -946.919    25091514.100   131856793.055 3      -946.919    25091528.920   102745588.588 3      -737.859
R24  21044581.080   112534835.515 7      3667.790    21044581.180   112534835.524 7      3667.790    21044592.320    87527140.243 8      2852.725    21044592.480    87527140.239 8      2852.725
G21  21240460.960   111619368.598 8      1511.025    21240459.240   111619368.606 6      1511.025    21240463.300    86976144.909 6      1177.422
G32  24762157.300   130126012.302 6      2400.994    24762155.500   130126012.304 6      2400.994    24762169.480   101396949.389 6      1870.904    24762170.460   101396953.399 7      1870.904
R01  20883055.620   111631905.036 7      5950.554    20883055.240   111631905.039 7      5950.554    20883070.180    86824872.931 7      4628.208    20883069.060    86824866.922 7      4628.208
R08  21063436.480   112793750.898 7      2111.957    21063437.840   112793750.943 7      2111.957    21063450.420    87728521.586 8      1642.633    21063449.940    87728520.589 8      1642.633
G14  23112295.960   121455939.415 7      5201.451    23112295.180   121455939.425 5      5201.451    23112303.360    94641018.358 5      4053.079    23112304.040    94641023.364 7      4053.079
G27  23019999.580   120970911.284 7       294.070    23019998.440   120970911.284 6       294.070    23020009.860    94263083.977 6       229.145    23020010.360    94263086.976 7       229.145
G08  20781657.340   109208343.719 8      1751.472    20781655.800   109208343.724 8      1751.472    20781663.420    85097459.386 8      1364.783    20781664.600    85097441.385 8      1364.783
G02  21349406.680   112191902.545 7      2432.493    21349404.580   112191902.550 6      2432.493    21349407.720    87422283.104 6      1895.449
G03  21171320.120   111256036.571 7      5396.375    21171319.500   111256036.575 6      5396.375    21171327.380    86693051.411 6      4204.967    21171328.240    86693051.417 8      4204.967
> 2024 06 03 12 59 30.0000000  0 13
R23  21396737.500   114458111.908 7      1658.868    21396736.940   114458111.923 6      1658.868
R14  21114080.400   112549928.013 8      2286.150    21114077.980   112549928.016 7      2286.150    21114088.700    87538864.268 8      1778.117    21114088.960    87538866.272 8      1778.117
G16  25091695.960   131857739.911 6      -947.017    25091694.360   131857739.916 3      -947.017    25091709.000   102746326.393 3      -737.935
R24  21043895.520   112531167.796 7      3667.427    21043895.520   112531167.802 7      3667.427    21043906.300    87524287.570 8      2852.443    21043906.540    87524287.571 8      2852.443
G21  21240173.240   111617857.744 8      1510.622    21240171.660   111617857.752 6      1510.622    21240175.780    86974967.622 6      1177.108
G32  24761700.240   130123611.649 6      2400.099    24761698.740   130123611.654 6      2400.099    24761712.740   101395078.757 6      1870.207    24761713.960   101395082.764 7      1870.207
R01  20881943.080   111625954.945 7      5949.642    20881942.340   111625954.944 7      5949.642    20881956.820    86820245.085 7      4627.499    20881956.000    86820239.080 7      4627.499
R08  21063042.600   112791639.555 7      2110.635    21063044.220   112791639.594 7      2110.635    21063056.100    87726879.426 8      1641.605    21063055.700    87726878.429 8      1641.605
G14  23111306.060   121450738.317 7      5200.701    23111305.420   121450738.330 5      5200.701    23111313.820    94636965.561 5      4052.494    23111314.320    94636970.561 7      4052.494
G27  23019943.160   120970617.459 7       293.513    23019942.760   120970617.459 6       293.513    23019953.880    94262855.016 6       228.711    23019954.180    94262858.014 7       228.711
G08  20781323.720   109206592.586 7      1750.681    20781322.320   109206592.591 8      1750.681    20781330.140    85096094.867 8      1364.167    20781331.220    85096076.868 8      1364.167
G02  21348943.900   112189470.246 7      2432.004    21348941.860   112189470.251 6      2432.004    21348945.040    87420387.809 6      1895.068
G03  21170293.360   111250640.592 7      5395.561    21170292.660   111250640.595 6      5395.561    21170300.480    86688846.757 6      4204.334    21170301.220    86688846.761 8      4204.334
> 2024 06 03 12 59 31.0000000  0 13
R23  21396427.100   114456452.692 7      1659.290    21396426.480   114456452.704 6      1659.290
R14  21113651.500   112547642.081 8      2285.741    21113649.300   112547642.087 7      2285.741    21113659.840    87537086.321 8      1777.799    21113660.120    87537088.327 8      1777.799
G16  25091876.160   131858686.915 6      -946.875    25091874.440   131858686.923 3      -946.875    25091889.160   102747064.312 3      -737.824
R24  21043209.680   112527500.092 8      3667.921    21043209.480   112527500.107 7      3667.921    21043220.400    87521434.925 8      2852.827    21043220.680    87521434.925 8      2852.827
G21  21239885.640   111616346.984 8      1510.989    21239884.180   111616346.987 6      1510.989    21239888.360    86973790.404 6      1177.394
G32  24761243.240   130121211.559 6      2399.934    24761242.060   130121211.569 6      2399.934    24761256.000   101393208.565 6      1870.079    24761257.220   101393212.576 7      1870.079
R01  20880829.880   111620005.453 7      5949.305    20880829.080   111620005.460 7      5949.305    20880843.920    86815617.717 7      4627.237    20880843.060    86815611.707 7      4627.237
R08  21062648.580   112789529.143 7      2110.120    21062650.040   112789529.180 7      2110.120    21062662.000    87725237.991 8      1641.204    21062661.780    87725236.991 8      1641.204
G14  23110316.380   121445537.614 7      5200.688    23110315.780   121445537.627 5      5200.688    23110324.300    94632913.069 5      4052.484    23110324.760    94632918.073 7      4052.484
G27  23019887.640   120970324.042 7       293.337    23019887.080   120970324.044 6       293.337    23019898.040    94262626.377 6       228.574    23019898.340    94262629.379 7       228.574
G08  20780990.780   109204841.908 8      1750.624    20780989.220   109204841.915 8      1750.624    20780997.040    85094730.706 8      1364.123    20780998.100    85094712.709 8      1364.123
G02  21348480.820   112187038.053 7      2432.308    21348479.040   112187038.055 6      2432.308    21348482.240    87418492.593 6      1895.305
G03  21169266.760   111245245.171 7      5395.340    21169265.840   111245245.171 6      5395.340    21169273.660    86684642.535 6      4204.161    21169274.880    86684642.537 8      4204.161
> 2024 06 03 12 59 32.0000000  0 13
R23  21396117.240   114454793.543 7      1658.933    21396116.580   114454793.552 6      1658.933
R14  21113223.040   112545357.015 8      2284.499    21113220.660   112545357.016 8      2284.499    21113231.120    87535309.044 8      1776.832    21113231.540    87535311.048 8      1776.832
G16  25092056.460   131859633.868 6      -947.104    25092054.780   131859633.875 3      -947.104    25092069.500   102747802.193 3      -738.003
R24  21042523.800   112523832.485 7      3667.490    21042523.380   112523832.500 7      3667.490    21042534.620    87518582.340 8      2852.492    21042534.980    87518582.340 8      2852.492
G21  21239598.240   111614836.338 8      1510.452    21239596.580   111614836.345 6      1510.452    21239600.840    86972613.275 6      1176.975
G32  24760786.620   130118811.976 6      2399.327    24760785.340   130118811.986 6      2399.327    24760799.500   101391338.758 6      1869.606    24760800.400   101391342.765 7      1869.606
R01  20879716.760   111614056.437 7      5948.605    20879716.600   111614056.452 7      5948.605    20879731.340    86810990.715 7      4626.693    20879730.420    86810984.714 7      4626.693
R08  21062254.760   112787419.572 7      2108.981    21062255.960   112787419.606 7      2108.981    21062268.060    87723597.209 8      1640.318    21062267.740    87723596.212 8      1640.318
G14  23109326.880   121440337.401 7      5199.870    23109326.180   121440337.412 5      5199.870    23109334.660    94628860.959 5      4051.847    23109335.000    94628865.968 7      4051.847
G27  23019831.960   120970030.855 7       292.819    23019831.120   120970030.860 6       292.819    23019842.220    94262397.912 6       228.170    23019842.420    94262400.916 7       228.170
G08  20780657.700   109203091.613 8      1749.970    20780656.300   109203091.621 8      1749.970    20780663.920    85093366.840 8      1363.613    20780665.200    85093348.839 8      1363.613
G02  21348018.000   112184606.007 8      2431.836    21348016.300   112184606.009 6      2431.836    21348019.420    87416597.490 6      1894.937
G03  21168239.960   111239850.231 7      5394.545    21168239.240   111239850.231 6      5394.545    21168247.220    86680438.685 6      4203.541    21168248.000    86680438.689 8      4203.541
> 2024 06 03 12 59 33.0000000  0 13
R23  21395806.880   114453134.674 6      1658.745    21395806.480   114453134.683 6      1658.745
R14  21112794.560   112543073.016 8      2283.431    21112792.260   112543073.016 7      2283.431    21112802.720    87533532.598 8      1776.002    21112802.820    87533534.604 8      1776.002
G16  25092236.580   131860580.898 6      -947.086    25092234.960   131860580.903 3      -947.086    25092249.640   102748540.131 3      -737.989
R24  21041838.200   112520165.167 7      3667.164    21041837.840   112520165.174 7      3667.164    21041848.580    87515729.979 7      2852.239    21041849.200    87515729.979 7      2852.239
G21  21239311.000   111613325.988 8      1510.163    21239309.360   111613325.993 6      1510.163    21239313.460    86971436.381 6      1176.751
G32  24760330.060   130116413.141 6      2398.500    24760328.860   130116413.151 6      2398.500    24760343.120   101389469.541 6      1868.961    24760343.760   101389473.550 7      1868.961
R01  20878603.880   111608108.121 7      5947.960    20878603.480   111608108.133 7      5947.960    20878618.540    86806364.251 7      4626.191    20878617.400    86806358.248 7      4626.191
R08  21061861.080   112785311.059 7      2107.869    21061861.800   112785311.106 7      2107.869    21061874.160    87721957.267 8      1639.454    21061873.960    87721956.271 8      1639.454
G14  23108337.500   121435137.888 7      5199.058    23108336.700   121435137.898 5      5199.058    23108345.040    94624809.399 5      4051.214    23108345.540    94624814.403 7      4051.214
G27  23019776.540   120969738.116 7       292.461    23019775.420   120969738.121 6       292.461    23019786.460    94262169.799 6       227.892    23019786.940    94262172.803 7       227.892
G08  20780324.720   109201341.904 8      1749.402    20780323.340   109201341.912 8      1749.402    20780331.000    85092003.433 8      1363.170    20780332.220    85091985.434 8      1363.170
G02  21347555.620   112182174.292 8      2431.543    21347553.620   112182174.299 6      2431.543    21347556.680    87414702.654 6      1894.709
G03  21167213.580   111234455.927 7      5393.862    21167212.780   111234455.926 6      5393.862    21167220.600    86676235.339 6      4203.009    21167221.440    86676235.337 8      4203.009
> 2024 06 03 12 59 34.0000000  0 13
R23  21395496.780   114451475.888 6      1658.956    21395496.640   114451475.898 6      1658.956
R14  21112365.980   112540789.949 8      2282.811    21112363.880   112540789.958 7      2282.811    21112374.340    87531756.885 8      1775.520    21112374.820    87531758.889 8      1775.520
G16  25092416.360   131861528.024 6      -946.889    25092415.040   131861528.029 3      -946.889    25092429.960   102749278.143 3      -737.835
R24  21041152.520   112516497.969 8      3667.316    21041152.020   112516497.976 7      3667.316    21041163.000    87512877.720 7      2852.357    21041163.320    87512877.721 7      2852.357
G21  21239023.440   111611815.780 8      1510.378    21239022.000   111611815.785 6      1510.378    21239025.980    86970259.600 6      1176.918
G32  24759873.080   130114014.827 6      2398.389    24759872.420   130114014.837 6      2398.389    24759886.740   101387600.724 6      1868.874    24759887.260   101387604.742 7      1868.874
R01  20877491.040   111602160.377 7      5947.812    20877491.040   111602160.392 7      5947.812    20877505.580    86801738.234 7      4626.076    20877504.660    86801732.229 7      4626.076
R08  21061467.400   112783203.459 7      2107.503    21061468.140   112783203.498 7      2107.503    21061480.620    87720318.020 8      1639.169    21061480.360    87720317.023 8      1639.169
G14  23107348.000   121429938.869 7      5198.937    23107347.380   121429938.881 5      5198.937    23107355.480    94620758.221 5      4051.120    23107356.100    94620763.227 7      4051.120
G27  23019720.920   120969445.715 7       292.565    23019720.020   120969445.717 6       292.565    23019730.900    94261941.942 6       227.973    23019731.140    94261944.938 7       227.973
G08  20779991.840   109199592.632 7      1749.394    20779990.460   109199592.639 8      1749.394    20779998.060    85090640.365 8      1363.164    20779999.140    85090622.367 8      1363.164
G02  21347092.760   112179742.774 7      2431.719    21347090.800   112179742.779 6      2431.719    21347093.900    87412807.964 6      1894.846
G03  21166187.400   111229062.187 7      5393.644    21166186.360   111229062.189 6      5393.644    21166194.260    86672032.427 6      4202.840    21166195.000    86672032.427 8      4202.840
> 2024 06 03 12 59 35.0000000  0 13
R23  21395186.580   114449817.027 6      1658.720    21395186.240   114449817.042 6      1658.720
R14  21111937.960   112538507.549 8      2281.914    21111935.720   112538507.549 7      2281.914    21111946.360    87529981.677 8      1774.822    21111946.620    87529983.681 8      1774.822
G16  25092596.280   131862475.021 6      -947.290    25092595.220   131862475.026 3      -947.290    25092610.100   102750016.056 3      -738.148
R24  21040466.840   112512830.691 7      3667.165    21040466.240   112512830.692 7      3667.165    21040477.220    87510025.386 8      2852.240    21040477.500    87510025.389 7      2852.240
G21  21238736.180   111610305.522 8      1510.132    21238734.640   111610305.532 6      1510.132    21238738.700    86969082.776 6      1176.726
G32  24759416.800   130111616.954 6      2397.367    24759416.060   130111616.970 6      2397.367    24759430.320   101385732.258 6      1868.078    24759430.900   101385736.265 7      1868.078
R01  20876378.820   111596213.061 7      5946.986    20876378.260   111596213.065 7      5946.986    20876392.980    86797112.548 7      4625.433    20876392.160    86797106.543 7      4625.433
R08  21061073.740   112781096.683 7      2106.106    21061074.720   112781096.738 7      2106.106    21061087.220    87718679.423 8      1638.082    21061086.820    87718678.428 8      1638.082
G14  23106358.860   121424740.178 7      5198.304    23106358.100   121424740.190 5      5198.304    23106366.080    94616707.297 5      4050.626    23106366.600    94616712.299 7      4050.626
G27  23019665.460   120969153.477 7       292.002    23019664.380   120969153.480 7       292.002    23019675.180    94261714.216 6       227.534    23019675.620    94261717.220 7       227.534
G08  20779659.100   109197843.654 7      1748.701    20779657.480   109197843.661 8      1748.701    20779665.200    85089277.523 8      1362.624    20779666.380    85089259.524 8      1362.624
G02  21346630.080   112177311.245 8      2431.384    21346627.940   112177311.250 6      2431.384    21346631.280    87410913.265 6      1894.585
G03  21165160.800   111223668.810 7      5392.993    21165160.120   111223668.812 6      5392.993    21165168.200    86667829.796 6      4202.332    21165168.220    86667829.800 8      4202.332
> 2024 06 03 12 59 36.0000000  0 13
R23  21394876.780   114448158.375 6      1658.560    21394876.080   114448158.393 6      1658.560
R14  21111509.860   112536226.084 8      2280.963    21111507.720   112536226.087 7      2280.963    21111518.220    87528207.208 8      1774.082    21111518.560    87528209.214 8      1774.082
G16  25092776.280   131863422.165 6      -947.160    25092775.360   131863422.172 3      -947.160    25092790.500   102750754.084 3      -738.047
R24  21039781.040   112509163.611 8      3666.932    21039780.240   112509163.615 7      3666.932    21039791.380    87507173.217 8      2852.058    21039791.600    87507173.215 8      2852.058
G21  21238449.020   111608795.512 8      1509.910    21238447.320   111608795.519 6      1509.910    21238451.340    86967906.142 6      1176.553
G32  24758960.800   130109219.705 6      2397.004    24758959.880   130109219.717 6      2397.004    24758973.960   101383864.271 6      1867.795    24758974.640   101383868.282 7      1867.795
R01  20875266.780   111590266.456 7      5946.350    20875265.580   111590266.468 6      5946.350    20875280.640    86792487.421 7      4624.939    20875279.760    86792481.413 7      4624.939
R08  21060680.480   112778990.919 7      2105.266    21060682.060   112778990.958 7      2105.266    21060694.100    87717041.592 8      1637.429    21060693.660    87717040.597 8      1637.429
G14  23105369.520   121419542.060 7      5197.730    23105368.860   121419542.070 5      5197.730    23105377.100    94612656.817 5      4050.179    23105377.700    94612661.821 7      4050.179
G27  23019609.760   120968861.684 6       291.772    23019608.740   120968861.691 7       291.772    23019619.760    94261486.844 6       227.355    23019620.100    94261489.848 7       227.355
G08  20779326.340   109196095.217 8      1748.273    20779324.820   109196095.224 7      1748.273    20779332.520    85087915.104 7      1362.291    20779333.820    85087897.108 8      1362.291
G02  21346167.260   112174879.990 7      2431.073    21346165.360   112174879.997 6      2431.073    21346168.620    87409018.784 6      1894.342
G03  21164134.720   111218276.085 7      5392.440    21164133.980   111218276.085 6      5392.440    21164141.840    86663627.678 6      4201.901    21164142.400    86663627.679 8      4201.901
> 2024 06 03 12 59 37.0000000  0 13
R23  21394566.620   114446499.935 7      1658.325    21394565.400   114446499.963 6      1658.325
R14  21111082.040   112533945.576 8      2280.035    21111079.920   112533945.574 7      2280.035    21111090.340    87526433.476 8      1773.360    21111090.360    87526435.477 8      1773.360
G16  25092957.100   131864369.298 6      -947.111    25092955.560   131864369.308 3      -947.111    25092970.660   102751492.104 3      -738.008
R24  21039094.820   112505496.686 8      3666.828    21039094.560   112505496.692 7      3666.828    21039105.600    87504321.166 8      2851.977    21039105.780    87504321.167 8      2851.977
G21  21238161.620   111607285.727 8      1509.735    21238160.180   111607285.732 6      1509.735    21238164.060    86966729.680 6      1176.417
G32  24758504.980   130106823.138 6      2396.189    24758503.960   130106823.145 6      2396.189    24758517.900   101381996.817 6      1867.161    24758518.200   101382000.822 7      1867.161
R01  20874154.020   111584320.396 6      5945.746    20874153.460   111584320.405 6      5945.746    20874168.480    86787862.709 7      4624.469    20874167.860    86787856.702 7      4624.469
R08  21060287.640   112776886.141 7      2104.262    21060288.540   112776886.175 7      2104.262    21060300.880    87715404.544 8      1636.648    21060300.840    87715403.547 8      1636.648
G14  23104380.320   121414344.543 7      5197.187    23104379.980   121414344.551 5      5197.187    23104388.020    94608606.811 5      4049.756    23104388.700    94608611.813 7      4049.756
G27  23019554.140   120968570.273 7       291.278    23019553.300   120968570.278 6       291.278    23019564.300    94261259.765 6       226.970    23019564.780    94261262.769 7       226.970
G08  20778993.800   109194347.295 8      1747.668    20778992.220   109194347.302 8      1747.668    20778999.960    85086553.085 8      1361.819    20779001.200    85086535.085 8      1361.819
G02  21345704.800   112172448.982 8      2430.852    21345702.900   112172448.989 6      2430.852    21345705.880    87407124.488 6      1894.170
G03  21163108.680   111212883.888 7      5391.852    21163107.940   111212883.885 6      5391.852    21163115.620    86659425.970 6      4201.443    21163116.440    86659425.973 8      4201.443
> 2024 06 03 12 59 38.0000000  0 13
R23  21394256.940   114444841.494 7      1658.393    21394256.240   114444841.511 6      1658.393
R14  21110654.580   112531665.851 8      2279.226    21110652.120   112531665.852 7      2279.226    21110662.660    87524660.355 8      1772.732    21110663.080    87524662.358 8      1772.732
G16  25093137.400   131865316.434 6      -947.172    25093135.740   131865316.439 3      -947.172    25093150.860   102752230.126 3      -738.056
R24  21038409.300   112501829.710 7      3666.957    21038408.940   112501829.714 7      3666.957    21038420.100    87501469.078 8      2852.078    21038420.500    87501469.076 8      2852.078
G21  21237874.540   111605775.963 8      1509.718    21237872.700   111605775.970 6      1509.718    21237876.720    86965553.243 6      1176.404
G32  24758049.020   130104427.020 6      2395.925    24758048.060   130104427.025 6      2395.925    24758062.340   101380129.712 6      1866.954    24758062.760   101380133.717 7      1866.954
R01  20873042.040   111578374.843 7      5945.289    20873041.280   111578374.853 6      5945.289    20873056.220    86783238.395 7      4624.113    20873055.220    86783232.390 7      4624.113
R08  21059894.680   112774782.171 7      2103.534    21059895.860   112774782.213 7      2103.534    21059908.080    87713768.132 8      1636.082    21059907.460    87713767.135 8      1636.082
G14  23103391.640   121409147.389 7      5196.874    23103390.860   121409147.402 5      5196.874    23103399.040    94604557.086 5      4049.512    23103399.720    94604562.097 7      4049.512
G27  23019498.700   120968279.113 7       290.972    23019497.960   120968279.120 6       290.972    23019508.780    94261032.883 6       226.731    23019509.340    94261035.889 7       226.731
G08  20778661.120   109192599.717 8      1747.393    20778659.680   109192599.722 8      1747.393    20778667.400    85085191.332 8      1361.605    20778668.740    85085173.332 8      1361.605
G02  21345242.140   112170018.028 7      2430.938    21345240.360   112170018.031 6      2430.938    21345243.320    87405230.239 6      1894.237
G03  21162082.620   111207492.127 7      5391.535    21162081.780   111207492.132 6      5391.535    21162089.640    86655224.602 6      4201.196    21162090.380    86655224.607 8      4201.196
> 2024 06 03 12 59 39.0000000  0 13
R23  21393947.100   114443183.147 7      1658.095    21393946.400   114443183.162 6      1658.095
R14  21110227.260   112529387.036 8      2278.319    21110224.820   112529387.031 7      2278.319    21110235.300    87522887.938 8      1772.026    21110235.440    87522889.942 8      1772.026
G16  25093317.420   131866263.528 6      -947.080    25093316.160   131866263.536 3      -947.080    25093331.080   102752968.118 3      -737.984
R24  21037723.380   112498162.843 8      3666.661    21037723.140   112498162.855 7      3666.661    21037734.220    87498617.077 8      2851.847    21037734.520    87498617.077 8      2851.847
G21  21237587.040   111604266.328 8      1509.463    21237585.420   111604266.338 6      1509.463    21237589.440    86964376.906 6      1176.205
G32  24757593.500   130102031.444 6      2395.123    24757592.480   130102031.457 6      2395.123    24757606.480   101378263.038 6      1866.330    24757607.300   101378267.042 7      1866.330
R01  20871929.960   111572429.834 7      5944.705    20871928.940   111572429.843 6      5944.705    20871944.180    86778614.507 7      4623.659    20871943.180    86778608.500 7      4623.659
R08  21059501.980   112772679.147 7      2102.368    21059502.880   112772679.194 7      2102.368    21059515.340    87712132.444 8      1635.175    21059515.080    87712131.449 8      1635.175
G14  23102402.840   121403950.777 7      5196.247    23102401.940   121403950.792 5      5196.247    23102410.180    94600507.782 5      4049.024    23102410.800    94600512.788 7      4049.024
G27  23019443.240   120967988.234 7       290.617    23019442.500   120967988.238 7       290.617    23019453.520    94260806.220 6       226.455    23019453.920    94260809.219 7       226.455
G08  20778328.640   109190852.562 8      1746.814    20778327.300   109190852.567 8      1746.814    20778334.960    85083829.915 8      1361.154    20778336.140    85083811.916 8      1361.154
G02  21344779.500   112167587.244 7      2430.674    21344777.700   112167587.248 6      2430.674    21344780.900    87403336.120 6      1894.031
G03  21161056.560   111202100.920 7      5390.883    21161055.880   111202100.925 6      5390.883    21161063.680    86651023.668 6      4200.688    21161064.360    86651023.673 8      4200.688
> 2024 06 03 12 59 40.0000000  0 13
R23  21393637.140   114441524.968 7      1658.325    21393636.140   114441524.988 6      1658.325
R14  21109799.760   112527109.214 8      2277.437    21109797.320   112527109.210 8      2277.437    21109807.840    87521116.295 8      1771.340    21109808.140    87521118.301 8      1771.340
G16  25093497.740   131867210.830 6      -947.406    25093496.480   131867210.840 3      -947.406    25093511.440   102753706.269 3      -738.238
R24  21037038.040   112494496.185 8      3666.638    21037037.480   112494496.197 8      3666.638    21037048.600    87495765.232 8      2851.829    21037048.960    87495765.232 8      2851.829
G21  21237299.860   111602756.916 8      1509.453    21237298.080   111602756.924 6      1509.453    21237302.200    86963200.741 6      1176.197
G32  24757137.500   130099636.551 6      2394.735    24757136.960   130099636.553 6      2394.735    24757151.020   101376396.877 6      1866.027    24757151.800   101376400.872 7      1866.027
R01  20870817.440   111566485.511 7      5944.089    20870817.000   111566485.518 6      5944.089    20870832.100    86773991.149 7      4623.181    20870831.140    86773985.144 7      4623.181
R08  21059109.220   112770577.129 7      2101.606    21059110.680   112770577.173 7      2101.606    21059122.780    87710497.543 8      1634.583    21059122.540    87710496.546 8      1634.583
G14  23101414.060   121398754.726 7      5195.824    23101413.140   121398754.739 5      5195.824    23101421.460    94596458.916 5      4048.694    23101422.060    94596463.920 7      4048.694
G27  23019387.840   120967697.804 6       290.325    23019387.200   120967697.806 6       290.325    23019398.300    94260579.902 6       226.227    23019398.740    94260582.908 7       226.227
G08  20777996.360   109189105.951 8      1746.408    20777995.020   109189105.959 8      1746.408    20778002.560    85082468.919 8      1360.837    20778003.980    85082450.921 8      1360.837
G02  21344317.000   112165156.729 8      2430.542    21344315.180   112165156.731 6      2430.542    21344318.480    87401442.213 6      1893.929
G03  21160030.800   111196710.349 7      5390.338    21160030.000   111196710.352 6      5390.338    21160038.020    86646823.224 6      4200.264    21160038.700    86646823.222 8      4200.264
> 2024 06 03 12 59 41.0000000  0 13
R23  21393327.300   114439866.637 7      1658.061    21393326.040   114439866.649 6      1658.061
R14  21109372.680   112524832.307 8      2276.469    21109370.240   112524832.302 7      2276.469    21109380.920    87519345.372 8      1770.587    21109381.020    87519347.373 8      1770.587
G16  25093678.020   131868157.942 6      -947.293    25093676.640   131868157.952 3      -947.293    25093691.840   102754444.266 3      -738.150
R24  21036352.320   112490829.541 8      3666.493    21036351.740   112490829.550 8      3666.493    21036362.980    87492913.404 8      2851.717    21036363.020    87492913.404 8      2851.717
G21  21237012.500   111601247.444 8      1509.284    21237010.920   111601247.449 6      1509.284    21237014.800    86962024.529 6      1176.065
G32  24756681.560   130097241.808 6      2394.296    24756680.960   130097241.815 6      2394.296    24756694.960   101374530.851 6      1865.685    24756695.800   101374534.860 7      1865.685
R01  20869705.880   111560541.512 7      5943.498    20869705.320   111560541.526 7      5943.498    20869720.080    86769368.059 7      4622.720    20869719.060    86769362.048 7      4622.720
R08  21058716.420   112768475.692 7      2100.772    21058717.900   112768475.729 7      2100.772    21058730.380    87708863.078 8      1633.933    21058730.320    87708862.079 8      1633.933
G14  23100425.440   121393559.136 7      5195.335    23100424.600   121393559.151 5      5195.335    23100432.780    94592410.412 5      4048.313    23100433.480    94592415.414 7      4048.313
G27  23019332.620   120967407.389 7       290.035    23019332.140   120967407.392 6       290.035    23019343.080    94260353.602 6       226.001    23019343.660    94260356.597 7       226.001
G08  20777663.940   109187359.506 8      1746.077    20777662.500   109187359.513 8      1746.077    20777670.140    85081108.065 8      1360.580    20777671.200    85081090.069 8      1360.580
G02  21343854.680   112162726.262 8      2430.347    21343852.760   112162726.262 6      2430.347    21343855.860    87399548.343 6      1893.777
G03  21159004.980   111191320.228 8      5389.805    21159004.220   111191320.230 6      5389.805    21159012.340    86642623.135 6      4199.848    21159013.260    86642623.142 8      4199.848
> 2024 06 03 12 59 42.0000000  0 13
R23  21393017.040   114438208.680 7      1657.810    21393016.240   114438208.684 7      1657.810
R14  21108945.820   112522556.146 8      2275.747    21108943.180   112522556.144 7      2275.747    21108953.920    87517575.022 8      1770.026    21108954.020    87517577.026 8      1770.026
G16  25093858.240   131869105.144 6      -947.297    25093856.660   131869105.152 3      -947.297    25093872.020   102755182.337 3      -738.153
R24  21035666.640   112487163.014 8      3666.479    21035665.960   112487163.021 8      3666.479    21035677.300    87490061.661 8      2851.706    21035677.420    87490061.661 8      2851.706
G21  21236725.520   111599738.256 8      1509.142    21236723.760   111599738.263 6      1509.142    21236727.580    86960848.540 6      1175.955
G32  24756226.120   130094848.000 6      2393.621    24756225.040   130094848.010 6      2393.621    24756239.160   101372665.548 6      1865.159    24756240.420   101372669.560 7      1865.159
R01  20868594.420   111554598.205 7      5942.896    20868593.540   111554598.209 7      5942.896    20868608.220    86764745.487 7      4622.253    20868607.120    86764739.476 7      4622.253
R08  21058324.640   112766375.441 7      2099.784    21058325.500   112766375.481 7      2099.784    21058338.140    87707229.556 8      1633.166    21058338.080    87707228.561 8      1633.166
G14  23099437.040   121388364.050 7      5194.863    23099436.000   121388364.060 5      5194.863    23099444.280    94588362.289 5      4047.945    23099444.580    94588367.289 7      4047.945
G27  23019277.500   120967117.506 7       289.786    23019277.260   120967117.505 6       289.786    23019287.800    94260127.712 6       225.807    23019288.320    94260130.714 7       225.807
G08  20777331.660   109185613.715 8      1745.609    20777330.260   109185613.719 8      1745.609    20777337.940    85079747.704 8      1360.215    20777339.080    85079729.708 8      1360.215
G02  21343392.040   112160296.032 7      2430.128    21343390.240   112160296.036 6      2430.128    21343393.280    87397654.665 6      1893.606
G03  21157979.520   111185930.593 7      5389.319    21157978.760   111185930.598 6      5389.319    21157986.540    86638423.423 6      4199.469    21157987.260    86638423.424 8      4199.469
> 2024 06 03 12 59 43.0000000  0 13
R23  21392706.980   114436550.619 7      1657.845    21392706.060   114436550.626 7      1657.845
R14  21108518.700   112520280.732 8      2274.952    21108516.340   112520280.732 7      2274.952    21108527.080    87515805.255 8      1769.407    21108527.440    87515807.259 8      1769.407
G16  25094038.380   131870052.172 6      -947.216    25094036.900   131870052.180 3      -947.216    25094052.180   102755920.273 3      -738.090
R24  21034980.800   112483496.461 8      3666.352    21034980.380   112483496.470 7      3666.352    21034991.520    87487209.897 8      2851.607    21034991.580    87487209.899 7      2851.607
G21  21236438.340   111598229.067 8      1508.981    21236436.620   111598229.075 6      1508.981    21236440.520    86959672.547 6      1175.829
G32  24755770.580   130092454.573 6      2392.904    24755769.320   130092454.575 6      2392.904    24755783.800   101370800.536 6      1864.601    24755784.680   101370804.545 7      1864.601
R01  20867482.880   111548655.258 7      5942.428    20867481.720   111548655.270 7      5942.428    20867496.700    86760123.198 7      4621.889    20867495.300    86760117.188 7      4621.889
R08  21057932.420   112764275.965 7      2098.792    21057933.640   112764275.996 7      2098.792    21057946.100    87705596.625 8      1632.394    21057946.020    87705595.626 8      1632.394
G14  23098448.640   121383169.347 7      5194.380    23098447.420   121383169.357 5      5194.380    23098455.720    94584314.473 5      4047.569    23098456.240    94584319.483 7      4047.569
G27  23019222.440   120966827.756 7       289.483    23019222.040   120966827.758 6       289.483    23019232.560    94259901.929 6       225.571    23019233.400    94259904.925 7       225.571
G08  20776999.160   109183868.181 7      1745.086    20776998.000   109183868.186 7      1745.086    20777005.700    85078387.550 7      1359.807    20777007.000    85078369.554 8      1359.807
G02  21342929.700   112157865.867 7      2429.889    21342927.740   112157865.872 6      2429.889    21342930.800    87395761.028 6      1893.420
G03  21156953.980   111180541.354 7      5388.846    21156953.160   111180541.356 6      5388.846    21156961.120    86634224.017 6      4199.101    21156961.500    86634224.019 8      4199.101
> 2024 06 03 12 59 44.0000000  0 13
R23  21392397.220   114434892.780 6      1657.855    21392396.020   114434892.790 6      1657.855
R14  21108091.880   112518006.212 8      2273.979    21108089.500   112518006.213 7      2273.979    21108100.320    87514036.183 8      1768.650    21108100.500    87514038.184 8      1768.650
G16  25094218.440   131870999.280 6      -947.158    25094217.080   131870999.290 3      -947.158    25094232.280   102756658.277 3      -738.045
R24  21034295.160   112479830.097 7      3666.168    21034294.760   112479830.101 7      3666.168    21034306.040    87484358.283 7      2851.464    21034306.040    87484358.285 7      2851.464
G21  21236151.020   111596720.081 8      1508.916    21236149.480   111596720.086 6      1508.916    21236153.420    86958496.712 6      1175.778
G32  24755315.420   130090061.787 6      2392.311    24755314.460   130090061.792 6      2392.311    24755328.560   101368936.036 6      1864.138    24755329.260   101368940.047 7      1864.138
R01  20866371.180   111542712.930 7      5942.118    20866369.920   111542712.944 7      5942.118    20866384.860    86755501.399 7      4621.647    20866383.520    86755495.392 7      4621.647
R08  21057540.520   112762177.529 7      2097.840    21057541.420   112762177.566 7      2097.840    21057554.320    87703964.517 8      1631.653    21057554.040    87703963.520 8      1631.653
G14  23097460.120   121377975.178 7      5193.850    23097458.980   121377975.191 5      5193.850    23097467.400    94580267.074 5      4047.156    23097468.040    94580272.083 7      4047.156
G27  23019167.200   120966538.467 7       289.001    23019166.880   120966538.469 7       289.001    23019177.440    94259676.500 6       225.196    23019177.940    94259679.506 7       225.196
G08  20776667.320   109182123.168 7      1744.719    20776666.060   109182123.178 8      1744.719    20776673.680    85077027.798 8      1359.522    20776675.120    85077009.799 8      1359.522
G02  21342467.180   112155435.907 7      2429.786    21342465.460   112155435.912 6      2429.786    21342468.520    87393867.550 6      1893.340
G03  21155928.700   111175152.673 7      5388.331    21155927.840   111175152.675 6      5388.331    21155935.640    86630025.052 6      4198.700    21155935.820    86630025.053 8      4198.700
> 2024 06 03 12 59 45.0000000  0 13
R23  21392087.800   114433234.869 6      1657.596    21392086.060   114433234.892 6      1657.596
R14  21107665.720   112515732.432 8      2273.048    21107662.900   112515732.430 8      2273.048    21107673.900    87512267.686 8      1767.926    21107674.140    87512269.690 8      1767.926
G16  25094399.360   131871946.329 6      -947.286    25094397.360   131871946.344 3      -947.286    25094412.520   102757396.235 3      -738.145
R24  21033609.360   112476163.661 7      3666.110    21033609.360   112476163.665 7      3666.110    21033620.220    87481506.612 8      2851.419    21033620.200    87481506.615 8      2851.419
G21  21235864.180   111595211.045 8      1508.792    21235862.360   111595211.050 6      1508.792    21235866.220    86957320.841 6      1175.682
G32  24754860.120   130087669.377 6      2391.913    24754859.620   130087669.382 6      2391.913    24754873.620   101367071.820 6      1863.829    24754874.460   101367075.821 7      1863.829
R01  20865259.200   111536771.095 7      5941.344    20865258.360   111536771.107 7      5941.344    20865273.300    86750879.974 7      4621.046    20865272.200    86750873.971 7      4621.046
R08  21057149.120   112760079.817 7      2097.025    21057150.040   112760079.853 7      2097.025    21057162.500    87702332.965 8      1631.019    21057162.300    87702331.966 8      1631.019
G14  23096471.780   121372781.338 7      5193.372    23096470.440   121372781.350 5      5193.372    23096478.940    94576219.934 5      4046.783    23096479.500    94576224.938 7      4046.783
G27  23019112.320   120966249.342 7       288.621    23019111.860   120966249.347 6       288.621    23019122.460    94259451.207 6       224.900    23019122.640    94259454.209 7       224.900
G08  20776335.420   109180378.451 8      1744.236    20776334.160   109180378.461 8      1744.236    20776341.700    85075668.276 8      1359.145    20776342.980    85075650.278 8      1359.145
G02  21342004.800   112153005.947 8      2429.611    21342003.060   112153005.954 6      2429.611    21342006.140    87391974.079 6      1893.204
G03  21154903.180   111169764.425 7      5387.738    21154902.420   111169764.427 6      5387.738    21154910.240    86625826.422 6      4198.238    21154910.580    86625826.422 8      4198.238
> 2024 06 03 12 59 46.0000000  0 13
R23  21391777.580   114431577.167 6      1657.699    21391776.100   114431577.184 6      1657.699
R14  21107239.500   112513459.762 8      2272.290    21107236.660   112513459.755 7      2272.290    21107247.300    87510500.051 8      1767.337    21107247.760    87510502.054 8      1767.337
G16  25094579.880   131872893.525 6      -947.083    25094577.440   131872893.541 3      -947.083    25094592.760   102758134.302 3      -737.987
R24  21032924.020   112472497.498 7      3666.229    21032923.640   112472497.505 7      3666.229    21032934.580    87478655.154 7      2851.511    21032934.780    87478655.155 8      2851.511
G21  21235576.860   111593702.293 7      1508.742    21235575.300   111593702.300 6      1508.742    21235579.100    86956145.190 6      1175.643
G32  24754405.420   130085277.618 6      2391.507    24754404.560   130085277.631 6      2391.507    24754418.640   101365208.117 6      1863.512    24754419.780   101365212.128 7      1863.512
R01  20864147.340   111530829.905 7      5941.032    20864146.680   111530829.922 7      5941.032    20864161.940    86746259.065 7      4620.802    20864160.860    86746253.060 7      4620.802
R08  21056757.240   112757983.114 7      2096.331    21056758.460   112757983.150 7      2096.331    21056771.000    87700702.198 8      1630.480    21056770.840    87700701.201 8      1630.480
G14  23095483.520   121367588.199 7      5192.986    23095482.160   121367588.211 5      5192.986    23095490.720    94572173.340 5      4046.482    23095491.260    94572178.345 7      4046.482
G27  23019057.600   120965960.625 7       288.564    23019056.720   120965960.625 6       288.564    23019067.600    94259226.224 6       224.855    23019068.160    94259229.224 7       224.855
G08  20776003.640   109178634.281 8      1744.040    20776002.280   109178634.289 8      1744.040    20776009.680    85074309.185 8      1358.992    20776011.060    85074291.186 8      1358.992
G02  21341542.440   112150576.334 7      2429.565    21341540.640   112150576.339 6      2429.565    21341543.740    87390080.876 6      1893.167
G03  21153878.120   111164376.878 7      5387.295    21153877.140   111164376.880 6      5387.295    21153884.940    86621628.338 6      4197.892    21153885.780    86621628.340 8      4197.892
> 2024 06 03 12 59 47.0000000  0 13
R23  21391467.520   114429919.448 6      1657.678    21391465.840   114429919.466 6      1657.678
R14  21106813.440   112511187.900 8      2271.628    21106810.480   112511187.906 7      2271.628    21106821.380    87508733.053 8      1766.822    21106821.940    87508735.055 8      1766.822
G16  25094760.040   131873840.680 6      -946.781    25094757.600   131873840.693 3      -946.781    25094772.980   102758872.336 3      -737.752
R24  21032238.440   112468831.279 7      3666.409    21032238.240   112468831.285 7      3666.409    21032248.980    87475803.654 8      2851.652    21032249.320    87475803.655 8      2851.652
G21  21235289.840   111592193.572 8      1508.770    21235288.180   111592193.577 6      1508.770    21235291.960    86954969.564 6      1175.665
G32  24753950.340   130082886.312 6      2391.111    24753949.440   130082886.317 6      2391.111    24753963.400   101363344.761 6      1863.203    24753964.340   101363348.766 7      1863.203
R01  20863036.020   111524889.209 7      5940.620    20863035.940   111524889.226 7      5940.620    20863050.680    86741638.526 7      4620.482    20863049.420    86741632.519 7      4620.482
R08  21056366.500   112755887.217 7      2095.536    21056367.260   112755887.258 7      2095.536    21056379.620    87699072.052 8      1629.861    21056379.460    87699071.052 8      1629.861
G14  23094495.240   121362395.488 7      5192.653    23094493.960   121362395.501 5      5192.653    23094502.400    94568127.076 5      4046.223    23094503.180    94568132.078 7      4046.223
G27  23019002.780   120965672.124 7       288.439    23019001.960   120965672.124 7       288.439    23019012.680    94259001.414 6       224.757    23019013.080    94259004.418 7       224.757
G08  20775671.920   109176890.458 8      1743.742    20775670.320   109176890.466 8      1743.742    20775677.920    85072950.366 8      1358.760    20775679.280    85072932.369 8      1358.760
G02  21341080.100   112148146.794 7      2429.616    21341078.340   112148146.799 6      2429.616    21341081.400    87388187.727 6      1893.207
G03  21152853.020   111158989.776 7      5387.083    21152851.960   111158989.775 6      5387.083    21152859.820    86617430.600 6      4197.727    21152860.580    86617430.602 8      4197.727
> 2024 06 03 12 59 48.0000000  0 13
R23  21391157.560   114428261.997 6      1657.262    21391155.900   114428261.996 6      1657.262
R14  21106387.380   112508916.995 8      2270.400    21106384.480   112508916.991 7      2270.400    21106395.360    87506966.785 8      1765.866    21106395.960    87506968.789 8      1765.866
G16  25094940.720   131874787.945 6      -947.254    25094937.840   131874787.957 3      -947.254    25094953.200   102759610.459 3      -738.120
R24  21031553.000   112465165.257 7      3665.850    21031552.380   112465165.264 7      3665.850    21031563.660    87472952.306 8      2851.216    21031563.780    87472952.309 7      2851.216
G21  21235002.800   111590685.114 8      1508.343    21235001.120   111590685.117 6      1508.343    21235005.000    86953794.136 6      1175.332
G32  24753495.100   130080495.738 6      2390.220    24753494.300   130080495.746 6      2390.220    24753508.280   101361481.983 6      1862.509    24753509.260   101361485.988 7      1862.509
R01  20861924.780   111518949.184 7      5939.675    20861924.380   111518949.194 7      5939.675    20861939.480    86737018.507 7      4619.747    20861938.220    86737012.500 7      4619.747
R08  21055974.860   112753792.420 7      2094.270    21055975.940   112753792.451 7      2094.270    21055988.440    87697442.759 8      1628.877    21055988.320    87697441.762 8      1628.877
G14  23093507.260   121357203.376 7      5191.737    23093505.980   121357203.392 5      5191.737    23093514.380    94564081.281 5      4045.509    23093515.240    94564086.283 7      4045.509
G27  23018947.800   120965384.088 7       287.807    23018947.140   120965384.090 7       287.807    23018957.820    94258776.966 6       224.265    23018958.540    94258779.970 7       224.265
G08  20775340.260   109175147.213 7      1742.920    20775338.540   109175147.223 8      1742.920    20775346.120    85071591.993 8      1358.119    20775347.540    85071573.997 8      1358.119
G02  21340617.760   112145717.549 7      2429.031    21340616.240   112145717.556 6      2429.031    21340619.100    87386294.812 6      1892.752
G03  21151828.220   111153603.307 7      5385.982    21151827.060   111153603.312 6      5385.982    21151834.940    86613233.353 6      4196.869    21151835.640    86613233.359 8      4196.869
> 2024 06 03 12 59 49.0000000  0 13
R23  21390848.360   114426604.669 6      1657.259    21390846.580   114426604.670 6      1657.259
R14  21105961.300   112506646.997 8      2269.506    21105958.500   112506646.997 8      2269.506    21105969.460    87505201.233 8      1765.171    21105969.860    87505203.237 8      1765.171
G16  25095120.280   131875735.307 6      -947.347    25095117.980   131875735.317 3      -947.347    25095133.460   102760348.655 3      -738.193
R24  21030867.440   112461499.420 7      3665.649    21030866.960   112461499.421 7      3665.649    21030877.880    87470101.098 7      2851.060    21030878.260    87470101.098 8      2851.060
G21  21234715.620   111589176.859 8      1508.109    21234714.180   111589176.861 6      1508.109    21234717.860    86952618.874 6      1175.150
G32  24753040.220   130078105.756 6      2389.813    24753039.520   130078105.764 6      2389.813    24753053.380   101359619.659 6      1862.192    24753054.380   101359623.666 7      1862.192
R01  20860813.900   111513009.790 7      5938.964    20860813.640   111513009.794 7      5938.964    20860828.060    86732398.980 7      4619.194    20860827.420    86732392.973 7      4619.194
R08  21055584.340   112751698.606 7      2093.273    21055585.320   112751698.640 7      2093.273    21055597.500    87695814.231 8      1628.101    21055597.160    87695813.234 8      1628.101
G14  23092519.080   121352011.814 7      5191.188    23092518.100   121352011.829 5      5191.188    23092526.540    94560035.912 5      4045.082    23092527.380    94560040.912 7      4045.082
G27  23018892.900   120965096.459 7       287.358    23018892.260   120965096.463 7       287.358    23018903.160    94258552.835 6       223.915    23018903.340    94258555.835 7       223.915
G08  20775008.660   109173404.465 8      1742.455    20775007.020   109173404.470 7      1742.455    20775014.580    85070234.003 7      1357.757    20775015.720    85070216.007 8      1357.757
G02  21340155.600   112143288.543 7      2428.751    21340153.960   112143288.550 6      2428.751    21340156.900    87384402.080 6      1892.533
G03  21150803.280   111148217.402 7      5385.512    21150802.160   111148217.405 6      5385.512    21150810.040    86609036.548 6      4196.503    21150810.780    86609036.553 8      4196.503
> 2024 06 03 12 59 50.0000000  0 13
R23  21390538.580   114424947.424 6      1657.383    21390536.340   114424947.415 6      1657.383
R14  21105535.440   112504377.853 8      2268.976    21105532.780   112504377.849 7      2268.976    21105543.640    87503436.339 8      1764.759    21105544.220    87503438.343 8      1764.759
G16  25095300.460   131876682.619 6      -947.198    25095298.320   131876682.629 3      -947.198    25095313.760   102761086.814 3      -738.077
R24  21030181.840   112457833.711 7      3665.873    21030181.380   112457833.713 7      3665.873    21030192.300    87467249.993 8      2851.234    21030192.600    87467249.994 8      2851.234
G21  21234428.680   111587668.700 8      1508.286    21234427.180   111587668.705 6      1508.286    21234430.900    86951443.688 6      1175.288
G32  24752585.620   130075716.352 6      2389.331    24752584.840   130075716.357 6      2389.331    24752598.700   101357757.787 6      1861.816    24752599.680   101357761.792 7      1861.816
R01  20859702.640   111507070.824 7      5938.898    20859702.660   111507070.833 7      5938.898    20859717.020    86727779.792 7      4619.143    20859716.260    86727773.785 7      4619.143
R08  21055193.680   112749605.659 7      2092.625    21055193.980   112749605.691 7      2092.625    21055206.480    87694186.390 8      1627.597    21055206.300    87694185.393 8      1627.597
G14  23091531.340   121346820.753 7      5191.031    23091530.200   121346820.763 5      5191.031    23091538.700    94555990.934 5      4044.959    23091539.420    94555995.934 7      4044.959
G27  23018838.340   120964809.055 7       287.441    23018837.680   120964809.060 6       287.441    23018848.480    94258328.875 6       223.980    23018848.660    94258331.870 7       223.980
G08  20774676.940   109171662.089 7      1742.353    20774675.500   109171662.097 8      1742.353    20774682.960    85068876.312 8      1357.677    20774684.180    85068858.314 8      1357.677
G02  21339693.420   112140859.671 7      2428.939    21339691.800   112140859.676 6      2428.939    21339694.580    87382509.451 6      1892.680
G03  21149778.380   111142831.966 7      5385.378    21149777.240   111142831.968 6      5385.378    21149785.080    86604840.106 6      4196.398    21149785.940    86604840.111 8      4196.398
> 2024 06 03 12 59 51.0000000  0 13
R23  21390228.600   114423290.098 6      1657.321    21390226.540   114423290.102 6      1657.321
R14  21105110.180   112502109.467 8      2267.886    21105107.240   112502109.470 7      2267.886    21105118.280    87501672.043 8      1763.911    21105118.640    87501674.043 8      1763.911
G16  25095479.840   131877629.836 6      -947.472    25095478.520   131877629.844 3      -947.472    25095493.840   102761824.897 3      -738.290
R24  21029496.300   112454167.976 7      3665.651    21029495.680   112454167.980 7      3665.651    21029506.920    87464398.868 8      2851.062    21029507.140    87464398.866 8      2851.062
G21  21234141.580   111586160.521 8      1508.103    21234140.160   111586160.526 6      1508.103    21234143.960    86950268.483 6      1175.145
G32  24752130.840   130073327.318 6      2388.705    24752130.280   130073327.326 6      2388.705    24752144.080   101355896.205 6      1861.328    24752144.960   101355900.212 7      1861.328
R01  20858591.980   111501132.341 7      5938.171    20858592.020   111501132.350 7      5938.171    20858606.080    86723160.985 7      4618.578    20858605.400    86723154.980 7      4618.578
R08  21054803.000   112747513.479 7      2091.762    21054803.480   112747513.513 7      2091.762    21054815.840    87692559.138 8      1626.926    21054815.760    87692558.141 8      1626.926
G14  23090543.760   121341630.002 7      5190.511    23090542.400   121341630.013 5      5190.511    23090550.960    94551946.197 5      4044.554    23090551.580    94551951.205 7      4044.554
G27  23018783.840   120964521.865 7       287.003    23018783.100   120964521.880 6       287.003    23018793.780    94258105.090 6       223.639    23018794.380    94258108.085 7       223.639
G08  20774345.440   109169920.032 8      1741.809    20774343.920   109169920.040 8      1741.809    20774351.420    85067518.865 7      1357.254    20774352.660    85067500.866 8      1357.254
G02  21339231.120   112138430.812 7      2428.764    21339229.540   112138430.814 6      2428.764    21339232.540    87380616.831 6      1892.543
G03  21148753.380   111137446.944 7      5384.742    21148752.660   111137446.944 6      5384.742    21148760.340    86600643.988 6      4195.903    21148761.180    86600643.996 8      4195.903
> 2024 06 03 12 59 52.0000000  0 13
R23  21389918.520   114421632.875 6      1656.939    21389917.080   114421632.873 6      1656.939
R14  21104684.540   112499841.926 8      2267.027    21104681.700   112499841.926 7      2267.027    21104692.940    87499908.398 8      1763.244    21104693.120    87499910.402 8      1763.244
G16  25095660.180   131878576.970 6      -947.272    25095658.860   131878576.975 3      -947.272    25095673.940   102762562.917 3      -738.134
R24  21028810.820   112450502.251 7      3665.642    21028810.460   112450502.255 7      3665.642    21028821.480    87461547.753 8      2851.055    21028821.560    87461547.755 7      2851.055
G21  21233854.580   111584652.436 8      1507.927    21233853.020   111584652.444 6      1507.927    21233857.040    86949093.354 6      1175.008
G32  24751676.260   130070938.828 6      2387.966    24751675.820   130070938.836 6      2387.966    24751689.720   101354035.048 6      1860.752    24751690.140   101354039.057 7      1860.752
R01  20857481.400   111495194.369 7      5937.460    20857480.900   111495194.373 7      5937.460    20857495.320    86718542.568 7      4618.024    20857494.340    86718536.561 7      4618.024
R08  21054412.140   112745422.168 7      2090.726    21054412.840   112745422.202 7      2090.726    21054425.320    87690932.568 8      1626.121    21054425.140    87690931.570 8      1626.121
G14  23089555.960   121336439.741 7      5189.896    23089554.760   121336439.759 5      5189.896    23089563.420    94547901.845 5      4044.075    23089563.780    94547906.858 7      4044.075
G27  23018729.140   120964234.940 7       286.699    23018728.520   120964234.945 6       286.699    23018739.120    94257881.502 6       223.402    23018739.880    94257884.497 7       223.402
G08  20774014.020   109168178.358 7      1741.354    20774012.520   109168178.366 7      1741.354    20774019.980    85066161.717 8      1356.899    20774021.380    85066143.718 8      1356.899
G02  21338769.240   112136002.084 7      2428.578    21338767.380   112136002.089 6      2428.578    21338770.280    87378724.320 6      1892.399
G03  21147728.500   111132062.380 7      5384.223    21147728.100   111132062.383 6      5384.223    21147735.740    86596448.230 6      4195.498    21147736.600    86596448.236 8      4195.498
> 2024 06 03 12 59 53.0000000  0 13
R23  21389608.880   114419975.771 6      1657.176    21389607.560   114419975.775 6      1657.176
R14  21104259.420   112497575.261 8      2266.405    21104256.740   112497575.259 7      2266.405    21104267.720    87498145.434 8      1762.759    21104268.020    87498147.442 8      1762.759
G16  25095841.040   131879524.219 6      -947.187    25095839.040   131879524.226 3      -947.187    25095854.080   102763301.027 3      -738.068
R24  21028125.260   112446836.618 7      3665.697    21028124.840   112446836.624 7      3665.697    21028135.940    87458696.708 7      2851.098    21028136.200    87458696.713 7      2851.098
G21  21233567.740   111583144.530 8      1507.964    21233566.240   111583144.537 6      1507.964    21233570.160    86947918.360 6      1175.037
G32  24751221.880   130068550.935 6      2387.652    24751221.560   130068550.940 6      2387.652    24751235.540   101352174.356 6      1860.508    24751235.880   101352178.365 7      1860.508
R01  20856370.740   111489256.985 7      5937.269    20856370.820   111489256.986 7      5937.269    20856384.860    86713924.601 7      4617.876    20856383.560    86713918.585 7      4617.876
R08  21054021.480   112743331.829 7      2090.069    21054022.560   112743331.866 7      2090.069    21054035.060    87689306.751 8      1625.609    21054034.620    87689305.753 8      1625.609
G14  23088568.640   121331249.980 7      5189.665    23088567.280   121331249.993 5      5189.665    23088575.820    94543857.881 5      4043.895    23088576.360    94543862.881 7      4043.895
G27  23018674.980   120963948.409 7       286.555    23018673.940   120963948.414 6       286.555    23018684.560    94257658.227 6       223.289    23018685.220    94257661.229 7       223.289
G08  20773682.640   109166437.184 7      1741.099    20773681.260   109166437.191 8      1741.099    20773688.720    85064804.957 8      1356.701    20773690.020    85064786.956 8      1356.701
G02  21338307.180   112133573.553 7      2428.600    21338305.300   112133573.558 6      2428.600    21338308.060    87376831.957 6      1892.416
G03  21146704.020   111126678.376 7      5383.920    21146703.540   111126678.378 6      5383.920    21146711.180    86592252.910 6      4195.262    21146712.140    86592252.914 8      4195.262
> 2024 06 03 12 59 54.0000000  0 13
R23  21389298.560   114418318.593 6      1657.156    21389297.780   114418318.610 6      1657.156
R14  21103834.440   112495309.369 8      2265.378    21103831.500   112495309.367 7      2265.378    21103842.540    87496383.074 8      1761.961    21103842.980    87496385.080 8      1761.961
G16  25096021.720   131880471.323 6      -947.038    25096019.340   131880471.331 3      -947.038    25096034.380   102764039.024 3      -737.951
R24  21027439.860   112443170.896 7      3665.684    21027439.360   112443170.905 7      3665.684    21027450.540    87455845.595 7      2851.088    21027450.680    87455845.600 7      2851.088
G21  21233280.680   111581636.592 8      1507.918    21233279.260   111581636.595 6      1507.918    21233283.260    86946743.344 6      1175.001
G32  24750767.360   130066163.425 6      2387.235    24750767.380   130066163.428 6      2387.235    24750781.460   101350313.955 6      1860.183    24750781.640   101350317.964 7      1860.183
R01  20855259.960   111483320.036 7      5936.619    20855259.660   111483320.043 7      5936.619    20855274.200    86709306.987 7      4617.370    20855272.960    86709300.977 7      4617.370
R08  21053631.700   112741242.273 7      2089.129    21053632.320   112741242.304 7      2089.129    21053644.880    87687681.534 8      1624.878    21053644.580    87687680.534 8      1624.878
G14  23087581.260   121326060.607 7      5189.035    23087579.820   121326060.619 5      5189.035    23087588.220    94539814.219 5      4043.404    23087588.660    94539819.221 7      4043.404
G27  23018620.600   120963662.026 7       286.280    23018619.320   120963662.031 6       286.280    23018630.060    94257435.065 6       223.076    23018630.440    94257438.062 7       223.076
G08  20773351.240   109164696.267 8      1740.770    20773350.100   109164696.274 7      1740.770    20773357.480    85063448.402 7      1356.444    20773358.840    85063430.406 8      1356.444
G02  21337844.820   112131145.049 7      2428.442    21337843.320   112131145.054 6      2428.442    21337846.140    87374939.620 6      1892.292
G03  21145679.680   111121294.797 7      5383.353    21145678.940   111121294.799 6      5383.353    21145686.840    86588057.911 6      4194.821    21145687.640    86588057.911 8      4194.821
> 2024 06 03 12 59 55.0000000  0 13
R23  21388988.940   114416661.698 6      1656.922    21388987.880   114416661.710 6      1656.922
R14  21103409.660   112493044.555 8      2264.542    21103406.720   112493044.552 7      2264.542    21103417.820    87494621.547 8      1761.311    21103418.000    87494623.551 8      1761.311
G16  25096202.080   131881418.617 6      -947.200    25096199.660   131881418.627 3      -947.200    25096214.660   102764777.165 3      -738.078
R24  21026754.140   112439505.548 7      3665.417    21026753.740   112439505.555 7      3665.417    21026765.040    87452994.771 7      2850.880    21026765.260    87452994.774 7      2850.880
G21  21232993.800   111580128.980 8      1507.738    21232992.320   111580128.985 6      1507.738    21232996.280    86945568.581 6      1174.861
G32  24750313.200   130063776.620 6      2386.585    24750313.100   130063776.622 6      2386.585    24750327.280   101348454.108 6      1859.676    24750327.540   101348458.121 7      1859.676
R01  20854149.300   111477383.804 7      5936.108    20854149.480   111477383.805 7      5936.108    20854163.540    86704689.917 7      4616.973    20854162.260    86704683.912 7      4616.973
R08  21053241.640   112739153.768 7      2088.176    21053242.400   112739153.799 7      2088.176    21053254.760    87686057.139 8      1624.137    21053254.580    87686056.142 8      1624.137
G14  23086593.740   121320871.934 7      5188.640    23086592.260   121320871.945 5      5188.640    23086600.940    94535771.102 5      4043.096    23086601.500    94535776.100 7      4043.096
G27  23018566.160   120963376.112 7       285.939    23018565.100   120963376.112 6       285.939    23018575.660    94257212.263 6       222.809    23018576.060    94257215.258 7       222.809
G08  20773020.160   109162955.970 7      1740.193    20773018.800   109162955.972 8      1740.193    20773026.180    85062092.325 8      1355.995    20773027.800    85062074.328 8      1355.995
G02  21337382.960   112128716.931 7      2428.135    21337381.280   112128716.939 6      2428.135    21337384.080    87373047.580 6      1892.053
G03  21144655.180   111115911.938 7      5382.765    21144654.540   111115911.940 6      5382.765    21144662.620    86583863.478 6      4194.362    21144663.480    86583863.482 8      4194.362
> 2024 06 03 12 59 56.0000000  0 13
R23  21388678.860   114415004.918 6      1656.660    21388677.320   114415004.936 6      1656.660
R14  21102985.000   112490780.499 8      2263.709    21102981.920   112490780.497 7      2263.709    21102993.080    87492860.614 8      1760.663    21102993.420    87492862.617 8      1760.663
G16  25096382.360   131882365.827 6      -947.261    25096379.960   131882365.839 3      -947.261    25096394.920   102765515.244 3      -738.126
R24  21026068.640   112435840.275 7      3665.317    21026068.620   112435840.279 7      3665.317    21026079.840    87450144.004 8      2850.802    21026079.800    87450144.004 7      2850.802
G21  21232706.920   111578621.497 7      1507.425    21232705.640   111578621.502 6      1507.425    21232709.360    86944393.919 6      1174.617
G32  24749858.980   130061390.424 6      2385.708    24749858.880   130061390.434 6      2385.708    24749873.120   101346594.741 6      1858.993    24749873.500   101346598.748 7      1858.993
R01  20853039.060   111471448.101 7      5935.334    20853039.180   111471448.108 7      5935.334    20853052.960    86700073.263 7      4616.371    20853052.060    86700067.254 7      4616.371
R08  21052851.760   112737066.182 7      2087.188    21052852.720   112737066.208 7      2087.188    21052865.080    87684433.457 8      1623.368    21052864.620    87684432.459 8      1623.368
G14  23085606.300   121315683.743 7      5187.957    23085604.940   121315683.750 5      5187.957    23085613.580    94531728.357 5      4042.564    23085614.280    94531733.357 7      4042.564
G27  23018511.640   120963090.493 7       285.395    23018510.740   120963090.493 7       285.395    23018521.180    94256989.694 6       222.386    23018521.720    94256992.696 7       222.386
G08  20772689.120   109161216.075 7      1739.654    20772687.800   109161216.077 8      1739.654    20772695.120    85060736.567 8      1355.574    20772696.580    85060718.568 8      1355.574
G02  21336920.880   112126288.921 7      2428.016    21336919.200   112126288.928 6      2428.016    21336922.040    87371155.624 6      1891.960
G03  21143630.860   111110529.478 7      5382.181    21143630.380   111110529.483 6      5382.181    21143638.240    86579669.359 6      4193.907    21143638.960    86579669.362 8      4193.907
> 2024 06 03 12 59 57.0000000  0 13
R23  21388369.060   114413348.363 6      1656.489    21388368.420   114413348.383 6      1656.489
R14  21102560.540   112488517.548 8      2262.414    21102557.460   112488517.548 8      2262.414    21102568.600    87491100.542 8      1759.655    21102568.820    87491102.548 8      1759.655
G16  25096562.700   131883313.307 6      -947.662    25096560.440   131883313.322 3      -947.662    25096575.160   102766253.534 3      -738.438
R24  21025383.180   112432175.256 7      3664.989    21025383.040   112432175.268 7      3664.989    21025394.140    87447293.444 8      2850.547    21025394.600    87447293.444 8      2850.547
G21  21232420.080   111577114.274 8      1507.160    21232418.780   111577114.279 6      1507.160    21232422.700    86943219.461 6      1174.410
G32  24749404.980   130059004.845 6      2385.335    24749404.920   130059004.850 6      2385.335    24749419.160   101344735.853 6      1858.702    24749419.980   101344739.853 7      1858.702
R01  20851928.600   111465513.128 7      5934.678    20851928.660   111465513.132 7      5934.678    20851942.640    86695457.179 7      4615.860    20851941.760    86695451.172 7      4615.860
R08  21052462.540   112734979.637 7      2086.111    21052462.820   112734979.671 7      2086.111    21052475.380    87682810.597 8      1622.531    21052474.980    87682809.600 8      1622.531
G14  23084619.160   121310496.164 7      5187.318    23084617.700   121310496.171 5      5187.318    23084626.520    94527686.092 5      4042.066    23084627.060    94527691.100 7      4042.066
G27  23018457.400   120962805.331 7       285.068    23018456.420   120962805.336 6       285.068    23018466.820    94256767.490 6       222.131    23018467.660    94256770.488 7       222.131
G08  20772357.960   109159476.758 8      1739.117    20772356.860   109159476.765 8      1739.117    20772364.200    85059381.259 8      1355.156    20772365.340    85059363.262 8      1355.156
G02  21336458.940   112123861.247 7      2427.588    21336457.200   112123861.254 6      2427.588    21336459.860    87369263.932 6      1891.627
G03  21142606.900   111105147.781 7      5381.320    21142606.220   111105147.783 6      5381.320    21142614.160    86575475.833 6      4193.236    21142615.020    86575475.837 8      4193.236
> 2024 06 03 12 59 58.0000000  0 13
R23  21388059.640   114411691.942 6      1656.002    21388058.500   114411691.949 6      1656.002
R14  21102136.000   112486255.443 8      2261.418    21102133.120   112486255.438 7      2261.418    21102144.280    87489341.123 8      1758.881    21102144.380    87489343.125 8      1758.881
G16  25096743.060   131884260.753 6      -947.683    25096740.760   131884260.766 3      -947.683    25096755.420   102766991.796 3      -738.454
R24  21024697.940   112428510.307 7      3664.604    21024697.780   112428510.322 7      3664.604    21024708.760    87444442.930 8      2850.248    21024708.960    87444442.930 8      2850.248
G21  21232133.440   111575607.183 8      1506.718    21232131.980   111575607.188 6      1506.718    21232135.880    86942045.104 6      1174.066
G32  24748951.220   130056619.876 6      2384.336    24748950.900   130056619.881 6      2384.336    24748965.100   101342877.433 6      1857.924    24748965.720   101342881.436 7      1857.924
R01  20850818.400   111459578.716 7      5933.857    20850818.520   111459578.730 7      5933.857    20850832.440    86690841.538 7      4615.222    20850831.560    86690835.529 7      4615.222
R08  21052072.800   112732894.027 7      2084.782    21052073.100   112732894.063 7      2084.782    21052085.980    87681188.458 8      1621.497    21052085.560    87681187.461 8      1621.497
G14  23083632.080   121305309.094 7      5186.585    23083630.660   121305309.107 5      5186.585    23083639.560    94523644.230 5      4041.495    23083639.860    94523649.232 7      4041.495
G27  23018403.220   120962520.511 7       284.396    23018402.360   120962520.519 6       284.396    23018412.720    94256545.546 6       221.607    23018413.180    94256548.544 7       221.607
G08  20772027.200   109157737.901 7      1738.366    20772025.980   109157737.903 8      1738.366    20772033.260    85058026.299 8      1354.571    20772034.460    85058008.305 8      1354.571
G02  21335997.020   112121433.733 8      2427.149    21335995.180   112121433.738 6      2427.149    21335998.020    87367372.365 6      1891.285
G03  21141582.780   111099766.582 7      5380.657    21141582.280   111099766.585 6      5380.657    21141590.100    86571282.695 6      4192.720    21141591.060    86571282.694 8      4192.720
> 2024 06 03 12 59 59.0000000  0 13
R23  21387750.000   114410035.817 6      1656.040    21387748.860   114410035.821 6      1656.040
R14  21101711.820   112483994.453 8      2260.447    21101709.020   112483994.451 8      2260.447    21101719.900    87487582.575 8      1758.125    21101720.380    87487584.577 8      1758.125
G16  25096923.480   131885208.470 6      -947.715    25096921.080   131885208.485 3      -947.715    25096935.600   102767730.270 3      -738.479
R24  21024012.740   112424845.662 7      3664.462    21024012.420   112424845.669 7      3664.462    21024023.600    87441592.644 7      2850.137    21024023.620    87441592.647 8      2850.137
G21  21231846.600   111574100.441 7      1506.646    21231845.260   111574100.445 6      1506.646    21231849.160    86940871.017 6      1174.010
G32  24748497.860   130054235.693 6      2383.779    24748497.320   130054235.698 6      2383.779    24748511.520   101341019.628 6      1857.490    24748511.800   101341023.631 7      1857.490
R01  20849708.240   111453645.121 7      5933.170    20849708.460   111453645.144 7      5933.170    20849722.720    86686226.531 7      4614.688    20849721.580    86686220.525 7      4614.688
R08  21051683.720   112730809.576 7      2084.041    21051683.860   112730809.610 7      2084.041    21051696.800    87679567.216 8      1620.921    21051696.460    87679566.219 8      1620.921
G14  23082645.140   121300122.745 7      5186.086    23082643.800   121300122.758 5      5186.086    23082652.680    94519602.920 5      4041.106    23082653.020    94519607.925 7      4041.106
G27  23018348.900   120962236.253 7       284.017    23018348.300   120962236.255 6       284.017    23018358.720    94256324.040 7       221.312    23018359.020    94256327.034 7       221.312
G08  20771696.420   109155999.708 7      1737.919    20771695.300   109155999.719 8      1737.919    20771702.480    85056671.870 8      1354.223    20771703.820    85056653.871 8      1354.223
G02  21335534.980   112119006.606 7      2426.996    21335533.480   112119006.611 6      2426.996    21335536.200    87365481.094 6      1891.165
G03  21140558.860   111094386.151 7      5380.072    21140558.580   111094386.151 6      5380.072    21140566.180    86567090.152 6      4192.264    21140566.880    86567090.154 8      4192.264
> 2024 06 03 13 00  0.0000000  0 13
R23  21387440.340   114408379.773 6      1656.030    21387439.520   114408379.791 6      1656.030
R14  21101287.740   112481734.292 8      2259.745    21101284.980   112481734.292 7      2259.745    21101296.040    87485824.674 8      1757.579    21101296.320    87485826.680 8      1757.579
G16  25097103.560   131886156.160 6      -947.648    25097101.480   131886156.170 3      -947.648    25097116.020   102768468.724 3      -738.427
R24  21023327.600   112421181.074 7      3664.568    21023327.300   112421181.086 7      3664.568    21023338.240    87438742.415 7      2850.220    21023338.480    87438742.418 8      2850.220
G21  21231559.760   111572593.803 8      1506.624    21231558.680   111572593.811 6      1506.624    21231562.280    86939697.015 6      1173.992
G32  24748044.400   130051852.004 6      2383.394    24748043.560   130051852.006 6      2383.394    24748057.920   101339162.208 6      1857.190    24748058.520   101339166.219 7      1857.190
R01  20848598.120   111447712.019 7      5932.731    20848598.880   111447712.047 7      5932.731    20848612.800    86681611.908 7      4614.346    20848611.620    86681605.903 7      4614.346
R08  21051294.260   112728726.025 7      2083.162    21051294.380   112728726.064 7      2083.162    21051307.680    87677946.678 8      1620.237    21051307.360    87677945.681 8      1620.237
G14  23081658.140   121294936.884 7      5185.771    23081657.040   121294936.894 5      5185.771    23081665.820    94515561.996 5      4040.860    23081666.000    94515566.996 7      4040.860
G27  23018294.920   120961952.245 7       283.875    23018294.220   120961952.250 6       283.875    23018304.480    94256102.727 6       221.202    23018305.600    94256105.720 7       221.202
G08  20771365.740   109154261.905 7      1737.645    20771364.600   109154261.910 8      1737.645    20771371.800    85055317.735 8      1354.009    20771373.000    85055299.739 8      1354.009
G02  21335073.300   112116579.610 8      2427.035    21335071.560   112116579.617 6      2427.035    21335074.460    87363589.929 6      1891.196
G03  21139535.200   111089006.206 7      5379.619    21139534.740   111089006.214 6      5379.619    21139542.340    86562897.991 6      4191.911    21139543.240    86562897.995 8      4191.911
> 2024 06 03 13 00  1.0000000  0 13
R23  21387130.600   114406723.699 6      1655.935    21387129.680   114406723.722 6      1655.935
R14  21100863.800   112479474.856 8      2258.830    21100861.160   112479474.861 7      2258.830    21100872.120    87484067.335 8      1756.868    21100872.340    87484069.339 8      1756.868
G16  25097283.440   131887103.740 6      -947.642    25097281.720   131887103.745 3      -947.642    25097296.440   102769207.090 3      -738.422
R24  21022642.480   112417516.470 7      3664.427    21022641.880   112417516.476 7      3664.427    21022652.880    87435892.165 7      2850.110    21022653.080    87435892.166 8      2850.110
G21  21231273.300   111571087.166 8      1506.460    21231271.880   111571087.174 6      1506.460    21231275.720    86938523.014 6      1173.865
G32  24747591.140   130049468.777 6      2382.788    24747590.200   130049468.784 6      2382.788    24747604.360   101337305.152 6      1856.718    24747604.940   101337309.155 7      1856.718
R01  20847488.300   111441779.347 7      5932.291    20847488.860   111441779.364 7      5932.291    20847502.600    86676997.610 7      4614.004    20847501.940    86676991.600 7      4614.004
R08  21050904.900   112726643.237 7      2082.289    21050905.760   112726643.262 7      2082.289    21050918.820    87676326.720 8      1619.558    21050918.560    87676325.722 8      1619.558
G14  23080671.180   121289751.378 7      5185.189    23080670.240   121289751.388 5      5185.189    23080679.180    94511521.342 5      4040.407    23080679.260    94511526.346 7      4040.407
G27  23018240.860   120961668.444 7       283.545    23018240.200   120961668.443 6       283.545    23018250.720    94255881.575 6       220.945    23018251.100    94255884.571 7       220.945
G08  20771035.200   109152524.420 7      1737.126    20771033.960   109152524.422 8      1737.126    20771041.140    85053963.848 8      1353.605    20771042.440    85053945.850 8      1353.605
G02  21334611.500   112114152.674 8      2426.691    21334609.760   112114152.681 6      2426.691    21334612.620    87361698.812 6      1890.928
G03  21138511.680   111083626.642 7      5379.138    21138511.140   111083626.644 6      5379.138    21138518.760    86558706.127 6      4191.536    21138519.640    86558706.125 8      4191.536
> 2024 06 03 13 00  2.0000000  0 13
R23  21386820.800   114405067.834 6      1655.957    21386820.020   114405067.846 6      1655.957
R14  21100440.240   112477216.368 8      2258.166    21100437.600   112477216.369 7      2258.166    21100448.380    87482310.730 8      1756.351    21100448.660    87482312.735 8      1756.351
G16  25097464.100   131888051.405 6      -947.518    25097462.000   131888051.409 3      -947.518    25097476.800   102769945.520 3      -738.326
R24  21021957.040   112413852.034 7      3664.463    21021956.620   112413852.043 7      3664.463    21021967.560    87433042.051 7      2850.138    21021967.980    87433042.053 8      2850.138
G21  21230986.620   111569580.742 8      1506.481    21230985.160   111569580.747 6      1506.481    21230989.040    86937349.175 6      1173.881
G32  24747137.860   130047086.170 6      2382.474    24747136.820   130047086.177 6      2382.474    24747151.120   101335448.577 6      1856.473    24747151.780   101335452.580 7      1856.473
R01  20846378.840   111435847.308 7      5931.917    20846379.040   111435847.320 7      5931.917    20846393.160    86672383.800 7      4613.714    20846392.080    86672377.794 7      4613.714
R08  21050515.940   112724561.402 7      2081.548    21050516.600   112724561.430 7      2081.548    21050529.960    87674707.519 8      1618.982    21050529.740    87674706.521 8      1618.982
G14  23079684.600   121284566.442 7      5184.885    23079683.600   121284566.457 5      5184.885    23079692.540    94507481.140 5      4040.170    23079692.600    94507486.144 7      4040.170
G27  23018187.040   120961385.042 7       283.321    23018186.300   120961385.045 6       283.321    23018196.740    94255660.739 6       220.769    23018197.260    94255663.738 7       220.769
G08  20770704.840   109150787.433 7      1736.948    20770703.500   109150787.438 8      1736.948    20770710.660    85052610.350 8      1353.466    20770711.740    85052592.358 8      1353.466
G02  21334149.780   112111725.956 7      2426.770    21334147.980   112111725.964 6      2426.770    21334150.980    87359807.863 6      1890.989
G03  21137488.260   111078247.654 7      5378.902    21137487.420   111078247.658 6      5378.902    21137495.180    86554514.711 6      4191.352    21137496.060    86554514.714 8      4191.352
> 2024 06 03 13 00  3.0000000  0 13
R23  21386511.500   114403411.830 6      1656.103    21386511.080   114403411.832 6      1656.103
R14  21100016.860   112474958.654 8      2257.309    21100013.900   112474958.654 7      2257.309    21100024.860    87480554.729 8      1755.685    21100025.540    87480556.733 8      1755.685
G16  25097644.280   131888998.901 6      -947.482    25097642.400   131888998.908 3      -947.482    25097657.140   102770683.820 3      -738.298
R24  21021271.400   112410187.531 7      3664.472    21021271.540   112410187.538 7      3664.472    21021282.200    87430191.886 8      2850.145    21021282.440    87430191.888 7      2850.145
G21  21230699.800   111568074.268 7      1506.489    21230698.420   111568074.270 6      1506.489    21230702.300    86936175.301 6      1173.887
G32  24746684.620   130044703.910 6      2382.100    24746683.240   130044703.912 6      2382.100    24746697.680   101333592.269 6      1856.182    24746698.720   101333596.274 7      1856.182
R01  20845269.140   111429915.623 7      5931.415    20845269.760   111429915.632 7      5931.415    20845283.660    86667770.268 7      4613.322    20845283.000    86667764.259 7      4613.322
R08  21050127.700   112722480.284 7      2080.715    21050128.500   112722480.321 7      2080.715    21050141.240    87673088.876 8      1618.334    21050141.200    87673087.879 8      1618.334
G14  23078698.240   121279381.900 7      5184.456    23078696.960   121279381.913 5      5184.456    23078705.740    94503441.244 5      4039.836    23078706.220    94503446.242 7      4039.836
G27  23018133.240   120961101.728 7       283.174    23018132.300   120961101.735 7       283.174    23018142.860    94255439.972 6       220.655    23018143.640    94255442.972 7       220.655
G08  20770374.360   109149050.697 7      1736.522    20770373.040   109149050.704 8      1736.522    20770380.100    85051257.055 8      1353.134    20770381.360    85051239.057 8      1353.134
G02  21333688.020   112109299.286 7      2426.580    21333686.240   112109299.294 6      2426.580    21333689.080    87357916.953 6      1890.842
G03  21136464.440   111072869.091 7      5378.371    21136463.960   111072869.093 6      5378.371    21136471.820    86550323.627 6      4190.939    21136472.200    86550323.628 8      4190.939
> 2024 06 03 13 00  4.0000000  0 13
R23  21386202.420   114401755.874 6      1655.971    21386201.240   114401755.865 6      1655.971
R14  21099592.940   112472701.597 8      2256.544    21099590.340   112472701.603 7      2256.544    21099601.500    87478799.247 8      1755.090    21099601.620    87478801.251 8      1755.090
G16  25097824.980   131889946.344 6      -947.611    25097822.680   131889946.352 3      -947.611    25097837.360   102771422.080 3      -738.398
R24  21020586.180   112406522.977 7      3664.485    21020586.200   112406522.989 7      3664.485    21020597.060    87427341.686 7      2850.155    21020597.160    87427341.686 7      2850.155
G21  21230413.220   111566567.815 7      1506.378    21230411.820   111566567.822 6      1506.378    21230415.700    86935001.441 6      1173.801
G32  24746231.140   130042322.141 6      2381.430    24746229.880   130042322.144 6      2381.430    24746244.180   101331736.351 6      1855.659    24746245.240   101331740.364 7      1855.659
R01  20844159.680   111423984.394 7      5930.928    20844159.740   111423984.409 7      5930.928    20844173.980    86663157.103 7      4612.944    20844173.000    86663151.096 7      4612.944
R08  21049739.300   112720400.080 7      2079.694    21049739.960   112720400.122 7      2079.694    21049752.800    87671470.943 8      1617.540    21049752.560    87671469.946 8      1617.540
G14  23077711.740   121274197.684 7      5183.921    23077710.560   121274197.692 5      5183.921    23077718.980    94499401.597 5      4039.419    23077719.620    94499406.605 7      4039.419
G27  23018079.520   120960818.689 7       282.907    23018078.500   120960818.694 7       282.907    23018088.900    94255219.416 6       220.447    23018089.540    94255222.412 7       220.447
G08  20770043.760   109147314.325 7      1736.074    20770042.580   109147314.325 8      1736.074    20770049.700    85049904.037 8      1352.785    20770051.100    85049886.038 8      1352.785
G02  21333225.900   112106872.629 7      2426.528    21333224.400   112106872.634 6      2426.528    21333227.180    87356026.050 6      1890.801
G03  21135440.960   111067490.901 7      5377.865    21135440.500   111067490.903 6      5377.865    21135448.120    86546132.834 6      4190.544    21135448.880    86546132.834 8      4190.544
> 2024 06 03 13 00  5.0000000  0 13
R23  21385893.100   114400100.170 6      1655.569    21385892.160   114400100.158 6      1655.569
R14  21099170.120   112470445.701 8      2255.240    21099167.400   112470445.709 7      2255.240    21099178.180    87477044.657 8      1754.076    21099178.560    87477046.663 8      1754.076
G16  25098005.200   131890893.914 6      -947.545    25098003.140   131890893.919 3      -947.545    25098017.600   102772160.437 3      -738.347
R24  21019901.040   112402858.744 7      3664.171    21019900.960   112402858.751 7      3664.171    21019911.840    87424491.725 7      2849.911    21019912.080    87424491.725 7      2849.911
G21  21230126.740   111565061.682 7      1505.942    21230125.140   111565061.687 6      1505.942    21230129.080    86933827.827 6      1173.461
G32  24745777.740   130039941.064 6      2380.733    24745776.920   130039941.074 6      2380.733    24745791.120   101329880.972 6      1855.117    24745791.920   101329884.979 7      1855.117
R01  20843050.320   111418053.906 7      5930.051    20843050.380   111418053.917 7      5930.051    20843064.180    86658544.505 7      4612.262    20843063.340    86658538.494 7      4612.262
R08  21049351.060   112718320.893 7      2078.701    21049352.020   112718320.927 7      2078.701    21049364.460    87669853.790 8      1616.767    21049364.280    87669852.792 8      1616.767
G14  23076725.260   121269014.193 7      5183.077    23076724.160   121269014.198 5      5183.077    23076732.620    94495362.517 5      4038.761    23076733.480    94495367.524 7      4038.761
G27  23018025.580   120960536.105 7       282.292    23018024.860   120960536.112 6       282.292    23018035.180    94254999.212 6       219.968    23018036.120    94255002.210 7       219.968
G08  20769713.500   109145578.532 7      1735.398    20769712.340   109145578.534 8      1735.398    20769719.400    85048551.468 8      1352.258    20769720.840    85048533.470 8      1352.258
G02  21332764.320   112104446.348 8      2426.070    21332762.740   112104446.350 6      2426.070    21332765.660    87354135.441 6      1890.444
G03  21134417.700   111062113.444 7      5377.062    21134417.180   111062113.446 6      5377.062    21134424.820    86541942.610 6      4189.918    21134425.820    86541942.614 8      4189.918
> 2024 06 03 13 00  6.0000000  0 13
R23  21385583.440   114398444.634 6      1655.417    21385581.760   114398444.619 6      1655.417
R14  21098746.940   112468190.643 8      2254.626    21098744.360   112468190.644 7      2254.626    21098755.180    87475290.721 8      1753.598    21098755.400    87475292.723 8      1753.598
G16  25098184.940   131891841.554 6      -947.649    25098183.400   131891841.559 3      -947.649    25098198.000   102772898.854 3      -738.428
R24  21019215.780   112399194.653 7      3664.008    21019215.780   112399194.663 7      3664.008    21019226.560    87421641.881 8      2849.784    21019226.820    87421641.881 7      2849.784
G21  21229840.180   111563555.713 7      1505.784    21229838.640   111563555.720 6      1505.784    21229842.400    86932654.351 6      1173.338
G32  24745325.200   130037560.640 6      2380.110    24745323.840   130037560.645 6      2380.110    24745338.080   101328026.097 6      1854.631    24745339.080   101328030.100 7      1854.631
R01  20841941.320   111412123.981 7      5929.644    20841941.020   111412123.980 7      5929.644    20841955.020    86653932.342 7      4611.945    20841954.180    86653926.334 7      4611.945
R08  21048962.900   112716242.678 7      2077.694    21048963.580   112716242.712 7      2077.694    21048976.500    87668237.400 8      1615.985    21048976.260    87668236.403 8      1615.985
G14  23075738.960   121263831.199 7      5182.666    23075737.980   121263831.209 5      5182.666    23075746.320    94491323.829 5      4038.441    23075746.920    94491328.833 7      4038.441
G27  23017971.960   120960253.870 7       282.046    23017971.100   120960253.875 6       282.046    23017981.620    94254779.285 6       219.776    23017982.200    94254782.277 7       219.776
G08  20769383.160   109143843.217 7      1734.995    20769382.120   109143843.216 8      1734.995    20769389.220    85047199.275 8      1351.944    20769390.520    85047181.274 8      1351.944
G02  21332302.540   112102020.253 7      2425.878    21332301.020   112102020.258 6      2425.878    21332303.820    87352244.979 6      1890.294
G03  21133394.640   111056736.473 7      5376.653    21133393.960   111056736.476 6      5376.653    21133401.760    86537752.767 6      4189.600    21133402.540    86537752.773 8      4189.600
> 2024 06 03 13 00  7.0000000  0 13
R23  21385274.080   114396789.354 6      1655.372    21385272.640   114396789.350 6      1655.372
R14  21098324.340   112465936.626 8      2253.523    21098321.400   112465936.626 7      2253.523    21098332.360    87473537.598 8      1752.740    21098332.460    87473539.602 8      1752.740
G16  25098365.200   131892789.413 6      -947.760    25098363.840   131892789.418 3      -947.760    25098378.400   102773637.435 3      -738.514
R24  21018530.780   112395530.787 7      3663.862    21018530.700   112395530.799 7      3663.862    21018541.460    87418792.211 7      2849.670    21018541.520    87418792.213 8      2849.670
G21  21229553.720   111562050.045 8      1505.654    21229552.200   111562050.053 6      1505.654    21229555.860    86931481.105 6      1173.237
G32  24744871.980   130035180.995 6      2379.383    24744871.220   130035180.997 6      2379.383    24744885.460   101326171.828 6      1854.065    24744886.240   101326175.830 7      1854.065
R01  20840832.280   111406194.872 7      5928.775    20840831.760   111406194.886 7      5928.775    20840845.900    86649320.831 7      4611.270    20840844.860    86649314.826 7      4611.270
R08  21048575.120   112714165.603 7      2076.644    21048575.760   112714165.635 7      2076.644    21048588.600    87666621.896 8      1615.168    21048588.260    87666620.901 8      1615.168
G14  23074752.720   121258648.854 7      5182.079    23074751.760   121258648.859 5      5182.079    23074760.140    94487285.640 5      4037.984    23074760.900    94487290.640 7      4037.984
G27  23017918.480   120959972.200 7       281.593    23017917.460   120959972.205 6       281.593    23017927.920    94254559.798 6       219.423    23017928.500    94254562.802 7       219.423
G08  20769053.160   109142108.548 8      1734.450    20769052.020   109142108.550 8      1734.450    20769059.240    85045847.587 8      1351.520    20769060.520    85045829.590 8      1351.520
G02  21331840.980   112099594.476 7      2425.703    21331839.320   112099594.483 6      2425.703    21331842.240    87350354.766 6      1890.158
G03  21132371.560   111051360.259 7      5375.786    21132370.740   111051360.264 6      5375.786    21132378.660    86533563.515 6      4188.924    21132379.240    86533563.522 8      4188.924
> 2024 06 03 13 00  8.0000000  0 13
R23  21384964.080   114395134.155 6      1655.030    21384963.240   114395134.167 6      1655.030
R14  21097901.420   112463683.562 8      2252.746    21097898.800   112463683.562 8      2252.746    21097909.580    87471785.212 8      1752.136    21097910.020    87471787.215 8      1752.136
G16  25098545.920   131893737.306 6      -947.649    25098544.260   131893737.308 3      -947.649    25098558.720   102774376.047 3      -738.428
R24  21017845.520   112391867.070 7      3663.787    21017845.360   112391867.080 7      3663.787    21017856.400    87415942.653 8      2849.612    21017856.580    87415942.652 8      2849.612
G21  21229267.180   111560544.530 8      1505.491    21229265.600   111560544.535 6      1505.491    21229269.500    86930307.976 6      1173.110
G32  24744419.540   130032801.814 6      2378.879    24744418.740   130032801.817 6      2378.879    24744432.960   101324317.921 6      1853.672    24744433.300   101324321.924 7      1853.672
R01  20839723.120   111400266.295 7      5928.411    20839722.660   111400266.298 7      5928.411    20839736.920    86644709.711 7      4610.986    20839735.660    86644703.702 7      4610.986
R08  21048187.300   112712089.396 7      2075.761    21048187.600   112712089.430 7      2075.761    21048200.900    87665007.068 8      1614.481    21048200.640    87665006.071 8      1614.481
G14  23073766.560   121253467.095 7      5181.570    23073765.620   121253467.105 5      5181.570    23073774.280    94483247.916 5      4037.587    23073774.760    94483252.918 7      4037.587
G27  23017865.100   120959690.798 7       281.246    23017863.760   120959690.808 6       281.246    23017874.300    94254340.518 6       219.152    23017875.300    94254343.519 7       219.152
G08  20768723.280   109140374.276 8      1734.108    20768721.900   109140374.283 8      1734.108    20768729.220    85044496.208 8      1351.253    20768730.640    85044478.209 8      1351.253
G02  21331379.360   112097168.930 8      2425.504    21331377.820   112097168.935 6      2425.504    21331380.600    87348464.728 6      1890.003
G03  21131348.740   111045984.605 7      5375.465    21131347.840   111045984.613 6      5375.465    21131355.620    86529374.700 6      4188.674    21131356.260    86529374.704 8      4188.674
> 2024 06 03 13 00  9.0000000  0 13
R23  21684447.380   115997168.254 6      1655.037    21684447.020   115997168.263 6      1655.037
R14  21397271.720   114059496.101 8      2251.902    21397269.040   114059496.104 7      2251.902    21397280.100    88712972.744 8      1751.479    21397280.480    88712974.745 8      1751.479
G16  25398518.300   133470104.295 6      -947.819    25398516.800   133470104.299 3      -947.819    25398531.540   104002713.952 3      -738.561
R24  21316953.620   113991332.132 7      3663.656    21316953.480   113991332.138 7      3663.656    21316964.320    88659971.030 7      2849.511    21316964.580    88659971.037 7      2849.511
G21  21528773.500   113134460.673 8      1505.425    21528771.880   113134460.675 6      1505.425    21528775.680    88156736.136 6      1173.058
G32  25043759.960   131605845.637 6      2378.386    25043758.980   131605845.642 6      2378.386    25043773.220   102550066.356 6      1853.288    25043773.160   102550070.367 7      1853.288
R01  21138408.020   112996906.766 6      5927.748    21138406.920   112996906.772 7      5927.748    21138421.560    87886541.197 7      4610.470    21138420.420    87886535.187 7      4610.470
R08  21347592.580   114315391.269 7      2074.958    21347593.320   114315391.302 7      2074.958    21347606.220    88912019.635 8      1613.856    21347606.040    88912018.636 8      1613.856
G14  23372574.140   122823710.990 7      5181.224    23372573.060   122823711.000 5      5181.224    23372581.740    95706814.589 5      4037.317    23372582.000    95706819.595 7      4037.317
G27  23317604.240   122534830.053 7       280.958    23317602.840   122534830.060 6       280.958    23317613.340    95481721.749 6       218.928    23317614.380    95481724.749 7       218.928
G08  21068185.980   110714062.240 8      1733.702    21068184.660   110714062.244 7      1733.702    21068192.060    86270746.567 8      1350.937    21068193.380    86270728.571 8      1350.937
G02  21630710.700   113670165.965 7      2425.458    21630709.280   113670165.972 6      2425.458    21630712.000    88574176.707 6      1889.967
G03  21430119.300   112616034.857 7      5374.943    21430118.480   112616034.860 6      5374.943    21430126.320    87752790.483 6      4188.267    21430126.840    87752790.485 8      4188.267
