     3.05           OBSERVATION DATA    MIXED               RINEX VERSION / TYPE
TPS2RIN 1.0.28.3459 TPS-USER            20260427 162717 UTC PGM / RUN BY / DATE
Win64 build Jun 01, 2022 (c) Topcon Positioning Systems     COMMENT
SRC: 20240603_GUI21.tps                                     COMMENT
Observer            Agency                                  OBSERVER / AGENCY
O0M3X53SBGM         TPS HIPER_SR        4.8 HSR Jul,08,2022 REC # / TYPE / VERS
FW: 4.8 HSR Jul,08,2022 p3                                  COMMENT
SN: HiPer SR 1212-12575                                     COMMENT
000                 TPSHIPER_SR     NONE                    ANT # / TYPE
        1.8000        0.0000        0.0000                  ANTENNA: DELTA H/E/N
GUI21                                                       MARKER NAME
  5390609.9046 -1596048.4102  3007172.7839                  APPROX POSITION XYZ
  2024     6     3    12    30    6.0000000     GPS         TIME OF FIRST OBS
  2024     6     3    12    45    6.0000000     GPS         TIME OF LAST OBS
     1.000                                                  INTERVAL
   901 EPOCHS                                               COMMENT
G   12 C1C L1C D1C C1W L1W D1W C2W L2W D2W C2X L2X D2X      SYS / # / OBS TYPES
R   12 C1C L1C D1C C1P L1P D1P C2P L2P D2P C2C L2C D2C      SYS / # / OBS TYPES
    17                                                      # OF SATELLITES
   G02   901   901   901   901   901   901   901   901   901PRN / # OF OBS
           0     0     0                                    PRN / # OF OBS
   G03   901   901   901   901   901   901   901   901   901PRN / # OF OBS
         901   901   901                                    PRN / # OF OBS
   G08   901   901   901   901   901   901   901   901   901PRN / # OF OBS
         901   901   901                                    PRN / # OF OBS
   G10   901   901   901   901   901   901   901   901   901PRN / # OF OBS
         901   901   901                                    PRN / # OF OBS
   G14   901   901   901   901   901   901   901   901   901PRN / # OF OBS
         901   901   901                                    PRN / # OF OBS
   G16   190   190   190   185   185   185   184   184   184PRN / # OF OBS
           0     0     0                                    PRN / # OF OBS
   G21   901   901   901   901   901   901   901   901   901PRN / # OF OBS
           0     0     0                                    PRN / # OF OBS
   G27   901   901   901   901   901   901   901   901   901PRN / # OF OBS
         901   901   901                                    PRN / # OF OBS
   G32   901   901   901   901   901   901   901   901   901PRN / # OF OBS
         901   901   901                                    PRN / # OF OBS
   R01   899   899   899   899   899   899   899   899   899PRN / # OF OBS
         899   899   899                                    PRN / # OF OBS
   R07   901   901   901   901   901   901   901   901   901PRN / # OF OBS
         901   901   901                                    PRN / # OF OBS
   R08   901   901   901   901   901   901   901   901   901PRN / # OF OBS
         901   901   901                                    PRN / # OF OBS
   R13   580   580   580   575   575   575   575   575   575PRN / # OF OBS
         574   574   574                                    PRN / # OF OBS
   R14   901   901   901   901   901   901   901   901   901PRN / # OF OBS
         901   901   901                                    PRN / # OF OBS
   R22   500   500   500   500   500   500   500   500   500PRN / # OF OBS
         500   500   500                                    PRN / # OF OBS
   R23   901   901   901   901   901   901     0     0     0PRN / # OF OBS
           0     0     0                                    PRN / # OF OBS
   R24   901   901   901   901   901   901   901   901   901PRN / # OF OBS
         901   901   901                                    PRN / # OF OBS
G L1C                                                       SYS / PHASE SHIFT
G L1W -0.25000                                              SYS / PHASE SHIFT
G L2W  0.00000                                              SYS / PHASE SHIFT
G L2X  0.25000                                              SYS / PHASE SHIFT
R L1C                                                       SYS / PHASE SHIFT
R L1P -0.25000                                              SYS / PHASE SHIFT
R L2P -0.25000                                              SYS / PHASE SHIFT
R L2C                                                       SYS / PHASE SHIFT
  8 R01  1 R07  5 R08  6 R13 -2 R14 -7 R22 -3 R23  3 R24  2 GLONASS SLOT / FRQ #
                                                            GLONASS COD/PHS/BIS
               *** Undefined LeapSeconds ***                COMMENT
                                                            END OF HEADER
> 2024 06 03 12 30  6.0000000  0 16
G02  21309635.080   111982885.025 7      2714.428    21309633.360   111982885.033 6      2714.428    21309636.320    87259395.705 6      2115.139
R24  21371439.000   114282689.794 7      3782.504    21371438.680   114282689.801 7      3782.504    21371450.600    88886585.193 7      2941.948    21371450.560    88886582.189 7      2941.948
G16  23881488.620   125498066.209 5      -864.666    23881487.560   125498066.203 1      -864.666    23881498.040    97790739.040 1      -673.766
R22  23817915.240   127141653.511 7       671.038    23817916.540   127141653.512 7       671.038    23817932.060    98888017.055 6       521.919    23817932.160    98888018.054 6       521.919
G08  20580603.880   108151800.198 7      2394.213    20580602.660   108151800.201 8      2394.213    20580609.480    84274151.821 8      1865.620    20580610.520    84274156.824 8      1865.620
G32  24814151.300   130399241.113 6      3245.855    24814150.180   130399241.113 6      3245.855    24814165.280   101609857.563 6      2529.238    24814166.520   101609862.561 7      2529.238
G14  24076209.460   126521336.942 6      5859.279    24076207.680   126521336.949 3      5859.279    24076218.700    98588080.393 3      4565.672    24076220.240    98588092.414 7      4565.672
G21  20881597.580   109733521.745 7      1737.246    20881595.880   109733521.753 6      1737.246    20881599.820    85506656.610 6      1353.698
G03  22209356.520   116710953.023 6      6104.043    22209356.080   116710953.020 4      6104.043    22209364.880    90943638.051 4      4756.397    22209365.920    90943638.059 7      4756.397
G27  22301442.360   117194862.882 7       781.920    22301441.240   117194862.882 7       781.920    22301450.400    91320669.679 7       609.288    22301449.400    91320700.682 7       609.288
G10  24250312.980   127436251.951 6      -402.384    24250311.580   127436251.956 6      -402.384    24250324.540    99301024.797 6      -313.546    24250324.460    99301021.792 7      -313.546
R08  21110357.560   113045007.713 7      3616.146    21110356.840   113045007.747 7      3616.146    21110368.820    87923939.149 8      2812.558    21110368.360    87923939.153 8      2812.558
R01  22065107.220   117950645.239 5      6578.699    22065108.440   117950645.288 5      6578.699    22065124.240    91739462.467 5      5116.766    22065123.760    91739458.449 5      5116.766
R23  21057033.100   112640925.202 6      1729.265    21057032.360   112640925.201 6      1729.265
R14  21219550.460   113112142.801 7      3791.866    21219550.040   113112142.807 7      3791.866    21219560.360    87976154.655 7      2949.229    21219561.160    87976157.654 7      2949.229
R07  23094817.640   123628346.668 6       617.614    23094815.980   123628346.683 6       617.614    23094833.000    96155458.008 7       480.366    23094832.960    96155456.011 7       480.366
> 2024 06 03 12 30  7.0000000  0 16
G02  21309118.660   111980170.831 7      2713.815    21309116.800   111980170.838 6      2713.815    21309119.780    87257280.753 6      2114.661
R24  21370731.840   114278907.455 7      3782.026    21370731.560   114278907.467 7      3782.026    21370743.360    88883643.380 7      2941.576    21370743.100    88883640.369 7      2941.576
G16  23881654.240   125498931.458 5      -865.595    23881652.420   125498931.455 1      -865.595    23881662.720    97791413.244 1      -674.490
R22  23817789.760   127140982.516 7       670.792    23817791.080   127140982.512 7       670.792    23817806.160    98887495.163 6       521.727    23817806.320    98887496.158 6       521.727
G08  20580148.400   108149406.322 7      2393.439    20580147.120   108149406.327 8      2393.439    20580153.920    84272286.465 8      1865.017    20580154.860    84272291.465 8      1865.017
G32  24813533.680   130395995.687 7      3244.813    24813532.640   130395995.689 6      3244.813    24813547.720   101607328.664 6      2528.426    24813548.380   101607333.664 7      2528.426
G14  24075094.260   126515477.971 6      5858.542    24075093.020   126515477.979 3      5858.542    24075103.780    98583514.968 3      4565.098    24075105.300    98583526.983 7      4565.098
G21  20881266.860   109731784.762 8      1736.603    20881265.320   109731784.769 6      1736.603    20881269.080    85505303.114 6      1353.197
G03  22208195.300   116704849.299 6      6103.339    22208194.540   116704849.296 4      6103.339    22208203.500    90938881.911 4      4755.849    22208204.260    90938881.921 7      4755.849
G27  22301293.780   117194081.162 7       781.275    22301292.580   117194081.159 7       781.275    22301301.600    91320060.540 7       608.786    22301300.660    91320091.543 7       608.786
G10  24250389.560   127436654.611 6      -403.078    24250388.140   127436654.621 6      -403.078    24250401.260    99301338.554 6      -314.087    24250401.000    99301335.550 7      -314.087
R08  21109682.540   113041392.118 7      3614.948    21109681.840   113041392.151 7      3614.948    21109693.620    87921127.021 8      2811.626    21109693.140    87921127.021 8      2811.626
R01  22063876.320   117944066.533 5      6578.535    22063878.140   117944066.558 5      6578.535    22063892.920    91734345.685 5      5116.638    22063893.480    91734341.673 5      5116.638
R23  21056709.660   112639196.060 6      1728.739    21056708.500   112639196.074 6      1728.739
R14  21218839.840   113108351.465 7      3790.608    21218838.840   113108351.463 7      3790.608    21218849.040    87973205.834 7      2948.251    21218849.980    87973208.835 7      2948.251
R07  23094702.660   123627729.535 6       616.373    23094701.160   123627729.556 6       616.373    23094717.840    96154978.008 7       479.401    23094717.700    96154976.001 7       479.401
> 2024 06 03 12 30  8.0000000  0 16
G02  21308602.100   111977456.863 7      2713.984    21308600.240   111977456.873 6      2713.984    21308603.420    87255165.974 6      2114.793
R24  21370024.480   114275125.255 7      3782.226    21370024.000   114275125.272 7      3782.226    21370036.020    88880701.677 7      2941.731    21370035.680    88880698.662 7      2941.731
G16  23881819.380   125499796.818 5      -865.341    23881816.720   125499796.818 1      -865.341    23881827.800    97792087.549 1      -674.292
R22  23817663.920   127140311.508 7       671.106    23817665.240   127140311.498 7       671.106    23817680.740    98886973.259 6       521.971    23817680.820    98886974.257 6       521.971
G08  20579692.920   108147012.795 8      2393.521    20579691.700   108147012.798 8      2393.521    20579698.540    84270421.378 8      1865.082    20579699.460    84270426.380 8      1865.082
G32  24812916.400   130392750.684 6      3244.861    24812915.140   130392750.689 6      3244.861    24812930.320   101604800.090 6      2528.463    24812930.920   101604805.096 7      2528.463
G14  24073979.600   126509619.303 6      5858.495    24073978.300   126509619.311 4      5858.495    24073989.160    98578949.778 3      4565.061    24073990.640    98578961.795 7      4565.061
G21  20880936.420   109730047.957 8      1736.894    20880934.820   109730047.961 6      1736.894    20880938.660    85503949.756 6      1353.424
G03  22207033.500   116698745.925 6      6103.447    22207032.880   116698745.922 4      6103.447    22207042.080    90934126.035 4      4755.932    22207042.960    90934126.043 7      4755.932
G27  22301145.220   117193299.741 7       781.355    22301143.980   117193299.743 7       781.355    22301152.960    91319451.647 7       608.848    22301151.560    91319482.645 7       608.848
G10  24250466.400   127437057.546 6      -402.991    24250464.860   127437057.551 6      -402.991    24250477.980    99301652.515 6      -314.019    24250478.260    99301649.515 7      -314.019
R08  21109007.320   113037777.373 7      3614.403    21109006.560   113037777.413 7      3614.403    21109018.620    87918315.562 8      2811.202    21109018.220    87918315.562 8      2811.202
R01  22062646.620   117937488.113 5      6578.683    22062647.240   117937488.117 5      6578.683    22062662.660    91729229.130 5      5116.754    22062662.640    91729225.120 5      5116.754
R23  21056386.660   112637466.997 6      1729.126    21056386.000   112637467.004 6      1729.126
R14  21218128.560   113104560.977 8      3790.156    21218127.760   113104560.975 7      3790.156    21218138.260    87970257.679 7      2947.899    21218138.760    87970260.679 7      2947.899
R07  23094587.400   123627113.094 6       616.165    23094585.540   123627113.106 6       616.165    23094602.520    96154498.551 7       479.240    23094602.440    96154496.561 7       479.240
> 2024 06 03 12 30  9.0000000  0 16
G02  21308085.700   111974743.120 7      2713.313    21308083.940   111974743.128 6      2713.313    21308087.040    87253051.366 6      2114.270
R24  21369317.300   114271343.186 7      3781.666    21369316.760   114271343.201 7      3781.666    21369328.740    88877760.068 7      2941.296    21369328.680    88877757.057 7      2941.296
G16  23881984.260   125500662.317 5      -865.928    23881981.440   125500662.312 1      -865.928    23881993.600    97792761.951 1      -674.749
R22  23817538.180   127139640.438 7       670.704    23817539.480   127139640.444 7       670.704    23817555.120    98886451.314 6       521.659    23817555.400    98886452.311 6       521.659
G08  20579237.660   108144619.639 8      2392.666    20579236.220   108144619.644 8      2392.666    20579243.120    84268556.578 8      1864.415    20579244.220    84268561.580 8      1864.415
G32  24812298.820   130389506.160 6      3243.950    24812297.820   130389506.165 6      3243.950    24812312.760   101602271.893 6      2527.753    24812313.620   101602276.897 7      2527.753
G14  24072864.900   126503760.924 6      5857.952    24072863.740   126503760.926 4      5857.952    24072874.340    98574384.813 3      4564.638    24072875.540    98574396.822 7      4564.638
G21  20880606.040   109728311.378 8      1736.154    20880604.360   109728311.382 6      1736.154    20880608.220    85502596.579 6      1352.847
G03  22205872.080   116692642.900 6      6102.456    22205871.600   116692642.900 4      6102.456    22205880.620    90929370.435 4      4755.161    22205881.240    90929370.456 7      4755.161
G27  22300996.560   117192518.637 7       780.629    22300995.280   117192518.634 7       780.629    22301004.300    91318842.983 7       608.282    22301002.820    91318873.985 7       608.282
G10  24250542.880   127437460.702 6      -403.568    24250541.600   127437460.704 6      -403.568    24250554.720    99301966.658 6      -314.469    24250555.020    99301963.661 7      -314.469
R08  21108332.700   113034163.448 7      3613.183    21108331.840   113034163.493 7      3613.183    21108343.640    87915504.733 7      2810.254    21108343.320    87915504.736 7      2810.254
R01  22061415.440   117930909.952 5      6577.671    22061416.840   117930909.945 5      6577.671    22061432.240    91724112.783 5      5115.966    22061432.280    91724108.773 5      5115.966
R23  21056063.200   112635737.991 6      1728.634    21056062.560   112635738.005 6      1728.634
R14  21217417.720   113100771.338 8      3788.868    21217416.740   113100771.339 7      3788.868    21217427.280    87967310.186 7      2946.897    21217427.900    87967313.191 7      2946.897
R07  23094472.200   123626497.404 6       615.056    23094470.160   123626497.414 6       615.056    23094487.340    96154019.673 7       478.377    23094487.520    96154017.668 7       478.377
> 2024 06 03 12 30 10.0000000  0 16
G02  21307569.220   111972029.793 7      2713.368    21307567.540   111972029.803 6      2713.368    21307570.700    87250937.089 6      2114.312
R24  21368610.080   114267561.416 7      3781.884    21368609.800   114267561.426 7      3781.884    21368621.740    88874818.689 7      2941.465    21368621.360    88874815.683 7      2941.465
G16  23882149.000   125501528.184 5      -865.739    23882146.500   125501528.181 1      -865.739    23882158.280    97793436.641 1      -674.601
R22  23817412.440   127138969.566 7       671.027    23817414.040   127138969.569 7       671.027    23817429.540    98885929.518 6       521.910    23817429.680    98885930.518 6       521.910
G08  20578782.300   108142227.042 8      2392.532    20578780.940   108142227.047 8      2392.532    20578787.900    84266692.217 8      1864.311    20578788.900    84266697.224 8      1864.311
G32  24811680.840   130386262.300 6      3243.746    24811680.620   130386262.302 6      3243.746    24811695.600   101599744.208 6      2527.594    24811695.980   101599749.208 7      2527.594
G14  24071750.080   126497903.060 6      5857.992    24071749.160   126497903.064 4      5857.992    24071759.880    98569820.250 4      4564.669    24071760.800    98569832.271 7      4564.669
G21  20880275.600   109726575.190 7      1736.183    20880274.020   109726575.198 6      1736.183    20880277.820    85501243.704 6      1352.870
G03  22204711.080   116686540.424 6      6102.339    22204710.460   116686540.424 4      6102.339    22204719.280    90924615.263 4      4755.070    22204720.060    90924615.278 7      4755.070
G27  22300847.980   117191738.018 7       780.608    22300846.740   117191738.017 7       780.608    22300855.800    91318234.710 7       608.266    22300854.400    91318265.712 7       608.266
G10  24250619.620   127437864.357 6      -403.573    24250618.320   127437864.361 6      -403.573    24250631.660    99302281.188 6      -314.473    24250631.840    99302278.191 7      -314.473
R08  21107658.320   113030550.560 7      3612.661    21107657.260   113030550.599 7      3612.661    21107669.000    87912694.707 7      2809.847    21107668.700    87912694.709 8      2809.847
R01  22060183.520   117924332.168 5      6577.841    22060186.140   117924332.204 5      6577.841    22060201.920    91718996.768 5      5116.098    22060202.160    91718992.759 5      5116.098
R23  21055740.200   112634009.278 6      1728.860    21055739.340   112634009.285 6      1728.860
R14  21216706.960   113096982.798 8      3788.155    21216706.000   113096982.804 7      3788.155    21216716.660    87964363.550 7      2946.343    21216717.280    87964366.555 7      2946.343
R07  23094357.080   123625882.670 6       614.320    23094355.480   123625882.685 6       614.320    23094372.680    96153541.552 7       477.805    23094372.820    96153539.554 7       477.805
> 2024 06 03 12 30 11.0000000  0 16
G02  21307053.060   111969316.684 7      2712.945    21307051.300   111969316.691 6      2712.945    21307054.420    87248822.974 6      2113.983
R24  21367902.880   114263779.719 7      3781.559    21367902.480   114263779.728 7      3781.559    21367914.600    88871877.369 7      2941.213    21367914.580    88871874.364 8      2941.213
G16  23882313.780   125502394.151 5      -865.880    23882311.660   125502394.138 1      -865.880    23882323.280    97794111.410 1      -674.712
R22  23817286.860   127138298.632 7       670.981    23817287.920   127138298.633 7       670.981    23817303.980    98885407.683 6       521.874    23817304.160    98885408.680 7       521.874
G08  20578327.000   108139834.772 7      2392.057    20578325.760   108139834.779 7      2392.057    20578332.560    84264828.112 8      1863.940    20578333.540    84264833.116 8      1863.940
G32  24811064.340   130383018.855 6      3243.314    24811063.380   130383018.857 6      3243.314    24811078.320   101597216.851 6      2527.258    24811078.940   101597221.861 7      2527.258
G14  24070635.400   126492045.532 6      5857.265    24070634.620   126492045.539 4      5857.265    24070645.300    98565255.947 4      4564.103    24070646.420    98565267.976 7      4564.103
G21  20879945.100   109724839.168 8      1735.882    20879943.640   109724839.176 6      1735.882    20879947.440    85499890.962 6      1352.636
G03  22203549.500   116680438.254 6      6102.010    22203549.400   116680438.256 4      6102.010    22203557.920    90919860.327 4      4754.813    22203558.820    90919860.340 7      4754.813
G27  22300699.620   117190957.687 7       780.142    22300698.320   117190957.689 7       780.142    22300707.260    91317626.660 7       607.903    22300706.020    91317657.658 7       607.903
G10  24250696.620   127438268.238 6      -404.080    24250695.220   127438268.237 6      -404.080    24250708.620    99302595.894 6      -314.868    24250708.420    99302592.897 7      -314.868
R08  21106983.640   113026938.493 7      3611.630    21106982.460   113026938.532 7      3611.630    21106994.360    87909885.330 8      2809.046    21106994.240    87909885.334 7      2809.046
R01  22058953.020   117917754.614 5      6577.691    22058955.720   117917754.648 5      6577.691    22058971.220    91713880.903 5      5115.982    22058971.620    91713876.883 5      5115.982
R23  21055416.680   112632280.625 6      1728.463    21055416.200   112632280.632 6      1728.463
R14  21215996.080   113093195.127 8      3787.195    21215995.380   113093195.133 7      3787.195    21216006.280    87961417.588 7      2945.596    21216006.840    87961420.591 7      2945.596
R07  23094241.660   123625268.629 6       613.470    23094241.400   123625268.649 6       613.470    23094257.860    96153063.963 7       477.144    23094257.620    96153061.960 7       477.144
> 2024 06 03 12 30 12.0000000  0 16
G02  21306536.820   111966603.809 7      2712.647    21306535.020   111966603.819 6      2712.647    21306538.240    87246709.047 6      2113.751
R24  21367195.780   114259998.150 7      3781.387    21367195.340   114259998.156 7      3781.387    21367207.320    88868936.144 7      2941.079    21367207.700    88868933.144 8      2941.079
G16  23882477.480   125503260.323 5      -866.419    23882476.220   125503260.307 1      -866.419    23882488.360    97794786.347 1      -675.131
R22  23817160.900   127137627.725 7       670.648    23817162.460   127137627.739 7       670.648    23817178.200    98884885.871 6       521.615    23817178.380    98884886.870 6       521.615
G08  20577871.920   108137442.903 8      2391.569    20577870.540   108137442.905 8      2391.569    20577877.380    84262964.318 8      1863.560    20577878.560    84262969.323 8      1863.560
G32  24810446.960   130379775.960 7      3242.470    24810446.420   130379775.965 6      3242.470    24810461.260   101594689.919 6      2526.600    24810461.920   101594694.919 7      2526.600
G14  24069520.500   126486188.316 6      5856.929    24069520.120   126486188.329 4      5856.929    24069530.880    98560691.891 4      4563.841    24069532.040    98560703.912 7      4563.841
G21  20879614.780   109723103.383 8      1735.581    20879613.400   109723103.387 6      1735.581    20879617.120    85498538.399 6      1352.400
G03  22202388.860   116674336.456 6      6101.543    22202388.280   116674336.455 4      6101.543    22202396.760    90915105.682 4      4754.449    22202398.240    90915105.694 7      4754.449
G27  22300551.100   117190177.685 7       779.799    22300549.800   117190177.687 7       779.799    22300558.880    91317018.862 7       607.636    22300557.620    91317049.864 7       607.636
G10  24250773.740   127438672.389 6      -404.281    24250772.240   127438672.397 6      -404.281    24250785.480    99302910.816 6      -315.024    24250785.600    99302907.814 7      -315.024
R08  21106308.920   113023327.285 7      3610.726    21106308.160   113023327.333 7      3610.726    21106320.160    87907076.617 8      2808.342    21106319.880    87907076.619 7      2808.342
R01  22057723.380   117911177.384 5      6576.892    22057724.760   117911177.404 5      6576.892    22057741.420    91708765.275 5      5115.361    22057740.800    91708761.260 5      5115.361
R23  21055093.980   112630552.023 7      1728.449    21055092.840   112630552.029 6      1728.449
R14  21215285.700   113089408.364 8      3786.242    21215284.900   113089408.368 7      3786.242    21215295.900    87958472.328 7      2944.855    21215296.420    87958475.331 7      2944.855
R07  23094127.420   123624655.391 6       612.735    23094126.360   123624655.411 6       612.735    23094143.420    96152586.996 7       476.572    23094143.280    96152584.996 7       476.572
> 2024 06 03 12 30 13.0000000  0 16
G02  21306020.560   111963891.183 7      2712.645    21306018.960   111963891.190 6      2712.645    21306022.020    87244595.309 6      2113.749
R24  21366488.300   114256216.744 7      3781.513    21366488.440   114256216.748 7      3781.513    21366500.440    88865995.051 7      2941.177    21366500.420    88865992.050 7      2941.177
G16  23882642.460   125504126.615 5      -866.310    23882641.100   125504126.599 1      -866.310    23882653.340    97795461.365 1      -675.047
R22  23817035.600   127136956.772 7       671.086    23817036.680   127136956.779 7       671.086    23817052.360    98884364.008 6       521.956    23817052.960    98884365.008 6       521.956
G08  20577416.640   108135051.391 8      2391.490    20577415.480   108135051.396 8      2391.490    20577422.400    84261100.799 8      1863.499    20577423.480    84261105.803 8      1863.499
G32  24809829.980   130376533.477 7      3242.359    24809829.340   130376533.484 6      3242.359    24809844.280   101592163.305 6      2526.514    24809844.860   101592168.309 7      2526.514
G14  24068406.060   126480331.416 6      5856.988    24068405.720   126480331.429 4      5856.988    24068416.320    98556128.079 4      4563.886    24068417.320    98556140.102 7      4563.886
G21  20879284.520   109721367.812 7      1735.554    20879283.160   109721367.820 6      1735.554    20879287.000    85497186.007 6      1352.380
G03  22201227.560   116668235.029 6      6101.398    22201227.260   116668235.026 4      6101.398    22201235.720    90910351.323 4      4754.336    22201237.220    90910351.333 7      4754.336
G27  22300402.860   117189397.985 7       779.769    22300401.480   117189397.992 7       779.769    22300410.360    91316411.301 7       607.612    22300409.340    91316442.301 7       607.612
G10  24250850.720   127439076.861 6      -404.477    24250849.140   127439076.864 6      -404.477    24250862.400    99303225.977 6      -315.177    24250862.360    99303222.977 7      -315.177
R08  21105634.660   113019716.921 7      3610.146    21105634.180   113019716.961 7      3610.146    21105645.960    87904268.550 8      2807.891    21105645.600    87904268.552 8      2807.891
R01  22056493.440   117904600.343 5      6577.069    22056493.900   117904600.355 5      6577.069    22056510.480    91703649.803 5      5115.498    22056510.600    91703645.790 5      5115.498
R23  21054771.040   112628823.490 7      1728.740    21054769.620   112628823.491 6      1728.740
R14  21214575.880   113085622.471 8      3785.634    21214574.400   113085622.471 7      3785.634    21214585.680    87955527.746 7      2944.382    21214586.200    87955530.751 7      2944.382
R07  23094013.380   123624042.868 6       612.301    23094011.900   123624042.885 6       612.301    23094029.100    96152110.583 7       476.234    23094028.840    96152108.584 7       476.234
> 2024 06 03 12 30 14.0000000  0 16
G02  21305504.500   111961178.641 7      2712.154    21305502.760   111961178.644 6      2712.154    21305505.780    87242481.640 6      2113.366
R24  21365781.720   114252435.324 7      3781.161    21365781.140   114252435.331 7      3781.161    21365793.140    88863053.955 7      2940.903    21365793.080    88863050.957 8      2940.903
G16  23882807.380   125504992.982 5      -866.872    23882805.600   125504992.973 1      -866.872    23882818.580    97796136.440 1      -675.485
R22  23816910.080   127136285.678 7       670.790    23816911.280   127136285.679 7       670.790    23816926.980    98883842.036 6       521.725    23816927.100    98883843.027 6       521.725
G08  20576961.820   108132660.135 8      2390.805    20576960.500   108132660.137 8      2390.805    20576967.320    84259237.480 8      1862.965    20576968.440    84259242.482 8      1862.965
G32  24809212.880   130373291.351 6      3241.627    24809212.420   130373291.356 6      3241.627    24809227.360   101589636.973 6      2525.943    24809228.220   101589641.973 7      2525.943
G14  24067291.560   126474474.735 6      5856.355    24067291.300   126474474.750 4      5856.355    24067301.760    98551564.443 4      4563.393    24067302.800    98551576.454 7      4563.393
G21  20878954.180   109719632.298 7      1735.164    20878952.920   109719632.302 6      1735.164    20878956.720    85495833.656 6      1352.076
G03  22200066.620   116662133.788 6      6100.826    22200066.160   116662133.785 4      6100.826    22200074.580    90905597.115 4      4753.890    22200075.700    90905597.136 7      4753.890
G27  22300254.480   117188618.484 7       779.114    22300253.040   117188618.489 7       779.114    22300262.140    91315803.896 7       607.102    22300261.100    91315834.892 7       607.102
G10  24250927.580   127439481.426 6      -404.939    24250926.220   127439481.428 6      -404.939    24250939.380    99303541.219 6      -315.537    24250939.080    99303538.214 7      -315.537
R08  21104960.600   113016107.262 7      3608.959    21104959.960   113016107.298 7      3608.959    21104971.700    87901461.039 8      2806.968    21104971.500    87901461.039 8      2806.968
R01  22055263.500   117898023.401 5      6576.626    22055264.320   117898023.402 5      6576.626    22055280.780    91698534.402 5      5115.154    22055279.720    91698530.392 5      5115.154
R23  21054447.520   112627094.868 6      1728.359    21054446.860   112627094.881 6      1728.359
R14  21213865.880   113081837.318 8      3784.404    21213864.480   113081837.321 7      3784.404    21213875.580    87952583.739 7      2943.425    21213876.140    87952586.750 7      2943.425
R07  23093899.160   123623430.877 6       611.401    23093897.560   123623430.905 6       611.401    23093914.520    96151634.600 7       475.534    23093914.680    96151632.598 7       475.534
> 2024 06 03 12 30 15.0000000  0 16
G02  21304988.320   111958466.384 8      2711.985    21304986.500   111958466.388 6      2711.985    21304989.680    87240368.194 6      2113.235
R24  21365074.420   114248654.105 7      3780.994    21365074.060   114248654.109 7      3780.994    21365085.980    88860113.003 7      2940.773    21365086.160    88860110.007 7      2940.773
G16  23882972.160   125505859.482 5      -866.783    23882969.720   125505859.479 1      -866.783    23882982.980    97796811.632 1      -675.415
R22  23816784.260   127135614.611 7       670.841    23816785.240   127135614.620 7       670.841    23816801.220    98883320.099 7       521.765    23816801.400    98883321.098 7       521.765
G08  20576506.800   108130269.278 8      2390.553    20576505.460   108130269.285 8      2390.553    20576512.440    84257374.477 8      1862.769    20576513.400    84257379.481 8      1862.769
G32  24808596.160   130370049.761 7      3241.106    24808595.520   130370049.766 6      3241.106    24808610.280   101587111.059 6      2525.537    24808611.360   101587116.061 7      2525.537
G14  24066177.380   126468618.421 6      5855.891    24066176.840   126468618.436 4      5855.891    24066187.360    98547001.086 4      4563.032    24066188.400    98547013.100 7      4563.032
G21  20878624.140   109717897.061 7      1734.993    20878622.580   109717897.064 6      1734.993    20878626.420    85494481.520 6      1351.943
G03  22198905.500   116656032.978 6      6100.519    22198905.340   116656032.978 4      6100.519    22198913.640    90900843.244 4      4753.651    22198914.840    90900843.260 7      4753.651
G27  22300106.160   117187839.336 7       778.885    22300104.840   117187839.338 7       778.885    22300113.860    91315196.763 7       606.923    22300112.700    91315227.766 7       606.923
G10  24251004.740   127439886.316 6      -405.101    24251003.340   127439886.313 6      -405.101    24251016.540    99303856.708 6      -315.663    24251016.240    99303853.715 7      -315.663
R08  21104286.940   113012498.480 7      3608.230    21104286.020   113012498.525 7      3608.230    21104297.960    87898654.213 8      2806.401    21104297.600    87898654.215 8      2806.401
R01  22054032.960   117891446.721 5      6576.521    22054033.560   117891446.730 5      6576.521    22054050.160    91693419.219 5      5115.072    22054049.040    91693415.209 5      5115.072
R23  21054124.600   112625366.365 6      1728.401    21054123.440   112625366.385 6      1728.401
R14  21213155.620   113078053.064 8      3783.649    21213154.620   113078053.070 7      3783.649    21213165.580    87949640.440 7      2942.838    21213166.080    87949643.451 7      2942.838
R07  23093784.600   123622819.729 6       610.560    23093783.440   123622819.774 6       610.560    23093800.520    96151159.274 7       474.880    23093800.300    96151157.273 7       474.880
> 2024 06 03 12 30 16.0000000  0 16
G02  21304472.300   111955754.462 7      2711.702    21304470.560   111955754.470 6      2711.702    21304473.580    87238255.011 6      2113.014
R24  21364367.280   114244873.097 7      3780.760    21364366.880   114244873.099 7      3780.760    21364378.980    88857172.219 7      2940.591    21364379.140    88857169.229 8      2940.591
G16  23883137.120   125506726.258 5      -866.761    23883134.740   125506726.250 1      -866.761    23883147.800    97797487.032 1      -675.398
R22  23816658.260   127134943.616 7       670.995    23816659.680   127134943.614 7       670.995    23816675.700    98882798.201 7       521.885    23816675.440    98882799.205 7       521.885
G08  20576051.800   108127878.901 8      2390.106    20576050.640   108127878.903 8      2390.106    20576057.420    84255511.846 8      1862.420    20576058.380    84255516.852 8      1862.420
G32  24807979.480   130366808.702 6      3240.755    24807978.760   130366808.707 6      3240.755    24807993.600   101584585.561 6      2525.264    24807994.040   101584590.563 7      2525.264
G14  24065063.140   126462762.506 6      5855.627    24065062.320   126462762.524 4      5855.627    24065073.000    98542438.046 4      4562.826    24065073.940    98542450.058 7      4562.826
G21  20878293.840   109716162.119 7      1734.691    20878292.380   109716162.124 6      1734.691    20878296.440    85493129.621 6      1351.707
G03  22197744.880   116649932.641 6      6099.962    22197744.440   116649932.641 4      6099.962    22197752.740    90896089.736 4      4753.217    22197754.100    90896089.743 7      4753.217
G27  22299957.900   117187060.587 7       778.558    22299956.700   117187060.589 7       778.558    22299965.760    91314589.944 7       606.669    22299964.500    91314620.944 8       606.669
G10  24251082.240   127440291.566 6      -405.417    24251080.520   127440291.570 6      -405.417    24251093.660    99304172.491 6      -315.909    24251093.440    99304169.490 7      -315.909
R08  21103613.340   113008890.676 7      3607.320    21103612.440   113008890.715 7      3607.320    21103624.100    87895848.139 8      2805.693    21103623.820    87895848.143 8      2805.693
R01  22052802.160   117884870.423 5      6575.970    22052803.920   117884870.451 5      6575.970    22052819.080    91688304.341 5      5114.643    22052819.120    91688300.326 5      5114.643
R23  21053801.720   112623638.038 6      1728.207    21053800.640   112623638.045 6      1728.207
R14  21212445.720   113074269.798 7      3782.680    21212444.920   113074269.812 7      3782.680    21212455.580    87946697.902 7      2942.085    21212456.300    87946700.909 7      2942.085
R07  23093670.800   123622209.417 6       609.868    23093670.260   123622209.448 6       609.868    23093686.520    96150684.570 7       474.342    23093686.280    96150682.565 7       474.342
> 2024 06 03 12 30 17.0000000  0 16
G02  21303956.300   111953042.646 7      2711.779    21303954.640   111953042.653 6      2711.779    21303957.520    87236141.907 6      2113.075
R24  21363660.180   114241092.023 7      3781.187    21363659.520   114241092.022 7      3781.187    21363671.880    88854231.387 7      2940.923    21363672.180    88854228.395 7      2940.923
G16  23883302.160   125507593.084 5      -866.672    23883299.080   125507593.086 1      -866.672    23883312.540    97798162.469 1      -675.328
R22  23816532.260   127134272.496 7       671.254    23816533.780   127134272.494 7       671.254    23816550.060    98882276.215 7       522.086    23816549.940    98882277.218 7       522.086
G08  20575597.040   108125488.759 8      2390.110    20575595.720   108125488.764 7      2390.110    20575602.680    84253649.395 7      1862.424    20575603.700    84253654.399 8      1862.424
G32  24807362.940   130363568.017 7      3240.615    24807362.100   130363568.016 6      3240.615    24807376.960   101582060.347 6      2525.155    24807377.060   101582065.343 7      2525.155
G14  24063948.760   126456906.799 6      5855.628    24063948.100   126456906.814 4      5855.628    24063958.560    98537875.159 4      4562.827    24063959.620    98537887.176 7      4562.827
G21  20877963.780   109714427.264 7      1734.849    20877962.360   109714427.271 6      1734.849    20877966.280    85491777.783 6      1351.831
G03  22196583.940   116643832.491 6      6100.015    22196583.660   116643832.493 4      6100.015    22196591.980    90891336.377 4      4753.258    22196592.740    90891336.389 7      4753.258
G27  22299809.500   117186282.027 7       778.526    22299808.480   117186282.029 7       778.526    22299817.540    91313983.274 7       606.644    22299816.120    91314014.274 7       606.644
G10  24251159.440   127440696.978 6      -405.489    24251157.640   127440696.989 6      -405.489    24251170.920    99304488.393 6      -315.966    24251170.580    99304485.398 7      -315.966
R08  21102939.520   113005283.568 7      3606.757    21102938.860   113005283.610 7      3606.757    21102950.440    87893042.616 8      2805.255    21102950.400    87893042.619 7      2805.255
R01  22051572.460   117878294.187 5      6576.230    22051573.960   117878294.207 5      6576.230    22051588.780    91683189.503 5      5114.846    22051588.780    91683185.490 5      5114.846
R23  21053478.600   112621909.625 6      1728.656    21053477.620   112621909.621 6      1728.656
R14  21211735.980   113070487.321 7      3782.079    21211735.380   113070487.333 7      3782.079    21211745.920    87943755.980 7      2941.617    21211746.880    87943758.987 7      2941.617
R07  23093556.980   123621599.741 6       609.404    23093555.980   123621599.764 6       609.404    23093572.660    96150210.373 7       473.981    23093572.400    96150208.373 7       473.981
> 2024 06 03 12 30 18.0000000  0 16
G02  21303440.540   111950331.187 7      2711.254    21303438.520   111950331.197 6      2711.254    21303441.600    87234029.086 6      2112.666
R24  21362953.240   114237311.178 7      3780.768    21362952.460   114237311.188 7      3780.768    21362964.860    88851290.739 7      2940.597    21362965.080    88851287.745 7      2940.597
G16  23883468.480   125508460.173 5      -866.864    23883464.340   125508460.183 1      -866.864    23883477.560    97798838.110 1      -675.479
R22  23816406.460   127133601.474 7       670.984    23816408.280   127133601.467 7       670.984    23816424.140    98881754.305 6       521.877    23816424.260    98881755.304 7       521.877
G08  20575142.380   108123099.136 8      2389.277    20575141.080   108123099.141 8      2389.277    20575147.900    84251787.356 8      1861.774    20575149.080    84251792.360 8      1861.774
G32  24806746.920   130360327.917 6      3239.927    24806745.500   130360327.911 6      3239.927    24806760.460   101579535.592 6      2524.618    24806761.100   101579540.590 7      2524.618
G14  24062834.560   126451051.562 6      5854.921    24062833.840   126451051.583 4      5854.921    24062844.460    98533312.649 4      4562.276    24062845.220    98533324.664 7      4562.276
G21  20877633.720   109712692.753 8      1734.262    20877632.280   109712692.758 6      1734.262    20877636.220    85490426.214 6      1351.373
G03  22195423.420   116637732.845 6      6099.296    22195422.920   116637732.842 4      6099.296    22195431.340    90886583.410 4      4752.698    22195432.200    90886583.423 7      4752.698
G27  22299661.740   117185503.917 7       777.913    22299660.500   117185503.924 7       777.913    22299669.480    91313376.952 7       606.166    22299668.340    91313407.950 7       606.166
G10  24251236.540   127441102.804 6      -406.156    24251234.760   127441102.809 6      -406.156    24251248.060    99304804.610 6      -316.485    24251247.860    99304801.607 7      -316.485
R08  21102265.860   113001677.442 7      3605.541    21102265.780   113001677.481 7      3605.541    21102277.080    87890237.856 8      2804.309    21102276.860    87890237.856 8      2804.309
R01  22050341.500   117871718.360 5      6575.482    22050343.480   117871718.377 5      6575.482    22050358.760    91678074.981 5      5114.264    22050358.680    91678070.966 5      5114.264
R23  21053155.360   112620181.421 6      1727.993    21053154.540   112620181.436 6      1727.993
R14  21211026.740   113066705.876 7      3780.830    21211026.100   113066705.879 7      3780.830    21211036.540    87940814.848 7      2940.646    21211036.800    87940817.855 7      2940.646
R07  23093442.780   123620990.947 6       608.298    23093442.600   123620990.975 6       608.298    23093458.800    96149736.866 7       473.120    23093458.700    96149734.868 7       473.120
> 2024 06 03 12 30 19.0000000  0 16
G02  21302924.460   111947620.116 7      2711.114    21302922.560   111947620.124 6      2711.114    21302925.600    87231916.562 6      2112.556
R24  21362246.560   114233530.628 7      3780.651    21362245.440   114233530.637 7      3780.651    21362257.760    88848350.313 7      2940.506    21362257.500    88848347.317 7      2940.506
G16  23883632.580   125509327.566 5      -867.400    23883629.540   125509327.576 1      -867.400    23883642.020    97799513.985 1      -675.896
R22  23816281.260   127132930.583 7       671.200    23816282.480   127132930.578 7       671.200    23816298.460    98881232.498 6       522.044    23816298.620    98881233.494 7       522.044
G08  20574687.640   108120710.024 8      2389.080    20574686.460   108120710.026 8      2389.080    20574693.280    84249925.705 8      1861.621    20574694.100    84249930.709 8      1861.621
G32  24806130.680   130357088.456 6      3239.389    24806129.020   130357088.458 6      3239.389    24806144.020   101577011.338 6      2524.199    24806144.980   101577016.338 7      2524.199
G14  24061720.180   126445196.788 6      5854.704    24061719.580   126445196.806 4      5854.704    24061730.440    98528750.492 4      4562.107    24061731.260    98528762.512 7      4562.107
G21  20877303.700   109710958.596 8      1734.195    20877302.280   109710958.601 6      1734.195    20877306.100    85489074.923 6      1351.320
G03  22194262.800   116631633.714 6      6098.943    22194262.140   116631633.711 4      6098.943    22194270.680    90881830.843 4      4752.423    22194271.060    90881830.847 7      4752.423
G27  22299513.640   117184726.279 7       777.557    22299512.400   117184726.286 7       777.557    22299521.520    91312770.999 7       605.889    22299520.360    91312802.001 7       605.889
G10  24251313.700   127441509.026 6      -406.238    24251312.020   127441509.025 6      -406.238    24251325.400    99305121.135 6      -316.549    24251325.320    99305118.129 7      -316.549
R08  21101592.940   112998072.332 7      3604.776    21101592.240   112998072.371 7      3604.776    21101603.880    87887433.881 8      2803.714    21101603.680    87887433.884 8      2803.714
R01  22049112.460   117865142.920 5      6575.469    22049113.400   117865142.924 5      6575.469    22049128.960    91672960.742 5      5114.254    22049128.260    91672956.735 5      5114.254
R23  21052832.420   112618453.434 6      1728.175    21052831.220   112618453.446 6      1728.175
R14  21210317.700   113062925.438 8      3780.165    21210316.840   113062925.434 7      3780.165    21210327.180    87937874.503 7      2940.129    21210327.740    87937877.512 7      2940.129
R07  23093328.920   123620383.046 6       607.709    23093328.840   123620383.082 6       607.709    23093345.120    96149264.057 7       472.663    23093345.180    96149262.064 7       472.663
> 2024 06 03 12 30 20.0000000  0 16
G02  21302408.700   111944909.125 7      2710.805    21302406.640   111944909.133 6      2710.805    21302409.680    87229804.101 6      2112.315
R24  21361538.820   114229750.075 7      3780.334    21361538.340   114229750.097 7      3780.334    21361551.040    88845409.893 7      2940.260    21361550.700    88845406.893 7      2940.260
G16  23883798.240   125510195.031 5      -867.548    23883794.100   125510195.041 1      -867.548    23883807.780    97800189.925 1      -676.011
R22  23816155.980   127132259.513 7       671.182    23816156.800   127132259.508 7       671.182    23816172.720    98880710.553 7       522.031    23816172.880    98880711.544 6       522.031
G08  20574233.120   108118321.124 8      2388.608    20574231.860   108118321.132 8      2388.608    20574238.660    84248064.233 8      1861.253    20574239.440    84248069.235 8      1861.253
G32  24805513.640   130353849.291 6      3238.889    24805512.680   130353849.293 6      3238.889    24805527.600   101574487.320 6      2523.809    24805528.400   101574492.320 7      2523.809
G14  24060606.040   126439342.182 6      5854.385    24060605.380   126439342.200 4      5854.385    24060616.120    98524188.471 4      4561.858    24060616.600    98524200.492 7      4561.858
G21  20876973.880   109709224.498 8      1733.827    20876972.360   109709224.502 6      1733.827    20876976.180    85487723.682 6      1351.034
G03  22193102.000   116625534.749 6      6098.598    22193101.440   116625534.746 4      6098.598    22193110.100    90877078.402 4      4752.155    22193110.780    90877078.419 7      4752.155
G27  22299365.860   117183948.789 7       777.142    22299364.640   117183948.799 7       777.142    22299373.560    91312165.162 7       605.565    22299372.480    91312196.162 7       605.565
G10  24251390.920   127441915.377 6      -406.620    24251389.460   127441915.366 6      -406.620    24251402.560    99305437.766 6      -316.847    24251402.900    99305434.769 7      -316.847
R08  21100919.780   112994467.888 7      3603.873    21100918.940   112994467.927 7      3603.873    21100930.580    87884630.431 7      2803.012    21100930.500    87884630.433 8      2803.012
R01  22047881.760   117858567.560 5      6575.228    22047884.080   117858567.548 5      6575.228    22047899.400    91667846.576 5      5114.066    22047897.520    91667842.562 5      5114.066
R23  21052509.060   112616725.361 7      1728.042    21052508.740   112616725.376 6      1728.042
R14  21209608.460   113059145.715 8      3779.229    21209607.940   113059145.710 7      3779.229    21209618.180    87934934.720 7      2939.400    21209618.920    87934937.729 7      2939.400
R07  23093215.300   123619775.723 6       606.937    23093215.840   123619775.754 6       606.937    23093231.920    96148791.686 7       472.062    23093231.800    96148789.688 7       472.062
> 2024 06 03 12 30 21.0000000  0 16
G02  21301892.760   111942198.297 7      2711.077    21301890.880   111942198.302 6      2711.077    21301893.780    87227691.767 6      2112.527
R24  21360832.000   114225969.602 7      3780.736    21360831.340   114225969.614 7      3780.736    21360844.040    88842469.521 7      2940.572    21360843.740    88842466.519 7      2940.572
G16  23883963.280   125511062.566 5      -867.319    23883958.100   125511062.579 1      -867.319    23883973.440    97800865.914 1      -675.833
R22  23816029.940   127131588.390 7       671.505    23816031.080   127131588.393 7       671.505    23816047.000    98880188.570 7       522.282    23816046.800    98880189.574 7       522.282
G08  20573778.600   108115932.542 8      2388.707    20573777.300   108115932.552 8      2388.707    20573784.140    84246203.001 8      1861.330    20573785.160    84246208.003 8      1861.330
G32  24804897.220   130350610.558 6      3238.835    24804896.340   130350610.562 6      3238.835    24804911.340   101571963.630 6      2523.767    24804911.980   101571968.628 7      2523.767
G14  24059492.280   126433487.878 6      5854.211    24059491.240   126433487.896 4      5854.211    24059501.960    98519626.684 4      4561.723    24059502.540    98519638.709 7      4561.723
G21  20876643.720   109707490.533 8      1734.184    20876642.360   109707490.538 6      1734.184    20876646.200    85486372.538 6      1351.312
G03  22191941.020   116619436.073 6      6098.834    22191940.940   116619436.073 4      6098.834    22191949.680    90872326.197 4      4752.338    22191949.780    90872326.214 7      4752.338
G27  22299217.760   117183171.550 7       777.313    22299216.660   117183171.558 7       777.313    22299225.600    91311559.520 7       605.698    22299224.340    91311590.518 7       605.698
G10  24251468.320   127442321.912 6      -406.458    24251466.780   127442321.911 6      -406.458    24251479.940    99305754.546 6      -316.721    24251480.040    99305751.545 7      -316.721
R08  21100246.720   112990864.228 7      3603.500    21100246.180   112990864.265 7      3603.500    21100257.760    87881827.587 8      2802.722    21100257.600    87881827.587 8      2802.722
R01  22046651.680   117851992.348 5      6575.622    22046653.220   117851992.354 5      6575.622    22046669.380    91662732.542 5      5114.372    22046667.760    91662728.531 5      5114.372
R23  21052185.920   112614997.331 7      1728.324    21052185.200   112614997.340 6      1728.324
R14  21208899.840   113055366.818 8      3778.787    21208899.040   113055366.816 7      3778.787    21208909.260    87931995.580 7      2939.056    21208909.760    87931998.591 7      2939.056
R07  23093102.540   123619169.048 6       606.714    23093102.480   123619169.076 6       606.714    23093118.140    96148319.828 7       471.888    23093118.400    96148317.831 7       471.888
> 2024 06 03 12 30 22.0000000  0 16
G02  21301376.900   111939487.799 7      2710.179    21301375.040   111939487.807 6      2710.179    21301378.080    87225579.691 6      2111.828
R24  21360125.020   114222189.295 7      3780.058    21360124.420   114222189.307 7      3780.058    21360136.840    88839529.284 7      2940.045    21360136.620    88839526.284 7      2940.045
G16  23884127.280   125511930.272 5      -868.041    23884123.360   125511930.280 1      -868.041    23884139.200    97801542.041 1      -676.395
R22  23815904.240   127130917.304 7       670.990    23815905.280   127130917.313 7       670.990    23815921.220    98879666.611 7       521.881    23815921.420    98879667.610 7       521.881
G08  20573324.100   108113544.399 8      2387.806    20573322.820   108113544.404 8      2387.806    20573329.780    84244342.106 8      1860.628    20573330.480    84244347.110 8      1860.628
G32  24804281.240   130347372.349 6      3237.771    24804280.140   130347372.354 6      3237.771    24804295.120   101569440.355 6      2522.938    24804295.640   101569445.363 7      2522.938
G14  24058378.300   126427633.918 6      5853.502    24058377.200   126427633.934 4      5853.502    24058387.900    98515065.163 4      4561.171    24058388.380    98515077.177 7      4561.171
G21  20876313.880   109705756.849 8      1733.444    20876312.380   109705756.854 6      1733.444    20876316.340    85485021.614 6      1350.735
G03  22190780.500   116613337.854 6      6097.925    22190780.640   116613337.856 4      6097.925    22190789.360    90867574.340 4      4751.630    22190790.020    90867574.353 7      4751.630
G27  22299069.840   117182394.685 7       776.546    22299068.840   117182394.688 7       776.546    22299077.820    91310954.162 7       605.101    22299076.440    91310985.163 7       605.101
G10  24251545.680   127442728.785 6      -407.153    24251544.260   127442728.790 6      -407.153    24251557.360    99306071.591 6      -317.262    24251557.580    99306068.587 7      -317.262
R08  21099574.180   112987261.481 7      3602.173    21099573.480   112987261.515 7      3602.173    21099584.980    87879025.442 8      2801.690    21099584.880    87879025.445 8      2801.690
R01  22045422.080   117845417.547 5      6574.549    22045423.260   117845417.543 5      6574.549    22045438.920    91657618.812 5      5113.538    22045438.320    91657614.790 5      5113.538
R23  21051863.140   112613269.448 6      1727.543    21051862.560   112613269.449 6      1727.543
R14  21208190.600   113051588.869 8      3777.337    21208190.500   113051588.870 7      3777.337    21208200.400    87929057.180 7      2937.928    21208201.060    87929060.181 7      2937.928
R07  23092989.220   123618563.181 6       605.411    23092988.840   123618563.201 6       605.411    23093004.960    96147848.594 7       470.875    23093004.940    96147846.589 7       470.875
> 2024 06 03 12 30 23.0000000  0 16
G02  21300861.280   111936777.478 7      2710.302    21300859.320   111936777.485 6      2710.302    21300862.240    87223467.753 6      2111.923
R24  21359418.160   114218409.054 7      3780.212    21359417.580   114218409.069 7      3780.212    21359430.100    88836589.101 7      2940.165    21359429.880    88836586.101 8      2940.165
G16  23884293.400   125512798.076 5      -867.409    23884288.740   125512798.078 1      -867.409    23884304.840    97802218.247 1      -675.903
R22  23815778.660   127130246.199 7       671.122    23815779.540   127130246.211 7       671.122    23815795.360    98879144.636 7       521.984    23815795.980    98879145.638 7       521.984
G08  20572869.620   108111156.595 8      2387.752    20572868.540   108111156.603 8      2387.752    20572875.240    84242481.479 8      1860.586    20572876.100    84242486.481 8      1860.586
G32  24803664.740   130344134.599 6      3237.536    24803664.040   130344134.601 6      3237.536    24803678.940   101566917.432 6      2522.756    24803679.720   101566922.432 7      2522.756
G14  24057264.180   126421780.271 6      5853.455    24057263.120   126421780.284 4      5853.455    24057273.900    98510503.886 4      4561.134    24057274.580    98510515.900 7      4561.134
G21  20875984.080   109704023.347 8      1733.471    20875982.580   109704023.349 6      1733.471    20875986.500    85483670.833 6      1350.756
G03  22189619.740   116607239.992 6      6097.615    22189620.420   116607239.992 4      6097.615    22189628.900    90862822.766 4      4751.388    22189629.240    90862822.770 7      4751.388
G27  22298922.280   117181618.091 7       776.626    22298921.020   117181618.093 7       776.626    22298930.080    91310349.020 7       605.163    22298928.820    91310380.020 7       605.163
G10  24251623.280   127443135.898 6      -407.010    24251621.780   127443135.900 6      -407.010    24251635.000    99306388.815 6      -317.150    24251635.080    99306385.812 7      -317.150
R08  21098901.740   112983659.530 7      3601.698    21098900.700   112983659.564 7      3601.698    21098912.280    87876223.929 7      2801.321    21098912.180    87876223.933 8      2801.321
R01  22044191.640   117838842.911 5      6574.658    22044194.800   117838842.891 5      6574.658    22044209.080    91652505.205 5      5113.623    22044208.240    91652501.183 5      5113.623
R23  21051540.260   112611541.560 6      1727.849    21051539.440   112611541.569 6      1727.849
R14  21207482.220   113047811.774 7      3776.750    21207481.980   113047811.782 7      3776.750    21207492.140    87926119.447 7      2937.472    21207492.220    87926122.444 7      2937.472
R07  23092876.140   123617958.032 6       604.928    23092875.580   123617958.039 6       604.928    23092891.820    96147377.912 7       470.500    23092891.960    96147375.913 7       470.500
> 2024 06 03 12 30 24.0000000  0 16
G02  21300345.580   111934067.503 7      2709.564    21300343.560   111934067.508 6      2709.564    21300346.580    87221356.084 6      2111.349
R24  21358711.560   114214629.044 7      3779.650    21358710.620   114214629.051 7      3779.650    21358723.320    88833649.091 7      2939.728    21358723.180    88833646.087 7      2939.728
G16  23884457.900   125513666.278 5      -868.740    23884453.820   125513666.278 1      -868.740    23884469.440    97802894.754 1      -676.940
R22  23815652.980   127129575.143 7       670.720    23815653.680   127129575.154 7       670.720    23815670.080    98878622.703 7       521.671    23815670.240    98878623.705 7       521.671
G08  20572415.480   108108769.277 8      2386.846    20572414.260   108108769.282 8      2386.846    20572421.040    84240621.230 8      1859.880    20572421.800    84240626.234 8      1859.880
G32  24803048.840   130340897.407 7      3236.602    24803048.000   130340897.407 6      3236.602    24803062.980   101564394.948 6      2522.028    24803063.620   101564399.944 7      2522.028
G14  24056150.760   126415927.039 6      5852.744    24056149.140   126415927.049 4      5852.744    24056160.000    98505942.936 4      4560.580    24056160.300    98505954.961 7      4560.580
G21  20875654.380   109702290.139 8      1732.813    20875652.680   109702290.144 6      1732.813    20875656.680    85482320.284 6      1350.244
G03  22188459.740   116601142.504 6      6097.016    22188460.060   116601142.506 4      6097.016    22188468.580    90858071.480 4      4750.922    22188469.040    90858071.489 7      4750.922
G27  22298774.880   117180841.925 7       775.803    22298773.520   117180841.932 7       775.803    22298782.300    91309744.217 7       604.522    22298781.320    91309775.221 7       604.522
G10  24251701.000   127443543.424 6      -407.938    24251699.340   127443543.426 6      -407.938    24251712.400    99306706.361 6      -317.874    24251712.680    99306703.360 7      -317.874
R08  21098229.360   112980058.527 7      3600.412    21098228.000   112980058.566 7      3600.412    21098239.780    87873423.153 8      2800.321    21098239.640    87873423.155 7      2800.321
R01  22042962.140   117832268.599 5      6573.862    22042963.540   117832268.617 5      6573.862    22042978.660    91647391.889 5      5113.004    22042977.780    91647387.877 5      5113.004
R23  21051216.800   112609813.861 6      1727.273    21051216.480   112609813.871 6      1727.273
R14  21206773.660   113044035.681 7      3775.376    21206773.600   113044035.692 7      3775.376    21206783.740    87923182.486 7      2936.404    21206783.940    87923185.484 7      2936.404
R07  23092763.320   123617353.715 6       603.709    23092762.720   123617353.740 6       603.709    23092779.060    96146907.893 7       469.551    23092779.180    96146905.891 7       469.551
> 2024 06 03 12 30 25.0000000  0 16
G02  21299829.820   111931357.773 7      2709.647    21299827.860   111931357.781 6      2709.647    21299830.900    87219244.608 6      2111.413
R24  21358004.480   114210849.234 7      3779.808    21358003.680   114210849.227 7      3779.808    21358016.420    88830709.231 7      2939.851    21358016.480    88830706.230 7      2939.851
G16  23884622.640   125514534.544 5      -868.256    23884619.100   125514534.544 1      -868.256    23884634.540    97803571.309 1      -676.563
R22  23815527.160   127128904.105 6       671.203    23815528.080   127128904.095 7       671.203    23815544.100    98878100.766 7       522.047    23815544.380    98878101.762 7       522.047
G08  20571961.260   108106382.351 8      2386.805    20571960.100   108106382.351 8      2386.805    20571966.900    84238761.287 8      1859.848    20571967.760    84238766.287 8      1859.848
G32  24802433.060   130337660.694 7      3236.668    24802432.080   130337660.697 6      3236.668    24802446.940   101561872.830 6      2522.079    24802447.860   101561877.830 7      2522.079
G14  24055037.060   126410074.173 6      5852.726    24055035.300   126410074.183 4      5852.726    24055046.120    98501382.269 4      4560.566    24055046.140    98501394.283 7      4560.566
G21  20875324.700   109700557.155 8      1732.978    20875323.060   109700557.162 6      1732.978    20875326.860    85480969.908 6      1350.372
G03  22187299.760   116595045.441 6      6096.919    22187299.840   116595045.440 4      6096.919    22187308.160    90853320.524 4      4750.846    22187309.040    90853320.539 7      4750.846
G27  22298627.160   117180066.100 7       775.706    22298625.680   117180066.108 7       775.706    22298634.720    91309139.678 7       604.446    22298633.440    91309170.681 7       604.446
G10  24251778.580   127443951.199 6      -407.805    24251776.960   127443951.203 6      -407.805    24251790.040    99307024.108 6      -317.770    24251789.820    99307021.107 7      -317.770
R08  21097556.980   112976458.399 7      3599.753    21097555.700   112976458.433 7      3599.753    21097567.580    87870623.057 8      2799.808    21097567.220    87870623.059 8      2799.808
R01  22041733.000   117825694.630 6      6573.821    22041733.600   117825694.639 5      6573.821    22041750.040    91642278.793 5      5112.972    22041748.440    91642274.779 5      5112.972
R23  21050894.260   112608086.221 7      1727.690    21050893.720   112608086.239 6      1727.690
R14  21206065.660   113040260.507 7      3774.834    21206065.340   113040260.505 7      3774.834    21206075.520    87920246.235 7      2935.982    21206075.360    87920249.234 7      2935.982
R07  23092650.660   123616750.209 6       603.268    23092650.440   123616750.229 6       603.268    23092666.280    96146438.500 7       469.208    23092666.300    96146436.506 7       469.208
> 2024 06 03 12 30 26.0000000  0 16
G02  21299314.120   111928648.238 7      2709.557    21299312.400   111928648.245 6      2709.557    21299315.340    87217133.282 6      2111.343
R24  21357297.760   114207069.515 7      3779.782    21357296.680   114207069.514 7      3779.782    21357309.620    88827769.454 7      2939.830    21357309.480    88827766.455 8      2939.830
G16  23884788.060   125515402.923 5      -868.367    23884783.940   125515402.912 1      -868.367    23884799.780    97804247.955 1      -676.650
R22  23815401.480   127128233.013 6       671.218    23815402.520   127128233.009 7       671.218    23815418.280    98877578.800 7       522.058    23815418.680    98877579.800 7       522.058
G08  20571507.060   108103995.756 8      2386.501    20571505.820   108103995.760 8      2386.501    20571512.740    84236901.602 8      1859.611    20571513.560    84236906.606 8      1859.611
G32  24801817.240   130334424.447 7      3236.071    24801816.400   130334424.449 6      3236.071    24801831.180   101559351.080 6      2521.613    24801831.960   101559356.074 7      2521.613
G14  24053923.080   126404221.582 6      5852.537    24053921.720   126404221.594 4      5852.537    24053932.340    98496821.815 4      4560.419    24053932.600    98496833.833 7      4560.419
G21  20874994.840   109698824.367 8      1732.729    20874993.220   109698824.375 6      1732.729    20874997.160    85479619.680 6      1350.178
G03  22186139.640   116588948.675 6      6096.750    22186139.720   116588948.677 4      6096.750    22186148.080    90848569.805 4      4750.715    22186148.880    90848569.818 7      4750.715
G27  22298479.280   117179290.528 7       775.617    22298478.240   117179290.536 7       775.617    22298487.100    91308535.332 7       604.377    22298485.940    91308566.333 8       604.377
G10  24251855.940   127444359.228 6      -408.078    24251854.560   127444359.228 6      -408.078    24251867.600    99307342.047 6      -317.983    24251867.660    99307339.044 7      -317.983
R08  21096884.380   112972859.071 7      3598.995    21096883.800   112972859.113 7      3598.995    21096895.440    87867823.585 8      2799.218    21096895.120    87867823.587 8      2799.218
R01  22040503.200   117819120.807 6      6573.771    22040503.620   117819120.816 5      6573.771    22040519.820    91637165.834 5      5112.933    22040519.280    91637161.822 5      5112.933
R23  21050571.320   112606358.662 7      1727.547    21050570.520   112606358.682 6      1727.547
R14  21205357.380   113036486.213 8      3774.025    21205357.240   113036486.216 7      3774.025    21205367.540    87917310.675 7      2935.353    21205367.640    87917313.672 7      2935.353
R07  23092538.340   123616147.422 6       602.593    23092537.580   123616147.435 6       602.593    23092553.780    96145969.656 7       468.684    23092553.720    96145967.658 7       468.684
> 2024 06 03 12 30 27.0000000  0 16
G02  21298798.680   111925938.952 7      2709.254    21298796.860   111925938.962 6      2709.254    21298799.680    87215022.148 6      2111.107
R24  21356590.520   114203289.860 7      3779.728    21356589.700   114203289.878 7      3779.728    21356602.800    88824829.739 7      2939.789    21356602.600    88824826.740 7      2939.789
G16  23884954.100   125516271.523 5      -868.627    23884949.320   125516271.506 1      -868.627    23884965.400    97804924.772 1      -676.852
R22  23815275.560   127127561.901 6       671.290    23815276.780   127127561.891 7       671.290    23815293.060    98877056.820 7       522.115    23815292.780    98877057.817 7       522.115
G08  20571052.880   108101609.518 7      2386.167    20571051.820   108101609.522 8      2386.167    20571058.660    84235042.194 8      1859.351    20571059.580    84235047.196 8      1859.351
G32  24801201.680   130331188.640 6      3235.685    24801200.660   130331188.642 6      3235.685    24801215.460   101556829.672 6      2521.313    24801216.140   101556834.668 7      2521.313
G14  24052809.240   126398369.322 6      5852.218    24052808.080   126398369.337 4      5852.218    24052818.660    98492261.620 4      4560.170    24052819.260    98492273.633 7      4560.170
G21  20874665.320   109697091.779 7      1732.488    20874663.600   109697091.787 6      1732.488    20874667.380    85478269.612 6      1349.991
G03  22184980.040   116582852.300 6      6096.192    22184979.600   116582852.308 4      6096.192    22184987.780    90843819.388 4      4750.280    22184988.800    90843819.404 7      4750.280
G27  22298331.860   117178515.300 7       775.104    22298330.780   117178515.310 7       775.104    22298339.580    91307931.259 7       603.977    22298338.380    91307962.259 8       603.977
G10  24251933.940   127444767.529 6      -408.421    24251932.220   127444767.528 6      -408.421    24251945.400    99307660.193 6      -318.250    24251945.340    99307657.184 7      -318.250
R08  21096212.660   112969260.620 7      3598.180    21096212.000   112969260.648 7      3598.180    21096223.400    87865024.785 8      2798.585    21096223.080    87865024.789 8      2798.585
R01  22039273.580   117812547.286 6      6573.446    22039274.480   117812547.269 5      6573.446    22039289.320    91632053.077 5      5112.680    22039288.860    91632049.065 5      5112.680
R23  21050248.440   112604631.162 7      1727.530    21050247.740   112604631.171 6      1727.530
R14  21204649.960   113032712.846 8      3772.936    21204649.300   113032712.846 7      3772.936    21204659.760    87914375.834 7      2934.506    21204659.440    87914378.829 7      2934.506
R07  23092425.640   123615545.359 6       601.770    23092425.280   123615545.393 6       601.770    23092441.180    96145501.391 7       468.043    23092441.280    96145499.392 7       468.043
> 2024 06 03 12 30 28.0000000  0 16
G02  21298283.160   111923229.918 7      2708.854    21298281.340   111923229.928 6      2708.854    21298284.060    87212911.214 6      2110.795
R24  21355883.160   114199510.302 7      3779.499    21355882.940   114199510.327 7      3779.499    21355896.140    88821890.090 7      2939.610    21355896.040    88821887.090 7      2939.610
G16  23885120.280   125517140.254 5      -868.644    23885114.100   125517140.235 1      -868.644    23885129.920    97805601.697 1      -676.865
R22  23815150.240   127126890.791 6       671.196    23815150.840   127126890.792 7       671.196    23815167.080    98876534.847 7       522.042    23815167.220    98876535.853 7       522.042
G08  20570598.860   108099223.705 8      2385.581    20570597.780   108099223.707 8      2385.581    20570604.620    84233183.121 8      1858.895    20570605.560    84233188.121 8      1858.895
G32  24800586.060   130327953.364 6      3234.996    24800584.880   130327953.361 6      3234.996    24800599.900   101554308.676 6      2520.776    24800600.460   101554313.678 7      2520.776
G14  24051695.940   126392517.443 6      5851.659    24051694.460   126392517.461 4      5851.659    24051704.840    98487701.723 4      4559.734    24051705.680    98487713.725 7      4559.734
G21  20874335.620   109695359.423 8      1732.234    20874333.880   109695359.428 6      1732.234    20874337.840    85476919.723 6      1349.793
G03  22183819.700   116576756.270 6      6095.929    22183819.400   116576756.275 4      6095.929    22183827.840    90839069.238 4      4750.075    22183828.400    90839069.251 7      4750.075
G27  22298184.160   117177740.392 7       774.735    22298183.240   117177740.395 7       774.735    22298192.180    91307327.432 7       603.689    22298191.360    91307358.433 7       603.689
G10  24252011.680   127445176.092 6      -408.600    24252009.940   127445176.089 6      -408.600    24252023.100    99307978.544 6      -318.390    24252022.860    99307975.543 7      -318.390
R08  21095540.920   112965663.041 7      3597.132    21095539.980   112965663.080 7      3597.132    21095551.520    87862226.682 8      2797.769    21095551.300    87862226.684 8      2797.769
R01  22038044.280   117805973.998 6      6572.964    22038044.020   117805973.994 5      6572.964    22038060.040    91626940.547 5      5112.306    22038059.120    91626936.547 5      5112.306
R23  21049925.400   112602903.757 6      1727.315    21049925.020   112602903.772 6      1727.315
R14  21203942.160   113028940.364 8      3771.968    21203941.800   113028940.359 7      3771.968    21203951.940    87911441.684 7      2933.753    21203951.680    87911444.676 7      2933.753
R07  23092313.040   123614944.061 6       600.975    23092313.380   123614944.084 6       600.975    23092328.820    96145033.714 7       467.425    23092328.740    96145031.716 7       467.425
> 2024 06 03 12 30 29.0000000  0 16
G02  21297767.660   111920521.281 7      2708.528    21297765.820   111920521.288 6      2708.528    21297768.760    87210800.590 6      2110.542
R24  21355176.700   114195731.056 7      3779.094    21355176.300   114195731.076 7      3779.094    21355189.240    88818950.677 7      2939.295    21355189.280    88818947.671 7      2939.295
G16  23885284.640   125518009.337 5      -869.147    23885279.480   125518009.326 1      -869.147    23885294.820    97806278.894 1      -677.258
R22  23815024.320   127126219.863 6       670.897    23815025.140   127126219.863 7       670.897    23815041.620    98876013.008 6       521.809    23815041.660    98876014.014 6       521.809
G08  20570145.000   108096838.408 8      2385.148    20570143.880   108096838.410 8      2385.148    20570150.700    84231324.450 8      1858.557    20570151.520    84231329.450 8      1858.557
G32  24799970.560   130324718.703 6      3234.425    24799969.460   130324718.703 6      3234.425    24799984.320   101551788.169 6      2520.331    24799985.200   101551793.174 7      2520.331
G14  24050582.380   126386666.014 6      5851.425    24050581.020   126386666.032 4      5851.425    24050591.240    98483142.174 4      4559.552    24050592.460    98483154.176 7      4559.552
G21  20874005.860   109693627.452 8      1731.813    20874004.240   109693627.460 6      1731.813    20874008.160    85475570.136 6      1349.465
G03  22182659.640   116570660.773 6      6095.412    22182659.460   116570660.778 4      6095.412    22182667.920    90834319.505 4      4749.672    22182668.460    90834319.523 7      4749.672
G27  22298036.940   117176965.966 7       774.251    22298035.860   117176965.973 7       774.251    22298044.780    91306723.983 7       603.313    22298043.620    91306754.981 7       603.313
G10  24252089.480   127445585.128 6      -409.028    24252087.780   127445585.123 6      -409.028    24252100.840    99308297.267 6      -318.723    24252100.560    99308294.266 7      -318.723
R08  21094869.080   112962066.466 7      3596.183    21094868.300   112962066.502 7      3596.183    21094880.100    87859429.346 7      2797.031    21094879.640    87859429.346 8      2797.031
R01  22036813.780   117799401.087 6      6572.814    22036814.480   117799401.096 5      6572.814    22036830.320    91621828.299 5      5112.189    22036829.520    91621824.302 5      5112.189
R23  21049602.400   112601176.607 6      1726.993    21049601.960   112601176.622 6      1726.993
R14  21203234.520   113025168.890 8      3771.054    21203234.140   113025168.879 7      3771.054    21203244.560    87908508.313 7      2933.042    21203244.260    87908511.307 7      2933.042
R07  23092201.240   123614343.655 6       600.030    23092200.820   123614343.691 6       600.030    23092216.640    96144566.742 7       466.690    23092216.800    96144564.744 7       466.690
> 2024 06 03 12 30 30.0000000  0 16
G02  21297252.280   111917812.812 7      2708.378    21297250.440   111917812.817 6      2708.378    21297253.360    87208690.095 6      2110.424
R24  21354470.300   114191951.920 7      3779.095    21354469.920   114191951.927 7      3779.095    21354482.620    88816011.339 7      2939.296    21354482.360    88816008.332 7      2939.296
G16  23885450.020   125518878.488 5      -869.183    23885445.680   125518878.485 1      -869.183    23885459.460    97806956.141 1      -677.286
R22  23814898.700   127125548.819 7       671.101    23814899.160   127125548.818 7       671.101    23814915.980    98875491.079 7       521.967    23814916.140    98875492.079 7       521.967
G08  20569690.980   108094453.420 7      2384.828    20569690.040   108094453.428 8      2384.828    20569696.840    84229466.016 8      1858.308    20569697.640    84229471.018 8      1858.308
G32  24799355.000   130321484.460 7      3233.940    24799354.040   130321484.460 6      3233.940    24799368.840   101549267.978 6      2519.953    24799369.440   101549272.986 7      2519.953
G14  24049468.500   126380814.871 6      5851.077    24049467.400   126380814.889 4      5851.077    24049477.800    98478582.842 4      4559.281    24049478.580    98478594.850 7      4559.281
G21  20873676.540   109691895.606 8      1731.843    20873674.720   109691895.610 6      1731.843    20873678.760    85474220.641 6      1349.488
G03  22181499.520   116564565.578 6      6095.035    22181499.580   116564565.586 4      6095.035    22181508.000    90829570.006 4      4749.378    22181508.920    90829570.023 7      4749.378
G27  22297889.560   117176191.781 7       774.035    22297888.620   117176191.783 7       774.035    22297897.460    91306120.714 7       603.144    22297896.260    91306151.716 7       603.144
G10  24252167.120   127445994.346 6      -409.350    24252165.720   127445994.348 6      -409.350    24252178.660    99308616.138 6      -318.974    24252178.560    99308613.143 7      -318.974
R08  21094197.440   112958470.665 7      3595.374    21094196.520   112958470.698 7      3595.374    21094208.300    87856632.610 7      2796.402    21094208.140    87856632.612 7      2796.402
R01  22035583.740   117792828.405 6      6572.577    22035585.580   117792828.417 5      6572.577    22035600.720    91616716.226 5      5112.004    22035599.960    91616712.204 5      5112.004
R23  21049279.360   112599449.438 6      1727.134    21049279.140   112599449.448 6      1727.134
R14  21202527.380   113021398.196 8      3770.295    21202526.520   113021398.194 7      3770.295    21202537.060    87905575.555 7      2932.451    21202537.240    87905578.552 7      2932.451
R07  23092088.600   123613743.925 6       599.312    23092088.560   123613743.978 6       599.312    23092104.500    96144100.296 7       466.132    23092104.400    96144098.294 7       466.132
> 2024 06 03 12 30 31.0000000  0 16
G02  21296736.780   111915104.553 8      2707.982    21296735.060   111915104.560 6      2707.982    21296738.000    87206579.761 6      2110.116
R24  21353763.960   114188172.944 7      3778.817    21353763.260   114188172.951 7      3778.817    21353775.740    88813072.142 7      2939.080    21353775.680    88813069.135 8      2939.080
G16  23885616.400   125519747.765 5      -869.363    23885611.500   125519747.768 1      -869.363    23885625.000    97807633.498 1      -677.426
R22  23814773.180   127124877.728 7       670.942    23814773.620   127124877.734 7       670.942    23814790.000    98874969.123 7       521.844    23814790.620    98874970.123 7       521.844
G08  20569237.160   108092068.777 8      2384.315    20569236.260   108092068.785 8      2384.315    20569243.020    84227607.855 8      1857.907    20569243.820    84227612.857 8      1857.907
G32  24798739.460   130318250.632 7      3233.467    24798738.700   130318250.632 6      3233.467    24798753.380   101546748.118 6      2519.584    24798754.080   101546753.128 7      2519.584
G14  24048355.600   126374964.009 6      5850.679    24048354.100   126374964.027 4      5850.679    24048364.440    98474023.733 4      4558.970    24048365.320    98474035.739 7      4558.970
G21  20873346.820   109690163.966 8      1731.425    20873345.180   109690163.974 6      1731.425    20873349.100    85472871.312 6      1349.162
G03  22180339.700   116558470.722 6      6094.486    22180339.760   116558470.727 4      6094.486    22180348.180    90824820.774 4      4748.950    22180349.220    90824820.780 7      4748.950
G27  22297742.560   117175417.882 7       773.640    22297741.400   117175417.887 7       773.640    22297750.180    91305517.676 7       602.836    22297749.040    91305548.676 7       602.836
G10  24252245.200   127446403.810 6      -409.797    24252243.560   127446403.818 6      -409.797    24252256.640    99308935.199 6      -319.322    24252256.720    99308932.206 7      -319.322
R08  21093526.100   112954875.672 7      3594.512    21093525.400   112954875.711 7      3594.512    21093536.980    87853836.513 8      2795.731    21093536.580    87853836.517 8      2795.731
R01  22034354.340   117786255.892 5      6572.276    22034355.200   117786255.912 5      6572.276    22034371.060    91611604.286 5      5111.770    22034370.860    91611600.276 5      5111.770
R23  21048956.900   112597722.318 6      1727.017    21048956.280   112597722.322 6      1727.017
R14  21201820.180   113017628.347 8      3769.278    21201819.220   113017628.351 7      3769.278    21201829.940    87902643.459 7      2931.661    21201830.060    87902646.454 7      2931.661
R07  23091976.940   123613144.897 6       598.731    23091976.920   123613144.925 6       598.731    23091992.840    96143634.360 7       465.680    23091992.900    96143632.358 7       465.680
> 2024 06 03 12 30 32.0000000  0 16
G02  21296221.440   111912396.544 8      2707.802    21296219.660   111912396.549 6      2707.802    21296222.640    87204469.622 6      2109.976
R24  21353057.000   114184394.086 7      3778.817    21353056.160   114184394.082 7      3778.817    21353069.100    88810133.019 7      2939.080    21353068.960    88810130.017 8      2939.080
G16  23885780.720   125520617.253 5      -869.541    23885777.380   125520617.250 1      -869.541    23885791.160    97808311.010 1      -677.565
R22  23814647.180   127124206.656 7       670.959    23814648.020   127124206.662 7       670.959    23814664.240    98874447.172 7       521.857    23814664.800    98874448.171 7       521.857
G08  20568783.360   108089684.531 8      2383.939    20568782.520   108089684.538 8      2383.939    20568789.300    84225750.003 8      1857.615    20568790.300    84225755.003 8      1857.615
G32  24798124.020   130315017.314 7      3233.003    24798123.560   130315017.319 6      3233.003    24798138.140   101544228.651 6      2519.223    24798138.860   101544233.647 7      2519.223
G14  24047242.100   126369113.517 6      5850.285    24047240.820   126369113.538 4      5850.285    24047251.180    98469464.914 4      4558.663    24047251.800    98469476.931 7      4558.663
G21  20873017.420   109688432.545 8      1731.224    20873015.760   109688432.550 6      1731.224    20873019.660    85471522.150 6      1349.006
G03  22179180.340   116552376.213 6      6094.246    22179180.060   116552376.213 4      6094.246    22179188.300    90820071.806 4      4748.763    22179189.740    90820071.817 7      4748.763
G27  22297595.360   117174644.325 7       773.304    22297594.220   117174644.325 7       773.304    22297602.980    91304914.900 7       602.574    22297601.680    91304945.898 8       602.574
G10  24252323.080   127446813.548 6      -409.929    24252321.600   127446813.563 6      -409.929    24252334.640    99309254.473 6      -319.426    24252334.720    99309251.484 7      -319.426
R08  21092854.780   112951281.576 7      3593.710    21092854.220   112951281.621 7      3593.710    21092865.900    87851041.111 8      2795.108    21092865.420    87851041.114 8      2795.108
R01  22033124.900   117779683.649 5      6572.224    22033126.800   117779683.666 5      6572.224    22033142.000    91606492.539 5      5111.730    22033140.920    91606488.531 5      5111.730
R23  21048633.760   112595995.306 6      1726.812    21048633.080   112595995.327 6      1726.812
R14  21201112.700   113013859.402 8      3768.475    21201112.400   113013859.411 7      3768.475    21201122.800    87899712.064 7      2931.036    21201123.220    87899715.060 7      2931.036
R07  23091865.340   123612546.690 6       597.889    23091865.520   123612546.695 6       597.889    23091880.980    96143169.070 7       465.025    23091881.180    96143167.072 7       465.025
> 2024 06 03 12 30 33.0000000  0 16
G02  21295706.140   111909688.727 7      2707.566    21295704.460   111909688.726 6      2707.566    21295707.340    87202359.635 6      2109.791
R24  21352350.180   114180615.220 7      3778.740    21352349.580   114180615.222 7      3778.740    21352362.500    88807193.910 7      2939.020    21352362.540    88807190.905 8      2939.020
G16  23885947.160   125521486.854 5      -869.829    23885943.020   125521486.851 1      -869.829    23885956.320    97808988.613 1      -677.788
R22  23814520.920   127123535.506 7       671.209    23814522.480   127123535.509 7       671.209    23814539.080    98873925.164 7       522.051    23814539.020    98873926.160 7       522.051
G08  20568329.760   108087300.608 8      2383.652    20568328.960   108087300.613 8      2383.652    20568335.700    84223892.398 8      1857.391    20568336.520    84223897.400 8      1857.391
G32  24797508.900   130311784.416 7      3232.802    24797508.400   130311784.421 6      3232.802    24797523.040   101541709.508 6      2519.067    24797523.500   101541714.502 7      2519.067
G14  24046128.800   126363263.283 6      5850.061    24046127.380   126363263.304 4      5850.061    24046137.960    98464906.297 4      4558.489    24046138.520    98464918.313 7      4558.489
G21  20872688.100   109686701.279 8      1731.167    20872686.360   109686701.284 6      1731.167    20872690.360    85470173.114 6      1348.961
G03  22178020.520   116546282.027 6      6093.964    22178020.140   116546282.024 4      6093.964    22178028.780    90815323.094 4      4748.544    22178029.780    90815323.096 7      4748.544
G27  22297448.140   117173871.023 7       773.047    22297447.000   117173871.025 7       773.047    22297455.880    91304312.329 7       602.374    22297454.500    91304343.325 7       602.374
G10  24252401.200   127447223.538 6      -410.137    24252399.580   127447223.548 6      -410.137    24252412.800    99309573.936 6      -319.587    24252412.820    99309570.931 7      -319.587
R08  21092183.480   112947688.297 7      3592.796    21092183.260   112947688.337 7      3592.796    21092194.960    87848246.341 8      2794.397    21092194.640    87848246.341 8      2794.397
R01  22031895.560   117773111.630 5      6571.906    22031897.540   117773111.661 5      6571.906    22031911.500    91601381.008 5      5111.483    22031911.400    91601377.003 5      5111.483
R23  21048311.100   112594268.306 6      1726.839    21048310.620   112594268.316 6      1726.839
R14  21200406.040   113010091.329 8      3767.560    21200405.380   113010091.332 7      3767.560    21200415.860    87896781.340 7      2930.325    21200416.460    87896784.341 7      2930.325
R07  23091753.660   123611949.124 6       597.196    23091753.180   123611949.133 6       597.196    23091768.900    96142704.296 7       464.486    23091769.460    96142702.293 7       464.486
> 2024 06 03 12 30 34.0000000  0 16
G02  21295191.000   111906981.146 7      2707.266    21295189.180   111906981.151 6      2707.266    21295192.120    87200249.835 6      2109.558
R24  21351643.860   114176836.488 7      3778.416    21351642.960   114176836.489 7      3778.416    21351655.920    88804254.896 7      2938.768    21351655.840    88804251.893 8      2938.768
G16  23886112.920   125522356.628 5      -870.178    23886108.220   125522356.619 1      -870.178    23886122.120    97809666.341 1      -678.061
R22  23814395.380   127122864.393 7       670.933    23814396.780   127122864.391 7       670.933    23814413.300    98873403.186 7       521.836    23814413.220    98873404.179 7       521.836
G08  20567876.360   108084917.084 8      2383.137    20567875.260   108084917.094 8      2383.137    20567882.160    84222035.109 8      1856.990    20567883.240    84222040.109 8      1856.990
G32  24796894.060   130308552.070 7      3231.815    24796893.140   130308552.075 6      3231.815    24796907.920   101539190.793 6      2518.297    24796908.420   101539195.795 7      2518.297
G14  24045016.200   126357413.438 6      5849.531    24045014.020   126357413.456 4      5849.531    24045024.740    98460347.984 4      4558.076    24045025.340    98460359.986 7      4558.076
G21  20872358.820   109684970.273 8      1730.717    20872356.920   109684970.280 6      1730.717    20872360.840    85468824.280 6      1348.611
G03  22176861.040   116540188.212 6      6093.493    22176860.420   116540188.214 4      6093.493    22176869.060    90810574.668 4      4748.176    22176870.020    90810574.681 7      4748.176
G27  22297301.060   117173098.071 7       772.570    22297299.980   117173098.075 7       772.570    22297308.680    91303710.024 7       602.002    22297307.800    91303741.024 7       602.002
G10  24252479.100   127447633.825 6      -410.623    24252477.700   127447633.827 6      -410.623    24252490.880    99309893.628 6      -319.966    24252490.880    99309890.622 7      -319.966
R08  21091512.700   112944095.875 7      3591.813    21091512.620   112944095.912 7      3591.813    21091524.160    87845452.231 8      2793.632    21091523.760    87845452.231 8      2793.632
R01  22030667.100   117766539.922 5      6571.378    22030667.880   117766539.944 5      6571.378    22030682.760    91596269.656 5      5111.072    22030681.800    91596265.651 5      5111.072
R23  21047988.140   112592541.410 6      1726.584    21047987.820   112592541.419 6      1726.584
R14  21199699.120   113006324.186 8      3766.504    21199698.660   113006324.191 7      3766.504    21199709.100    87893851.341 7      2929.503    21199709.640    87893854.349 7      2929.503
R07  23091642.480   123611352.320 6       596.439    23091641.620   123611352.324 6       596.439    23091657.400    96142240.106 7       463.897    23091657.900    96142238.112 7       463.897
> 2024 06 03 12 30 35.0000000  0 16
G02  21294675.880   111904273.991 7      2706.845    21294674.040   111904273.998 6      2706.845    21294676.960    87198140.364 6      2109.230
R24  21350937.320   114173058.061 7      3778.191    21350936.580   114173058.065 7      3778.191    21350949.280    88801316.129 8      2938.593    21350949.560    88801313.123 7      2938.593
G16  23886277.480   125523226.720 5      -870.356    23886273.680   125523226.709 1      -870.356    23886287.600    97810344.324 1      -678.199
R22  23814269.840   127122193.427 6       670.868    23814270.720   127122193.412 7       670.868    23814287.320    98872881.303 7       521.786    23814287.540    98872882.306 7       521.786
G08  20567422.900   108082534.101 8      2382.663    20567421.820   108082534.106 8      2382.663    20567428.760    84220178.235 8      1856.621    20567429.820    84220183.237 8      1856.621
G32  24796278.920   130305320.315 6      3231.366    24796278.300   130305320.315 6      3231.366    24796292.800   101536672.542 6      2517.947    24796293.560   101536677.549 7      2517.947
G14  24043902.400   126351564.051 6      5849.082    24043900.800   126351564.066 4      5849.082    24043911.500    98455790.027 4      4557.726    24043912.520    98455802.046 7      4557.726
G21  20872029.520   109683239.632 8      1730.427    20872027.620   109683239.634 6      1730.427    20872031.560    85467475.722 6      1348.385
G03  22175701.480   116534094.949 6      6092.768    22175701.100   116534094.951 4      6092.768    22175709.540    90805826.679 4      4747.611    22175710.760    90805826.690 7      4747.611
G27  22297154.000   117172325.588 7       772.186    22297153.020   117172325.596 7       772.186    22297161.820    91303108.088 7       601.703    22297160.720    91303139.088 7       601.703
G10  24252556.960   127448044.537 6      -411.111    24252555.840   127448044.542 6      -411.111    24252568.920    99310213.663 6      -320.346    24252569.100    99310210.670 7      -320.346
R08  21090842.100   112940504.476 7      3590.829    21090841.740   112940504.520 7      3590.829    21090853.240    87842658.928 8      2792.867    21090853.160    87842658.928 8      2792.867
R01  22029437.700   117759968.553 5      6571.396    22029438.160   117759968.538 5      6571.396    22029454.080    91591158.596 5      5111.086    22029452.400    91591154.590 5      5111.086
R23  21047665.480   112590814.712 6      1726.568    21047664.840   112590814.732 6      1726.568
R14  21198992.880   113002558.098 8      3765.493    21198992.140   113002558.098 7      3765.493    21199002.540    87890922.160 7      2928.717    21199003.180    87890925.171 7      2928.717
R07  23091531.260   123610756.415 6       595.332    23091530.780   123610756.454 6       595.332    23091546.260    96141776.660 7       463.036    23091546.700    96141774.662 7       463.036
> 2024 06 03 12 30 36.0000000  0 16
G02  21294160.880   111901567.153 7      2706.757    21294158.960   111901567.156 6      2706.757    21294162.000    87196031.138 6      2109.162
R24  21350230.500   114169279.892 7      3778.198    21350229.600   114169279.904 7      3778.198    21350242.760    88798377.556 7      2938.598    21350242.800    88798374.560 8      2938.598
G16  23886443.600   125524097.014 5      -870.149    23886439.400   125524097.014 1      -870.149    23886452.960    97811022.469 1      -678.039
R22  23814144.620   127121522.526 7       670.951    23814145.180   127121522.513 7       670.951    23814161.600    98872359.486 7       521.851    23814161.740    98872360.494 7       521.851
G08  20566969.620   108080151.592 8      2382.385    20566968.540   108080151.599 7      2382.385    20566975.340    84218321.736 7      1856.404    20566976.080    84218326.736 8      1856.404
G32  24795663.900   130302089.136 7      3231.032    24795663.400   130302089.130 6      3231.032    24795677.840   101534154.738 6      2517.688    24795678.740   101534159.738 7      2517.688
G14  24042789.560   126345715.099 6      5848.920    24042787.900   126345715.114 4      5848.920    24042798.560    98451232.413 4      4557.600    24042799.540    98451244.432 7      4557.600
G21  20871700.140   109681509.301 8      1730.236    20871698.280   109681509.311 6      1730.236    20871702.300    85466127.417 6      1348.236
G03  22174541.320   116528002.119 6      6092.573    22174541.760   116528002.123 4      6092.573    22174550.040    90801079.023 4      4747.459    22174551.480    90801079.032 7      4747.459
G27  22297006.940   117171553.513 7       771.950    22297006.000   117171553.521 7       771.950    22297014.760    91302506.471 7       601.520    22297013.740    91302537.469 7       601.520
G10  24252635.300   127448455.618 6      -411.327    24252634.060   127448455.623 6      -411.327    24252647.220    99310533.980 6      -320.514    24252647.720    99310530.976 7      -320.514
R08  21090171.280   112936914.027 7      3590.105    21090171.180   112936914.072 7      3590.105    21090182.780    87839866.359 7      2792.304    21090182.680    87839866.359 8      2792.304
R01  22028208.460   117753397.587 5      6571.063    22028208.280   117753397.591 5      6571.063    22028224.660    91586047.861 5      5110.827    22028222.860    91586043.858 5      5110.827
R23  21047342.160   112589088.230 6      1726.515    21047342.100   112589088.248 7      1726.515
R14  21198286.500   112998792.980 8      3764.742    21198286.120   112998792.975 7      3764.742    21198296.480    87887993.729 7      2928.133    21198296.600    87887996.738 7      2928.133
R07  23091420.420   123610161.351 6       594.726    23091419.600   123610161.376 6       594.726    23091435.120    96141313.816 7       462.565    23091435.260    96141311.820 7       462.565
> 2024 06 03 12 30 37.0000000  0 16
G02  21293645.660   111898860.440 7      2706.685    21293643.900   111898860.447 6      2706.685    21293646.820    87193922.017 6      2109.105
R24  21349524.320   114165501.756 7      3778.192    21349523.660   114165501.758 7      3778.192    21349536.140    88795439.001 7      2938.594    21349536.600    88795436.009 8      2938.594
G16  23886609.320   125524967.427 5      -870.540    23886605.380   125524967.429 1      -870.540    23886618.580    97811700.707 1      -678.343
R22  23814019.060   127120851.496 7       671.096    23814019.400   127120851.489 7       671.096    23814036.000    98871837.580 7       521.964    23814036.180    98871838.576 7       521.964
G08  20566516.320   108077769.334 8      2382.149    20566515.200   108077769.342 8      2382.149    20566522.020    84216465.434 8      1856.220    20566523.180    84216470.434 8      1856.220
G32  24795049.140   130298858.303 6      3230.796    24795048.580   130298858.303 6      3230.796    24795063.080   101531637.212 6      2517.503    24795063.600   101531642.215 7      2517.503
G14  24041676.220   126339866.381 6      5848.681    24041674.920   126339866.396 4      5848.681    24041685.460    98446674.975 4      4557.414    24041686.580    98446686.995 7      4557.414
G21  20871370.820   109679779.060 8      1730.249    20871369.020   109679779.067 6      1730.249    20871373.000    85464779.173 6      1348.246
G03  22173382.140   116521909.512 6      6092.475    22173382.500   116521909.517 4      6092.475    22173390.580    90796331.540 4      4747.383    22173391.960    90796331.563 7      4747.383
G27  22296860.420   117170781.661 7       771.711    22296859.280   117170781.664 7       771.711    22296868.060    91301905.022 7       601.334    22296866.920    91301936.018 7       601.334
G10  24252713.980   127448866.832 6      -411.277    24252712.420   127448866.837 6      -411.277    24252725.380    99310854.405 6      -320.476    24252725.720    99310851.401 7      -320.476
R08  21089501.080   112933324.288 7      3589.479    21089501.260   112933324.327 7      3589.479    21089512.520    87837074.342 8      2791.817    21089512.480    87837074.340 8      2791.817
R01  22026979.120   117746826.755 5      6570.851    22026979.080   117746826.764 5      6570.851    22026995.660    91580937.227 5      5110.662    22026993.960    91580933.221 5      5110.662
R23  21047019.480   112587361.711 7      1726.542    21047019.340   112587361.721 7      1726.542
R14  21197580.540   112995028.611 8      3764.019    21197579.800   112995028.609 7      3764.019    21197590.120    87885065.893 7      2927.571    21197590.560    87885068.894 7      2927.571
R07  23091309.440   123609566.905 6       594.183    23091308.700   123609566.920 6       594.183    23091324.180    96140851.459 7       462.142    23091324.200    96140849.458 7       462.142
> 2024 06 03 12 30 38.0000000  0 16
G02  21293130.480   111896153.962 8      2706.345    21293128.800   111896153.970 6      2706.345    21293131.840    87191813.071 6      2108.840
R24  21348817.740   114161723.703 7      3777.968    21348816.820   114161723.710 7      3777.968    21348829.720    88792500.522 7      2938.419    21348829.900    88792497.536 8      2938.419
G16  23886774.580   125525837.949 5      -870.467    23886770.800   125525837.957 1      -870.467    23886784.020    97812379.028 1      -678.286
R22  23813892.920   127120180.463 7       671.111    23813893.640   127120180.456 7       671.111    23813910.300    98871315.664 7       521.975    23813910.580    98871316.659 7       521.975
G08  20566063.140   108075387.458 8      2381.746    20566061.900   108075387.463 8      2381.746    20566068.780    84214609.424 8      1855.906    20566069.820    84214614.424 8      1855.906
G32  24794434.440   130295627.967 7      3230.295    24794433.800   130295627.972 6      3230.295    24794448.380   101529120.068 6      2517.113    24794449.040   101529125.072 7      2517.113
G14  24040563.420   126334017.984 6      5848.206    24040562.020   126334017.994 4      5848.206    24040572.600    98442117.790 3      4557.044    24040573.360    98442129.809 7      4557.044
G21  20871041.700   109678049.039 8      1729.977    20871039.820   109678049.044 6      1729.977    20871043.940    85463431.104 6      1348.034
G03  22172223.180   116515817.297 6      6092.021    22172223.160   116515817.304 4      6092.021    22172231.300    90791584.365 4      4747.030    22172232.680    90791584.376 7      4747.030
G27  22296713.420   117170010.107 7       771.377    22296712.460   117170010.109 7       771.377    22296721.180    91301303.804 7       601.073    22296719.800    91301334.804 7       601.073
G10  24252792.200   127449278.333 6      -411.642    24252790.680   127449278.341 6      -411.642    24252803.760    99311175.048 6      -320.760    24252803.760    99311172.055 7      -320.760
R08  21088831.200   112929735.419 7      3588.432    21088830.900   112929735.466 7      3588.432    21088842.340    87834283.005 8      2791.003    21088842.080    87834283.010 8      2791.003
R01  22025751.220   117740256.199 5      6570.449    22025749.180   117740256.189 5      6570.449    22025766.160    91575826.779 5      5110.349    22025764.340    91575822.774 5      5110.349
R23  21046696.640   112585635.283 7      1726.298    21046696.720   112585635.301 7      1726.298
R14  21196874.500   112991265.157 8      3762.927    21196874.000   112991265.160 7      3762.927    21196884.340    87882138.768 7      2926.721    21196884.360    87882141.762 7      2926.721
R07  23091198.360   123608973.189 6       593.428    23091197.860   123608973.215 6       593.428    23091213.220    96140389.691 7       461.555    23091213.580    96140387.690 7       461.555
> 2024 06 03 12 30 39.0000000  0 16
G02  21292615.640   111893447.679 8      2706.117    21292613.980   111893447.687 6      2706.117    21292616.900    87189704.284 6      2108.663
R24  21348111.300   114157945.743 7      3777.849    21348110.020   114157945.739 7      3777.849    21348123.040    88789562.103 7      2938.327    21348123.520    88789559.113 7      2938.327
G16  23886940.640   125526708.625 5      -870.699    23886936.880   125526708.635 1      -870.699    23886949.720    97813057.462 1      -678.466
R22  23813767.260   127119509.372 7       671.021    23813767.840   127119509.373 7       671.021    23813784.540    98870793.700 7       521.905    23813784.680    98870794.693 7       521.905
G08  20565609.960   108073005.921 8      2381.350    20565608.680   108073005.928 8      2381.350    20565615.580    84212753.681 8      1855.598    20565616.520    84212758.683 8      1855.598
G32  24793819.680   130292398.099 7      3229.549    24793819.300   130292398.101 6      3229.549    24793833.800   101526603.287 6      2516.532    24793834.400   101526608.291 7      2516.532
G14  24039450.440   126328169.865 6      5847.960    24039449.040   126328169.878 4      5847.960    24039459.740    98437560.825 3      4556.852    24039460.900    98437572.839 7      4556.852
G21  20870712.500   109676319.186 8      1729.733    20870710.620   109676319.194 6      1729.733    20870714.620    85462083.169 6      1347.844
G03  22171063.920   116509725.405 6      6091.589    22171064.040   116509725.410 4      6091.589    22171072.120    90786837.436 4      4746.693    22171073.220    90786837.449 7      4746.693
G27  22296566.560   117169238.828 7       771.102    22296565.680   117169238.833 7       771.102    22296574.300    91300702.808 7       600.858    22296572.940    91300733.810 7       600.858
G10  24252870.500   127449690.068 6      -411.849    24252869.060   127449690.075 6      -411.849    24252882.140    99311495.874 6      -320.922    24252881.940    99311492.871 7      -320.922
R08  21088161.000   112926147.382 7      3587.552    21088160.920   112926147.421 7      3587.552    21088172.280    87831492.306 8      2790.318    21088171.920    87831492.306 8      2790.318
R01  22024521.360   117733685.802 5      6570.150    22024520.620   117733685.790 5      6570.150    22024537.680    91570716.482 5      5110.117    22024535.940    91570712.476 5      5110.117
R23  21046374.320   112583908.866 7      1726.281    21046374.020   112583908.881 7      1726.281
R14  21196168.680   112987502.592 8      3761.954    21196168.240   112987502.595 8      3761.954    21196178.440    87879212.331 7      2925.964    21196178.680    87879215.321 7      2925.964
R07  23091087.580   123608380.242 6       592.595    23091087.560   123608380.257 6       592.595    23091102.240    96139928.499 7       460.907    23091102.840    96139926.497 7       460.907
> 2024 06 03 12 30 40.0000000  0 16
G02  21292100.640   111890741.352 8      2706.288    21292098.920   111890741.354 6      2706.288    21292101.800    87187595.455 6      2108.796
R24  21347404.560   114154167.589 7      3778.192    21347403.320   114154167.593 7      3778.192    21347416.540    88786623.548 7      2938.594    21347416.720    88786620.552 7      2938.594
G16  23887107.020   125527579.121 5      -870.118    23887102.760   125527579.126 1      -870.118    23887115.400    97813735.761 1      -678.014
R22  23813641.740   127118837.974 7       671.565    23813642.160   127118837.969 7       671.565    23813658.980    98870271.497 7       522.328    23813658.680    98870272.493 7       522.328
G08  20565156.580   108070624.473 8      2381.302    20565155.560   108070624.480 8      2381.302    20565162.380    84210898.007 8      1855.560    20565163.140    84210903.009 8      1855.560
G32  24793204.860   130289168.370 7      3229.613    24793204.660   130289168.375 6      3229.613    24793219.320   101524086.615 6      2516.581    24793220.020   101524091.617 7      2516.581
G14  24038337.760   126322321.801 6      5848.053    24038336.140   126322321.811 4      5848.053    24038346.960    98433003.898 3      4556.924    24038348.040    98433015.915 7      4556.924
G21  20870383.340   109674589.260 8      1729.988    20870381.500   109674589.265 6      1729.988    20870385.460    85460735.171 6      1348.043
G03  22169904.620   116503633.563 6      6091.782    22169904.720   116503633.570 4      6091.782    22169912.920    90782090.553 4      4746.843    22169914.060    90782090.561 7      4746.843
G27  22296419.760   117168467.572 7       771.272    22296418.920   117168467.580 7       771.272    22296427.640    91300101.830 7       600.991    22296426.280    91300132.828 7       600.991
G10  24252948.900   127450101.800 6      -411.784    24252947.380   127450101.810 6      -411.784    24252960.460    99311816.703 6      -320.871    24252960.100    99311813.699 7      -320.871
R08  21087491.120   112922559.884 7      3587.164    21087490.780   112922559.923 7      3587.164    21087502.420    87828702.032 7      2790.017    21087502.180    87828702.034 8      2790.017
R01  22023292.960   117727115.393 5      6570.071    22023291.280   117727115.397 5      6570.071    22023308.320    91565606.182 5      5110.055    22023307.220    91565602.170 5      5110.055
R23  21046051.620   112582182.238 7      1726.627    21046051.500   112582182.250 7      1726.627
R14  21195462.920   112983740.625 8      3761.588    21195462.460   112983740.620 8      3761.588    21195472.620    87876286.352 7      2925.680    21195472.940    87876289.336 7      2925.680
R07  23090977.040   123607787.753 7       592.171    23090975.700   123607787.765 6       592.171    23090991.580    96139467.672 7       460.577    23090991.860    96139465.674 7       460.577
> 2024 06 03 12 30 41.0000000  0 16
G02  21291585.980   111888035.211 7      2705.983    21291583.920   111888035.216 6      2705.983    21291586.780    87185486.769 6      2108.558
R24  21346698.160   114150389.594 7      3777.859    21346697.040   114150389.590 7      3777.859    21346709.940    88783685.104 7      2938.335    21346710.020    88783682.106 7      2938.335
G16  23887272.520   125528449.810 5      -870.816    23887267.960   125528449.815 1      -870.816    23887281.440    97814414.211 1      -678.558
R22  23813515.600   127118166.533 7       671.444    23813516.760   127118166.534 7       671.444    23813533.080    98869749.266 7       522.234    23813533.020    98869750.267 7       522.234
G08  20564703.640   108068243.350 8      2380.890    20564702.420   108068243.358 7      2380.890    20564709.320    84209042.587 8      1855.239    20564709.900    84209047.587 8      1855.239
G32  24792590.620   130285939.096 7      3229.058    24792590.080   130285939.103 6      3229.058    24792604.720   101521570.299 6      2516.149    24792605.600   101521575.301 7      2516.149
G14  24037224.260   126316474.040 6      5847.557    24037223.520   126316474.050 4      5847.557    24037234.120    98428447.209 3      4556.538    24037234.780    98428459.226 7      4556.538
G21  20870054.120   109672859.523 8      1729.617    20870052.180   109672859.528 6      1729.617    20870056.260    85459387.322 6      1347.754
G03  22168745.200   116497542.081 6      6091.181    22168745.420   116497542.085 4      6091.181    22168753.860    90777343.947 4      4746.375    22168754.360    90777343.956 7      4746.375
G27  22296273.160   117167696.617 7       770.787    22296272.240   117167696.619 7       770.787    22296280.920    91299501.075 7       600.613    22296279.560    91299532.073 7       600.613
G10  24253027.860   127450513.752 6      -412.151    24253025.760   127450513.763 6      -412.151    24253038.860    99312137.701 6      -321.156    24253038.720    99312134.695 7      -321.156
R08  21086821.380   112918973.173 7      3586.255    21086820.760   112918973.220 7      3586.255    21086832.420    87825912.378 7      2789.309    21086832.520    87825912.378 8      2789.309
R01  22022062.840   117720545.117 5      6569.896    22022061.740   117720545.142 5      6569.896    22022078.240    91560496.007 5      5109.919    22022077.960    91560491.997 5      5109.919
R23  21045728.800   112580455.649 7      1726.516    21045728.480   112580455.664 7      1726.516
R14  21194757.220   112979979.470 8      3760.731    21194757.020   112979979.463 7      3760.731    21194767.200    87873361.012 7      2925.013    21194767.560    87873363.994 7      2925.013
R07  23090866.220   123607195.989 7       591.054    23090865.360   123607196.020 6       591.054    23090880.900    96139007.423 7       459.709    23090881.520    96139005.425 7       459.709
> 2024 06 03 12 30 42.0000000  0 16
G02  21291071.100   111885329.362 7      2705.791    21291068.900   111885329.369 6      2705.791    21291071.900    87183378.320 6      2108.409
R24  21345991.480   114146611.760 7      3777.926    21345990.800   114146611.756 7      3777.926    21346003.460    88780746.789 7      2938.387    21346003.440    88780743.788 7      2938.387
G16  23887438.120   125529320.664 5      -871.055    23887434.060   125529320.671 1      -871.055    23887447.300    97815092.788 1      -678.744
R22  23813389.980   127117495.114 6       671.417    23813390.920   127117495.128 7       671.417    23813407.300    98869227.055 7       522.213    23813407.220    98869228.058 7       522.213
G08  20564250.500   108065862.667 8      2380.600    20564249.380   108065862.672 8      2380.600    20564256.280    84207187.503 8      1855.013    20564257.080    84207192.507 8      1855.013
G32  24791976.060   130282710.362 7      3228.602    24791975.680   130282710.367 6      3228.602    24791990.260   101519054.405 6      2515.794    24791991.380   101519059.405 7      2515.794
G14  24036112.080   126310626.670 6      5847.165    24036110.780   126310626.680 4      5847.165    24036121.240    98423890.825 3      4556.232    24036122.080    98423902.838 7      4556.232
G21  20869724.800   109671130.039 8      1729.441    20869723.120   109671130.044 6      1729.441    20869727.360    85458039.673 6      1347.617
G03  22167586.460   116491450.969 6      6091.022    22167586.320   116491450.974 4      6091.022    22167594.700    90772597.633 4      4746.251    22167595.000    90772597.639 7      4746.251
G27  22296126.600   117166926.008 7       770.573    22296125.600   117166926.013 7       770.573    22296134.260    91298900.600 7       600.446    22296132.780    91298931.600 7       600.446
G10  24253105.900   127450926.021 6      -412.280    24253104.240   127450926.025 6      -412.280    24253117.120    99312458.938 6      -321.257    24253117.480    99312455.937 7      -321.257
R08  21086151.880   112915387.383 7      3585.335    21086151.420   112915387.425 7      3585.335    21086162.920    87823123.424 8      2788.594    21086162.640    87823123.426 8      2788.594
R01  22020834.280   117713975.193 5      6569.850    22020834.100   117713975.216 5      6569.850    22020850.020    91555386.054 5      5109.883    22020849.340    91555382.057 5      5109.883
R23  21045406.300   112578729.216 6      1726.372    21045405.760   112578729.225 6      1726.372
R14  21194051.720   112976219.214 8      3759.914    21194051.500   112976219.209 7      3759.914    21194061.860    87870436.364 7      2924.377    21194062.240    87870439.356 7      2924.377
R07  23090755.320   123606605.001 6       590.679    23090755.600   123606605.011 6       590.679    23090770.580    96138547.748 7       459.417    23090770.940    96138545.745 7       459.417
> 2024 06 03 12 30 43.0000000  0 16
G02  21290555.900   111882623.765 7      2705.400    21290554.220   111882623.770 6      2705.400    21290557.120    87181270.060 6      2108.104
R24  21345285.160   114142834.041 7      3777.650    21345284.480   114142834.037 7      3777.650    21345297.060    88777808.565 7      2938.172    21345297.040    88777805.560 7      2938.172
G16  23887603.400   125530191.660 5      -871.046    23887600.220   125530191.659 1      -871.046    23887612.380    97815771.478 1      -678.737
R22  23813264.300   127116823.718 7       671.359    23813264.800   127116823.714 7       671.359    23813281.640    98868704.839 7       522.168    23813281.620    98868705.835 7       522.168
G08  20563797.640   108063482.380 8      2379.965    20563796.500   108063482.385 8      2379.965    20563803.340    84205332.736 8      1854.518    20563804.180    84205337.738 8      1854.518
G32  24791361.740   130279482.126 7      3227.923    24791361.540   130279482.128 6      3227.923    24791376.120   101516538.888 6      2515.264    24791376.780   101516543.890 7      2515.264
G14  24034999.660   126304779.626 6      5846.770    24034998.080   126304779.633 4      5846.770    24035008.540    98419334.695 3      4555.925    24035009.720    98419346.693 7      4555.925
G21  20869395.660   109669400.780 8      1729.019    20869394.120   109669400.787 6      1729.019    20869398.280    85456692.199 6      1347.287
G03  22166427.760   116485360.265 6      6090.385    22166427.280   116485360.270 4      6090.385    22166435.640    90767851.631 4      4745.755    22166435.960    90767851.642 7      4745.755
G27  22295979.920   117166155.754 7       769.992    22295978.980   117166155.753 7       769.992    22295987.680    91298300.396 7       599.994    22295986.360    91298331.394 7       599.994
G10  24253184.420   127451338.599 6      -412.831    24253182.720   127451338.606 6      -412.831    24253195.780    99312780.421 6      -321.686    24253196.020    99312777.420 7      -321.686
R08  21085482.380   112911802.444 7      3584.456    21085481.840   112911802.483 7      3584.456    21085493.400    87820335.140 8      2787.910    21085493.120    87820335.143 8      2787.910
R01  22019605.440   117707405.559 5      6569.365    22019604.200   117707405.568 5      6569.365    22019620.920    91550276.353 5      5109.506    22019620.540    91550272.343 5      5109.506
R23  21045083.360   112577002.857 6      1726.164    21045083.000   112577002.875 6      1726.164
R14  21193346.660   112972459.832 8      3758.800    21193346.140   112972459.830 7      3758.800    21193356.740    87867512.406 7      2923.511    21193357.240    87867515.413 8      2923.511
R07  23090645.280   123606014.728 6       589.741    23090644.720   123606014.772 6       589.741    23090660.520    96138088.671 7       458.688    23090660.600    96138086.679 7       458.688
> 2024 06 03 12 30 44.0000000  0 16
G02  21290041.380   111879918.349 7      2705.234    21290039.400   111879918.359 6      2705.234    21290042.260    87179161.944 6      2107.974
R24  21344578.540   114139056.360 7      3777.568    21344578.100   114139056.369 7      3777.568    21344590.700    88774870.374 7      2938.108    21344590.660    88774867.372 7      2938.108
G16  23887768.260   125531062.845 5      -871.176    23887766.140   125531062.844 1      -871.176    23887778.980    97816450.309 1      -678.839
R22  23813138.280   127116152.253 7       671.425    23813139.080   127116152.254 7       671.425    23813156.060    98868182.591 7       522.219    23813155.960    98868183.588 7       522.219
G08  20563344.920   108061102.409 8      2379.736    20563343.520   108061102.411 8      2379.736    20563350.440    84203478.209 8      1854.340    20563351.300    84203483.211 8      1854.340
G32  24790747.780   130276254.304 7      3227.580    24790747.220   130276254.304 6      3227.580    24790761.780   101514023.701 6      2514.997    24790762.560   101514028.694 7      2514.997
G14  24033887.280   126298932.850 6      5846.516    24033885.620   126298932.857 4      5846.516    24033895.980    98414778.768 3      4555.727    24033896.520    98414790.768 7      4555.727
G21  20869066.480   109667671.679 7      1728.926    20869065.100   109667671.686 6      1728.926    20869069.080    85455344.843 6      1347.215
G03  22165268.660   116479269.841 6      6090.136    22165268.440   116479269.849 4      6090.136    22165276.700    90763105.845 4      4745.561    22165277.240    90763105.858 7      4745.561
G27  22295833.260   117165385.744 7       769.802    22295832.600   117165385.749 7       769.802    22295841.320    91297700.382 7       599.846    22295840.380    91297731.384 7       599.846
G10  24253263.220   127451751.358 6      -412.811    24253261.340   127451751.371 6      -412.811    24253274.320    99313102.046 6      -321.671    24253274.200    99313099.051 7      -321.671
R08  21084812.640   112908218.362 7      3583.580    21084812.500   112908218.407 7      3583.580    21084824.280    87817547.527 8      2787.229    21084823.820    87817547.532 8      2787.229
R01  22018376.400   117700836.055 5      6569.392    22018375.440   117700836.075 5      6569.392    22018391.780    91545166.743 5      5109.527    22018390.980    91545162.740 5      5109.527
R23  21044760.720   112575276.517 6      1726.205    21044760.260   112575276.535 6      1726.205
R14  21192641.780   112968701.295 8      3758.017    21192641.060   112968701.304 7      3758.017    21192651.560    87864589.106 7      2922.902    21192652.400    87864592.117 8      2922.902
R07  23090535.280   123605425.185 6       589.211    23090534.520   123605425.208 6       589.211    23090550.400    96137630.115 7       458.275    23090550.900    96137628.108 7       458.275
> 2024 06 03 12 30 45.0000000  0 16
G02  21289526.500   111877213.288 7      2705.198    21289524.700   111877213.298 6      2705.198    21289527.420    87177054.108 6      2107.946
R24  21343872.520   114135278.932 7      3777.582    21343871.840   114135278.936 7      3777.582    21343884.140    88771932.381 7      2938.119    21343884.320    88771929.377 7      2938.119
G16  23887934.480   125531934.327 5      -871.332    23887932.080   125531934.326 1      -871.332    23887944.940    97817129.376 1      -678.960
R22  23813012.860   127115480.938 6       671.474    23813013.180   127115480.939 7       671.474    23813029.940    98867660.451 7       522.258    23813030.080    98867661.446 7       522.258
G08  20562891.940   108058722.963 8      2379.433    20562890.820   108058722.968 8      2379.433    20562897.700    84201624.097 8      1854.103    20562898.300    84201629.101 8      1854.103
G32  24790133.740   130273027.114 7      3227.007    24790133.120   130273027.116 6      3227.007    24790147.620   101511509.010 6      2514.551    24790148.500   101511514.015 7      2514.551
G14  24032774.560   126293086.555 6      5846.283    24032773.300   126293086.565 4      5846.283    24032783.280    98410223.217 3      4555.545    24032784.600    98410235.211 7      4555.545
G21  20868737.800   109665942.925 8      1728.874    20868736.160   109665942.932 6      1728.874    20868740.220    85453997.766 6      1347.175
G03  22164109.860   116473179.957 6      6089.834    22164109.560   116473179.962 4      6089.834    22164117.760    90758360.483 4      4745.325    22164119.060    90758360.493 7      4745.325
G27  22295687.400   117164616.220 7       769.535    22295686.160   117164616.222 7       769.535    22295694.800    91297100.753 7       599.638    22295693.500    91297131.753 7       599.638
G10  24253341.400   127452164.577 6      -413.125    24253340.220   127452164.587 6      -413.125    24253352.900    99313424.031 6      -321.915    24253352.680    99313421.030 7      -321.915
R08  21084143.860   112904635.244 7      3582.945    21084143.660   112904635.286 7      3582.945    21084155.380    87814760.658 8      2786.735    21084154.700    87814760.660 8      2786.735
R01  22017147.560   117694267.049 5      6569.163    22017146.300   117694267.045 5      6569.163    22017162.960    91540057.516 5      5109.349    22017161.940    91540053.508 5      5109.349
R23  21044437.860   112573550.408 7      1726.136    21044437.780   112573550.423 6      1726.136
R14  21191936.140   112964943.819 7      3757.267    21191935.940   112964943.833 7      3757.267    21191946.580    87861666.630 7      2922.319    21191947.540    87861669.646 7      2922.319
R07  23090424.980   123604836.470 6       588.559    23090424.820   123604836.506 6       588.559    23090440.380    96137172.242 7       457.768    23090440.580    96137170.250 7       457.768
> 2024 06 03 12 30 46.0000000  0 16
G02  21289011.620   111874508.432 7      2704.713    21289009.960   111874508.439 6      2704.713    21289012.800    87174946.424 6      2107.568
R24  21343166.180   114131501.595 7      3777.261    21343165.340   114131501.608 7      3777.261    21343177.820    88768994.461 7      2937.870    21343177.780    88768991.457 8      2937.870
G16  23888100.440   125532805.798 5      -871.295    23888098.140   125532805.808 1      -871.295    23888110.400    97817808.432 1      -678.931
R22  23812886.820   127114809.516 7       671.460    23812887.620   127114809.511 7       671.460    23812904.280    98867138.227 7       522.247    23812904.080    98867139.220 7       522.247
G08  20562439.320   108056343.811 8      2378.958    20562438.020   108056343.819 8      2378.958    20562444.920    84199770.213 8      1853.733    20562445.840    84199775.215 8      1853.733
G32  24789519.740   130269800.285 7      3226.527    24789519.060   130269800.298 6      3226.527    24789533.660   101508994.605 6      2514.177    24789534.660   101508999.611 7      2514.177
G14  24031662.240   126287240.519 6      5845.958    24031661.080   126287240.527 4      5845.958    24031670.880    98405667.865 4      4555.292    24031671.580    98405679.859 7      4555.292
G21  20868408.760   109664214.333 7      1728.536    20868407.180   109664214.338 6      1728.536    20868411.260    85452650.810 6      1346.911
G03  22162950.480   116467090.338 6      6089.375    22162950.680   116467090.340 4      6089.375    22162958.920    90753615.329 4      4744.967    22162960.280    90753615.331 7      4744.967
G27  22295540.620   117163846.917 7       769.170    22295539.640   117163846.914 7       769.170    22295548.360    91296501.288 7       599.353    22295546.880    91296532.288 7       599.353
G10  24253420.240   127452577.991 6      -413.622    24253418.880   127452578.001 6      -413.622    24253431.620    99313746.163 6      -322.303    24253431.380    99313743.160 7      -322.303
R08  21083474.720   112901052.863 7      3581.999    21083474.520   112901052.899 7      3581.999    21083486.100    87811974.363 8      2785.999    21083485.800    87811974.363 8      2785.999
R01  22015919.280   117687698.158 5      6568.776    22015917.300   117687698.161 5      6568.776    22015933.740    91534948.399 5      5109.048    22015933.000    91534944.387 5      5109.048
R23  21044115.140   112571824.269 7      1726.099    21044115.140   112571824.281 6      1726.099
R14  21191231.560   112961187.233 8      3756.173    21191231.240   112961187.241 7      3756.173    21191241.660    87858744.831 7      2921.468    21191242.500    87858747.852 7      2921.468
R07  23090315.500   123604248.423 6       587.698    23090314.720   123604248.468 6       587.698    23090330.560    96136714.873 7       457.098    23090330.840    96136712.862 7       457.098
> 2024 06 03 12 30 47.0000000  0 16
G02  21588289.880   113447226.547 7      2704.620    21588288.260   113447226.550 6      2704.620    21588291.220    88400441.060 6      2107.496
R24  21642252.820   115730853.227 7      3777.125    21642252.120   115730853.244 7      3777.125    21642264.600    90012934.621 7      2937.764    21642264.820    90012931.625 8      2937.764
G16  24188060.000   127109096.770 5      -871.819    24188055.420   127109096.786 1      -871.819    24188068.500    99046087.096 1      -679.339
R22  24112553.900   128714451.322 7       671.459    24112554.340   128714451.320 7       671.459    24112571.260   100111304.066 7       522.246    24112571.000   100111305.064 7       522.246
G08  20861779.520   109629387.471 8      2378.683    20861778.300   109629387.479 8      2378.683    20861785.140    85425518.519 8      1853.519    20861786.140    85425523.523 8      1853.519
G32  25088698.660   131841997.259 7      3226.191    25088698.220   131841997.264 6      3226.191    25088712.680   102734083.154 6      2513.915    25088713.500   102734088.150 7      2513.915
G14  24330343.520   127856820.719 6      5845.646    24330342.360   127856820.732 4      5845.646    24330352.040    99628717.374 4      4555.049    24330353.160    99628729.372 7      4555.049
G21  21167872.700   111237907.747 8      1728.288    21167871.040   111237907.751 6      1728.288    21167875.020    86678905.416 6      1346.718
G03  22461585.560   118036427.230 6      6089.108    22461585.640   118036427.229 4      6089.108    22461594.040    91976475.247 4      4744.760    22461594.820    91976475.247 7      4744.760
G27  22595186.900   118738498.770 7       768.876    22595186.080   118738498.772 7       768.876    22595194.720    92523502.734 7       599.124    22595193.420    92523533.734 7       599.124
G10  24553291.060   129028411.281 6      -413.675    24553290.080   129028411.288 6      -413.675    24553302.840   100541668.199 6      -322.344    24553303.020   100541665.204 7      -322.344
R08  21382599.320   114502849.995 7      3581.129    21382598.800   114502850.029 7      3581.129    21382610.200    89057816.575 8      2785.322    21382610.340    89057816.578 8      2785.322
R01  22314483.180   119283698.707 5      6568.548    22314481.320   119283698.695 5      6568.548    22314499.420    92776282.147 5      5108.871    22314498.020    92776278.129 5      5108.871
R23  21343585.200   114173787.504 7      1726.127    21343585.500   114173787.506 7      1726.127
R14  21490320.100   114555497.835 8      3755.375    21490319.680   114555497.838 7      3755.375    21490330.360    89098764.194 7      2920.847    21490331.240    89098767.203 7      2920.847
R07  23389998.520   125208474.288 6       587.082    23389997.480   125208474.303 6       587.082    23390013.720    97384446.075 7       456.619    23390013.560    97384444.085 7       456.619
> 2024 06 03 12 30 48.0000000  0 16
G02  21587775.320   113444522.109 7      2704.291    21587773.620   113444522.117 6      2704.291    21587776.500    88398333.709 6      2107.240
R24  21641546.340   115727076.131 7      3776.948    21641546.060   115727076.135 7      3776.948    21641558.280    90009996.871 7      2937.626    21641558.300    90009993.871 7      2937.626
G16  24188226.200   127109968.525 5      -871.869    24188221.440   127109968.541 1      -871.869    24188234.600    99046766.377 1      -679.378
R22  24112428.480   128713779.820 7       671.515    24112428.520   128713779.813 7       671.515    24112445.240   100110781.785 7       522.290    24112445.280   100110782.786 7       522.290
G08  20861326.800   109627009.045 8      2378.153    20861325.680   109627009.052 8      2378.153    20861332.560    85423665.200 8      1853.106    20861333.460    85423670.202 8      1853.106
G32  25088084.800   131838771.369 6      3225.662    25088084.240   131838771.371 6      3225.662    25088098.640   102731569.469 6      2513.503    25088100.140   102731574.469 7      2513.503
G14  24329231.140   127850975.325 6      5845.178    24329230.020   127850975.335 4      5845.178    24329239.560    99624162.525 4      4554.684    24329240.960    99624174.535 7      4554.684
G21  21167543.900   111236179.536 8      1728.024    21167542.200   111236179.541 6      1728.024    21167546.200    86677558.758 6      1346.512
G03  22460426.940   118030338.283 6      6088.711    22460426.900   118030338.283 4      6088.711    22460435.380    91971730.617 4      4744.450    22460436.000    91971730.629 7      4744.450
G27  22595040.620   118737730.055 7       768.514    22595039.780   118737730.058 7       768.514    22595048.440    92522903.734 7       598.842    22595047.160    92522934.736 7       598.842
G10  24553369.960   129028825.186 6      -414.003    24553368.800   129028825.191 6      -414.003    24553381.620   100541990.716 6      -322.599    24553381.740   100541987.715 7      -322.599
R08  21381930.680   114499269.301 7      3580.251    21381929.900   114499269.337 7      3580.251    21381941.720    89055031.597 7      2784.640    21381941.480    89055031.599 8      2784.640
R01  22313254.680   119277130.238 5      6568.365    22313252.040   119277130.247 5      6568.365    22313270.520    92771173.367 5      5108.729    22313268.980    92771169.349 5      5108.729
R23  21343262.420   114172061.454 7      1725.988    21343262.660   114172061.468 7      1725.988
R14  21489615.720   114551742.973 8      3754.373    21489615.320   114551742.968 7      3754.373    21489625.800    89095843.744 7      2920.068    21489626.700    89095846.751 7      2920.068
R07  23389888.320   125207887.713 6       585.971    23389887.880   125207887.744 6       585.971    23389903.880    97383989.861 7       455.755    23389903.800    97383987.859 7       455.755
> 2024 06 03 12 30 49.0000000  0 16
G02  21587260.580   113441817.844 7      2704.275    21587259.000   113441817.852 6      2704.275    21587261.780    88396226.490 6      2107.227
R24  21640840.080   115723299.093 7      3777.123    21640839.680   115723299.095 7      3777.123    21640852.020    90007059.171 7      2937.763    21640851.980    90007056.171 7      2937.763
G16  24188390.960   127110840.436 5      -871.848    24188387.160   127110840.446 1      -871.848    24188400.700    99047445.778 1      -679.362
R22  24112302.680   128713108.269 7       671.533    24112302.820   128713108.254 7       671.533    24112319.700   100110259.453 7       522.303    24112319.600   100110260.455 7       522.303
G08  20860874.400   109624630.910 8      2378.073    20860873.080   109624630.915 8      2378.073    20860880.020    85421812.108 8      1853.044    20860880.940    85421817.110 8      1853.044
G32  25087471.380   131835545.896 6      3225.348    25087470.480   131835545.893 6      3225.348    25087485.000   102729056.110 6      2513.259    25087486.060   102729061.114 7      2513.259
G14  24328118.540   127845130.199 6      5845.081    24328117.780   127845130.207 4      5845.081    24328127.300    99619607.881 4      4554.609    24328128.840    99619619.877 7      4554.609
G21  21167215.320   111234451.452 8      1728.181    21167213.400   111234451.459 6      1728.181    21167217.420    86676212.197 6      1346.635
G03  22459268.260   118024249.633 6      6088.670    22459268.180   118024249.636 4      6088.670    22459276.700    91966986.217 4      4744.418    22459277.340    91966986.225 7      4744.418
G27  22594894.220   118736961.583 7       768.516    22594893.520   118736961.585 7       768.516    22594902.240    92522304.924 7       598.844    22594900.740    92522335.924 8       598.844
G10  24553448.900   129029239.293 6      -414.091    24553447.640   129029239.301 6      -414.091    24553460.420   100542313.393 6      -322.668    24553460.440   100542310.390 7      -322.668
R08  21381262.220   114495689.414 7      3579.536    21381261.540   114495689.456 7      3579.536    21381273.160    89052247.245 8      2784.084    21381273.100    89052247.247 8      2784.084
R01  22312025.600   119270561.991 5      6568.504    22312024.200   119270561.989 5      6568.504    22312041.000    92766064.728 5      5108.837    22312040.340    92766060.714 5      5108.837
R23  21342939.640   114170335.403 7      1726.227    21342940.060   114170335.417 6      1726.227
R14  21488911.560   114547988.900 8      3753.740    21488911.040   114547988.901 7      3753.740    21488921.800    89092923.912 7      2919.576    21488922.240    89092926.919 7      2919.576
R07  23389779.620   125207301.765 6       585.779    23389778.480   125207301.794 6       585.779    23389794.440    97383534.122 7       455.606    23389794.660    97383532.124 7       455.606
> 2024 06 03 12 30 50.0000000  0 16
G02  21586745.960   113439114.005 7      2703.775    21586744.380   113439114.012 6      2703.775    21586747.320    88394119.600 6      2106.838
R24  21640133.860   115719522.342 7      3776.729    21640133.200   115719522.333 7      3776.729    21640145.760    90004121.694 7      2937.456    21640145.520    90004118.690 7      2937.456
G16  24188556.680   127111712.643 5      -872.180    24188553.200   127111712.648 1      -872.180    24188566.700    99048125.415 1      -679.621
R22  24112176.780   128712436.839 6       671.411    24112176.760   128712436.835 7       671.411    24112193.860   100109737.234 7       522.208    24112193.720   100109738.237 7       522.208
G08  20860421.840   109622253.343 8      2377.505    20860420.680   109622253.347 8      2377.505    20860427.600    85419959.456 8      1852.601    20860428.580    85419964.458 8      1852.601
G32  25086857.680   131832321.073 6      3224.674    25086856.740   131832321.067 6      3224.674    25086871.460   102726543.260 6      2512.733    25086872.480   102726548.262 7      2512.733
G14  24327006.300   127839285.586 6      5844.404    24327005.580   127839285.598 4      5844.404    24327015.060    99615053.641 4      4554.081    24327017.080    99615065.643 7      4554.081
G21  21166886.380   111232723.796 7      1727.688    21166884.440   111232723.801 6      1727.688    21166888.560    86674865.970 6      1346.250
G03  22458110.040   118018161.543 7      6088.092    22458109.520   118018161.543 4      6088.092    22458118.120    91962242.253 4      4743.968    22458118.620    91962242.263 7      4743.968
G27  22594748.340   118736193.633 7       767.880    22594747.420   118736193.638 7       767.880    22594755.980    92521706.517 7       598.348    22594754.780    92521737.515 7       598.348
G10  24553527.220   129029653.842 6      -414.589    24553526.520   129029653.855 6      -414.589    24553539.300   100542636.416 6      -323.057    24553539.240   100542633.415 7      -323.057
R08  21380593.760   114492110.546 7      3578.512    21380593.120   114492110.590 7      3578.512    21380604.900    89049463.682 8      2783.287    21380604.820    89049463.687 7      2783.287
R01  22310797.780   119263994.206 5      6567.841    22310794.360   119263994.202 5      6567.841    22310813.260    92760956.463 5      5108.321    22310811.900    92760952.450 5      5108.321
R23  21342616.660   114168609.633 6      1725.866    21342617.320   114168609.650 7      1725.866
R14  21488207.740   114544235.880 8      3752.684    21488207.040   114544235.875 7      3752.684    21488217.440    89090004.892 7      2918.754    21488218.140    89090007.895 7      2918.754
R07  23389670.000   125206716.792 6       584.689    23389668.720   125206716.817 6       584.689    23389685.220    97383079.140 7       454.758    23389685.340    97383077.142 7       454.758
> 2024 06 03 12 30 51.0000000  0 16
G02  21586231.740   113436410.360 8      2703.580    21586229.900   113436410.368 6      2703.580    21586233.000    88392012.862 6      2106.686
R24  21639427.500   115715745.637 7      3776.811    21639427.140   115715745.633 7      3776.811    21639439.600    90001184.265 7      2937.520    21639439.540    90001181.260 7      2937.520
G16  24188722.440   127112584.995 5      -872.207    24188718.900   127112584.991 1      -872.207    24188732.520    99048805.164 1      -679.642
R22  24112050.980   128711765.350 6       671.725    24112051.200   128711765.357 7       671.725    24112068.040   100109214.967 7       522.453    24112068.100   100109215.964 7       522.453
G08  20859969.460   109619876.133 8      2377.079    20859968.340   109619876.135 8      2377.079    20859975.260    85418107.083 8      1852.269    20859975.980    85418112.083 8      1852.269
G32  25086243.920   131829096.709 6      3224.073    25086243.200   131829096.706 6      3224.073    25086257.820   102724030.771 6      2512.265    25086258.280   102724035.780 7      2512.265
G14  24325894.700   127833441.248 7      5844.302    24325893.500   127833441.261 4      5844.302    24325903.000    99610499.614 4      4554.002    24325904.480    99610511.618 7      4554.002
G21  21166557.660   111230996.306 7      1727.551    21166555.860   111230996.310 6      1727.551    21166559.920    86673519.871 6      1346.144
G03  22456951.240   118012073.782 6      6087.723    22456951.080   118012073.784 4      6087.723    22456959.840    91957498.548 4      4743.680    22456960.500    91957498.559 7      4743.680
G27  22594602.240   118735425.964 7       767.561    22594601.380   118735425.964 7       767.561    22594609.920    92521108.328 7       598.099    22594608.980    92521139.328 7       598.099
G10  24553606.760   129030068.643 6      -414.740    24553605.540   129030068.650 6      -414.740    24553618.300   100542959.630 6      -323.174    24553618.460   100542956.628 7      -323.174
R08  21379925.760   114488532.491 7      3577.732    21379924.920   114488532.533 7      3577.732    21379936.780    89046680.753 8      2782.680    21379936.440    89046680.755 8      2782.680
R01  22309568.900   119257426.592 5      6567.714    22309566.660   119257426.599 5      6567.714    22309584.020    92755848.344 5      5108.222    22309583.400    92755844.339 5      5108.222
R23  21342294.500   114166883.900 7      1725.873    21342295.060   114166883.920 7      1725.873
R14  21487503.300   114540483.689 7      3751.856    21487503.020   114540483.690 7      3751.856    21487513.640    89087086.527 7      2918.110    21487514.220    89087089.528 7      2918.110
R07  23389560.840   125206132.519 6       583.951    23389560.380   125206132.550 6       583.951    23389575.740    97382624.706 7       454.184    23389576.180    97382622.712 7       454.184
> 2024 06 03 12 30 52.0000000  0 16
G02  21585717.240   113433706.986 7      2703.298    21585715.480   113433706.991 6      2703.298    21585718.480    88389906.343 6      2106.466
R24  21638721.020   115711969.164 7      3776.407    21638720.840   115711969.173 7      3776.407    21638733.240    89998247.020 7      2937.205    21638733.220    89998244.018 7      2937.205
G16  24188888.780   127113457.609 5      -872.451    24188885.660   127113457.603 1      -872.451    24188899.240    99049485.109 1      -679.832
R22  24111925.020   128711093.958 6       671.485    24111925.420   128711093.961 7       671.485    24111941.900   100108692.770 7       522.266    24111942.380   100108693.766 7       522.266
G08  20859517.340   109617499.327 8      2376.672    20859516.000   109617499.332 8      2376.672    20859522.980    85416255.027 8      1851.952    20859523.620    85416260.033 8      1851.952
G32  25085630.520   131825872.850 6      3223.582    25085629.720   131825872.852 6      3223.582    25085644.320   102721518.679 6      2511.882    25085644.940   102721523.681 7      2511.882
G14  24324782.640   127827597.330 6      5843.812    24324781.540   127827597.341 4      5843.812    24324791.140    99605945.912 4      4553.620    24324792.140    99605957.900 7      4553.620
G21  21166228.840   111229269.075 7      1727.180    21166227.140   111229269.083 6      1727.180    21166231.260    86672173.979 6      1345.855
G03  22455793.080   118005986.420 6      6087.363    22455792.640   118005986.419 4      6087.363    22455801.300    91952755.155 4      4743.400    22455802.040    91952755.164 7      4743.400
G27  22594456.280   118734658.645 7       767.143    22594455.300   118734658.652 7       767.143    22594463.900    92520510.421 7       597.774    22594462.940    92520541.421 7       597.774
G10  24553685.780   129030483.762 6      -415.185    24553684.760   129030483.767 6      -415.185    24553697.340   100543283.093 6      -323.521    24553697.520   100543280.092 7      -323.521
R08  21379257.680   114484955.349 7      3576.725    21379257.080   114484955.391 7      3576.725    21379268.700    89043898.534 8      2781.898    21379268.600    89043898.536 8      2781.898
R01  22308339.900   119250859.334 5      6567.234    22308338.940   119250859.327 5      6567.234    22308355.780    92750740.466 5      5107.849    22308354.520    92750736.463 5      5107.849
R23  21341971.880   114165158.325 6      1725.553    21341972.520   114165158.329 7      1725.553
R14  21486799.580   114536732.455 8      3750.820    21486799.620   114536732.453 7      3750.820    21486809.840    89084168.901 7      2917.304    21486810.160    89084171.904 7      2917.304
R07  23389452.320   125205549.028 6       583.222    23389451.220   125205549.046 6       583.222    23389466.980    97382170.872 7       453.617    23389467.260    97382168.869 7       453.617
> 2024 06 03 12 30 53.0000000  0 16
G02  21585202.960   113431003.875 7      2703.074    21585201.040   113431003.882 6      2703.074    21585204.140    88387800.018 6      2106.291
R24  21638014.900   115708192.880 7      3776.244    21638014.620   115708192.895 7      3776.244    21638026.900    89995309.911 7      2937.078    21638027.220    89995306.913 7      2937.078
G16  24189054.680   127114330.339 5      -872.783    24189052.020   127114330.325 1      -872.783    24189065.140    99050165.156 1      -680.091
R22  24111799.340   128710422.559 7       671.478    24111799.380   128710422.560 7       671.478    24111816.240   100108170.559 7       522.260    24111816.740   100108171.548 7       522.260
G08  20859065.020   109615122.924 8      2376.249    20859063.840   109615122.932 8      2376.249    20859070.760    85414403.292 8      1851.623    20859071.440    85414408.296 8      1851.623
G32  25085017.200   131822649.480 6      3223.222    25085016.180   131822649.482 6      3223.222    25085030.980   102719006.970 6      2511.602    25085031.760   102719011.974 7      2511.602
G14  24323670.360   127821753.736 6      5843.550    24323669.500   127821753.746 4      5843.550    24323679.240    99601392.464 4      4553.415    24323680.280    99601404.454 7      4553.415
G21  21165900.340   111227542.058 7      1727.073    21165898.500   111227542.063 6      1727.073    21165902.600    86670828.250 6      1345.771
G03  22454634.620   117999899.454 6      6086.932    22454634.460   117999899.457 4      6086.932    22454642.960    91948012.068 4      4743.064    22454643.680    91948012.078 7      4743.064
G27  22594310.400   118733891.649 7       766.904    22594309.380   118733891.659 7       766.904    22594317.960    92519912.761 7       597.588    22594317.100    92519943.760 7       597.588
G10  24553764.940   129030899.146 6      -415.369    24553763.800   129030899.151 6      -415.369    24553776.360   100543606.767 6      -323.664    24553776.000   100543603.763 7      -323.664
R08  21378589.800   114481379.075 7      3575.928    21378589.420   114481379.114 7      3575.928    21378600.820    89041116.987 8      2781.277    21378600.540    89041116.989 7      2781.277
R01  22307111.420   119244292.332 5      6566.819    22307109.580   119244292.346 5      6566.819    22307126.780    92745632.827 5      5107.526    22307126.100    92745628.818 5      5107.526
R23  21341649.720   114163432.804 6      1725.604    21341649.620   114163432.811 7      1725.604
R14  21486096.040   114532982.159 8      3749.910    21486096.180   114532982.157 7      3749.910    21486106.320    89081252.002 7      2916.597    21486106.460    89081255.009 7      2916.597
R07  23389342.820   125204966.316 6       582.387    23389342.380   125204966.342 6       582.387    23389358.220    97381717.662 7       452.968    23389358.520    97381715.661 7       452.968
> 2024 06 03 12 30 54.0000000  0 16
G02  21584688.480   113428300.944 7      2702.775    21584686.740   113428300.952 6      2702.775    21584689.780    88385693.839 6      2106.058
R24  21637308.880   115704416.637 7      3776.149    21637308.460   115704416.647 7      3776.149    21637320.920    89992372.831 8      2937.004    21637320.680    89992369.829 8      2937.004
G16  24189220.740   127115203.132 5      -872.703    24189218.760   127115203.118 1      -872.703    24189231.500    99050845.244 1      -680.028
R22  24111673.440   128709751.073 7       671.560    24111673.560   128709751.071 7       671.560    24111690.600   100107648.290 7       522.324    24111690.600   100107649.283 7       522.324
G08  20858612.720   109612746.839 8      2375.873    20858611.620   109612746.841 8      2375.873    20858618.560    85412551.789 8      1851.329    20858619.480    85412556.793 8      1851.329
G32  25084403.960   131819426.548 6      3222.655    25084403.000   131819426.553 6      3222.655    25084417.720   102716495.597 6      2511.160    25084418.480   102716500.599 7      2511.160
G14  24322558.400   127815910.400 6      5843.211    24322557.540   127815910.410 4      5843.211    24322567.360    99596839.217 4      4553.152    24322568.920    99596851.233 7      4553.152
G21  21165571.660   111225815.211 8      1726.757    21165569.820   111225815.216 6      1726.757    21165573.900    86669482.655 6      1345.525
G03  22453476.480   117993812.791 6      6086.485    22453476.260   117993812.796 4      6086.485    22453484.780    91943269.217 4      4742.715    22453485.780    91943269.222 7      4742.715
G27  22594164.340   118733124.921 7       766.574    22594163.500   118733124.934 7       766.574    22594172.040    92519315.311 7       597.331    22594170.900    92519346.311 7       597.331
G10  24553843.800   129031314.764 6      -415.663    24553842.820   129031314.774 6      -415.663    24553855.300   100543930.619 6      -323.893    24553855.420   100543927.614 7      -323.893
R08  21377922.080   114477803.577 7      3575.103    21377921.320   114477803.616 7      3575.103    21377933.180    89038336.044 8      2780.635    21377933.100    89038336.046 8      2780.635
R01  22305882.740   119237725.549 5      6566.666    22305881.440   119237725.534 5      6566.666    22305899.100    92740525.317 5      5107.407    22305896.920    92740521.312 5      5107.407
R23  21341327.160   114161707.328 6      1725.412    21341327.220   114161707.343 7      1725.412
R14  21485392.940   114529232.705 8      3749.012    21485392.880   114529232.700 7      3749.012    21485403.000    89078335.758 7      2915.898    21485403.360    89078338.767 7      2915.898
R07  23389234.100   125204384.295 6       581.665    23389233.000   125204384.334 6       581.665    23389249.360    97381264.978 7       452.406    23389249.720    97381262.972 7       452.406
> 2024 06 03 12 30 55.0000000  0 16
G02  21584174.080   113425598.198 8      2702.592    21584172.440   113425598.206 6      2702.592    21584175.440    88383587.803 6      2105.916
R24  21636602.860   115700640.461 7      3776.156    21636602.200   115700640.460 7      3776.156    21636614.680    89989435.805 8      2937.011    21636614.420    89989432.801 8      2937.011
G16  24189386.500   127116076.056 5      -872.854    24189384.840   127116076.043 1      -872.854    24189397.420    99051525.439 1      -680.146
R22  24111547.820   128709079.534 7       671.505    24111548.000   128709079.534 7       671.505    24111564.440   100107125.981 7       522.282    24111564.880   100107126.983 7       522.282
G08  20858160.660   109610371.064 8      2375.626    20858159.460   109610371.071 8      2375.626    20858166.560    85410700.542 8      1851.137    20858167.420    85410705.548 8      1851.137
G32  25083790.720   131816204.011 7      3222.401    25083789.640   131816204.018 6      3222.401    25083804.400   102713984.529 6      2510.962    25083805.080   102713989.539 7      2510.962
G14  24321446.340   127810067.397 6      5842.843    24321445.560   127810067.409 4      5842.843    24321455.540    99592286.231 4      4552.864    24321456.900    99592298.238 7      4552.864
G21  21165243.000   111224088.525 8      1726.581    21165241.220   111224088.529 6      1726.581    21165245.340    86668137.187 6      1345.388
G03  22452318.640   117987726.438 6      6086.186    22452318.060   117987726.443 4      6086.186    22452326.480    91938526.608 4      4742.483    22452327.460    91938526.611 7      4742.483
G27  22594018.420   118732358.466 7       766.349    22594017.800   118732358.476 7       766.349    22594026.160    92518718.067 7       597.155    22594025.040    92518749.065 7       597.155
G10  24553922.700   129031730.590 6      -415.933    24553921.940   129031730.597 6      -415.933    24553934.560   100544254.637 6      -324.104    24553934.660   100544251.638 7      -324.104
R08  21377254.340   114474228.874 7      3574.237    21377253.980   114474228.921 7      3574.237    21377265.640    89035555.733 8      2779.962    21377265.260    89035555.733 8      2779.962
R01  22304655.120   119231158.900 5      6566.627    22304652.560   119231158.896 5      6566.627    22304671.120    92735417.936 5      5107.377    22304669.220    92735413.941 5      5107.377
R23  21341004.840   114159981.898 7      1725.304    21341004.860   114159981.918 7      1725.304
R14  21484689.760   114525484.117 8      3748.071    21484689.480   114525484.110 7      3748.071    21484699.880    89075420.196 7      2915.167    21484700.100    89075423.203 7      2915.167
R07  23389125.620   125203802.993 6       580.782    23389124.540   125203803.022 6       580.782    23389140.880    97380812.851 7       451.720    23389141.240    97380810.856 7       451.720
> 2024 06 03 12 30 56.0000000  0 15
G02  21583659.980   113422895.633 7      2702.523    21583658.160   113422895.643 6      2702.523    21583661.080    88381481.912 6      2105.862
R24  21635896.740   115696864.346 7      3776.088    21635896.020   115696864.345 7      3776.088    21635908.520    89986498.821 8      2936.957    21635908.680    89986495.820 8      2936.957
G16  24189553.100   127116949.120 5      -872.976    24189551.400   127116949.109 1      -872.976    24189564.020    99052205.744 1      -680.241
R22  24111421.960   128708407.957 7       671.575    24111422.260   128708407.971 7       671.575    24111439.040   100106603.652 7       522.336    24111438.900   100106604.658 7       522.336
G08  20857708.640   109607995.677 8      2375.216    20857707.540   109607995.685 8      2375.216    20857714.500    85408849.587 8      1850.818    20857715.460    85408854.591 8      1850.818
G32  25083177.520   131812981.985 7      3221.768    25083176.580   131812981.990 6      3221.768    25083191.160   102711473.860 6      2510.469    25083191.960   102711478.858 7      2510.469
G14  24320334.780   127804224.635 6      5842.723    24320333.600   127804224.645 4      5842.723    24320343.900    99587733.439 4      4552.771    24320345.120    99587745.453 7      4552.771
G21  21164914.380   111222362.006 8      1726.447    21164912.700   111222362.014 6      1726.447    21164916.720    86666791.848 6      1345.283
G03  22451160.360   117981640.421 6      6085.819    22451159.780   117981640.421 4      6085.819    22451168.340    91933784.258 4      4742.196    22451169.000    91933784.264 7      4742.196
G27  22593872.640   118731592.313 7       766.044    22593871.940   118731592.318 7       766.044    22593880.480    92518121.059 7       596.918    22593879.240    92518152.061 7       596.918
G10  24554002.100   129032146.655 6      -416.039    24554001.180   129032146.662 6      -416.039    24554013.760   100544578.835 6      -324.186    24554013.720   100544575.832 7      -324.186
R08  21376586.840   114470655.020 7      3573.467    21376586.660   114470655.062 7      3573.467    21376598.240    89032776.066 7      2779.363    21376598.040    89032776.068 8      2779.363
R23  21340682.120   114158256.510 7      1725.431    21340681.940   114158256.525 7      1725.431
R14  21483986.680   114521736.345 8      3747.296    21483986.600   114521736.346 7      3747.296    21483996.740    89072505.262 7      2914.563    21483996.840    89072508.275 7      2914.563
R07  23389016.780   125203222.345 6       580.264    23389016.560   125203222.379 6       580.264    23389032.420    97380361.237 7       451.316    23389032.780    97380359.233 7       451.316
> 2024 06 03 12 30 57.0000000  0 16
G02  21583145.640   113420193.276 8      2702.293    21583143.960   113420193.286 6      2702.293    21583147.020    88379376.173 6      2105.683
R24  21635190.340   115693088.290 7      3775.980    21635189.740   115693088.302 7      3775.980    21635202.580    89983561.903 8      2936.874    21635202.620    89983558.905 8      2936.874
G16  24189719.080   127117822.370 5      -873.361    24189717.380   127117822.362 1      -873.361    24189730.060    99052886.191 1      -680.541
R22  24111295.980   128707736.308 7       671.685    24111296.580   128707736.298 7       671.685    24111312.760   100106081.236 7       522.422    24111313.280   100106082.239 7       522.422
G08  20857256.620   109605620.585 8      2374.906    20857255.540   109605620.590 8      2374.906    20857262.560    85406998.864 8      1850.576    20857263.540    85407003.868 8      1850.576
G32  25082564.340   131809760.344 6      3221.390    25082563.480   131809760.351 6      3221.390    25082578.140   102708963.486 6      2510.174    25082579.000   102708968.484 7      2510.174
G14  24319222.640   127798382.221 6      5842.185    24319221.760   127798382.228 4      5842.185    24319232.280    99583180.914 4      4552.352    24319233.620    99583192.933 7      4552.352
G21  21164585.780   111220635.664 8      1726.224    21164584.160   111220635.669 6      1726.224    21164588.320    86665446.638 6      1345.109
G03  22450002.060   117975554.685 6      6085.577    22450001.560   117975554.688 4      6085.577    22450010.100    91929042.128 4      4742.008    22450011.020    91929042.136 7      4742.008
G27  22593726.800   118730826.426 7       765.658    22593726.220   118730826.426 7       765.658    22593734.680    92517524.256 7       596.616    22593733.760    92517555.258 7       596.616
G10  24554081.200   129032562.943 6      -416.357    24554080.500   129032562.953 6      -416.357    24554093.040   100544903.207 6      -324.434    24554092.780   100544900.214 7      -324.434
R08  21375919.700   114467081.975 7      3572.651    21375919.340   114467082.014 7      3572.651    21375931.060    89029997.031 8      2778.729    21375930.760    89029997.031 8      2778.729
R01  22302199.800   119218026.369 5      6566.294    22302195.760   119218026.341 5      6566.294    22302212.560    92725201.756 5      5107.118    22302212.260    92725193.753 5      5107.118
R23  21340359.740   114156531.149 7      1725.390    21340359.520   114156531.162 7      1725.390
R14  21483284.020   114517989.437 8      3746.452    21483283.480   114517989.435 7      3746.452    21483293.820    89069591.002 7      2913.907    21483293.940    89069594.011 7      2913.907
R07  23388909.020   125202642.395 6       579.591    23388908.100   125202642.426 6       579.591    23388923.760    97379910.159 7       450.793    23388924.080    97379908.165 7       450.793
> 2024 06 03 12 30 58.0000000  0 16
G02  21582631.400   113417491.160 7      2702.009    21582629.800   113417491.168 6      2702.009    21582632.780    88377270.628 6      2105.461
R24  21634484.280   115689312.395 7      3775.864    21634483.580   115689312.412 7      3775.864    21634496.440    89980625.102 7      2936.783    21634496.660    89980622.103 8      2936.783
G16  24189885.840   127118695.665 5      -873.509    24189883.940   127118695.657 1      -873.509    24189896.460    99053566.670 1      -680.656
R22  24111170.340   128707064.645 6       671.749    24111170.700   128707064.633 7       671.749    24111187.340   100105558.825 7       522.471    24111187.780   100105559.821 7       522.471
G08  20856804.820   109603245.877 8      2374.562    20856803.620   109603245.882 8      2374.562    20856810.600    85405148.444 8      1850.308    20856811.580    85405153.448 8      1850.308
G32  25081951.340   131806539.178 6      3220.871    25081950.520   131806539.185 6      3220.871    25081965.120   102706453.484 6      2509.770    25081966.080   102706458.486 7      2509.770
G14  24318110.920   127792540.103 6      5841.926    24318110.120   127792540.113 4      5841.926    24318120.780    99578628.625 4      4552.150    24318121.760    99578640.643 7      4552.150
G21  21164257.420   111218909.530 8      1726.002    21164255.800   111218909.537 6      1726.002    21164259.940    86664101.600 6      1344.937
G03  22448844.160   117969469.344 6      6085.155    22448843.780   117969469.343 4      6085.155    22448852.300    91924300.305 4      4741.679    22448853.180    91924300.316 7      4741.679
G27  22593581.360   118730060.804 7       765.568    22593580.580   118730060.806 7       765.568    22593589.000    92516927.665 7       596.547    22593588.280    92516958.665 8       596.547
G10  24554160.500   129032979.517 6      -416.712    24554159.800   129032979.525 6      -416.712    24554172.260   100545227.805 6      -324.711    24554172.080   100545224.807 7      -324.711
R08  21375252.500   114463509.768 7      3571.701    21375252.200   114463509.810 7      3571.701    21375263.800    89027218.648 8      2777.990    21375263.640    89027218.654 8      2777.990
R01  22300971.200   119211460.477 5      6565.677    22300967.780   119211460.505 5      6565.677    22300984.720    92720092.996 5      5106.638    22300983.520    92720085.993 5      5106.638
R23  21340037.580   114154805.861 7      1725.355    21340037.140   114154805.873 7      1725.355
R14  21482581.480   114514243.410 8      3745.648    21482580.760   114514243.406 8      3745.648    21482591.000    89066677.424 7      2913.282    21482591.400    89066680.433 7      2913.282
R07  23388800.600   125202063.171 6       578.815    23388800.100   125202063.202 6       578.815    23388815.780    97379459.647 7       450.190    23388815.860    97379457.644 7       450.190
> 2024 06 03 12 30 59.0000000  0 16
G02  21582117.100   113414789.263 7      2701.711    21582115.640   113414789.270 6      2701.711    21582118.520    88375165.254 6      2105.229
R24  21633778.200   115685536.625 7      3775.667    21633777.600   115685536.629 7      3775.667    21633790.300    89977688.379 7      2936.630    21633790.500    89977685.379 8      2936.630
G16  24190051.760   127119569.157 5      -873.442    24190050.620   127119569.157 1      -873.442    24190062.880    99054247.313 1      -680.604
R22  24111044.640   128706392.964 7       671.727    24111044.380   128706392.957 7       671.727    24111061.600   100105036.405 7       522.454    24111062.020   100105037.400 7       522.454
G08  20856353.140   109600871.536 8      2374.191    20856351.800   109600871.538 8      2374.191    20856358.880    85403298.304 8      1850.019    20856359.800    85403303.308 8      1850.019
G32  25081338.560   131803318.480 7      3220.497    25081337.700   131803318.482 6      3220.497    25081352.280   102703943.847 6      2509.479    25081353.320   102703948.849 7      2509.479
G14  24316999.680   127786698.314 6      5841.634    24316998.560   127786698.319 4      5841.634    24317009.300    99574076.590 4      4551.922    24317010.280    99574088.610 7      4551.922
G21  21163929.020   111217183.576 8      1725.951    21163927.300   111217183.584 6      1725.951    21163931.440    86662756.699 6      1344.897
G03  22447686.140   117963384.341 6      6084.813    22447685.820   117963384.335 4      6084.813    22447694.280    91919558.751 4      4741.413    22447695.540    91919558.764 7      4741.413
G27  22593435.760   118729295.526 7       765.233    22593434.900   118729295.531 7       765.233    22593443.360    92516331.343 7       596.286    22593442.500    92516362.341 7       596.286
G10  24554239.780   129033396.344 6      -416.983    24554239.180   129033396.354 6      -416.983    24554251.660   100545552.599 6      -324.922    24554251.400   100545549.601 7      -324.922
R08  21374585.800   114459938.388 7      3570.937    21374585.520   114459938.422 7      3570.937    21374596.820    89024440.902 8      2777.395    21374596.780    89024440.904 7      2777.395
R01  22299740.760   119204894.766 5      6566.047    22299739.160   119204894.762 5      6566.047    22299757.020    92714986.334 5      5106.926    22299756.140    92714979.310 5      5106.926
R23  21339714.940   114153080.615 7      1725.218    21339714.860   114153080.635 7      1725.218
R14  21481878.580   114510498.237 8      3744.709    21481878.100   114510498.238 8      3744.709    21481888.720    89063764.513 7      2912.552    21481888.620    89063767.527 7      2912.552
R07  23388692.620   125201484.661 6       578.213    23388691.920   125201484.695 6       578.213    23388707.720    97379009.695 7       449.721    23388708.020    97379007.699 7       449.721
> 2024 06 03 12 31  0.0000000  0 16
G02  21581603.160   113412087.523 7      2701.556    21581601.420   113412087.531 6      2701.556    21581604.400    88373060.000 6      2105.108
R24  21633072.480   115681760.874 7      3775.650    21633071.360   115681760.870 7      3775.650    21633084.520    89974751.682 7      2936.616    21633084.260    89974748.690 7      2936.616
G16  24190217.580   127120442.736 5      -873.725    24190217.200   127120442.738 1      -873.725    24190228.860    99054928.014 1      -680.824
R22  24110918.380   128705721.214 7       671.567    24110918.800   128705721.206 7       671.567    24110935.560   100104513.932 7       522.330    24110935.880   100104514.923 7       522.330
G08  20855901.320   109598497.492 8      2373.848    20855900.020   109598497.497 8      2373.848    20855907.040    85401448.402 8      1849.752    20855907.740    85401453.406 8      1849.752
G32  25080725.500   131800098.215 6      3219.927    25080724.840   131800098.220 6      3219.927    25080739.520   102701434.550 6      2509.034    25080740.420   102701439.552 7      2509.034
G14  24315887.600   127780856.798 6      5841.347    24315886.820   127780856.803 4      5841.347    24315897.640    99569524.765 4      4551.699    24315898.800    99569536.780 7      4551.699
G21  21163600.480   111215457.788 7      1725.685    21163598.840   111215457.796 6      1725.685    21163603.000    86661411.932 6      1344.690
G03  22446528.200   117957299.643 6      6084.440    22446527.920   117957299.643 4      6084.440    22446536.400    91914817.432 4      4741.122    22446537.420    91914817.443 7      4741.122
G27  22593290.160   118728530.512 7       764.700    22593289.260   118728530.519 7       764.700    22593297.800    92515735.227 7       595.870    22593296.780    92515766.232 7       595.870
G10  24554319.080   129033813.360 6      -417.215    24554318.480   129033813.370 6      -417.215    24554331.000   100545877.546 6      -325.103    24554331.100   100545874.543 7      -325.103
R08  21373919.360   114456367.771 7      3570.154    21373918.500   114456367.816 7      3570.154    21373930.180    89021663.770 7      2776.787    21373929.840    89021663.772 8      2776.787
R01  22298512.640   119198329.330 5      6564.897    22298511.260   119198329.364 5      6564.897    22298529.240    92709879.914 5      5106.031    22298528.060    92709872.894 5      5106.031
R23  21339392.480   114151355.364 7      1725.166    21339391.840   114151355.379 6      1725.166
R14  21481176.480   114506753.893 7      3743.783    21481175.480   114506753.893 7      3743.783    21481186.060    89060852.245 7      2911.831    21481186.520    89060855.255 7      2911.831
R07  23388584.460   125200906.876 6       577.328    23388583.700   125200906.905 6       577.328    23388600.120    97378560.301 7       449.033    23388599.720    97378558.300 7       449.033
> 2024 06 03 12 31  1.0000000  0 16
G02  21581089.240   113409386.033 7      2701.538    21581087.360   113409386.038 6      2701.538    21581090.380    88370954.942 6      2105.094
R24  21632366.460   115677985.283 7      3775.613    21632365.040   115677985.276 7      3775.613    21632378.500    89971815.109 7      2936.588    21632378.380    89971812.111 8      2936.588
G16  24190383.140   127121316.472 5      -873.664    24190383.920   127121316.467 1      -873.664    24190394.900    99055608.835 1      -680.777
R22  24110792.520   128705049.444 7       671.802    24110793.260   128705049.445 7       671.802    24110809.840   100103991.439 7       522.513    24110810.120   100103992.432 7       522.513
G08  20855449.660   109596123.877 8      2373.505    20855448.380   109596123.882 8      2373.505    20855455.400    85399598.831 8      1849.484    20855456.220    85399603.838 8      1849.484
G32  25080113.040   131796878.418 7      3219.682    25080112.120   131796878.418 6      3219.682    25080126.800   102698925.613 6      2508.843    25080127.820   102698930.615 7      2508.843
G14  24314776.040   127775015.640 6      5841.005    24314775.240   127775015.640 4      5841.005    24314786.140    99564973.221 4      4551.432    24314787.300    99564985.244 7      4551.432
G21  21163272.300   111213732.227 8      1725.596    21163270.560   111213732.231 6      1725.596    21163274.660    86660067.334 6      1344.620
G03  22445370.200   117951215.308 6      6084.275    22445370.120   117951215.308 4      6084.275    22445378.680    91910076.396 4      4740.993    22445379.500    91910076.402 7      4740.993
G27  22593144.560   118727765.799 7       764.672    22593143.840   118727765.804 7       764.672    22593152.300    92515139.343 7       595.849    22593150.800    92515170.341 7       595.849
G10  24554398.600   129034230.668 6      -417.265    24554398.040   129034230.675 6      -417.265    24554410.260   100546202.711 6      -325.141    24554410.580   100546199.709 7      -325.141
R08  21373252.580   114452798.059 7      3569.435    21373252.040   114452798.101 7      3569.435    21373263.500    89018887.327 8      2776.227    21373263.240    89018887.329 8      2776.227
R01  22297284.100   119191764.095 5      6565.055    22297284.100   119191764.110 5      6565.055    22297300.440    92704773.613 5      5106.154    22297299.920    92704766.594 5      5106.154
R23  21339070.060   114149630.174 7      1725.286    21339069.280   114149630.200 6      1725.286
R14  21480474.100   114503010.420 8      3743.155    21480473.400   114503010.423 7      3743.155    21480484.160    89057940.657 7      2911.343    21480484.160    89057943.667 7      2911.343
R07  23388476.780   125200329.855 6       576.620    23388476.540   125200329.880 6       576.620    23388492.060    97378111.502 7       448.482    23388492.020    97378109.503 7       448.482
> 2024 06 03 12 31  2.0000000  0 16
G02  21580575.440   113406684.663 8      2701.298    21580573.460   113406684.671 6      2701.298    21580576.300    88368849.981 6      2104.907
R24  21631660.400   115674209.666 7      3775.567    21631659.100   115674209.664 7      3775.567    21631672.340    89968878.526 8      2936.552    21631672.220    89968875.530 7      2936.552
G16  24190550.420   127122190.290 5      -874.139    24190549.940   127122190.282 1      -874.139    24190561.320    99056289.718 1      -681.147
R22  24110666.580   128704377.531 7       671.832    24110667.340   128704377.532 7       671.832    24110683.980   100103468.837 7       522.536    24110684.160   100103469.839 7       522.536
G08  20854998.080   109593750.487 8      2373.181    20854996.740   109593750.487 8      2373.181    20855003.800    85397749.435 8      1849.232    20855004.640    85397754.439 8      1849.232
G32  25079500.160   131793658.989 7      3219.269    25079499.520   131793658.986 6      3219.269    25079514.180   102696416.969 6      2508.521    25079514.640   102696421.969 7      2508.521
G14  24313664.620   127769174.663 6      5840.786    24313663.920   127769174.665 4      5840.786    24313674.560    99560421.821 4      4551.262    24313675.720    99560433.848 7      4551.262
G21  21162944.020   111212006.744 8      1725.354    21162942.320   111212006.751 6      1725.354    21162946.340    86658722.802 6      1344.432
G03  22444212.340   117945131.222 6      6083.865    22444212.280   117945131.222 4      6083.865    22444220.900    91905335.552 4      4740.674    22444221.660    91905335.567 7      4740.674
G27  22592999.360   118727001.302 7       764.228    22592998.400   118727001.306 7       764.228    22593006.820    92514543.631 7       595.502    22593005.360    92514574.631 7       595.502
G10  24554478.000   129034648.125 6      -417.623    24554477.460   129034648.133 6      -417.623    24554489.780   100546528.000 6      -325.421    24554489.880   100546525.005 7      -325.421
R08  21372586.040   114449229.076 7      3568.464    21372585.680   114449229.112 7      3568.464    21372597.060    89016111.451 8      2775.472    21372596.880    89016111.453 7      2775.472
R01  22296056.300   119185198.996 5      6564.799    22296055.760   119185198.995 5      6564.799    22296073.040    92699667.425 5      5105.955    22296071.540    92699660.420 5      5105.955
R23  21338747.300   114147904.958 7      1725.050    21338746.840   114147904.986 6      1725.050
R14  21479771.920   114499267.744 8      3742.214    21479771.440   114499267.747 7      3742.214    21479781.800    89055029.693 7      2910.611    21479782.020    89055032.702 7      2910.611
R07  23388368.880   125199753.427 6       575.975    23388368.000   125199753.445 6       575.975    23388384.300    97377663.161 7       447.980    23388384.320    97377661.163 7       447.980
> 2024 06 03 12 31  3.0000000  0 16
G02  21580061.300   113403983.552 7      2701.086    21580059.480   113403983.559 6      2701.086    21580062.260    88366745.219 6      2104.743
R24  21630954.320   115670434.206 7      3775.372    21630952.640   115670434.218 7      3775.372    21630966.280    89965942.072 8      2936.400    21630966.180    89965939.074 8      2936.400
G16  24190716.160   127123064.276 5      -874.439    24190716.500   127123064.271 1      -874.439    24190728.060    99056970.735 1      -681.381
R22  24110540.440   128703705.631 7       671.932    24110541.540   128703705.645 7       671.932    24110558.220   100102946.255 7       522.614    24110558.320   100102947.258 7       522.614
G08  20854546.340   109591377.508 8      2372.776    20854545.160   109591377.513 8      2372.776    20854552.260    85395900.360 8      1848.916    20854553.200    85395905.364 8      1848.916
G32  25078887.820   131790440.077 6      3218.637    25078886.920   131790440.077 6      3218.637    25078901.640   102693908.729 6      2508.029    25078902.240   102693913.731 7      2508.029
G14  24312553.500   127763334.051 7      5840.476    24312552.460   127763334.058 4      5840.476    24312563.140    99555870.695 4      4551.020    24312564.540    99555882.727 7      4551.020
G21  21162615.640   111210281.505 7      1725.164    21162613.860   111210281.510 6      1725.164    21162617.900    86657378.460 6      1344.284
G03  22443054.740   117939047.526 6      6083.513    22443054.580   117939047.528 4      6083.513    22443063.060    91900595.017 4      4740.400    22443063.780    91900595.032 7      4740.400
G27  22592853.660   118726237.133 7       763.986    22592852.940   118726237.138 7       763.986    22592861.320    92513948.171 7       595.314    22592860.020    92513979.171 7       595.314
G10  24554557.680   129035065.890 6      -417.921    24554556.800   129035065.900 6      -417.921    24554569.360   100546853.531 6      -325.652    24554569.260   100546850.532 7      -325.652
R08  21371919.780   114445660.936 7      3567.809    21371919.320   114445660.972 7      3567.809    21371930.620    89013336.231 8      2774.963    21371930.540    89013336.233 8      2774.963
R01  22294828.820   119178634.151 5      6564.850    22294827.160   119178634.145 5      6564.850    22294843.680    92694561.429 5      5105.995    22294843.520    92694554.419 5      5105.995
R23  21338424.840   114146179.827 7      1725.055    21338424.380   114146179.845 6      1725.055
R14  21479069.700   114495525.974 8      3741.298    21479069.340   114495525.980 7      3741.298    21479080.040    89052119.430 7      2909.898    21479080.460    89052122.443 7      2909.898
R07  23388261.800   125199177.778 6       575.287    23388260.720   125199177.791 6       575.287    23388276.680    97377215.434 7       447.445    23388276.480    97377213.436 7       447.445
> 2024 06 03 12 31  4.0000000  0 16
G02  21579547.240   113401282.729 7      2700.623    21579545.360   113401282.734 6      2700.623    21579548.380    88364640.681 6      2104.382
R24  21630247.980   115666658.891 7      3775.141    21630246.820   115666658.905 7      3775.141    21630260.540    89963005.720 7      2936.221    21630260.020    89963002.719 8      2936.221
G16  24190882.380   127123938.425 5      -874.561    24190882.260   127123938.419 1      -874.561    24190894.160    99057651.876 1      -681.476
R22  24110414.760   128703033.774 7       671.738    24110415.360   128703033.788 7       671.738    24110432.180   100102423.697 7       522.463    24110432.820   100102424.699 7       522.463
G08  20854094.960   109589004.938 8      2372.220    20854093.660   109589004.943 8      2372.220    20854100.720    85394051.606 8      1848.483    20854101.600    85394056.613 8      1848.483
G32  25078275.000   131787221.662 6      3217.979    25078274.620   131787221.664 6      3217.979    25078289.240   102691400.873 6      2507.516    25078289.800   102691405.879 7      2507.516
G14  24311442.380   127757493.825 6      5839.969    24311441.060   127757493.838 4      5839.969    24311451.740    99551319.892 4      4550.625    24311453.020    99551331.917 7      4550.625
G21  21162287.340   111208556.516 8      1724.738    21162285.800   111208556.523 6      1724.738    21162289.760    86656034.311 6      1343.952
G03  22441897.680   117932964.231 6      6083.004    22441897.020   117932964.236 4      6083.004    22441905.560    91895854.792 4      4740.003    22441906.860    91895854.798 7      4740.003
G27  22592708.220   118725473.318 7       763.538    22592707.640   118725473.318 7       763.538    22592716.040    92513352.985 7       594.965    22592714.840    92513383.983 7       594.965
G10  24554637.000   129035483.968 6      -418.436    24554636.460   129035483.978 6      -418.436    24554648.840   100547179.300 6      -326.054    24554648.500   100547176.302 7      -326.054
R08  21371253.780   114442093.727 7      3566.626    21371253.040   114442093.767 7      3566.626    21371264.540    89010561.742 8      2774.043    21371264.440    89010561.744 8      2774.043
R01  22293600.780   119172069.622 5      6564.173    22293598.640   119172069.637 5      6564.173    22293615.800    92689455.721 5      5105.468    22293615.420    92689448.714 5      5105.468
R23  21338101.840   114144454.819 7      1724.733    21338101.840   114144454.831 6      1724.733
R14  21478368.200   114491785.134 8      3740.208    21478367.560   114491785.132 7      3740.208    21478378.020    89049209.886 7      2909.050    21478378.500    89049212.899 7      2909.050
R07  23388154.820   125198602.911 6       574.227    23388153.040   125198602.929 6       574.227    23388169.540    97376768.317 7       446.621    23388169.520    97376766.317 7       446.621
> 2024 06 03 12 31  5.0000000  0 16
G02  21579033.360   113398582.161 7      2700.077    21579031.560   113398582.163 6      2700.077    21579034.540    88362536.343 6      2103.956
R24  21629542.220   115662883.765 7      3774.650    21629540.760   115662883.775 7      3774.650    21629554.600    89960069.509 7      2935.839    21629554.300    89960066.513 7      2935.839
G16  24191048.620   127124812.721 5      -874.764    24191047.680   127124812.729 1      -874.764    24191059.600    99058333.133 1      -681.634
R22  24110289.040   128702361.933 7       671.545    24110289.660   128702361.947 7       671.545    24110306.600   100101901.154 7       522.313    24110306.740   100101902.153 7       522.313
G08  20853643.380   109586632.765 8      2371.648    20853642.240   109586632.770 8      2371.648    20853649.360    85392203.160 8      1848.037    20853650.120    85392208.164 8      1848.037
G32  25077662.780   131784003.726 6      3217.480    25077662.220   131784003.728 6      3217.480    25077676.780   102688893.392 6      2507.127    25077677.460   102688898.402 7      2507.127
G14  24310330.940   127751653.962 6      5839.365    24310329.740   127751653.975 4      5839.365    24310340.520    99546769.357 4      4550.155    24310341.540    99546781.380 7      4550.155
G21  21161959.100   111206831.755 8      1724.330    21161957.560   111206831.763 6      1724.330    21161961.380    86654690.343 6      1343.634
G03  22440740.040   117926881.320 7      6082.366    22440739.400   117926881.327 4      6082.366    22440748.280    91891114.863 4      4739.506    22440749.460    91891114.875 7      4739.506
G27  22592563.020   118724709.849 7       763.010    22592562.380   118724709.853 7       763.010    22592570.860    92512758.075 7       594.553    22592569.860    92512789.069 7       594.553
G10  24554716.620   129035902.316 6      -418.793    24554715.960   129035902.323 6      -418.793    24554728.460   100547505.277 6      -326.332    24554728.520   100547502.278 7      -326.332
R08  21370587.500   114438527.387 7      3565.544    21370587.020   114438527.431 7      3565.544    21370598.500    89007787.925 8      2773.201    21370598.440    89007787.930 7      2773.201
R01  22292373.360   119165505.333 5      6564.008    22292370.000   119165505.366 5      6564.008    22292388.140    92684350.184 5      5105.340    22292386.960    92684343.183 5      5105.340
R23  21337779.760   114142729.924 7      1724.436    21337779.820   114142729.920 7      1724.436
R14  21477666.840   114488045.214 8      3739.113    21477666.220   114488045.209 7      3739.113    21477676.360    89046301.059 7      2908.199    21477676.780    89046304.072 7      2908.199
R07  23388047.280   125198028.778 6       573.496    23388045.520   125198028.798 6       573.496    23388062.160    97376321.767 7       446.052    23388062.060    97376319.775 7       446.052
> 2024 06 03 12 31  6.0000000  0 16
G02  21578519.680   113395881.953 8      2700.223    21578517.720   113395881.960 6      2700.223    21578520.720    88360432.287 6      2104.070
R24  21628836.540   115659108.899 7      3774.891    21628835.100   115659108.908 7      3774.891    21628848.700    89957133.504 7      2936.026    21628848.100    89957130.500 8      2936.026
G16  24191214.540   127125687.382 5      -874.540    24191214.060   127125687.392 1      -874.540    24191225.820    99059014.682 1      -681.460
R22  24110163.560   128701690.246 7       671.735    24110164.060   128701690.245 7       671.735    24110180.400   100101378.704 7       522.461    24110180.660   100101379.704 7       522.461
G08  20853192.280   109584261.126 8      2371.561    20853190.880   109584261.133 8      2371.561    20853198.060    85390355.131 8      1847.969    20853199.120    85390360.137 8      1847.969
G32  25077050.480   131780786.451 7      3217.181    25077049.980   131780786.456 6      3217.181    25077064.660   102686386.435 6      2506.894    25077065.420   102686391.439 7      2506.894
G14  24309219.840   127745814.548 6      5839.608    24309218.600   127745814.558 4      5839.608    24309229.320    99542219.173 4      4550.344    24309229.880    99542231.192 7      4550.344
G21  21161630.980   111205107.358 8      1724.381    21161629.340   111205107.365 6      1724.381    21161633.300    86653346.657 6      1343.674
G03  22439582.380   117920798.921 6      6082.367    22439582.020   117920798.926 4      6082.367    22439590.840    91886375.336 4      4739.507    22439591.860    91886375.338 7      4739.507
G27  22592417.720   118723946.838 7       762.965    22592417.220   118723946.843 7       762.965    22592425.520    92512163.518 7       594.518    22592424.480    92512194.520 7       594.518
G10  24554796.060   129036321.084 6      -418.725    24554795.700   129036321.092 6      -418.725    24554808.080   100547831.584 6      -326.279    24554808.320   100547828.587 7      -326.279
R08  21369921.680   114434962.052 7      3565.036    21369921.400   114434962.094 7      3565.036    21369932.640    89005014.886 8      2772.806    21369932.720    89005014.890 7      2772.806
R01  22291145.900   119158941.557 5      6563.733    22291142.980   119158941.559 5      6563.733    22291160.220    92679245.006 5      5105.126    22291159.200    92679237.995 5      5105.126
R23  21337457.360   114141005.248 7      1724.687    21337457.020   114141005.247 6      1724.687
R14  21476965.100   114484306.352 8      3738.538    21476964.680   114484306.352 7      3738.538    21476974.840    89043393.057 7      2907.752    21476975.520    89043396.071 7      2907.752
R07  23387939.400   125197455.583 6       572.864    23387938.720   125197455.606 6       572.864    23387955.100    97375875.958 7       445.561    23387954.980    97375873.959 7       445.561
> 2024 06 03 12 31  7.0000000  0 16
G02  21578005.780   113393182.015 8      2699.815    21578004.060   113393182.023 6      2699.815    21578006.800    88358328.437 6      2103.752
R24  21628130.220   115655334.207 7      3774.571    21628129.340   115655334.224 7      3774.571    21628142.600    89954197.638 7      2935.777    21628142.480    89954194.628 7      2935.777
G16  24191381.860   127126562.241 5      -875.106    24191380.200   127126562.253 1      -875.106    24191392.820    99059696.373 1      -681.901
R22  24110037.520   128701018.531 7       671.721    24110038.120   128701018.529 7       671.721    24110054.660   100100856.261 7       522.450    24110054.820   100100857.254 7       522.450
G08  20852740.880   109581889.867 8      2371.101    20852739.640   109581889.872 8      2371.101    20852746.800    85388507.395 8      1847.611    20852747.880    85388512.401 8      1847.611
G32  25076438.600   131777569.673 7      3216.460    25076437.860   131777569.680 6      3216.460    25076452.560   102683879.861 6      2506.333    25076453.400   102683884.856 7      2506.333
G14  24308108.720   127739975.550 6      5838.848    24308107.320   127739975.557 4      5838.848    24308118.180    99537669.312 4      4549.752    24308118.620    99537681.316 7      4549.752
G21  21161302.860   111203383.180 8      1724.122    21161301.340   111203383.185 6      1724.122    21161305.240    86652003.138 6      1343.472
G03  22438425.280   117914716.911 6      6081.793    22438424.520   117914716.913 4      6081.793    22438433.360    91881636.107 4      4739.059    22438434.100    91881636.124 7      4739.059
G27  22592272.420   118723184.178 7       762.360    22592271.940   118723184.183 7       762.360    22592280.400    92511569.237 7       594.046    22592279.100    92511600.237 7       594.046
G10  24554876.120   129036740.155 6      -419.186    24554875.520   129036740.160 6      -419.186    24554888.000   100548158.126 6      -326.639    24554888.340   100548155.127 7      -326.639
R08  21369255.640   114431397.572 7      3564.056    21369255.540   114431397.617 7      3564.056    21369267.000    89002242.517 8      2772.044    21369266.840    89002242.523 7      2772.044
R01  22289917.180   119152378.038 5      6563.001    22289914.380   119152378.042 5      6563.001    22289932.780    92674140.063 5      5104.556    22289931.760    92674133.067 5      5104.556
R23  21337135.160   114139280.652 7      1724.553    21337134.620   114139280.656 6      1724.553
R14  21476263.680   114480568.401 8      3737.469    21476263.580   114480568.399 7      3737.469    21476273.660    89040485.761 7      2906.920    21476274.320    89040488.768 7      2906.920
R07  23387832.600   125196883.093 6       572.180    23387832.200   125196883.111 6       572.180    23387848.120    97375430.679 7       445.029    23387848.420    97375428.683 7       445.029
> 2024 06 03 12 31  8.0000000  0 16
G02  21577491.840   113390482.438 7      2699.393    21577490.280   113390482.445 6      2699.393    21577493.020    88356224.870 6      2103.423
R24  21627424.680   115651559.731 7      3774.428    21627423.520   115651559.740 7      3774.428    21627436.960    89951261.929 7      2935.666    21627436.740    89951258.922 8      2935.666
G16  24191549.060   127127437.314 5      -875.187    24191547.300   127127437.327 1      -875.187    24191559.680    99060378.234 1      -681.964
R22  24109911.860   128700346.954 7       671.542    24109912.180   128700346.952 7       671.542    24109928.920   100100333.923 7       522.311    24109929.100   100100334.922 7       522.311
G08  20852289.760   109579519.139 8      2370.511    20852288.520   109579519.144 8      2370.511    20852295.720    85386660.071 8      1847.151    20852296.680    85386665.077 8      1847.151
G32  25075826.340   131774353.476 7      3215.914    25075825.760   131774353.478 6      3215.914    25075840.580   102681373.725 6      2505.907    25075840.880   102681378.723 7      2505.907
G14  24306997.540   127734136.963 6      5838.461    24306996.240   127734136.971 4      5838.461    24307007.140    99533119.769 4      4549.450    24307007.460    99533131.785 7      4549.450
G21  21160974.920   111201659.350 7      1723.675    21160973.180   111201659.358 6      1723.675    21160977.240    86650659.896 6      1343.123
G03  22437267.720   117908635.364 6      6081.373    22437267.300   117908635.366 4      6081.373    22437276.140    91876897.243 4      4738.733    22437277.080    91876897.255 7      4738.733
G27  22592127.520   118722421.943 7       762.040    22592126.980   118722421.942 7       762.040    22592135.380    92510975.277 7       593.798    22592133.920    92511006.277 7       593.798
G10  24554956.100   129037159.614 6      -419.621    24554955.340   129037159.622 6      -419.621    24554967.840   100548484.974 6      -326.977    24554967.940   100548481.979 7      -326.977
R08  21368590.700   114427834.086 7      3563.068    21368590.320   114427834.122 7      3563.068    21368601.580    88999470.912 8      2771.275    21368601.400    88999470.916 8      2771.275
R01  22288689.800   119145814.845 5      6563.063    22288688.520   119145814.830 5      6563.063    22288704.820    92669035.349 5      5104.605    22288703.780    92669028.336 5      5104.605
R23  21336812.820   114137556.283 7      1724.294    21336812.020   114137556.298 7      1724.294
R14  21475562.800   114476831.442 8      3736.457    21475562.500   114476831.446 7      3736.457    21475572.340    89037579.245 7      2906.134    21475573.020    89037582.258 7      2906.134
R07  23387725.860   125196311.497 6       571.322    23387725.640   125196311.506 6       571.322    23387741.520    97374986.098 7       444.361    23387741.280    97374984.097 7       444.361
> 2024 06 03 12 31  9.0000000  0 16
G02  21576978.240   113387783.139 7      2699.268    21576976.500   113387783.144 6      2699.268    21576979.420    88354121.519 6      2103.326
R24  21626719.260   115647785.421 7      3774.467    21626717.960   115647785.422 7      3774.467    21626731.000    89948326.352 7      2935.696    21626731.060    89948323.344 8      2935.696
G16  24191716.260   127128312.630 5      -875.646    24191713.860   127128312.632 1      -875.646    24191726.380    99061060.284 1      -682.321
R22  24109786.040   128699675.398 7       671.533    24109786.740   128699675.404 7       671.533    24109803.320   100099811.598 7       522.303    24109803.240   100099812.603 7       522.303
G08  20851838.700   109577148.816 8      2370.234    20851837.500   109577148.821 8      2370.234    20851844.620    85384813.068 8      1846.936    20851845.340    85384818.074 8      1846.936
G32  25075214.440   131771137.799 7      3215.637    25075213.860   131771137.796 6      3215.637    25075228.560   102678868.002 6      2505.691    25075229.380   102678873.008 7      2505.691
G14  24305886.140   127728298.769 6      5838.145    24305885.180   127728298.774 4      5838.145    24305896.120    99528570.528 4      4549.204    24305896.900    99528582.540 7      4549.204
G21  21160647.020   111199935.775 7      1723.535    21160645.200   111199935.782 6      1723.535    21160649.200    86649316.848 6      1343.014
G03  22436110.480   117902554.234 6      6081.234    22436109.980   117902554.236 4      6081.234    22436118.800    91872158.709 4      4738.624    22436119.700    91872158.717 7      4738.624
G27  22591982.820   118721660.065 7       761.834    22591981.980   118721660.065 7       761.834    22591990.360    92510381.604 7       593.637    22591989.260    92510412.604 7       593.637
G10  24555035.900   129037579.392 6      -419.849    24555035.260   129037579.394 6      -419.849    24555047.620   100548812.067 6      -327.155    24555048.180   100548809.066 7      -327.155
R08  21367925.280   114424271.491 7      3562.251    21367924.760   114424271.535 7      3562.251    21367936.300    88996700.013 8      2770.640    21367936.120    88996700.015 8      2770.640
R01  22287462.640   119139251.943 5      6562.726    22287459.760   119139251.979 5      6562.726    22287477.220    92663930.932 5      5104.342    22287476.300    92663923.929 5      5104.342
R23  21336490.040   114135832.027 7      1724.326    21336489.800   114135832.029 7      1724.326
R14  21474861.840   114473095.427 8      3735.674    21474861.740   114473095.425 7      3735.674    21474871.640    89034673.449 7      2905.524    21474872.080    89034676.462 7      2905.524
R07  23387619.400   125195740.693 6       570.517    23387618.860   125195740.702 6       570.517    23387634.600    97374542.135 7       443.735    23387634.840    97374540.132 7       443.735
> 2024 06 03 12 31 10.0000000  0 16
G02  21576464.480   113385083.793 7      2699.144    21576462.940   113385083.800 6      2699.144    21576465.680    88352018.136 6      2103.229
R24  21626013.100   115644010.964 7      3774.196    21626012.120   115644010.979 7      3774.196    21626024.980    89945390.676 7      2935.486    21626025.380    89945387.671 8      2935.486
G16  24191882.780   127129187.806 5      -875.608    24191880.880   127129187.811 1      -875.608    24191892.600    99061742.223 1      -682.292
R22  24109659.920   128699003.533 7       671.700    24109660.280   128699003.536 7       671.700    24109677.200   100099289.009 7       522.433    24109677.220   100099290.015 7       522.433
G08  20851387.800   109574778.588 8      2369.973    20851386.440   109574778.592 8      2369.973    20851393.500    85382966.134 8      1846.732    20851394.240    85382971.143 8      1846.732
G32  25074602.580   131767922.355 7      3215.075    25074601.940   131767922.355 6      3215.075    25074616.640   102676362.466 6      2505.253    25074617.540   102676367.470 7      2505.253
G14  24304775.040   127722460.621 6      5837.896    24304774.320   127722460.626 4      5837.896    24304784.900    99524021.328 4      4549.010    24304785.580    99524033.353 7      4549.010
G21  21160318.920   111198212.120 8      1723.471    21160317.100   111198212.125 6      1723.471    21160321.240    86647973.741 6      1342.964
G03  22434953.040   117896473.223 6      6080.719    22434952.860   117896473.230 4      6080.719    22434961.600    91867420.266 4      4738.222    22434962.640    91867420.275 7      4738.222
G27  22591838.040   118720898.237 7       761.541    22591836.980   118720898.240 7       761.541    22591845.400    92509787.972 7       593.408    22591844.400    92509818.974 7       593.408
G10  24555115.880   129037999.148 7      -420.057    24555115.040   129037999.153 6      -420.057    24555127.480   100549139.148 6      -327.317    24555128.400   100549136.143 7      -327.317
R08  21367259.820   114420709.490 7      3561.470    21367259.740   114420709.527 7      3561.470    21367271.160    88993929.566 7      2770.032    21367270.980    88993929.566 7      2770.032
R01  22286233.160   119132689.063 5      6562.780    22286232.400   119132689.083 5      6562.780    22286250.100    92658826.447 5      5104.385    22286248.560    92658819.444 5      5104.385
R23  21336167.980   114134107.536 7      1724.369    21336167.380   114134107.553 7      1724.369
R14  21474160.940   114469360.019 8      3734.853    21474160.740   114469360.012 7      3734.853    21474170.700    89031768.132 7      2904.886    21474171.060    89031771.143 7      2904.886
R07  23387512.520   125195170.295 6       569.914    23387511.820   125195170.321 6       569.914    23387528.200    97374098.509 7       443.267    23387528.380    97374096.511 7       443.267
> 2024 06 03 12 31 11.0000000  0 16
G02  21575950.960   113382384.628 7      2699.171    21575949.220   113382384.636 6      2699.171    21575952.040    88349914.891 6      2103.250
R24  21625307.300   115640236.582 7      3774.426    21625306.200   115640236.594 7      3774.426    21625319.060    89942455.047 7      2935.665    21625319.560    89942452.047 8      2935.665
G16  24192050.120   127130063.043 5      -875.351    24192047.940   127130063.050 1      -875.351    24192059.720    99062424.222 1      -682.092
R22  24109534.380   128698331.611 6       672.106    24109534.700   128698331.610 7       672.106    24109551.340   100098766.401 7       522.749    24109551.460   100098767.397 7       522.749
G08  20850936.840   109572408.695 8      2369.800    20850935.460   109572408.700 8      2369.800    20850942.520    85381119.467 8      1846.598    20850943.280    85381124.469 8      1846.598
G32  25073990.920   131764707.304 7      3214.979    25073990.100   131764707.303 6      3214.979    25074004.900   102673857.235 6      2505.179    25074006.080   102673862.233 7      2505.179
G14  24303664.160   127716622.784 6      5837.676    24303663.400   127716622.792 4      5837.676    24303673.960    99519472.370 4      4548.838    24303674.720    99519484.381 7      4548.838
G21  21159990.900   111196488.626 8      1723.533    21159989.280   111196488.634 6      1723.533    21159993.320    86646630.756 6      1343.013
G03  22433796.420   117890392.498 6      6080.654    22433795.700   117890392.502 4      6080.654    22433804.500    91862682.043 4      4738.172    22433805.240    91862682.054 7      4738.172
G27  22591692.840   118720136.667 7       761.554    22591691.900   118720136.667 7       761.554    22591700.540    92509194.532 7       593.419    22591699.480    92509225.531 7       593.419
G10  24555195.920   129038419.112 7      -419.980    24555195.000   129038419.120 6      -419.980    24555207.460   100549466.389 6      -327.257    24555207.880   100549463.396 7      -327.257
R08  21366595.240   114417148.274 7      3560.899    21366594.800   114417148.310 7      3560.899    21366606.140    88991159.731 8      2769.588    21366606.100    88991159.737 8      2769.588
R01  22285006.000   119126126.359 5      6562.691    22285005.060   119126126.384 5      6562.691    22285021.020    92653722.149 5      5104.316    22285020.600    92653715.142 5      5104.316
R23  21335845.280   114132383.087 6      1724.553    21335844.740   114132383.104 6      1724.553
R14  21473460.760   114465625.429 8      3734.246    21473460.200   114465625.425 7      3734.246    21473470.160    89028863.453 7      2904.414    21473470.480    89028866.460 7      2904.414
R07  23387405.960   125194600.645 6       569.350    23387405.660   125194600.671 6       569.350    23387422.020    97373655.450 7       442.828    23387422.100    97373653.445 7       442.828
> 2024 06 03 12 31 12.0000000  0 16
G02  21575437.620   113379685.912 7      2698.612    21575435.720   113379685.920 6      2698.612    21575438.580    88347811.993 6      2102.815
R24  21624601.180   115636462.550 7      3773.998    21624600.540   115636462.554 7      3773.998    21624613.420    89939519.683 7      2935.332    21624613.440    89939516.685 8      2935.332
G16  24192216.300   127130938.679 5      -875.698    24192214.840   127130938.689 1      -875.698    24192225.900    99063106.531 1      -682.362
R22  24109408.220   128697659.909 7       671.626    24109408.780   128697659.907 7       671.626    24109425.720   100098243.952 7       522.376    24109425.640   100098244.947 7       522.376
G08  20850486.000   109570039.400 8      2369.020    20850484.560   109570039.402 8      2369.020    20850491.760    85379273.263 8      1845.989    20850492.480    85379278.271 8      1845.989
G32  25073379.740   131761492.977 7      3214.002    25073378.540   131761492.979 6      3214.002    25073393.240   102671352.571 6      2504.417    25073394.280   102671357.571 7      2504.417
G14  24302553.400   127710785.459 6      5837.154    24302552.400   127710785.467 4      5837.154    24302563.180    99514923.810 4      4548.431    24302563.920    99514935.826 7      4548.431
G21  21159663.080   111194765.566 8      1722.963    21159661.460   111194765.571 6      1722.963    21159665.480    86645288.114 6      1342.568
G03  22432639.360   117884312.372 6      6079.826    22432638.700   117884312.382 4      6079.826    22432647.480    91857944.289 4      4737.526    22432648.240    91857944.299 7      4737.526
G27  22591548.100   118719375.635 7       760.824    22591547.180   118719375.638 7       760.824    22591555.680    92508601.523 7       592.850    22591554.440    92508632.523 7       592.850
G10  24555275.880   129038839.605 6      -420.703    24555274.880   129038839.604 6      -420.703    24555287.620   100549794.035 6      -327.821    24555287.400   100549791.035 7      -327.821
R08  21365930.160   114413588.139 7      3559.608    21365929.700   114413588.184 7      3559.608    21365941.200    88988390.748 8      2768.584    21365941.180    88988390.750 7      2768.584
R01  22283777.880   119119564.222 5      6561.901    22283776.960   119119564.191 5      6561.901    22283794.260    92648618.227 5      5103.701    22283793.020    92648611.215 5      5103.701
R23  21335522.540   114130658.951 6      1724.034    21335523.020   114130658.969 6      1724.034
R14  21472760.240   114461891.922 8      3733.074    21472759.940   114461891.923 7      3733.074    21472769.760    89025959.624 7      2903.502    21472770.180    89025962.632 7      2903.502
R07  23387299.600   125194031.950 6       568.243    23387299.360   125194031.986 6       568.243    23387315.460    97373213.125 7       441.967    23387316.080    97373211.129 7       441.967
> 2024 06 03 12 31 13.0000000  0 16
G02  21574923.960   113376987.339 7      2698.495    21574922.260   113376987.351 6      2698.495    21574925.000    88345709.213 6      2102.724
R24  21623895.400   115632688.518 7      3774.055    21623894.680   115632688.522 7      3774.055    21623907.520    89936584.325 7      2935.376    21623907.840    89936581.327 8      2935.376
G16  24192382.240   127131814.412 5      -875.750    24192381.880   127131814.414 1      -875.750    24192392.420    99063788.921 1      -682.402
R22  24109282.140   128696988.097 7       671.831    24109283.060   128696988.098 7       671.831    24109299.900   100097721.423 7       522.535    24109300.120   100097722.416 7       522.535
G08  20850035.080   109567670.380 8      2368.832    20850033.760   109567670.384 8      2368.832    20850040.960    85377427.273 8      1845.843    20850041.840    85377432.279 8      1845.843
G32  25072767.900   131758279.024 7      3213.730    25072766.860   131758279.018 6      3213.730    25072781.720   102668848.188 6      2504.205    25072782.480   102668853.188 7      2504.205
G14  24301442.320   127704948.387 7      5836.950    24301441.680   127704948.394 4      5836.950    24301452.420    99510375.450 4      4548.272    24301453.540    99510387.472 7      4548.272
G21  21159335.120   111193042.626 8      1722.858    21159333.580   111193042.629 6      1722.858    21159337.600    86643945.559 6      1342.487
G03  22431482.360   117878232.503 6      6079.664    22431481.580   117878232.511 4      6079.664    22431490.540    91853206.731 4      4737.401    22431491.320    91853206.735 7      4737.401
G27  22591403.120   118718614.830 7       760.659    22591402.520   118718614.827 7       760.659    22591410.940    92508008.681 7       592.721    22591409.580    92508039.679 7       592.721
G10  24555355.840   129039260.228 6      -420.807    24555355.080   129039260.236 6      -420.807    24555367.600   100550121.795 6      -327.902    24555367.740   100550118.794 7      -327.902
R08  21365265.520   114410028.757 7      3558.974    21365265.400   114410028.805 7      3558.974    21365276.400    88985622.342 8      2768.091    21365276.440    88985622.344 8      2768.091
R01  22282550.160   119113002.076 5      6562.100    22282549.340   119113002.099 5      6562.100    22282566.260    92643514.386 5      5103.856    22282565.460    92643507.381 5      5103.856
R23  21335200.500   114128934.775 7      1724.240    21335200.060   114128934.787 6      1724.240
R14  21472059.760   114458159.251 8      3732.205    21472059.600   114458159.255 8      3732.205    21472069.440    89023056.434 7      2902.826    21472069.900    89023059.435 7      2902.826
R07  23387193.360   125193463.895 6       567.668    23387193.020   125193463.926 6       567.668    23387209.300    97372771.307 7       441.519    23387209.560    97372769.310 7       441.519
> 2024 06 03 12 31 14.0000000  0 16
G02  21574410.420   113374289.136 7      2698.137    21574408.740   113374289.140 6      2698.137    21574411.660    88343606.713 6      2102.444
R24  21623189.840   115628914.716 7      3773.926    21623188.940   115628914.717 7      3773.926    21623201.800    89933649.146 7      2935.276    21623202.140    89933646.147 8      2935.276
G16  24192548.660   127132690.387 5      -875.999    24192548.880   127132690.397 1      -875.999    24192558.640    99064471.484 1      -682.596
R22  24109156.280   128696316.384 7       671.833    24109157.380   128696316.382 7       671.833    24109174.260   100097198.975 7       522.537    24109174.020   100097199.968 7       522.537
G08  20849584.340   109565301.864 8      2368.409    20849583.080   109565301.869 8      2368.409    20849590.220    85375581.675 8      1845.513    20849591.100    85375586.681 8      1845.513
G32  25072156.500   131755065.669 6      3213.213    25072155.280   131755065.669 6      3213.213    25072170.220   102666344.275 6      2503.802    25072171.260   102666349.275 7      2503.802
G14  24300331.760   127699111.782 6      5836.503    24300330.820   127699111.792 4      5836.503    24300341.760    99505827.454 4      4547.925    24300342.760    99505839.472 7      4547.925
G21  21159007.260   111191320.010 8      1722.607    21159005.860   111191320.015 6      1722.607    21159009.640    86642603.261 6      1342.291
G03  22430325.760   117872153.116 6      6079.247    22430324.720   117872153.120 4      6079.247    22430333.600    91848469.552 4      4737.076    22430334.320    91848469.558 7      4737.076
G27  22591258.480   118717854.452 7       760.293    22591257.660   118717854.452 7       760.293    22591266.260    92507416.177 7       592.436    22591264.840    92507447.177 7       592.436
G10  24555436.280   129039681.241 6      -420.937    24555435.160   129039681.243 6      -420.937    24555447.680   100550449.849 6      -328.003    24555447.920   100550446.856 7      -328.003
R08  21364600.940   114406470.347 7      3558.099    21364600.760   114406470.394 7      3558.099    21364612.120    88982854.691 8      2767.410    21364611.900    88982854.696 8      2767.410
R01  22281323.540   119106440.441 5      6561.627    22281321.200   119106440.432 5      6561.627    22281338.940    92638410.890 5      5103.488    22281338.200    92638403.868 5      5103.488
R23  21334878.420   114127210.808 6      1724.054    21334878.240   114127210.820 7      1724.054
R14  21471359.500   114454427.599 8      3731.303    21471359.660   114454427.592 8      3731.303    21471369.700    89020154.034 7      2902.125    21471369.840    89020157.035 7      2902.125
R07  23387087.460   125192896.693 6       566.883    23387087.740   125192896.714 6       566.883    23387103.580    97372330.141 7       440.909    23387103.860    97372328.139 7       440.909
> 2024 06 03 12 31 15.0000000  0 16
G02  21573897.180   113371591.124 7      2698.051    21573895.440   113371591.132 6      2698.051    21573898.140    88341504.368 6      2102.377
R24  21622484.060   115625141.058 7      3773.744    21622483.040   115625141.060 7      3773.744    21622495.900    89930714.081 7      2935.134    21622496.120    89930711.084 8      2935.134
G16  24192715.340   127133566.567 5      -876.305    24192715.360   127133566.577 1      -876.305    24192725.900    99065154.206 1      -682.835
R22  24109030.620   128695644.658 7       671.895    24109031.300   128695644.656 7       671.895    24109047.880   100096676.515 7       522.585    24109047.880   100096677.515 7       522.585
G08  20849133.520   109562933.703 8      2368.074    20849132.460   109562933.708 8      2368.074    20849139.640    85373736.357 8      1845.253    20849140.540    85373741.363 8      1845.253
G32  25071545.180   131751852.770 6      3212.799    25071543.920   131751852.769 6      3212.799    25071558.660   102663840.721 6      2503.479    25071559.460   102663845.723 7      2503.479
G14  24299221.320   127693275.489 7      5836.303    24299220.280   127693275.494 4      5836.303    24299231.180    99501279.696 4      4547.769    24299232.700    99501291.714 7      4547.769
G21  21158679.740   111189597.593 8      1722.460    21158678.020   111189597.596 6      1722.460    21158681.860    86641261.116 6      1342.176
G03  22429168.600   117866074.088 6      6078.991    22429167.820   117866074.090 4      6078.991    22429176.980    91843732.647 4      4736.876    22429177.740    91843732.647 7      4736.876
G27  22591113.900   118717094.362 7       760.044    22591113.020   118717094.366 7       760.044    22591121.620    92506823.903 7       592.242    22591120.180    92506854.897 7       592.242
G10  24555516.200   129040102.521 7      -421.223    24555515.220   129040102.531 6      -421.223    24555527.880   100550778.119 6      -328.226    24555528.400   100550775.120 7      -328.226
R08  21363936.420   114402912.770 7      3557.341    21363936.260   114402912.817 7      3557.341    21363947.600    88980087.689 8      2766.821    21363947.480    88980087.695 7      2766.821
R01  22280095.840   119099878.996 5      6561.506    22280094.740   119099878.984 5      6561.506    22280112.200    92633307.546 5      5103.393    22280110.420    92633300.535 5      5103.393
R23  21334555.880   114125486.883 7      1724.046    21334555.840   114125486.898 7      1724.046
R14  21470659.760   114450696.839 8      3730.408    21470659.780   114450696.840 8      3730.408    21470669.840    89017252.336 7      2901.428    21470670.140    89017255.341 7      2901.428
R07  23386982.060   125192330.188 6       566.236    23386981.420   125192330.224 6       566.236    23386997.840    97371889.532 7       440.406    23386997.920    97371887.540 7       440.406
> 2024 06 03 12 31 16.0000000  0 16
G02  21573383.800   113368893.381 7      2697.712    21573382.000   113368893.388 6      2697.712    21573384.740    88339402.228 6      2102.113
R24  21621778.700   115621367.540 7      3773.568    21621777.180   115621367.546 7      3773.568    21621790.120    89927779.126 7      2934.998    21621790.400    89927776.130 8      2934.998
G16  24192882.780   127134442.823 5      -876.266    24192881.760   127134442.831 1      -876.266    24192892.340    99065836.984 1      -682.804
R22  24108904.580   128694972.928 6       671.755    24108905.660   128694972.935 7       671.755    24108922.360   100096154.061 7       522.476    24108922.100   100096155.063 7       522.476
G08  20848683.020   109560565.937 8      2367.640    20848681.800   109560565.939 8      2367.640    20848688.960    85371891.340 8      1844.914    20848689.760    85371896.342 8      1844.914
G32  25070933.880   131748640.382 7      3212.162    25070932.720   131748640.387 6      3212.162    25070947.480   102661337.564 6      2502.983    25070948.160   102661342.568 7      2502.983
G14  24298110.740   127687439.546 6      5835.813    24298109.720   127687439.557 4      5835.813    24298120.780    99496732.216 4      4547.387    24298121.880    99496744.243 7      4547.387
G21  21158351.860   111187875.397 8      1722.126    21158350.280   111187875.402 6      1722.126    21158354.380    86639919.145 6      1341.916
G03  22428011.740   117859995.415 6      6078.598    22428011.020   117859995.415 4      6078.598    22428020.240    91838996.021 4      4736.570    22428021.120    91838996.025 7      4736.570
G27  22590969.660   118716334.631 7       759.581    22590968.400   118716334.638 7       759.581    22590977.040    92506231.902 7       591.881    22590975.580    92506262.903 7       591.881
G10  24555596.460   129040524.098 6      -421.627    24555595.320   129040524.103 6      -421.627    24555608.100   100551106.615 6      -328.540    24555608.340   100551103.618 7      -328.540
R08  21363272.320   114399356.073 7      3556.374    21363272.420   114399356.123 7      3556.374    21363283.420    88977321.369 8      2766.069    21363283.140    88977321.375 8      2766.069
R01  22278868.020   119093317.859 5      6561.081    22278866.480   119093317.838 5      6561.081    22278884.700    92628204.430 5      5103.063    22278883.480    92628197.423 5      5103.063
R23  21334233.500   114123763.087 7      1723.730    21334233.680   114123763.105 7      1723.730
R14  21469960.440   114446967.007 8      3729.411    21469959.840   114446967.003 7      3729.411    21469970.000    89014351.355 7      2900.653    21469970.360    89014354.358 7      2900.653
R07  23386876.100   125191764.442 6       565.432    23386875.900   125191764.468 6       565.432    23386891.840    97371449.504 7       439.781    23386892.320    97371447.504 7       439.781
> 2024 06 03 12 31 17.0000000  0 16
G02  21572870.300   113366195.982 7      2697.282    21572868.760   113366195.986 6      2697.282    21572871.380    88337300.357 6      2101.778
R24  21621073.280   115617594.262 7      3773.212    21621071.380   115617594.260 7      3773.212    21621084.520    89924844.352 7      2934.720    21621084.540    89924841.354 8      2934.720
G16  24193048.960   127135319.384 5      -876.590    24193048.160   127135319.386 1      -876.590    24193059.260    99066520.006 1      -683.057
R22  24108778.900   128694301.309 6       671.567    24108779.900   128694301.310 7       671.567    24108796.660   100095631.686 7       522.330    24108796.200   100095632.684 7       522.330
G08  20848232.520   109558198.670 8      2367.073    20848231.440   109558198.669 8      2367.073    20848238.540    85370046.716 8      1844.473    20848239.440    85370051.720 8      1844.473
G32  25070322.660   131745428.575 7      3211.653    25070321.480   131745428.572 6      3211.653    25070336.260   102658834.858 6      2502.587    25070337.040   102658839.854 7      2502.587
G14  24297000.580   127681604.058 6      5835.311    24296999.300   127681604.068 4      5835.311    24297010.360    99492185.090 4      4546.995    24297011.340    99492197.107 7      4546.995
G21  21158024.220   111186153.525 8      1721.788    21158022.600   111186153.529 6      1721.788    21158026.700    86638577.426 6      1341.653
G03  22426855.300   117853917.239 6      6077.938    22426854.320   117853917.241 4      6077.938    22426863.620    91834259.786 4      4736.055    22426864.200    91834259.796 7      4736.055
G27  22590824.880   118715575.309 7       759.227    22590823.940   118715575.312 7       759.227    22590832.560    92505640.213 7       591.606    22590831.180    92505671.216 7       591.606
G10  24555676.900   129040946.046 6      -422.096    24555675.720   129040946.051 6      -422.096    24555688.440   100551435.399 6      -328.906    24555688.620   100551432.398 7      -328.906
R08  21362608.360   114395800.346 7      3555.335    21362608.260   114395800.390 7      3555.335    21362619.460    88974555.803 8      2765.261    21362619.320    88974555.806 7      2765.261
R01  22277640.240   119086757.020 5      6561.017    22277639.880   119086757.024 5      6561.017    22277657.420    92623101.581 5      5103.013    22277656.040    92623098.576 5      5103.013
R23  21333911.060   114122039.452 6      1723.600    21333911.720   114122039.469 7      1723.600
R14  21469260.940   114443238.156 8      3728.394    21469260.380   114443238.149 8      3728.394    21469270.380    89011451.134 7      2899.862    21469270.940    89011454.143 7      2899.862
R07  23386770.300   125191199.572 6       564.443    23386770.680   125191199.590 6       564.443    23386786.500    97371010.150 7       439.011    23386786.600    97371008.150 7       439.011
> 2024 06 03 12 31 18.0000000  0 16
G02  21572357.140   113363498.727 7      2697.410    21572355.520   113363498.732 6      2697.410    21572358.120    88335198.604 6      2101.878
R24  21620367.320   115613820.994 7      3773.533    21620365.640   115613820.993 7      3773.533    21620378.920    89921909.593 7      2934.970    21620378.960    89921906.590 7      2934.970
G16  24193216.120   127136196.045 5      -876.471    24193214.840   127136196.047 1      -876.471    24193225.860    99067203.104 1      -682.964
R22  24108652.680   128693629.577 6       671.970    24108653.680   128693629.578 7       671.970    24108670.720   100095109.216 7       522.643    24108670.920   100095110.217 7       522.643
G08  20847782.200   109555831.691 8      2366.976    20847781.000   109555831.696 8      2366.976    20847788.200    85368202.319 8      1844.397    20847789.040    85368207.325 8      1844.397
G32  25069711.560   131742217.165 7      3211.427    25069710.400   131742217.165 6      3211.427    25069725.080   102656332.462 6      2502.411    25069725.940   102656337.462 7      2502.411
G14  24295890.240   127675768.825 6      5835.268    24295888.900   127675768.835 4      5835.268    24295899.860    99487638.161 4      4546.962    24295900.840    99487650.178 7      4546.962
G21  21157696.340   111184431.788 8      1721.858    21157694.840   111184431.791 6      1721.858    21157698.920    86637235.811 6      1341.708
G03  22425698.480   117847839.335 6      6078.023    22425697.720   117847839.338 4      6078.023    22425707.060    91829523.760 4      4736.122    22425707.920    91829523.776 7      4736.122
G27  22590680.320   118714816.243 7       759.176    22590679.480   118714816.245 7       759.176    22590688.080    92505048.733 7       591.566    22590686.640    92505079.733 7       591.566
G10  24555756.940   129041368.162 7      -421.926    24555756.120   129041368.172 6      -421.926    24555768.840   100551764.321 6      -328.773    24555768.640   100551761.322 7      -328.773
R08  21361944.420   114392245.387 7      3554.763    21361944.400   114392245.431 7      3554.763    21361955.420    88971790.837 8      2764.816    21361955.260    88971790.838 8      2764.816
R01  22276412.640   119080196.449 5      6560.855    22276412.640   119080196.450 5      6560.855    22276429.420    92617998.919 5      5102.888    22276428.880    92617995.916 5      5102.888
R23  21333589.180   114120315.845 7      1723.758    21333589.400   114120315.852 6      1723.758
R14  21468561.300   114439510.089 8      3727.874    21468560.820   114439510.086 7      3727.874    21468571.180    89008551.536 7      2899.457    21468571.860    89008554.543 7      2899.457
R07  23386664.620   125190635.352 6       564.011    23386664.600   125190635.386 6       564.011    23386681.080    97370571.325 7       438.675    23386681.080    97370569.333 7       438.675
> 2024 06 03 12 31 19.0000000  0 16
G02  21571843.960   113360801.653 7      2696.911    21571842.240   113360801.661 6      2696.911    21571844.920    88333096.988 6      2101.489
R24  21619661.900   115610047.802 7      3773.081    21619659.980   115610047.798 7      3773.081    21619673.220    89918974.886 7      2934.619    21619673.580    89918971.883 8      2934.619
G16  24193382.080   127137072.774 5      -876.925    24193381.580   127137072.779 1      -876.925    24193392.860    99067886.252 1      -683.318
R22  24108526.660   128692957.810 6       671.625    24108528.100   128692957.803 7       671.625    24108544.960   100094586.724 7       522.375    24108545.260   100094587.716 7       522.375
G08  20847331.840   109553465.036 8      2366.313    20847330.660   109553465.038 8      2366.313    20847337.780    85366358.172 8      1843.880    20847338.880    85366363.176 8      1843.880
G32  25069100.340   131739006.184 7      3210.641    25069099.240   131739006.183 6      3210.641    25069114.100   102653830.401 6      2501.798    25069114.760   102653835.401 7      2501.798
G14  24294779.840   127669933.854 7      5834.748    24294778.640   127669933.861 4      5834.748    24294789.460    99483091.435 4      4546.557    24294790.540    99483103.462 7      4546.557
G21  21157368.840   111182710.184 8      1721.461    21157367.180   111182710.188 6      1721.461    21157371.400    86635894.305 6      1341.398
G03  22424541.740   117841761.737 6      6077.355    22424541.080   117841761.742 4      6077.355    22424550.520    91824787.973 4      4735.602    22424551.560    91824787.985 7      4735.602
G27  22590535.900   118714057.437 7       758.483    22590534.960   118714057.437 7       758.483    22590543.700    92504457.450 7       591.026    22590542.360    92504488.452 7       591.026
G10  24555837.280   129041790.517 7      -422.584    24555836.480   129041790.530 6      -422.584    24555849.200   100552093.425 6      -329.286    24555849.320   100552090.425 7      -329.286
R08  21361280.960   114388691.218 7      3553.646    21361280.640   114388691.257 7      3553.646    21361291.780    88969026.484 7      2763.947    21361291.500    88969026.486 7      2763.947
R01  22275184.440   119073636.033 5      6560.053    22275184.960   119073636.080 5      6560.053    22275201.880    92612896.429 5      5102.263    22275201.360    92612893.418 5      5102.263
R23  21333267.060   114118592.212 7      1723.469    21333266.600   114118592.216 7      1723.469
R14  21467862.060   114435782.836 8      3726.706    21467861.660   114435782.845 8      3726.706    21467871.840    89005652.564 7      2898.549    21467872.400    89005655.573 7      2898.549
R07  23386559.600   125190071.847 6       563.004    23386559.460   125190071.889 6       563.004    23386575.920    97370133.047 7       437.892    23386576.080    97370131.045 7       437.892
> 2024 06 03 12 31 20.0000000  0 16
G02  21571330.700   113358104.911 7      2696.587    21571329.120   113358104.924 6      2696.587    21571331.900    88330995.635 6      2101.236
R24  21618956.340   115606274.810 7      3773.012    21618954.180   115606274.814 7      3773.012    21618967.740    89916040.343 7      2934.565    21618967.600    89916037.344 7      2934.565
G16  24193548.140   127137949.787 5      -877.329    24193548.260   127137949.802 1      -877.329    24193559.660    99068569.622 1      -683.633
R22  24108401.160   128692286.071 7       671.777    24108402.220   128692286.066 7       671.777    24108419.120   100094064.256 7       522.493    24108419.400   100094065.245 7       522.493
G08  20846881.340   109551098.828 8      2366.002    20846880.360   109551098.830 8      2366.002    20846887.480    85364514.373 8      1843.638    20846888.560    85364519.377 8      1843.638
G32  25068489.140   131735795.762 7      3210.173    25068488.320   131735795.756 6      3210.173    25068503.180   102651328.771 6      2501.433    25068504.100   102651333.771 7      2501.433
G14  24293669.720   127664099.325 6      5834.323    24293668.420   127664099.332 4      5834.323    24293679.220    99478545.059 4      4546.225    24293679.880    99478557.086 7      4546.225
G21  21157041.560   111180988.878 7      1721.282    21157039.740   111180988.883 6      1721.282    21157043.840    86634553.026 6      1341.259
G03  22423384.940   117835684.604 6      6076.992    22423384.580   117835684.609 4      6076.992    22423394.080    91820052.555 4      4735.318    22423395.240    91820052.565 7      4735.318
G27  22590391.520   118713299.007 7       758.253    22590390.740   118713299.004 7       758.253    22590399.340    92503866.461 7       590.847    22590398.300    92503897.461 7       590.847
G10  24555918.060   129042213.209 7      -422.782    24555916.900   129042213.219 6      -422.782    24555929.520   100552422.786 6      -329.441    24555929.920   100552419.789 7      -329.441
R08  21360616.920   114385137.970 7      3552.795    21360617.260   114385138.017 7      3552.795    21360628.160    88966262.853 7      2763.285    21360628.100    88966262.855 7      2763.285
R01  22273956.920   119067075.938 5      6560.155    22273958.780   119067075.979 5      6560.155    22273975.320    92607794.125 5      5102.343    22273974.080    92607791.121 5      5102.343
R23  21332944.640   114116868.713 7      1723.531    21332944.980   114116868.723 7      1723.531
R14  21467163.240   114432056.541 8      3725.866    21467162.580   114432056.544 7      3725.866    21467172.820    89002754.335 7      2897.895    21467173.380    89002757.335 7      2897.895
R07  23386454.740   125189509.188 6       562.367    23386454.660   125189509.208 6       562.367    23386470.920    97369695.405 7       437.397    23386470.940    97369693.408 7       437.397
> 2024 06 03 12 31 21.0000000  0 16
G02  21570817.880   113355408.395 7      2696.264    21570816.060   113355408.402 6      2696.264    21570818.840    88328894.451 6      2100.985
R24  21618250.800   115602501.968 7      3772.656    21618248.380   115602501.993 7      3772.656    21618262.360    89913105.933 7      2934.288    21618262.060    89913102.932 7      2934.288
G16  24193715.720   127138826.921 5      -877.329    24193715.180   127138826.944 1      -877.329    24193726.920    99069253.088 1      -683.633
R22  24108275.320   128691614.331 7       671.693    24108276.380   128691614.324 7       671.693    24108293.220   100093541.783 7       522.428    24108293.400   100093542.779 7       522.428
G08  20846431.120   109548732.997 8      2365.532    20846430.220   109548733.000 8      2365.532    20846437.300    85362670.869 8      1843.272    20846438.140    85362675.876 8      1843.272
G32  25067878.480   131732585.820 7      3209.434    25067877.660   131732585.823 6      3209.434    25067892.360   102648827.520 6      2500.858    25067893.440   102648832.522 7      2500.858
G14  24292559.100   127658265.108 6      5834.006    24292558.380   127658265.113 4      5834.006    24292569.040    99473998.922 4      4545.979    24292569.420    99474010.941 7      4545.979
G21  21156713.820   111179267.788 8      1720.990    21156712.180   111179267.793 6      1720.990    21156716.220    86633211.913 6      1341.031
G03  22422228.600   117829607.828 6      6076.524    22422228.380   117829607.830 4      6076.524    22422237.640    91815317.407 4      4734.954    22422238.620    91815317.415 7      4734.954
G27  22590247.140   118712540.902 7       757.794    22590246.360   118712540.902 7       757.794    22590255.160    92503275.728 7       590.489    22590253.860    92503306.728 7       590.489
G10  24555998.240   129042636.200 6      -423.377    24555997.420   129042636.204 6      -423.377    24556010.000   100552752.381 6      -329.904    24556010.240   100552749.372 7      -329.904
R08  21359953.840   114381585.592 7      3551.825    21359953.580   114381585.639 7      3551.825    21359964.780    88963499.894 8      2762.530    21359964.480    88963499.896 8      2762.530
R01  22272729.840   119060516.163 5      6559.671    22272730.880   119060516.162 5      6559.671    22272747.140    92602692.067 5      5101.967    22272746.760    92602689.060 5      5101.967
R23  21332622.420   114115145.321 6      1723.185    21332622.620   114115145.333 6      1723.185
R14  21466464.380   114428331.144 7      3724.857    21466463.820   114428331.142 7      3724.857    21466473.700    88999856.799 7      2897.111    21466474.440    88999859.800 7      2897.111
R07  23386349.860   125188947.256 6       561.457    23386349.480   125188947.269 6       561.457    23386365.720    97369258.343 7       436.688    23386365.700    97369256.342 7       436.688
> 2024 06 03 12 31 22.0000000  0 16
G02  21570304.560   113352712.136 7      2696.332    21570303.040   113352712.143 6      2696.332    21570305.640    88326793.472 6      2101.038
R24  21617545.160   115598729.302 7      3772.849    21617542.920   115598729.325 7      3772.849    21617556.560    89910171.635 7      2934.438    21617556.900    89910168.637 7      2934.438
G16  24193882.520   127139704.251 5      -877.261    24193881.440   127139704.267 1      -877.261    24193894.820    99069936.719 1      -683.580
R22  24108149.600   128690942.623 7       671.901    24108150.580   128690942.627 7       671.901    24108167.340   100093019.348 7       522.590    24108167.420   100093020.346 7       522.590
G08  20845981.220   109546367.588 8      2365.447    20845980.040   109546367.585 8      2365.447    20845987.200    85360827.691 8      1843.205    20845988.200    85360832.691 8      1843.205
G32  25067267.720   131729376.368 6      3209.410    25067266.820   131729376.368 6      3209.410    25067281.620   102646326.648 6      2500.839    25067282.900   102646331.652 7      2500.839
G14  24291449.000   127652431.265 7      5833.890    24291448.300   127652431.270 4      5833.890    24291458.880    99469453.078 4      4545.888    24291459.140    99469465.099 7      4545.888
G21  21156386.360   111177546.943 8      1720.937    21156384.780   111177546.948 6      1720.937    21156388.680    86631871.001 6      1340.990
G03  22421072.220   117823531.428 6      6076.449    22421072.220   117823531.430 4      6076.449    22421081.340    91810582.555 4      4734.895    22421082.460    91810582.562 7      4734.895
G27  22590102.720   118711783.137 7       757.818    22590102.200   118711783.141 7       757.818    22590111.020    92502685.259 7       590.508    22590109.700    92502716.259 7       590.508
G10  24556078.920   129043059.445 6      -423.111    24556077.960   129043059.448 6      -423.111    24556090.640   100553082.173 6      -329.697    24556090.780   100553079.166 7      -329.697
R08  21359290.860   114378034.114 7      3551.247    21359290.360   114378034.156 7      3551.247    21359301.560    88960737.629 8      2762.081    21359301.140    88960737.634 8      2762.081
R01  22271502.940   119053956.637 5      6559.681    22271503.120   119053956.644 5      6559.681    22271520.620    92597590.224 5      5101.974    22271519.560    92597587.219 5      5101.974
R23  21332300.500   114113422.022 6      1723.486    21332300.500   114113422.029 6      1723.486
R14  21465765.800   114424606.656 8      3724.192    21465765.060   114424606.665 7      3724.192    21465775.120    88996959.988 7      2896.594    21465775.900    88996962.986 7      2896.594
R07  23386245.160   125188386.040 6       561.097    23386244.700   125188386.063 6       561.097    23386261.040    97368821.849 7       436.409    23386260.720    97368819.853 7       436.409
> 2024 06 03 12 31 23.0000000  0 16
G02  21569791.440   113350016.114 7      2695.768    21569790.040   113350016.118 6      2695.768    21569792.620    88324692.672 6      2100.599
R24  21616839.700   115594956.760 7      3772.384    21616837.800   115594956.774 7      3772.384    21616851.220    89907237.429 7      2934.076    21616851.380    89907234.437 8      2934.076
G16  24194049.140   127140581.632 5      -877.362    24194047.420   127140581.648 1      -877.362    24194062.060    99070620.382 1      -683.659
R22  24108023.840   128690270.889 7       671.567    24108024.960   128690270.887 7       671.567    24108041.620   100092496.903 7       522.330    24108041.840   100092497.904 7       522.330
G08  20845531.200   109544002.533 8      2364.803    20845529.980   109544002.532 8      2364.803    20845537.040    85358984.791 8      1842.704    20845538.120    85358989.793 8      1842.704
G32  25066657.160   131726167.402 7      3208.652    25066656.280   131726167.399 6      3208.652    25066671.060   102643826.147 6      2500.248    25066672.120   102643831.151 7      2500.248
G14  24290339.180   127646597.755 7      5833.164    24290338.160   127646597.765 4      5833.164    24290348.920    99464907.495 4      4545.323    24290348.940    99464919.527 7      4545.323
G21  21156058.980   111175826.292 7      1720.381    21156057.300   111175826.300 6      1720.381    21156061.280    86630530.230 6      1340.556
G03  22419916.260   117817455.422 6      6075.645    22419915.860   117817455.424 4      6075.645    22419924.980    91805848.009 4      4734.269    22419926.040    91805848.014 7      4734.269
G27  22589958.460   118711025.678 7       757.256    22589958.060   118711025.675 7       757.256    22589966.820    92502095.026 7       590.070    22589965.680    92502126.028 7       590.070
G10  24556159.720   129043482.957 6      -423.731    24556158.420   129043482.959 6      -423.731    24556171.180   100553412.176 6      -330.180    24556171.060   100553409.179 7      -330.180
R08  21358627.880   114374483.463 7      3550.091    21358627.540   114374483.505 7      3550.091    21358638.380    88957976.016 8      2761.182    21358638.380    88957976.018 8      2761.182
R01  22270277.500   119047397.365 5      6559.143    22270277.300   119047397.353 5      6559.143    22270293.440    92592488.558 5      5101.555    22270292.120    92592485.548 5      5101.555
R23  21331978.480   114111698.796 6      1723.080    21331978.440   114111698.816 6      1723.080
R14  21465067.100   114420883.082 8      3722.972    21465066.380   114420883.083 7      3722.972    21465076.580    88994063.870 7      2895.645    21465077.160    88994066.875 7      2895.645
R07  23386140.820   125187825.607 6       559.933    23386140.400   125187825.617 6       559.933    23386156.240    97368385.943 7       435.503    23386156.400    97368383.942 7       435.503
> 2024 06 03 12 31 24.0000000  0 16
G02  21569278.720   113347320.378 7      2695.618    21569277.020   113347320.382 6      2695.618    21569279.500    88322592.096 6      2100.482
R24  21616134.240   115591184.337 7      3772.462    21616132.640   115591184.336 7      3772.462    21616145.500    89904303.314 7      2934.137    21616146.120    89904300.322 7      2934.137
G16  24194215.960   127141459.331 5      -877.598    24194214.400   127141459.354 1      -877.598    24194228.260    99071304.297 1      -683.843
R22  24107898.260   128689599.210 7       671.548    24107898.580   128689599.214 7       671.548    24107916.100   100091974.482 7       522.315    24107915.980   100091975.481 7       522.315
G08  20845081.200   109541637.914 8      2364.475    20845080.020   109541637.921 8      2364.475    20845087.140    85357142.233 8      1842.448    20845088.120    85357147.239 8      1842.448
G32  25066046.620   131722958.963 6      3208.233    25066045.720   131722958.966 6      3208.233    25066060.440   102641326.069 6      2499.922    25066061.400   102641331.081 7      2499.922
G14  24289229.160   127640764.624 6      5833.038    24289228.140   127640764.631 4      5833.038    24289238.820    99460362.206 4      4545.225    24289239.120    99460374.222 7      4545.225
G21  21155731.580   111174105.899 8      1720.368    21155729.980   111174105.903 6      1720.368    21155734.080    86629189.661 6      1340.546
G03  22418760.600   117811379.815 6      6075.399    22418759.800   117811379.812 4      6075.399    22418768.820    91801113.775 4      4734.077    22418770.000    91801113.775 7      4734.077
G27  22589814.780   118710268.617 7       756.953    22589813.920   118710268.619 7       756.953    22589822.780    92501505.104 7       589.834    22589821.640    92501536.102 7       589.834
G10  24556239.680   129043906.788 6      -423.892    24556239.140   129043906.798 6      -423.892    24556251.780   100553742.434 6      -330.306    24556252.240   100553739.435 7      -330.306
R08  21357965.000   114370933.739 7      3549.284    21357964.320   114370933.780 7      3549.284    21357975.760    88955215.121 8      2760.554    21357975.480    88955215.124 7      2760.554
R01  22269050.020   119040838.376 5      6558.831    22269049.800   119040838.388 5      6558.831    22269066.560    92587387.147 5      5101.313    22269065.620    92587384.141 5      5101.313
R23  21331656.260   114109975.749 6      1723.020    21331655.980   114109975.753 6      1723.020
R14  21464368.660   114417160.476 8      3722.124    21464368.180   114417160.466 7      3722.124    21464377.880    88991168.499 7      2894.986    21464378.600    88991171.504 7      2894.986
R07  23386036.220   125187265.916 6       559.374    23386035.300   125187265.934 6       559.374    23386051.640    97367950.631 7       435.068    23386051.960    97367948.635 7       435.068
> 2024 06 03 12 31 25.0000000  0 16
G02  21568765.560   113344624.597 7      2695.708    21568763.960   113344624.604 6      2695.708    21568766.660    88320491.490 6      2100.551
R24  21615428.940   115587411.752 7      3772.484    21615427.200   115587411.743 7      3772.484    21615440.040    89901369.079 7      2934.155    21615440.500    89901366.085 7      2934.155
G16  24194383.620   127142336.911 5      -877.877    24194381.480   127142336.945 1      -877.877    24194395.780    99071988.123 1      -684.060
R22  24107772.360   128688927.198 6       671.976    24107772.900   128688927.202 7       671.976    24107789.960   100091451.804 7       522.648    24107790.520   100091452.799 7       522.648
G08  20844631.260   109539273.416 8      2364.310    20844630.100   109539273.421 8      2364.310    20844637.200    85355299.767 8      1842.319    20844638.040    85355304.773 8      1842.319
G32  25065436.100   131719750.748 6      3208.006    25065435.360   131719750.751 6      3208.006    25065449.840   102638826.163 6      2499.745    25065451.160   102638831.161 7      2499.745
G14  24288119.260   127634931.576 7      5832.833    24288118.060   127634931.586 4      5832.833    24288128.660    99455816.982 4      4545.065    24288128.700    99455829.007 7      4545.065
G21  21155404.160   111172385.458 8      1720.362    21155402.680   111172385.463 6      1720.362    21155406.640    86627849.056 6      1340.542
G03  22417603.840   117805304.282 6      6075.374    22417603.620   117805304.282 4      6075.374    22417612.800    91796379.595 4      4734.058    22417613.480    91796379.603 7      4734.058
G27  22589670.720   118709511.584 7       756.823    22589669.820   118709511.587 7       756.823    22589678.720    92500915.206 7       589.732    22589677.780    92500946.204 7       589.732
G10  24556320.420   129044330.631 7      -423.874    24556319.880   129044330.635 6      -423.874    24556332.500   100554072.693 6      -330.291    24556332.780   100554069.685 7      -330.291
R08  21357301.940   114367384.590 7      3548.673    21357301.640   114367384.624 7      3548.673    21357312.740    88952454.670 8      2760.079    21357312.560    88952454.675 8      2760.079
R01  22267822.400   119034279.353 5      6559.027    22267823.560   119034279.370 5      6559.027    22267840.200    92582285.707 5      5101.466    22267838.520    92582282.693 5      5101.466
R23  21331334.780   114108252.479 7      1723.115    21331334.160   114108252.489 6      1723.115
R14  21463670.400   114413438.474 8      3721.596    21463669.680   114413438.469 7      3721.596    21463679.860    88988273.618 7      2894.575    21463680.600    88988276.623 7      2894.575
R07  23385931.420   125186706.747 6       558.688    23385931.040   125186706.762 6       558.688    23385947.280    97367515.716 7       434.535    23385947.400    97367513.711 7       434.535
> 2024 06 03 12 31 26.0000000  0 16
G02  21568252.460   113341929.134 7      2695.434    21568251.060   113341929.142 6      2695.434    21568253.760    88318391.133 6      2100.338
R24  21614723.340   115583639.375 7      3772.302    21614721.520   115583639.376 7      3772.302    21614734.780    89898435.017 7      2934.013    21614734.920    89898432.020 7      2934.013
G16  24194550.460   127143214.702 5      -877.994    24194548.080   127143214.730 1      -877.994    24194563.120    99072672.106 1      -684.151
R22  24107646.340   128688255.277 6       671.974    24107647.260   128688255.283 7       671.974    24107664.320   100090929.192 7       522.647    24107664.720   100090930.189 7       522.647
G08  20844181.240   109536909.365 8      2363.894    20844180.200   109536909.370 8      2363.894    20844187.300    85353457.649 8      1841.995    20844188.320    85353462.653 8      1841.995
G32  25064825.520   131716543.093 6      3207.352    25064824.920   131716543.095 6      3207.352    25064839.640   102636326.694 6      2499.235    25064840.280   102636331.694 7      2499.235
G14  24287009.120   127629098.920 7      5832.528    24287008.240   127629098.928 4      5832.528    24287018.460    99451272.064 4      4544.827    24287019.420    99451284.082 7      4544.827
G21  21155076.860   111170665.290 8      1720.124    21155075.320   111170665.295 6      1720.124    21155079.320    86626508.668 6      1340.356
G03  22416447.760   117799229.217 6      6074.880    22416447.540   117799229.219 4      6074.880    22416456.800    91791645.784 4      4733.673    22416457.520    91791645.794 7      4733.673
G27  22589526.780   118708754.941 7       756.553    22589525.660   118708754.940 7       756.553    22589534.640    92500325.608 7       589.522    22589533.540    92500356.604 7       589.522
G10  24556401.320   129044754.812 6      -424.177    24556400.460   129044754.809 6      -424.177    24556413.280   100554403.213 6      -330.528    24556413.520   100554400.212 7      -330.528
R08  21356639.480   114363836.357 7      3547.765    21356638.720   114363836.396 7      3547.765    21356650.280    88949694.938 8      2759.373    21356650.000    88949694.940 8      2759.373
R01  22266594.900   119027720.773 5      6558.374    22266596.980   119027720.750 5      6558.374    22266613.020    92577184.556 5      5100.958    22266611.300    92577181.544 5      5100.958
R23  21331012.500   114106529.349 7      1723.139    21331012.020   114106529.356 7      1723.139
R14  21462972.520   114409717.424 8      3720.673    21462971.700   114409717.425 7      3720.673    21462981.660    88985379.472 7      2893.857    21462982.440    88985382.481 7      2893.857
R07  23385826.980   125186148.340 6       557.939    23385826.760   125186148.361 6       557.939    23385842.980    97367081.406 7       433.952    23385843.180    97367079.412 7       433.952
> 2024 06 03 12 31 27.0000000  0 16
G02  21567739.660   113339233.782 7      2695.374    21567738.120   113339233.792 6      2695.374    21567740.700    88316290.861 6      2100.291
R24  21614017.680   115579867.062 7      3772.333    21614016.640   115579867.058 7      3772.333    21614029.200    89895500.996 7      2934.037    21614029.480    89895497.995 7      2934.037
G16  24194718.580   127144092.529 5      -877.919    24194714.920   127144092.558 1      -877.919    24194731.260    99073356.119 1      -684.093
R22  24107520.300   128687583.214 6       672.133    24107521.180   128687583.223 7       672.133    24107538.220   100090406.481 7       522.770    24107538.500   100090407.474 7       522.770
G08  20843731.480   109534545.558 8      2363.735    20843730.480   109534545.557 8      2363.735    20843737.520    85351615.717 8      1841.871    20843738.360    85351620.720 8      1841.871
G32  25064215.180   131713335.753 7      3207.223    25064214.580   131713335.755 6      3207.223    25064229.260   102633827.472 6      2499.135    25064229.840   102633832.470 7      2499.135
G14  24285899.500   127623266.475 6      5832.416    24285898.360   127623266.482 4      5832.416    24285908.480    99446727.307 4      4544.740    24285909.220    99446739.332 7      4544.740
G21  21154749.640   111168945.217 7      1720.085    21154748.020   111168945.222 6      1720.085    21154751.880    86625168.349 6      1340.326
G03  22415292.000   117793154.385 6      6074.660    22415291.480   117793154.388 4      6074.660    22415300.700    91786912.155 4      4733.501    22415301.320    91786912.162 7      4733.501
G27  22589382.860   118707998.484 7       756.398    22589381.820   118707998.489 7       756.398    22589390.800    92499736.161 7       589.401    22589389.320    92499767.161 7       589.401
G10  24556482.240   129045179.132 7      -424.321    24556481.260   129045179.140 6      -424.321    24556494.040   100554733.853 6      -330.640    24556494.080   100554730.849 7      -330.640
R08  21355976.880   114360288.833 7      3547.245    21355976.340   114360288.870 7      3547.245    21355987.760    88946935.753 8      2758.968    21355987.780    88946935.757 8      2758.968
R01  22265368.680   119021162.204 5      6558.515    22265368.940   119021162.186 5      6558.515    22265385.100    92572083.461 5      5101.067    22265384.820    92572080.447 5      5101.067
R23  21330690.700   114104806.171 7      1723.249    21330690.280   114104806.178 7      1723.249
R14  21462274.680   114405997.110 8      3720.021    21462273.700   114405997.110 7      3720.021    21462283.740    88982485.896 7      2893.349    21462284.620    88982488.907 7      2893.349
R07  23385722.600   125185590.539 6       557.476    23385722.220   125185590.562 6       557.476    23385738.580    97366647.558 7       433.592    23385739.120    97366645.556 7       433.592
> 2024 06 03 12 31 28.0000000  0 16
G02  21567227.080   113336538.624 7      2694.978    21567225.260   113336538.631 6      2694.978    21567227.840    88314190.734 6      2099.983
R24  21613312.260   115576094.819 7      3772.174    21613311.300   115576094.810 7      3772.174    21613323.780    89892567.025 7      2933.913    21613323.820    89892564.022 8      2933.913
G16  24194885.300   127144970.414 5      -877.858    24194882.640   127144970.446 1      -877.858    24194898.860    99074040.177 1      -684.045
R22  24107394.480   128686911.127 6       671.935    24107394.940   128686911.136 7       671.935    24107412.560   100089883.742 7       522.616    24107412.200   100089884.738 7       522.616
G08  20843281.800   109532182.079 8      2363.270    20843280.660   109532182.082 8      2363.270    20843287.700    85349774.048 8      1841.509    20843288.560    85349779.054 8      1841.509
G32  25063604.840   131710128.884 7      3206.499    25063604.220   131710128.883 6      3206.499    25063618.740   102631328.608 6      2498.571    25063619.500   102631333.615 7      2498.571
G14  24284789.960   127617434.326 7      5831.913    24284788.500   127617434.334 4      5831.913    24284798.520    99442182.784 4      4544.348    24284798.600    99442194.806 7      4544.348
G21  21154422.220   111167225.289 8      1719.825    21154420.780   111167225.294 6      1719.825    21154424.660    86623828.145 6      1340.123
G03  22414136.020   117787079.853 6      6074.300    22414135.460   117787079.861 4      6074.300    22414144.680    91782178.754 4      4733.221    22414145.660    91782178.762 7      4733.221
G27  22589238.980   118707242.287 7       755.983    22589237.840   118707242.299 7       755.983    22589246.800    92499146.918 7       589.077    22589245.820    92499177.916 7       589.077
G10  24556562.580   129045603.679 6      -424.708    24556561.980   129045603.684 6      -424.708    24556574.800   100555064.666 6      -330.941    24556575.240   100555061.663 7      -330.941
R08  21355314.640   114356742.156 7      3546.165    21355313.800   114356742.203 7      3546.165    21355325.320    88944177.236 8      2758.128    21355325.400    88944177.240 8      2758.128
R01  22264141.640   119014603.880 5      6557.955    22264141.540   119014603.884 5      6557.955    22264159.220    92566982.572 5      5100.632    22264158.180    92566979.567 5      5100.632
R23  21330367.880   114103082.998 6      1723.097    21330367.600   114103083.021 7      1723.097
R14  21461576.940   114402277.646 7      3718.945    21461576.240   114402277.644 7      3718.945    21461585.780    88979592.978 7      2892.513    21461586.620    88979595.987 7      2892.513
R07  23385618.220   125185033.460 6       556.674    23385618.540   125185033.472 6       556.674    23385634.960    97366214.262 7       432.968    23385634.840    97366212.272 7       432.968
> 2024 06 03 12 31 29.0000000  0 16
G02  21566713.960   113333843.666 7      2694.706    21566712.300   113333843.671 6      2694.706    21566715.100    88312090.764 6      2099.771
R24  21612607.020   115572322.603 7      3772.088    21612606.360   115572322.593 7      3772.088    21612618.580    89889633.080 7      2933.847    21612618.900    89889630.076 7      2933.847
G16  24195051.660   127145848.481 5      -878.204    24195050.280   127145848.509 1      -878.204    24195065.660    99074724.373 1      -684.315
R22  24107268.540   128686238.961 6       672.078    24107269.300   128686238.961 7       672.078    24107286.320   100089360.929 7       522.727    24107286.540   100089361.933 7       522.727
G08  20842832.060   109529818.961 8      2362.788    20842831.040   109529818.963 7      2362.788    20842838.060    85347932.657 8      1841.133    20842838.940    85347937.661 8      1841.133
G32  25062994.660   131706922.450 7      3205.955    25062993.960   131706922.450 6      3205.955    25063008.620   102628830.097 6      2498.147    25063009.360   102628835.105 7      2498.147
G14  24283679.800   127611602.482 6      5831.574    24283678.720   127611602.490 4      5831.574    24283688.540    99437638.496 4      4544.083    24283689.140    99437650.514 7      4544.083
G21  21154095.060   111165505.560 8      1719.516    21154093.480   111165505.567 6      1719.516    21154097.440    86622488.097 6      1339.882
G03  22412980.140   117781005.692 6      6073.817    22412979.520   117781005.697 4      6073.817    22412988.780    91777445.641 4      4732.844    22412989.520    91777445.649 7      4732.844
G27  22589095.260   118706486.416 7       755.505    22589094.140   118706486.418 7       755.505    22589103.000    92498557.913 7       588.705    22589101.880    92498588.914 7       588.705
G10  24556643.220   129046028.480 6      -425.224    24556642.800   129046028.487 6      -425.224    24556655.640   100555395.674 6      -331.344    24556655.840   100555392.673 7      -331.344
R08  21354652.240   114353196.316 7      3545.230    21354651.900   114353196.358 7      3545.230    21354663.140    88941419.359 7      2757.401    21354663.460    88941419.363 8      2757.401
R01  22262915.620   119008045.798 5      6557.600    22262914.120   119008045.810 5      6557.600    22262932.660    92561881.862 5      5100.355    22262931.380    92561878.848 5      5100.355
R23  21330046.200   114101359.892 6      1722.973    21330045.380   114101359.915 7      1722.973
R14  21460879.080   114398559.053 8      3717.985    21460878.480   114398559.056 7      3717.985    21460888.160    88976700.745 7      2891.766    21460889.040    88976703.748 7      2891.766
R07  23385514.360   125184477.075 6       555.809    23385513.840   125184477.103 6       555.809    23385530.700    97365781.533 7       432.296    23385531.220    97365779.526 7       432.296
> 2024 06 03 12 31 30.0000000  0 16
G02  21566201.260   113331148.878 8      2694.545    21566199.540   113331148.886 6      2694.545    21566202.300    88309990.932 6      2099.645
R24  21611901.740   115568550.453 7      3771.880    21611901.220   115568550.446 7      3771.880    21611913.140    89886699.188 7      2933.684    21611913.240    89886696.182 7      2933.684
G16  24195219.780   127146726.658 5      -878.187    24195216.580   127146726.689 1      -878.187    24195232.840    99075408.650 1      -684.302
R22  24107142.580   128685566.746 6       672.052    24107143.280   128685566.739 7       672.052    24107160.580   100088838.089 7       522.707    24107160.300   100088839.093 7       522.707
G08  20842382.420   109527456.176 8      2362.423    20842381.480   109527456.178 8      2362.423    20842388.460    85346091.526 8      1840.849    20842389.500    85346096.528 8      1840.849
G32  25062384.820   131703716.455 6      3205.431    25062383.880   131703716.458 6      3205.431    25062398.460   102626331.919 6      2497.738    25062399.320   102626336.917 7      2497.738
G14  24282569.980   127605770.930 6      5831.238    24282568.980   127605770.943 4      5831.238    24282578.900    99433094.433 4      4543.822    24282578.820    99433106.452 6      4543.822
G21  21153767.780   111163785.994 8      1719.273    21153766.220   111163785.994 6      1719.273    21153770.240    86621148.171 6      1339.693
G03  22411823.940   117774931.822 6      6073.505    22411823.720   117774931.824 4      6073.505    22411833.080    91772712.761 4      4732.601    22411834.000    91772712.774 7      4732.601
G27  22588951.400   118705730.786 7       755.290    22588950.200   118705730.786 7       755.290    22588959.280    92497969.105 7       588.537    22588958.100    92498000.105 7       588.537
G10  24556724.280   129046453.457 6      -425.310    24556723.840   129046453.465 6      -425.310    24556736.500   100555726.819 6      -331.410    24556736.820   100555723.816 7      -331.410
R08  21353990.220   114349651.248 7      3544.458    21353990.100   114349651.293 7      3544.458    21354001.100    88938662.084 8      2756.801    21354001.080    88938662.088 7      2756.801
R01  22261689.560   119001487.934 5      6557.476    22261688.600   119001487.941 5      6557.476    22261705.500    92556781.295 5      5100.259    22261704.580    92556778.292 5      5100.259
R23  21329724.300   114099636.826 6      1722.848    21329723.640   114099636.846 7      1722.848
R14  21460181.860   114394841.311 8      3717.140    21460181.080   114394841.314 8      3717.140    21460190.700    88973809.168 7      2891.109    21460191.520    88973812.175 7      2891.109
R07  23385410.700   125183921.393 6       555.143    23385410.580   125183921.421 6       555.143    23385427.220    97365349.334 7       431.778    23385427.180    97365347.337 7       431.778
> 2024 06 03 12 31 31.0000000  0 16
G02  21565688.420   113328454.509 8      2694.435    21565686.900   113328454.513 6      2694.435    21565689.540    88307891.421 6      2099.560
R24  21611196.320   115564778.608 7      3771.942    21611195.660   115564778.607 7      3771.942    21611207.780    89883765.538 7      2933.733    21611208.000    89883762.533 7      2933.733
G16  24195386.200   127147605.139 5      -878.402    24195384.040   127147605.168 1      -878.402    24195400.340    99076093.171 1      -684.469
R22  24107016.520   128684894.675 6       672.303    24107017.400   128684894.662 7       672.303    24107034.660   100088315.357 7       522.902    24107034.480   100088316.361 7       522.902
G08  20841932.840   109525093.911 8      2362.295    20841931.840   109525093.914 8      2362.295    20841938.880    85344250.798 8      1840.750    20841939.940    85344255.802 8      1840.750
G32  25061774.700   131700511.078 6      3205.373    25061773.920   131700511.073 6      3205.373    25061788.520   102623834.217 6      2497.693    25061789.540   102623839.219 7      2497.693
G14  24281460.240   127599939.890 7      5831.043    24281459.440   127599939.897 4      5831.043    24281469.080    99428550.766 4      4543.670    24281469.460    99428562.778 6      4543.670
G21  21153440.700   111162066.767 8      1719.380    21153438.980   111162066.775 6      1719.380    21153443.020    86619808.518 6      1339.777
G03  22410668.220   117768858.494 6      6073.331    22410667.840   117768858.496 4      6073.331    22410677.220    91767980.302 4      4732.466    22410678.440    91767980.312 7      4732.466
G27  22588807.940   118704975.622 7       755.241    22588806.460   118704975.627 7       755.241    22588815.620    92497380.667 7       588.500    22588814.320    92497411.668 8       588.500
G10  24556805.420   129046878.897 7      -425.434    24556804.780   129046878.907 6      -425.434    24556817.500   100556058.326 6      -331.507    24556817.200   100556055.327 7      -331.507
R08  21353328.480   114346107.205 7      3543.868    21353328.240   114346107.247 7      3543.868    21353339.500    88935905.606 7      2756.342    21353339.160    88935905.608 7      2756.342
R01  22260463.140   118994930.528 5      6557.328    22260461.440   118994930.513 5      6557.328    22260479.140    92551681.080 5      5100.144    22260477.940    92551678.085 5      5100.144
R23  21329401.940   114097913.995 6      1722.983    21329401.240   114097914.010 6      1722.983
R14  21459484.480   114391124.648 8      3716.377    21459483.740   114391124.641 7      3716.377    21459493.640    88970918.424 7      2890.515    21459494.140    88970921.427 7      2890.515
R07  23385306.940   125183366.586 6       554.775    23385307.180   125183366.618 6       554.775    23385323.360    97364917.820 7       431.491    23385323.400    97364915.821 7       431.491
> 2024 06 03 12 31 32.0000000  0 16
G02  21565175.900   113325760.551 8      2693.935    21565174.260   113325760.559 6      2693.935    21565177.040    88305792.238 6      2099.170
R24  21610491.120   115561007.108 7      3771.534    21610490.860   115561007.118 7      3771.534    21610502.440    89880832.159 7      2933.416    21610502.440    89880829.155 8      2933.416
G16  24195553.600   127148483.968 5      -878.935    24195551.900   127148483.991 1      -878.935    24195567.960    99076777.968 1      -684.884
R22  24106890.500   128684222.802 6       671.951    24106891.240   128684222.803 7       671.951    24106908.800   100087792.795 7       522.629    24106908.700   100087793.791 7       522.629
G08  20841483.600   109522732.254 8      2361.527    20841482.560   109522732.253 8      2361.527    20841489.500    85342410.546 8      1840.151    20841490.580    85342415.548 8      1840.151
G32  25061164.840   131697306.408 6      3204.438    25061164.120   131697306.407 6      3204.438    25061178.720   102621337.077 6      2496.965    25061179.760   102621342.083 7      2496.965
G14  24280350.680   127594109.365 7      5830.404    24280349.700   127594109.372 4      5830.404    24280359.340    99424007.502 4      4543.172    24280359.940    99424019.524 6      4543.172
G21  21153113.500   111160347.969 8      1718.838    21153111.920   111160347.976 6      1718.838    21153115.920    86618469.195 6      1339.354
G03  22409513.080   117762785.719 6      6072.707    22409512.260   117762785.724 4      6072.707    22409521.760    91763248.278 4      4731.979    22409522.260    91763248.290 7      4731.979
G27  22588664.360   118704221.001 7       754.558    22588662.860   118704221.001 7       754.558    22588672.020    92496792.647 7       587.968    22588670.720    92496823.645 8       587.968
G10  24556886.940   129047304.810 7      -425.933    24556885.740   129047304.812 6      -425.933    24556898.580   100556390.198 6      -331.896    24556898.440   100556387.191 7      -331.896
R08  21352666.940   114342564.252 7      3542.595    21352666.580   114342564.294 7      3542.595    21352677.700    88933149.980 8      2755.351    21352677.700    88933149.978 8      2755.351
R01  22259236.400   118988373.573 5      6556.879    22259235.120   118988373.547 5      6556.879    22259251.660    92546581.236 5      5099.795    22259251.500    92546578.229 5      5099.795
R23  21329079.940   114096191.462 7      1722.627    21329079.100   114096191.476 6      1722.627
R14  21458787.580   114387409.054 8      3715.248    21458786.880   114387409.046 8      3715.248    21458796.520    88968028.521 7      2889.637    21458797.140    88968031.528 7      2889.637
R07  23385203.720   125182812.757 6       553.608    23385203.400   125182812.788 6       553.608    23385219.840    97364487.059 7       430.584    23385220.120    97364485.067 7       430.584
> 2024 06 03 12 31 33.0000000  0 16
G02  21564663.000   113323066.765 8      2693.874    21564661.720   113323066.775 6      2693.874    21564664.360    88303693.183 6      2099.123
R24  21609785.700   115557235.731 7      3771.444    21609785.860   115557235.741 7      3771.444    21609797.180    89877898.866 7      2933.346    21609797.360    89877895.866 7      2933.346
G16  24195722.040   127149362.873 5      -878.658    24195720.040   127149362.891 1      -878.658    24195734.340    99077462.812 1      -684.669
R22  24106765.140   128683550.862 6       672.068    24106765.380   128683550.865 7       672.068    24106782.940   100087270.169 7       522.720    24106783.140   100087271.167 7       522.720
G08  20841034.260   109520370.880 8      2361.366    20841033.140   109520370.885 8      2361.366    20841040.220    85340570.518 8      1840.026    20841041.040    85340575.524 8      1840.026
G32  25060555.320   131694102.142 7      3204.158    25060554.280   131694102.142 6      3204.158    25060569.080   102618840.249 6      2496.746    25060570.060   102618845.257 7      2496.746
G14  24279241.000   127588279.108 6      5830.338    24279240.080   127588279.116 4      5830.338    24279249.680    99419464.450 4      4543.120    24279249.840    99419476.453 6      4543.120
G21  21152786.500   111158629.320 8      1718.700    21152784.900   111158629.325 6      1718.700    21152788.940    86617129.986 6      1339.247
G03  22408357.820   117756713.250 6      6072.491    22408356.600   117756713.257 4      6072.491    22408366.220    91758516.486 4      4731.811    22408366.580    91758516.496 7      4731.811
G27  22588520.800   118703466.620 7       754.378    22588519.280   118703466.622 7       754.378    22588528.420    92496204.814 7       587.827    22588527.380    92496235.810 7       587.827
G10  24556968.060   129047730.899 6      -426.118    24556966.900   129047730.901 6      -426.118    24556979.600   100556722.211 6      -332.040    24556979.440   100556719.214 7      -332.040
R08  21352005.360   114339022.054 7      3541.951    21352005.100   114339022.099 7      3541.951    21352016.100    88930394.939 8      2754.851    21352016.160    88930394.943 8      2754.851
R01  22258009.560   118981816.720 5      6556.898    22258009.040   118981816.734 5      6556.898    22258025.300    92541481.503 5      5099.810    22258024.200    92541478.496 5      5099.810
R23  21328757.800   114094468.936 7      1722.680    21328757.260   114094468.951 6      1722.680
R14  21458090.540   114383694.307 8      3714.478    21458090.080   114383694.297 7      3714.478    21458099.900    88965139.278 7      2889.039    21458100.100    88965142.285 7      2889.039
R07  23385100.160   125182259.586 6       552.947    23385100.180   125182259.617 6       552.947    23385116.640    97364056.815 7       430.070    23385116.680    97364054.819 7       430.070
> 2024 06 03 12 31 34.0000000  0 16
G02  21564150.540   113320373.055 8      2693.678    21564149.060   113320373.062 6      2693.678    21564151.640    88301594.186 6      2098.970
R24  21609080.340   115553464.264 7      3771.438    21609080.740   115553464.268 7      3771.438    21609091.920    89874965.498 7      2933.341    21609092.160    89874962.500 8      2933.341
G16  24195889.000   127150241.785 5      -879.071    24195888.020   127150241.803 1      -879.071    24195901.420    99078147.665 1      -684.990
R22  24106638.960   128682878.700 6       672.268    24106639.480   128682878.712 7       672.268    24106656.820   100086747.377 7       522.875    24106657.040   100086748.372 7       522.875
G08  20840585.040   109518009.724 8      2361.084    20840583.880   109518009.729 8      2361.084    20840590.860    85338730.654 8      1839.806    20840591.560    85338735.659 8      1839.806
G32  25059945.740   131690898.165 7      3203.867    25059944.600   131690898.165 6      3203.867    25059959.420   102616343.645 6      2496.519    25059959.800   102616348.647 7      2496.519
G14  24278131.780   127582449.051 6      5829.884    24278130.720   127582449.058 4      5829.884    24278140.140    99414921.551 4      4542.766    24278140.840    99414933.561 6      4542.766
G21  21152459.500   111156910.700 7      1718.526    21152457.940   111156910.705 6      1718.526    21152461.700    86615790.801 6      1339.111
G03  22407202.460   117750640.993 6      6072.039    22407200.980   117750640.998 4      6072.039    22407210.720    91753784.859 4      4731.459    22407211.620    91753784.868 7      4731.459
G27  22588377.140   118702712.380 7       754.230    22588375.800   118702712.380 7       754.230    22588384.940    92495617.090 7       587.712    22588383.760    92495648.087 8       587.712
G10  24557048.940   129048157.090 7      -426.296    24557047.960   129048157.097 6      -426.296    24557060.600   100557054.306 6      -332.179    24557061.200   100557051.303 7      -332.179
R08  21351344.060   114335480.566 7      3541.155    21351343.660   114335480.607 7      3541.155    21351354.800    88927640.446 8      2754.232    21351354.740    88927640.450 8      2754.232
R01  22256782.960   118975260.077 5      6556.566    22256782.020   118975260.087 5      6556.566    22256798.660    92536381.886 5      5099.552    22256797.840    92536378.875 5      5099.552
R23  21328435.320   114092746.306 6      1722.688    21328435.000   114092746.318 6      1722.688
R14  21457393.660   114379980.275 8      3713.695    21457393.000   114379980.276 7      3713.695    21457402.940    88962250.589 7      2888.429    21457403.640    88962253.604 7      2888.429
R07  23384997.040   125181706.982 6       552.262    23384996.520   125181707.016 6       552.262    23385013.140    97363627.014 7       429.537    23385013.260    97363625.016 7       429.537
> 2024 06 03 12 31 35.0000000  0 16
G02  21563638.060   113317679.623 7      2693.263    21563636.560   113317679.628 6      2693.263    21563639.040    88299495.411 6      2098.646
R24  21608374.960   115549692.945 7      3771.141    21608375.420   115549692.949 7      3771.141    21608386.600    89872032.246 7      2933.110    21608386.880    89872029.252 7      2933.110
G16  24196055.800   127151120.824 5      -879.136    24196055.160   127151120.829 1      -879.136    24196068.440    99078832.618 1      -685.041
R22  24106513.200   128682206.613 7       672.055    24106513.700   128682206.622 7       672.055    24106530.900   100086224.639 7       522.709    24106531.160   100086225.630 7       522.709
G08  20840135.580   109515649.007 8      2360.485    20840134.620   109515649.010 8      2360.485    20840141.620    85336891.131 8      1839.339    20840142.400    85336896.135 8      1839.339
G32  25059335.880   131687694.740 7      3203.215    25059334.940   131687694.745 6      3203.215    25059349.900   102613847.474 6      2496.011    25059350.400   102613852.476 7      2496.011
G14  24277022.300   127576619.351 7      5829.416    24277021.240   127576619.364 4      5829.416    24277030.780    99410378.930 4      4542.402    24277031.660    99410390.942 6      4542.402
G21  21152132.420   111155192.337 8      1718.144    21152130.880   111155192.340 6      1718.144    21152134.760    86614451.815 6      1338.814
G03  22406046.880   117744569.152 6      6071.436    22406045.680   117744569.157 4      6071.436    22406055.220    91749053.558 4      4730.989    22406056.220    91749053.567 7      4730.989
G27  22588233.680   118701958.517 7       753.614    22588232.200   118701958.522 7       753.614    22588241.420    92495029.658 7       587.231    22588240.280    92495060.658 7       587.231
G10  24557130.320   129048583.599 6      -426.730    24557129.240   129048583.607 6      -426.730    24557141.800   100557386.647 6      -332.517    24557142.560   100557383.650 7      -332.517
R08  21350683.000   114331939.961 7      3540.190    21350682.680   114331940.000 7      3540.190    21350693.580    88924886.644 8      2753.481    21350693.660    88924886.644 8      2753.481
R01  22255556.600   118968703.713 5      6556.012    22255555.020   118968703.728 5      6556.012    22255571.780    92531282.505 5      5099.121    22255571.740    92531279.501 5      5099.121
R23  21328113.880   114091023.788 6      1722.417    21328112.900   114091023.803 6      1722.417
R14  21456697.380   114376267.184 8      3712.583    21456696.640   114376267.182 7      3712.583    21456706.520    88959362.629 7      2887.564    21456707.220    88959365.642 7      2887.564
R07  23384893.980   125181155.163 6       551.373    23384893.220   125181155.199 6       551.373    23384910.200    97363197.821 7       428.845    23384910.580    97363195.823 7       428.845
> 2024 06 03 12 31 36.0000000  0 16
G02  21563125.640   113314986.510 8      2693.097    21563123.980   113314986.517 6      2693.097    21563126.560    88297396.880 6      2098.517
R24  21607670.140   115545921.828 7      3771.126    21607670.220   115545921.824 7      3771.126    21607681.460    89869099.155 7      2933.098    21607681.280    89869096.157 8      2933.098
G16  24196222.240   127152000.173 5      -879.074    24196222.860   127152000.172 1      -879.074    24196236.180    99079517.810 1      -684.993
R22  24106387.020   128681534.604 6       672.072    24106388.020   128681534.605 7       672.072    24106404.860   100085701.956 7       522.723    24106404.920   100085702.958 7       522.723
G08  20839686.480   109513288.745 8      2360.234    20839685.500   109513288.745 8      2360.234    20839692.440    85335051.961 8      1839.144    20839693.240    85335056.967 8      1839.144
G32  25058726.800   131684491.886 7      3202.742    25058725.520   131684491.885 6      3202.742    25058740.440   102611351.743 6      2495.643    25058741.200   102611356.741 7      2495.643
G14  24275912.960   127570790.051 6      5829.264    24275912.060   127570790.061 4      5829.264    24275921.220    99405836.622 4      4542.283    24275922.380    99405848.632 6      4542.283
G21  21151805.580   111153474.259 7      1718.022    21151803.880   111153474.261 6      1718.022    21151807.880    86613113.049 6      1338.719
G03  22404891.620   117738497.702 6      6071.371    22404890.460   117738497.707 4      6071.371    22404899.920    91744322.567 4      4730.938    22404901.060    91744322.581 7      4730.938
G27  22588090.380   118701205.052 7       753.323    22588088.800   118701205.055 7       753.323    22588098.020    92494442.543 7       587.005    22588096.660    92494473.545 7       587.005
G10  24557211.540   129049010.460 6      -426.846    24557210.580   129049010.460 6      -426.846    24557223.180   100557719.256 6      -332.608    24557223.360   100557716.251 7      -332.608
R08  21350021.660   114328400.298 7      3539.321    21350021.460   114328400.340 7      3539.321    21350032.560    88922133.575 8      2752.805    21350032.640    88922133.580 8      2752.805
R01  22254329.600   118962147.646 5      6556.101    22254328.940   118962147.647 5      6556.101    22254344.940    92526183.337 5      5099.189    22254344.920    92526180.334 5      5099.189
R23  21327791.620   114089301.412 7      1722.373    21327791.360   114089301.430 6      1722.373
R14  21456000.580   114372555.020 8      3711.825    21456000.180   114372555.012 7      3711.825    21456010.280    88956475.388 7      2886.975    21456010.240    88956478.399 7      2886.975
R07  23384791.340   125180604.173 6       550.690    23384790.440   125180604.191 6       550.690    23384807.140    97362769.259 7       428.315    23384807.660    97362767.259 7       428.315
> 2024 06 03 12 31 37.0000000  0 16
G02  21562613.060   113312293.480 7      2693.061    21562611.680   113312293.487 6      2693.061    21562614.180    88295298.416 6      2098.489
R24  21606964.380   115542150.708 7      3771.158    21606964.920   115542150.712 7      3771.158    21606976.140    89866166.068 8      2933.123    21606976.400    89866163.073 8      2933.123
G16  24196389.340   127152879.555 5      -879.426    24196390.540   127152879.568 1      -879.426    24196403.180    99080203.042 1      -685.267
R22  24106261.540   128680862.413 6       672.293    24106261.860   128680862.414 7       672.293    24106279.120   100085179.139 7       522.895    24106278.960   100085180.143 7       522.895
G08  20839237.420   109510928.711 8      2359.963    20839236.400   109510928.713 8      2359.963    20839243.400    85333212.978 8      1838.932    20839243.980    85333217.982 8      1838.932
G32  25058117.880   131681289.351 7      3202.427    25058116.080   131681289.354 6      3202.427    25058131.000   102608856.264 6      2495.397    25058132.040   102608861.264 7      2495.397
G14  24274804.280   127564960.976 7      5829.080    24274802.960   127564960.986 4      5829.080    24274811.940    99401294.488 4      4542.140    24274812.980    99401306.494 6      4542.140
G21  21151478.620   111151756.246 8      1718.032    21151476.980   111151756.251 6      1718.032    21151481.040    86611774.339 6      1338.726
G03  22403736.320   117732426.533 6      6071.094    22403735.140   117732426.541 4      6071.094    22403744.720    91739591.792 4      4730.722    22403746.020    91739591.800 7      4730.722
G27  22587946.680   118700451.743 7       753.332    22587945.560   118700451.743 7       753.332    22587954.680    92493855.545 7       587.012    22587953.300    92493886.545 7       587.012
G10  24557292.840   129049437.440 6      -426.999    24557291.840   129049437.445 6      -426.999    24557304.300   100558051.965 6      -332.727    24557304.260   100558048.960 7      -332.727
R08  21349361.280   114324861.316 7      3538.763    21349360.860   114324861.360 7      3538.763    21349371.640    88919381.038 8      2752.371    21349371.560    88919381.040 8      2752.371
R01  22253102.800   118955591.680 5      6556.118    22253102.500   118955591.697 5      6556.118    22253118.900    92521084.279 5      5099.203    22253118.080    92521081.268 5      5099.203
R23  21327469.340   114087578.938 7      1722.661    21327469.180   114087578.942 6      1722.661
R14  21455304.520   114368843.597 8      3711.145    21455304.180   114368843.592 7      3711.145    21455313.860    88953588.730 7      2886.446    21455314.140    88953591.739 7      2886.446
R07  23384688.140   125180053.762 6       550.174    23384688.020   125180053.779 6       550.174    23384704.620    97362341.159 7       427.913    23384704.300    97362339.155 7       427.913
> 2024 06 03 12 31 38.0000000  0 16
G02  21562100.520   113309600.548 7      2692.894    21562099.080   113309600.555 6      2692.894    21562101.820    88293200.027 6      2098.359
R24  21606259.500   115538379.558 7      3771.156    21606259.240   115538379.570 7      3771.156    21606270.960    89863232.962 7      2933.122    21606271.160    89863229.970 7      2933.122
G16  24196556.980   127153758.915 5      -879.512    24196558.120   127153758.920 1      -879.512    24196570.340    99080888.240 1      -685.334
R22  24106135.700   128680190.086 6       672.308    24106136.200   128680190.087 7       672.308    24106153.080   100084656.214 7       522.906    24106153.240   100084657.211 7       522.906
G08  20838788.560   109508568.927 8      2359.643    20838787.420   109508568.929 8      2359.643    20838794.300    85331374.185 8      1838.683    20838795.300    85331379.189 8      1838.683
G32  25057508.180   131678087.159 7      3202.098    25057506.820   131678087.156 6      3202.098    25057521.580   102606361.047 6      2495.141    25057522.700   102606366.049 7      2495.141
G14  24273695.160   127559132.104 7      5828.764    24273693.660   127559132.114 4      5828.764    24273702.600    99396752.513 4      4541.894    24273704.060    99396764.526 6      4541.894
G21  21151151.760   111150038.309 8      1717.900    21151150.060   111150038.311 6      1717.900    21151154.100    86610435.685 6      1338.624
G03  22402581.000   117726355.572 6      6070.744    22402579.900   117726355.580 4      6070.744    22402589.480    91734861.179 4      4730.449    22402590.180    91734861.189 7      4730.449
G27  22587803.480   118699698.639 7       752.895    22587802.220   118699698.646 7       752.895    22587811.400    92493268.710 7       586.671    22587809.920    92493299.710 7       586.671
G10  24557374.200   129049864.572 6      -427.288    24557373.080   129049864.574 6      -427.288    24557385.420   100558384.785 6      -332.952    24557385.720   100558381.784 7      -332.952
R08  21348700.680   114321323.096 7      3537.791    21348699.740   114321323.141 7      3537.791    21348710.980    88916629.091 8      2751.615    21348710.840    88916629.092 8      2751.615
R01  22251876.440   118949035.931 5      6555.572    22251876.720   118949035.916 5      6555.572    22251892.900    92515985.349 5      5098.778    22251892.040    92515982.329 5      5098.778
R23  21327147.940   114085856.420 7      1722.494    21327147.240   114085856.437 7      1722.494
R14  21454608.720   114365132.955 8      3710.219    21454607.900   114365132.950 8      3710.219    21454617.720    88950702.675 7      2885.726    21454618.420    88950705.688 7      2885.726
R07  23384585.940   125179503.971 6       549.426    23384585.400   125179503.997 6       549.426    23384601.840    97361913.549 7       427.331    23384601.860    97361911.548 7       427.331
> 2024 06 03 12 31 39.0000000  0 16
G02  21561588.200   113306907.951 8      2692.426    21561586.740   113306907.959 6      2692.426    21561589.320    88291101.900 6      2097.994
R24  21605554.200   115534608.595 7      3770.890    21605554.360   115534608.616 7      3770.890    21605565.780    89860299.997 7      2932.915    21605565.820    89860297.001 7      2932.915
G16  24196723.580   127154638.571 5      -880.122    24196725.220   127154638.576 1      -880.122    24196737.020    99081573.683 1      -685.809
R22  24106009.920   128679517.834 7       672.194    24106009.860   128679517.837 7       672.194    24106027.140   100084133.341 7       522.818    24106027.700   100084134.338 7       522.818
G08  20838339.460   109506209.603 8      2359.125    20838338.400   109506209.602 8      2359.125    20838345.360    85329535.748 8      1838.279    20838346.400    85329540.750 8      1838.279
G32  25056898.380   131674885.539 6      3201.406    25056897.540   131674885.541 6      3201.406    25056912.220   102603866.284 6      2494.602    25056913.200   102603871.291 7      2494.602
G14  24272585.680   127553303.655 7      5828.231    24272584.720   127553303.665 4      5828.231    24272593.540    99392210.865 4      4541.479    24272594.680    99392222.871 6      4541.479
G21  21150824.720   111148320.672 8      1717.494    21150823.280   111148320.679 6      1717.494    21150827.260    86609097.269 6      1338.307
G03  22401425.640   117720285.058 6      6070.378    22401424.740   117720285.068 4      6070.378    22401434.420    91730130.912 4      4730.165    22401434.640    91730130.923 7      4730.165
G27  22587660.120   118698945.905 7       752.635    22587658.920   118698945.910 7       752.635    22587668.120    92492682.158 7       586.469    22587666.980    92492713.156 7       586.469
G10  24557455.240   129050292.006 7      -427.502    24557454.420   129050292.008 6      -427.502    24557466.960   100558717.844 6      -333.118    24557467.040   100558714.845 7      -333.118
R08  21348039.720   114317785.825 7      3536.792    21348039.100   114317785.864 7      3536.792    21348050.460    88913877.876 8      2750.838    21348050.400    88913877.880 8      2750.838
R01  22250650.900   118942480.395 5      6555.451    22250650.400   118942480.410 5      6555.451    22250665.920    92510886.624 5      5098.684    22250666.380    92510883.610 5      5098.684
R23  21326825.500   114084134.044 7      1722.320    21326825.360   114084134.059 7      1722.320
R14  21453912.400   114361423.280 8      3709.189    21453911.980   114361423.278 8      3709.189    21453921.840    88947817.381 7      2884.925    21453922.120    88947820.388 7      2884.925
R07  23384483.220   125178955.042 7       548.486    23384482.900   125178955.041 6       548.486    23384499.060    97361486.583 7       426.600    23384499.300    97361484.579 7       426.600
> 2024 06 03 12 31 40.0000000  0 16
G02  21561075.800   113304215.684 7      2692.265    21561074.360   113304215.691 6      2692.265    21561076.980    88289004.027 6      2097.869
R24  21604848.900   115530837.868 7      3770.750    21604849.040   115530837.880 7      3770.750    21604860.640    89857367.207 7      2932.805    21604860.380    89857364.205 7      2932.805
G16  24196892.240   127155518.308 5      -879.581    24196892.540   127155518.311 1      -879.581    24196904.320    99082259.186 1      -685.388
R22  24105883.820   128678845.683 7       672.184    24105883.940   128678845.684 7       672.184    24105901.480   100083610.551 7       522.810    24105901.600   100083611.552 7       522.810
G08  20837890.720   109503850.770 8      2358.728    20837889.500   109503850.772 8      2358.728    20837896.440    85327697.699 8      1837.970    20837897.240    85327702.701 8      1837.970
G32  25056289.260   131671684.529 6      3200.720    25056288.340   131671684.539 6      3200.720    25056303.100   102601372.001 6      2494.067    25056304.100   102601377.003 7      2494.067
G14  24271476.760   127547475.649 7      5827.830    24271475.560   127547475.660 4      5827.830    24271484.480    99387669.562 4      4541.167    24271485.540    99387681.568 6      4541.167
G21  21150497.960   111146603.360 8      1717.248    21150496.380   111146603.363 6      1717.248    21150500.460    86607759.102 6      1338.115
G03  22400270.620   117714215.048 6      6069.982    22400269.720   117714215.055 4      6069.982    22400279.260    91725401.034 4      4729.856    22400280.140    91725401.043 7      4729.856
G27  22587516.960   118698193.615 7       752.276    22587515.740   118698193.625 7       752.276    22587525.000    92492095.960 7       586.189    22587523.800    92492126.958 8       586.189
G10  24557536.740   129050719.879 7      -428.068    24557535.860   129050719.886 6      -428.068    24557548.320   100559051.250 6      -333.559    24557548.760   100559048.257 7      -333.559
R08  21347379.160   114314249.504 7      3536.063    21347378.760   114314249.540 7      3536.063    21347390.040    88911127.404 7      2750.271    21347389.620    88911127.409 8      2750.271
R01  22249424.780   118935925.327 5      6554.907    22249423.720   118935925.337 5      6554.907    22249440.020    92505788.244 5      5098.261    22249440.000    92505785.236 5      5098.261
R23  21326503.160   114082411.879 7      1722.147    21326503.280   114082411.889 7      1722.147
R14  21453216.380   114357714.621 8      3708.254    21453216.500   114357714.624 8      3708.254    21453226.060    88944932.870 7      2884.197    21453226.520    88944935.879 7      2884.197
R07  23384380.880   125178406.933 7       547.828    23384380.260   125178406.937 6       547.828    23384396.880    97361060.274 7       426.089    23384396.940    97361058.280 7       426.089
> 2024 06 03 12 31 41.0000000  0 16
G02  21560563.380   113301523.587 7      2691.929    21560562.040   113301523.592 6      2691.929    21560564.800    88286906.291 6      2097.607
R24  21604143.440   115527067.216 7      3770.500    21604143.900   115527067.220 7      3770.500    21604155.460    89854434.473 7      2932.611    21604155.420    89854431.469 7      2932.611
G16  24197059.000   127156398.335 5      -880.338    24197059.600   127156398.332 1      -880.338    24197072.200    99082944.905 1      -685.977
R22  24105758.000   128678173.468 7       671.982    24105758.060   128678173.474 7       671.982    24105775.120   100083087.715 7       522.653    24105775.460   100083088.710 7       522.653
G08  20837442.000   109501492.252 8      2358.236    20837440.720   109501492.254 8      2358.236    20837447.700    85325859.893 8      1837.586    20837448.620    85325864.893 8      1837.586
G32  25055680.460   131668483.907 6      3200.272    25055679.220   131668483.912 6      3200.272    25055693.960   102598878.006 6      2493.718    25055695.400   102598883.014 7      2493.718
G14  24270367.420   127541647.915 7      5827.425    24270366.860   127541647.922 4      5827.425    24270375.600    99383128.472 4      4540.850    24270377.060    99383140.483 6      4540.850
G21  21150171.240   111144886.180 8      1716.937    21150169.680   111144886.185 6      1716.937    21150173.720    86606421.042 6      1337.873
G03  22399115.460   117708145.337 6      6069.346    22399114.720   117708145.345 4      6069.346    22399124.260    91720671.392 4      4729.360    22399124.880    91720671.404 7      4729.360
G27  22587374.020   118697441.601 7       751.767    22587372.620   118697441.608 7       751.767    22587381.860    92491509.967 7       585.793    22587380.620    92491540.963 7       585.793
G10  24557617.940   129051147.899 7      -428.304    24557617.380   129051147.909 6      -428.304    24557629.760   100559384.776 6      -333.743    24557629.340   100559381.779 7      -333.743
R08  21346719.120   114310713.951 7      3535.136    21346718.560   114310713.991 7      3535.136    21346729.940    88908377.534 7      2749.550    21346729.720    88908377.534 7      2749.550
R01  22248198.780   118929370.422 5      6554.741    22248196.460   118929370.421 5      6554.741    22248214.520    92500689.972 5      5098.132    22248212.960    92500686.977 5      5098.132
R23  21326181.660   114080689.712 7      1722.130    21326181.420   114080689.708 7      1722.130
R14  21452520.900   114354006.826 8      3707.173    21452520.940   114354006.829 7      3707.173    21452530.260    88942049.027 7      2883.357    21452530.460    88942052.028 7      2883.357
R07  23384278.560   125177859.495 7       547.047    23384278.080   125177859.507 6       547.047    23384294.680    97360634.497 7       425.481    23384294.660    97360632.492 7       425.481
> 2024 06 03 12 31 42.0000000  0 16
G02  21560051.300   113298831.763 7      2691.655    21560049.900   113298831.771 6      2691.655    21560052.420    88284808.764 6      2097.393
R24  21603438.180   115523296.745 7      3770.414    21603438.600   115523296.747 7      3770.414    21603450.160    89851501.883 7      2932.544    21603450.180    89851498.879 7      2932.544
G16  24197226.980   127157278.456 5      -880.297    24197226.380   127157278.456 1      -880.297    24197239.480    99083630.706 1      -685.946
R22  24105632.100   128677501.243 6       672.111    24105631.740   128677501.244 6       672.111    24105649.640   100082564.864 7       522.753    24105649.300   100082565.870 7       522.753
G08  20836993.180   109499134.136 8      2357.931    20836991.980   109499134.138 8      2357.931    20836998.900    85324022.396 8      1837.349    20836999.800    85324027.400 8      1837.349
G32  25055071.320   131665283.817 6      3199.727    25055070.280   131665283.821 6      3199.727    25055085.040   102596384.431 6      2493.294    25055085.940   102596389.433 7      2493.294
G14  24269258.700   127535820.540 7      5827.178    24269257.900   127535820.548 4      5827.178    24269266.560    99378587.663 4      4540.658    24269268.400    99378599.679 6      4540.658
G21  21149844.640   111143169.237 7      1716.806    21149842.860   111143169.244 6      1716.806    21149846.940    86605083.163 6      1337.771
G03  22397960.840   117702075.989 6      6069.159    22397959.740   117702075.994 4      6069.159    22397969.200    91715942.034 4      4729.214    22397970.100    91715942.044 7      4729.214
G27  22587230.960   118696689.913 7       751.491    22587229.580   118696689.915 7       751.491    22587238.860    92490924.232 7       585.578    22587237.280    92490955.228 7       585.578
G10  24557699.720   129051576.231 6      -428.400    24557698.940   129051576.244 6      -428.400    24557711.300   100559718.534 6      -333.818    24557711.420   100559715.534 7      -333.818
R08  21346059.540   114307179.288 7      3534.224    21346058.200   114307179.322 7      3534.224    21346069.780    88905628.347 8      2748.841    21346069.840    88905628.349 8      2748.841
R01  22246972.920   118922815.822 5      6554.405    22246971.940   118922815.834 5      6554.405    22246987.840    92495591.973 5      5097.871    22246986.320    92495588.980 5      5097.871
R23  21325859.640   114078967.676 6      1721.891    21325858.940   114078967.680 7      1721.891
R14  21451825.760   114350299.958 8      3706.363    21451825.280   114350299.956 7      3706.363    21451835.180    88939165.903 7      2882.727    21451835.180    88939168.908 7      2882.727
R07  23384177.000   125177312.849 6       546.353    23384176.520   125177312.851 6       546.353    23384192.480    97360209.314 7       424.942    23384192.640    97360207.319 7       424.942
> 2024 06 03 12 31 43.0000000  0 16
G02  21559539.320   113296140.166 7      2691.371    21559537.740   113296140.173 6      2691.371    21559540.420    88282711.420 6      2097.173
R24  21602733.360   115519526.430 7      3770.119    21602733.360   115519526.434 7      3770.119    21602745.280    89848569.424 7      2932.315    21602745.220    89848566.417 8      2932.315
G16  24197395.360   127158158.767 5      -880.613    24197393.360   127158158.764 1      -880.613    24197407.360    99084316.654 1      -686.192
R22  24105506.000   128676829.014 7       672.049    24105506.180   128676829.026 6       672.049    24105523.600   100082042.024 7       522.704    24105523.580   100082043.034 7       522.704
G08  20836544.500   109496776.404 8      2357.432    20836543.320   109496776.409 8      2357.432    20836550.280    85322185.208 8      1836.960    20836551.100    85322190.210 8      1836.960
G32  25054462.380   131662084.207 6      3199.053    25054461.300   131662084.209 6      3199.053    25054476.260   102593891.227 6      2492.768    25054477.140   102593896.233 7      2492.768
G14  24268150.300   127529993.518 7      5826.715    24268149.160   127529993.531 4      5826.715    24268157.720    99374047.130 4      4540.298    24268159.220    99374059.136 6      4540.298
G21  21149517.920   111141452.524 7      1716.449    21149516.140   111141452.532 6      1716.449    21149520.280    86603745.466 6      1337.492
G03  22396805.940   117696007.043 6      6068.548    22396804.800   117696007.048 4      6068.548    22396814.300    91711212.991 4      4728.738    22396815.020    91711213.004 7      4728.738
G27  22587088.100   118695938.553 7       750.974    22587086.640   118695938.558 7       750.974    22587095.920    92490338.755 7       585.174    22587094.560    92490369.755 7       585.174
G10  24557781.400   129052004.843 7      -428.813    24557780.560   129052004.850 6      -428.813    24557792.800   100560052.514 6      -334.140    24557792.800   100560049.515 7      -334.140
R08  21345399.320   114303645.492 7      3533.192    21345398.220   114303645.528 7      3533.192    21345409.960    88902879.847 8      2748.039    21345409.760    88902879.850 7      2748.039
R01  22245745.420   118916261.530 5      6553.948    22245746.140   118916261.536 5      6553.948    22245760.900    92490494.200 5      5097.515    22245760.280    92490491.196 5      5097.515
R23  21325537.920   114077245.685 6      1721.964    21325537.340   114077245.687 6      1721.964
R14  21451130.500   114346593.961 8      3705.417    21451130.040   114346593.957 7      3705.417    21451139.860    88936283.464 7      2881.991    21451139.720    88936286.465 7      2881.991
R07  23384075.100   125176766.899 6       545.358    23384074.380   125176766.914 6       545.358    23384090.560    97359784.705 7       424.167    23384090.900    97359782.704 7       424.167
> 2024 06 03 12 31 44.0000000  0 16
G02  21559027.200   113293448.938 7      2691.186    21559025.600   113293448.949 6      2691.186    21559028.380    88280614.362 6      2097.028
R24  21602028.640   115515756.363 7      3770.061    21602028.200   115515756.372 7      3770.061    21602039.960    89845637.150 7      2932.270    21602040.400    89845634.151 8      2932.270
G16  24197563.240   127159039.382 5      -880.784    24197561.080   127159039.376 1      -880.784    24197575.060    99085002.839 1      -686.325
R22  24105379.820   128676156.973 7       672.048    24105380.240   128676156.966 7       672.048    24105397.600   100081519.313 7       522.704    24105397.780   100081520.319 7       522.704
G08  20836095.860   109494419.205 8      2357.087    20836094.820   109494419.205 8      2357.087    20836101.680    85320348.424 8      1836.691    20836102.640    85320353.426 8      1836.691
G32  25053853.900   131658885.180 7      3198.942    25053852.580   131658885.183 6      3198.942    25053867.540   102591398.479 6      2492.682    25053868.080   102591403.481 7      2492.682
G14  24267041.340   127524166.974 7      5826.424    24267040.300   127524166.984 4      5826.424    24267049.020    99369506.968 4      4540.071    24267050.300    99369518.970 6      4540.071
G21  21149191.360   111139736.148 7      1716.347    21149189.500   111139736.151 6      1716.347    21149193.620    86602408.021 6      1337.413
G03  22395650.920   117689938.584 6      6068.449    22395650.040   117689938.589 4      6068.449    22395659.520    91706484.325 4      4728.662    22395660.140    91706484.336 7      4728.662
G27  22586944.980   118695187.622 7       750.931    22586943.600   118695187.629 7       750.931    22586952.960    92489753.609 7       585.141    22586951.780    92489784.607 7       585.141
G10  24557862.900   129052433.872 7      -429.048    24557862.200   129052433.876 6      -429.048    24557874.400   100560386.812 6      -334.323    24557874.320   100560383.809 7      -334.323
R08  21344739.360   114300112.721 7      3532.400    21344738.680   114300112.763 7      3532.400    21344750.220    88900132.141 8      2747.422    21344750.100    88900132.141 8      2747.422
R01  22244519.160   118909707.595 5      6554.008    22244518.580   118909707.602 5      6554.008    22244535.760    92485396.695 5      5097.562    22244534.780    92485393.696 5      5097.562
R23  21325216.040   114075523.951 6      1721.789    21325215.900   114075523.969 6      1721.789
R14  21450435.820   114342888.959 8      3704.591    21450434.700   114342888.957 7      3704.591    21450444.700    88933401.795 7      2881.349    21450444.800    88933404.792 7      2881.349
R07  23383972.740   125176221.822 6       544.778    23383971.900   125176221.845 6       544.778    23383988.780    97359360.756 7       423.716    23383988.840    97359358.757 7       423.716
> 2024 06 03 12 31 45.0000000  0 16
G02  21558515.080   113290757.887 8      2690.934    21558513.500   113290757.898 6      2690.934    21558516.200    88278517.439 6      2096.832
R24  21601323.860   115511986.326 7      3769.979    21601323.360   115511986.335 7      3769.979    21601335.240    89842704.905 7      2932.206    21601335.360    89842701.906 8      2932.206
G16  24197730.160   127159920.016 5      -880.773    24197728.560   127159920.007 1      -880.773    24197743.260    99085689.033 1      -686.317
R22  24105254.300   128675484.788 6       672.207    24105254.320   128675484.775 6       672.207    24105271.540   100080996.492 7       522.828    24105271.760   100080997.491 7       522.828
G08  20835647.480   109492062.293 8      2356.759    20835646.260   109492062.295 8      2356.759    20835653.160    85318511.871 8      1836.436    20835654.160    85318516.873 8      1836.436
G32  25053245.100   131655686.627 7      3198.267    25053243.960   131655686.634 6      3198.267    25053258.780   102588906.101 6      2492.156    25053259.680   102588911.105 7      2492.156
G14  24265932.360   127518340.695 7      5826.097    24265931.600   127518340.708 4      5826.097    24265940.200    99364967.014 4      4539.815    24265941.400    99364979.012 6      4539.815
G21  21148865.020   111138019.919 7      1716.089    21148862.980   111138019.922 6      1716.089    21148867.000    86601070.702 6      1337.212
G03  22394496.220   117683870.431 6      6068.065    22394495.240   117683870.439 4      6068.065    22394504.740    91701755.903 4      4728.363    22394505.560    91701755.907 7      4728.363
G27  22586802.220   118694436.982 7       750.425    22586800.780   118694436.989 7       750.425    22586810.160    92489168.691 7       584.747    22586808.960    92489199.687 7       584.747
G10  24557944.940   129052863.098 7      -429.330    24557943.940   129052863.103 6      -429.330    24557956.160   100560721.268 6      -334.543    24557956.300   100560718.267 7      -334.543
R08  21344079.800   114296580.721 7      3531.661    21344079.160   114296580.755 7      3531.661    21344090.460    88897385.026 8      2746.847    21344090.560    88897385.026 8      2746.847
R01  22243293.460   118903153.888 5      6553.666    22243292.660   118903153.878 5      6553.666    22243309.840    92480299.382 5      5097.296    22243308.920    92480296.370 5      5097.296
R23  21324894.500   114073802.228 7      1721.708    21324894.020   114073802.251 6      1721.708
R14  21449740.540   114339184.791 7      3703.716    21449739.920   114339184.797 7      3703.716    21449749.740    88930520.782 7      2880.668    21449749.900    88930523.775 7      2880.668
R07  23383871.380   125175677.430 6       543.970    23383870.460   125175677.459 6       543.970    23383886.760    97358937.338 7       423.088    23383887.240    97358935.337 7       423.088
> 2024 06 03 12 31 46.0000000  0 16
G02  21558002.900   113288067.020 7      2690.897    21558001.420   113288067.030 6      2690.897    21558004.020    88276420.657 6      2096.803
R24  21600618.680   115508216.385 7      3769.842    21600618.400   115508216.397 7      3769.842    21600630.040    89839772.728 7      2932.099    21600630.440    89839769.732 7      2932.099
G16  24197896.220   127160800.807 5      -880.666    24197896.160   127160800.804 1      -880.666    24197910.600    99086375.357 1      -686.234
R22  24105128.420   128674812.594 6       672.269    24105128.500   128674812.579 6       672.269    24105145.580   100080473.664 7       522.876    24105146.080   100080474.664 7       522.876
G08  20835199.060   109489705.756 8      2356.389    20835197.880   109489705.761 8      2356.389    20835204.700    85316675.610 8      1836.147    20835205.660    85316680.615 8      1836.147
G32  25052636.280   131652488.491 7      3197.914    25052635.480   131652488.491 6      3197.914    25052650.300   102586414.045 6      2491.881    25052651.040   102586419.050 7      2491.881
G14  24264823.800   127512514.734 7      5825.830    24264822.720   127512514.744 4      5825.830    24264831.520    99360427.305 4      4539.608    24264833.320    99360439.311 6      4539.608
G21  21148538.340   111136303.859 7      1716.010    21148536.460   111136303.864 6      1716.010    21148540.500    86599733.514 6      1337.150
G03  22393341.640   117677802.626 6      6067.704    22393340.520   117677802.636 4      6067.704    22393350.120    91697027.749 4      4728.081    22393351.040    91697027.764 7      4728.081
G27  22586659.220   118693686.610 7       750.263    22586658.040   118693686.615 7       750.263    22586667.400    92488583.982 7       584.620    22586666.000    92488614.980 7       584.620
G10  24558026.540   129053292.550 7      -429.537    24558025.580   129053292.555 6      -429.537    24558037.920   100561055.904 6      -334.705    24558037.720   100561052.909 7      -334.705
R08  21343420.260   114293049.533 7      3530.818    21343419.760   114293049.572 7      3530.818    21343431.180    88894638.549 8      2746.192    21343431.080    88894638.551 7      2746.192
R01  22242068.820   118896600.434 5      6553.392    22242066.960   118896600.403 5      6553.392    22242083.660    92475202.226 5      5097.082    22242082.720    92475199.233 5      5097.082
R23  21324572.100   114072080.548 7      1721.650    21324572.080   114072080.565 6      1721.650
R14  21449045.800   114335481.526 7      3702.802    21449045.160   114335481.535 7      3702.802    21449055.040    88927640.469 7      2879.957    21449054.960    88927643.456 7      2879.957
R07  23383769.540   125175133.758 6       543.225    23383768.640   125175133.770 6       543.225    23383785.240    97358514.473 7       422.508    23383785.780    97358512.469 7       422.508
