     3.05           OBSERVATION DATA    MIXED               RINEX VERSION / TYPE
TPS2RIN 1.0.28.3459 TPS-USER            20260427 162655 UTC PGM / RUN BY / DATE
Win64 build Jun 01, 2022 (c) Topcon Positioning Systems     COMMENT
SRC: 20240603_GUI20.tps                                     COMMENT
Observer            Agency                                  OBSERVER / AGENCY
O0M3X53SBGM         TPS HIPER_SR        4.8 HSR Jul,08,2022 REC # / TYPE / VERS
FW: 4.8 HSR Jul,08,2022 p3                                  COMMENT
SN: HiPer SR 1212-12575                                     COMMENT
000                 TPSHIPER_SR     NONE                    ANT # / TYPE
        1.8000        0.0000        0.0000                  ANTENNA: DELTA H/E/N
GUI20                                                       MARKER NAME
  5390329.4282 -1596846.6197  3007416.7580                  APPROX POSITION XYZ
  2024     6     3    12     1   19.0000000     GPS         TIME OF FIRST OBS
  2024     6     3    12    16   24.0000000     GPS         TIME OF LAST OBS
     1.000                                                  INTERVAL
   906 EPOCHS                                               COMMENT
G   12 C1C L1C D1C C1W L1W D1W C2W L2W D2W C2X L2X D2X      SYS / # / OBS TYPES
R   12 C1C L1C D1C C1P L1P D1P C2P L2P D2P C2C L2C D2C      SYS / # / OBS TYPES
    18                                                      # OF SATELLITES
   G02   906   906   906   906   906   906   906   906   906PRN / # OF OBS
           0     0     0                                    PRN / # OF OBS
   G03   906   906   906   906   906   906   906   906   906PRN / # OF OBS
         906   906   906                                    PRN / # OF OBS
   G07    35    35    35    29    29    29    29    29    29PRN / # OF OBS
          25    25    25                                    PRN / # OF OBS
   G08   906   906   906   906   906   906   906   906   906PRN / # OF OBS
         906   906   906                                    PRN / # OF OBS
   G10   906   906   906   906   906   906   906   906   906PRN / # OF OBS
         906   906   906                                    PRN / # OF OBS
   G16   906   906   906   906   906   906   906   906   906PRN / # OF OBS
           0     0     0                                    PRN / # OF OBS
   G21   906   906   906   906   906   906   906   906   906PRN / # OF OBS
           0     0     0                                    PRN / # OF OBS
   G27   906   906   906   906   906   906   906   906   906PRN / # OF OBS
         906   906   906                                    PRN / # OF OBS
   G32   906   906   906   906   906   906   906   906   906PRN / # OF OBS
         906   906   906                                    PRN / # OF OBS
   R01   906   906   906   906   906   906   906   906   906PRN / # OF OBS
         906   906   906                                    PRN / # OF OBS
   R07   906   906   906   906   906   906   906   906   906PRN / # OF OBS
         906   906   906                                    PRN / # OF OBS
   R08   906   906   906   906   906   906   906   906   906PRN / # OF OBS
         906   906   906                                    PRN / # OF OBS
   R12   906   906   906   906   906   906   906   906   906PRN / # OF OBS
         906   906   906                                    PRN / # OF OBS
   R13   906   906   906   906   906   906   906   906   906PRN / # OF OBS
         906   906   906                                    PRN / # OF OBS
   R14   906   906   906   906   906   906   906   906   906PRN / # OF OBS
         906   906   906                                    PRN / # OF OBS
   R22   906   906   906   906   906   906   906   906   906PRN / # OF OBS
         906   906   906                                    PRN / # OF OBS
   R23   906   906   906   906   906   906     0     0     0PRN / # OF OBS
           0     0     0                                    PRN / # OF OBS
   R24   906   906   906   906   906   906   906   906   906PRN / # OF OBS
         906   906   906                                    PRN / # OF OBS
G L1C                                                       SYS / PHASE SHIFT
G L1W -0.25000                                              SYS / PHASE SHIFT
G L2W  0.00000                                              SYS / PHASE SHIFT
G L2X  0.25000                                              SYS / PHASE SHIFT
R L1C                                                       SYS / PHASE SHIFT
R L1P -0.25000                                              SYS / PHASE SHIFT
R L2P -0.25000                                              SYS / PHASE SHIFT
R L2C                                                       SYS / PHASE SHIFT
  9 R01  1 R07  5 R08  6 R12 -1 R13 -2 R14 -7 R22 -3 R23  3 GLONASS SLOT / FRQ #
    R24  2                                                  GLONASS SLOT / FRQ #
                                                            GLONASS COD/PHS/BIS
               *** Undefined LeapSeconds ***                COMMENT
                                                            END OF HEADER
> 2024 06 03 12 01 19.0000000  0 17
G10  23302997.240   122458068.822 7       161.926    23302996.120   122458068.827 7       161.926    23303006.260    95421901.649 7       126.176    23303006.840    95421911.655 7       126.176
G02  21367864.520   112288880.480 7      3148.375    21367862.660   112288880.485 6      3148.375    21367865.820    87497833.161 6      2453.279
G03  23391592.360   122923645.934 6      6521.033    23391591.700   122923645.928 5      6521.033    23391603.180    95784706.745 5      5081.324    23391604.740    95784712.760 7      5081.324
R01  23324560.980   124683146.367 6      6711.351    23324561.080   124683146.382 6      6711.351    23324581.300    96975866.735 6      5219.940    23324580.540    96975863.721 6      5219.940
G08  20558968.700   108038103.249 8      2934.771    20558967.440   108038103.252 8      2934.771    20558974.340    84185559.243 8      2286.834    20558975.160    84185561.248 8      2286.834
G21  20614392.540   108329359.389 7      2151.794    20614390.640   108329359.394 6      2151.794    20614394.440    84412500.308 6      1676.723
G27  21738665.600   114237433.937 7      1264.676    21738664.240   114237433.937 7      1264.676    21738672.360    89016210.922 7       985.462    21738672.500    89016211.925 8       985.462
R23  20729552.900   110889124.409 7      1831.568    20729552.320   110889124.424 7      1831.568
R13  20026920.040   106942627.666 6       852.194    20026919.040   106942627.680 6       852.194    20026928.860    83177638.579 7       662.818    20026929.180    83177637.577 6       662.818
R08  21589266.020   115609536.760 7      4877.774    21589267.440   115609536.802 7      4877.774    21589280.060    89918589.102 7      3793.825    21589279.560    89918591.105 7      3793.825
R07  22605051.760   121006608.259 7      1953.254    22605052.060   121006608.288 7      1953.254    22605068.020    94116318.585 7      1519.198    22605067.860    94116317.584 7      1519.198
R22  23119539.820   123413663.044 7       567.044    23119541.540   123413663.042 7       567.044    23119555.300    95988468.392 7       441.034    23119555.620    95988470.396 7       441.034
R12  22067601.680   117881152.599 7     -1377.455    22067602.400   117881152.608 7     -1377.455    22067615.520    91685392.993 7     -1071.354    22067615.900    91685392.996 7     -1071.354
G16  22748975.060   119546657.929 7      -506.245    22748973.360   119546657.939 5      -506.245    22748980.580    93153256.336 5      -394.477
G32  25096400.200   131882476.164 6      3910.271    25096398.680   131882476.161 5      3910.271    25096415.080   102765532.035 5      3046.964    25096415.760   102765632.046 6      3046.964
R24  21724522.160   116170776.167 7      4005.312    21724521.040   116170776.174 7      4005.312    21724534.200    90355101.304 7      3115.243    21724534.120    90355101.307 7      3115.243
R14  21777804.280   116087947.600 7      5180.387    21777804.000   116087947.593 7      5180.387    21777815.760    90290673.506 7      4029.190    21777816.040    90290679.509 8      4029.190
> 2024 06 03 12 01 20.0000000  0 17
G10  23302966.380   122457906.875 7       161.772    23302965.340   122457906.878 7       161.772    23302975.460    95421775.444 7       126.056    23302975.820    95421785.452 7       126.056
G02  21367265.220   112285732.031 8      3148.320    21367263.520   112285732.038 6      3148.320    21367266.660    87495379.828 6      2453.236
G03  23390351.500   122917124.863 7      6520.856    23390350.660   122917124.857 5      6520.856    23390362.200    95779625.397 5      5081.187    23390363.280    95779631.417 7      5081.187
R01  23323305.220   124676435.150 6      6711.179    23323305.440   124676435.164 6      6711.179    23323326.780    96970646.922 6      5219.806    23323324.820    96970643.919 6      5219.806
G08  20558410.180   108035168.491 8      2934.637    20558408.940   108035168.496 8      2934.637    20558415.840    84183272.422 8      2286.730    20558417.000    84183274.425 8      2286.730
G21  20613982.980   108327207.491 7      2151.754    20613981.180   108327207.496 6      2151.754    20613984.900    84410823.507 6      1676.692
G27  21738424.860   114236169.345 7      1264.511    21738423.600   114236169.347 7      1264.511    21738431.600    89015225.521 7       985.333    21738431.780    89015226.526 8       985.333
R23  20729210.440   110887292.527 7      1831.803    20729209.980   110887292.544 7      1831.803
R13  20026762.120   106941775.761 6       851.469    20026759.840   106941775.783 6       851.469    20026769.440    83176975.992 7       662.253    20026769.660    83176974.992 6       662.253
R08  21588355.300   115604659.326 7      4877.045    21588356.540   115604659.373 7      4877.045    21588369.020    89914795.552 7      3793.257    21588368.840    89914797.558 7      3793.257
R07  22604687.040   121004655.320 7      1952.660    22604687.560   121004655.343 7      1952.660    22604703.020    94114799.635 7      1518.736    22604703.080    94114798.636 7      1518.736
R22  23119433.440   123413095.728 7       567.298    23119435.260   123413095.736 7       567.298    23119449.140    95988027.150 7       441.232    23119449.420    95988029.148 7       441.232
R12  22067859.580   117882530.292 7     -1377.916    22067859.740   117882530.282 7     -1377.916    22067873.340    91686464.510 7     -1071.713    22067873.640    91686464.510 7     -1071.713
G16  22749071.320   119547164.383 7      -506.665    22749069.780   119547164.393 5      -506.665    22749076.980    93153650.967 5      -394.804
G32  25095656.420   131878565.979 6      3909.955    25095654.640   131878565.978 5      3909.955    25095671.040   102762485.142 5      3046.718    25095671.940   102762585.168 6      3046.718
R24  21723773.120   116166770.615 7      4005.503    21723772.400   116166770.616 7      4005.503    21723785.340    90351985.870 7      3115.391    21723785.280    90351985.875 7      3115.391
R14  21776832.700   116082767.269 7      5180.042    21776832.200   116082767.253 7      5180.042    21776843.880    90286644.353 7      4028.922    21776844.480    90286650.358 7      4028.922
> 2024 06 03 12 01 21.0000000  0 17
G10  23302935.640   122457745.506 7       160.891    23302934.700   122457745.509 7       160.891    23302944.780    95421649.706 7       125.369    23302945.160    95421659.706 7       125.369
G02  21366666.360   112282583.973 7      3148.016    21366664.500   112282583.983 6      3148.016    21366667.620    87492926.794 6      2452.999
G03  23389110.520   122910604.215 6      6520.475    23389109.860   122910604.212 5      6520.475    23389121.280    95774544.381 5      5080.890    23389122.140    95774550.409 7      5080.890
R01  23322049.960   124669724.256 6      6710.681    23322049.320   124669724.270 6      6710.681    23322071.160    96965427.373 6      5219.419    23322069.720    96965424.362 6      5219.419
G08  20557851.980   108032234.176 8      2933.981    20557850.680   108032234.181 8      2933.981    20557857.500    84180985.941 8      2286.219    20557858.520    84180987.944 8      2286.219
G21  20613573.440   108325056.001 8      2151.291    20613571.720   108325056.003 6      2151.291    20613575.500    84409147.023 6      1676.331
G27  21738184.280   114234905.296 7      1263.694    21738183.220   114234905.298 7      1263.694    21738191.160    89014240.552 7       984.697    21738191.400    89014241.553 8       984.697
R23  20728868.520   110885460.830 7      1831.538    20728867.660   110885460.839 7      1831.538
R13  20026602.560   106940924.888 6       850.345    20026600.960   106940924.913 6       850.345    20026610.320    83176314.194 7       661.379    20026610.260    83176313.196 6       661.379
R08  21587444.520   115599782.890 7      4875.777    21587446.300   115599782.932 7      4875.777    21587458.600    89911002.771 7      3792.271    21587458.220    89911004.770 7      3792.271
R07  22604322.240   121002703.408 7      1951.202    22604322.720   121002703.442 7      1951.202    22604338.500    94113281.489 7      1517.602    22604338.560    94113280.480 7      1517.602
R22  23119327.200   123412528.555 7       566.913    23119328.980   123412528.567 7       566.913    23119343.180    95987586.014 7       440.932    23119343.100    95987588.014 7       440.932
R12  22068117.760   117883908.484 7     -1378.296    22068117.500   117883908.466 7     -1378.296    22068131.600    91687536.420 7     -1072.008    22068131.600    91687536.427 7     -1072.008
G16  22749167.760   119547671.423 7      -507.207    22749166.200   119547671.430 5      -507.207    22749173.420    93154046.053 5      -395.226
G32  25094912.360   131874656.456 6      3909.166    25094910.640   131874656.458 5      3909.166    25094927.180   102759438.762 5      3046.103    25094928.020   102759538.758 6      3046.103
R24  21723023.860   116162765.306 7      4005.151    21723023.440   116162765.315 7      4005.151    21723036.280    90348870.640 7      3115.117    21723036.380    90348870.641 7      3115.117
R14  21775861.300   116077587.684 7      5179.257    21775860.620   116077587.679 7      5179.257    21775872.100    90282615.812 7      4028.311    21775872.500    90282621.814 7      4028.311
> 2024 06 03 12 01 22.0000000  0 17
G10  23302905.160   122457584.292 7       161.106    23302903.860   122457584.295 7       161.106    23302913.980    95421524.085 7       125.537    23302914.560    95421534.082 7       125.537
G02  21366067.280   112279436.041 7      3147.649    21366065.540   112279436.054 6      3147.649    21366068.560    87490473.862 6      2452.714
G03  23387870.120   122904083.460 7      6520.611    23387868.880   122904083.457 5      6520.611    23387880.360    95769463.277 5      5080.996    23387881.240    95769469.293 7      5080.996
R01  23320795.080   124663012.929 6      6711.517    23320792.440   124663012.941 6      6711.517    23320815.000    96960207.461 6      5220.068    23320814.460    96960204.460 6      5220.068
G08  20557293.460   108029299.901 8      2934.056    20557292.320   108029299.901 8      2934.056    20557299.020    84178699.491 8      2286.277    20557300.060    84178701.494 8      2286.277
G21  20613164.120   108322904.597 8      2151.165    20613162.360   108322904.600 6      2151.165    20613166.160    84407470.603 6      1676.233
G27  21737943.900   114233641.223 7      1263.987    21737942.840   114233641.225 7      1263.987    21737950.780    89013255.558 7       984.925    21737951.100    89013256.560 8       984.925
R23  20728526.020   110883629.012 7      1831.727    20728524.980   110883629.029 7      1831.727
R13  20026443.120   106940074.572 6       849.584    20026441.200   106940074.586 6       849.584    20026451.040    83175652.829 7       660.788    20026451.080    83175651.828 6       660.788
R08  21586533.820   115594906.756 7      4875.890    21586535.440   115594906.790 7      4875.890    21586548.040    89907210.220 7      3792.359    21586547.440    89907212.220 7      3792.359
R07  22603957.840   121000752.042 7      1951.060    22603957.320   121000752.076 7      1951.060    22603973.540    94111763.746 7      1517.491    22603973.620    94111762.745 7      1517.491
R22  23119220.300   123411961.057 7       567.687    23119222.500   123411961.063 7       567.687    23119236.820    95987144.625 7       441.534    23119236.360    95987146.620 7       441.534
R12  22068375.400   117885286.591 7     -1378.165    22068375.500   117885286.576 7     -1378.165    22068390.020    91688608.269 7     -1071.906    22068389.900    91688608.276 7     -1071.906
G16  22749264.200   119548178.457 7      -507.149    22749262.860   119548178.465 5      -507.149    22749269.920    93154441.139 5      -395.181
G32  25094168.460   131870746.893 6      3909.593    25094166.860   131870746.893 5      3909.593    25094183.400   102756392.346 5      3046.436    25094184.320   102756492.352 6      3046.436
R24  21722274.320   116158759.932 7      4005.151    21722273.980   116158759.934 7      4005.151    21722287.320    90345755.348 7      3115.117    21722287.620    90345755.350 7      3115.117
R14  21774889.660   116072408.709 8      5178.443    21774889.060   116072408.707 7      5178.443    21774900.380    90278587.722 7      4027.678    21774900.880    90278593.725 8      4027.678
> 2024 06 03 12 01 23.0000000  0 17
G10  23302874.580   122457423.606 7       160.530    23302873.380   122457423.606 7       160.530    23302883.480    95421398.869 7       125.088    23302883.900    95421408.869 7       125.088
G02  21365468.480   112276288.525 7      3147.445    21365466.520   112276288.532 6      3147.445    21365469.640    87488021.250 6      2452.554
G03  23386629.400   122897562.881 6      6520.615    23386628.280   122897562.877 4      6520.615    23386639.520    95764382.315 5      5080.998    23386640.120    95764388.332 7      5080.998
R01  23319539.880   124656301.602 6      6711.623    23319537.280   124656301.598 6      6711.623    23319559.340    96954987.534 6      5220.151    23319559.280    96954984.534 6      5220.151
G08  20556735.240   108026366.015 8      2933.755    20556734.060   108026366.014 8      2933.755    20556740.840    84176413.342 8      2286.043    20556741.680    84176415.344 8      2286.043
G21  20612754.720   108320753.651 7      2150.764    20612753.100   108320753.653 6      2150.764    20612756.860    84405794.540 6      1675.920
G27  21737703.560   114232377.508 7      1263.473    21737702.220   114232377.510 7      1263.473    21737710.100    89012270.843 7       984.525    21737710.460    89012271.845 8       984.525
R23  20728183.860   110881797.462 7      1831.478    20728182.840   110881797.468 7      1831.478
R13  20026283.820   106939225.131 6       849.072    20026282.240   106939225.129 6       849.072    20026291.960    83174992.134 7       660.389    20026292.100    83174991.133 6       660.389
R08  21585623.520   115590031.268 7      4875.025    21585624.900   115590031.308 7      4875.025    21585637.380    89903418.178 7      3791.686    21585637.180    89903420.180 7      3791.686
R07  22603593.620   120998801.592 7      1950.002    22603593.180   120998801.626 7      1950.002    22603609.480    94110246.737 7      1516.668    22603609.140    94110245.734 7      1516.668
R22  23119114.420   123411393.621 7       567.464    23119116.220   123411393.611 7       567.464    23119130.420    95986703.264 7       441.361    23119130.480    95986705.256 7       441.361
R12  22068633.360   117886664.992 7     -1378.498    22068633.740   117886664.979 7     -1378.498    22068648.040    91689680.350 7     -1072.165    22068647.860    91689680.355 7     -1072.165
G16  22749361.100   119548685.781 7      -507.427    22749359.520   119548685.791 5      -507.427    22749366.480    93154836.454 5      -395.397
G32  25093424.540   131866837.738 6      3908.666    25093423.120   131866837.746 5      3908.666    25093439.620   102753346.259 5      3045.713    25093440.160   102753446.278 6      3045.713
R24  21721525.780   116154754.859 7      4005.130    21721524.500   116154754.863 7      4005.130    21721538.320    90342640.295 7      3115.101    21721538.380    90342640.293 7      3115.101
R14  21773918.460   116067230.613 8      5177.834    21773917.640   116067230.617 7      5177.834    21773928.940    90274560.317 7      4027.204    21773929.580    90274566.322 7      4027.204
> 2024 06 03 12 01 24.0000000  0 17
G10  23302843.880   122457263.430 7       160.113    23302842.860   122457263.430 7       160.113    23302853.120    95421274.054 7       124.763    23302853.120    95421284.058 7       124.763
G02  21364869.580   112273141.321 7      3147.087    21364867.580   112273141.328 6      3147.087    21364870.660    87485568.883 6      2452.276
G03  23385388.360   122891042.590 7      6520.278    23385387.380   122891042.590 4      6520.278    23385398.580    95759301.577 5      5080.736    23385399.220    95759307.595 7      5080.736
R01  23318284.580   124649590.377 6      6711.465    23318281.780   124649590.389 6      6711.465    23318303.620    96949767.721 6      5220.028    23318303.260    96949764.722 6      5220.028
G08  20556177.200   108023432.504 8      2933.417    20556175.840   108023432.504 8      2933.417    20556182.640    84174127.491 8      2285.779    20556183.520    84174129.496 8      2285.779
G21  20612345.420   108318603.020 8      2150.473    20612343.820   108318603.025 6      2150.473    20612347.660    84404118.726 6      1675.693
G27  21737463.180   114231114.169 7      1263.295    21737462.020   114231114.171 7      1263.295    21737469.660    89011286.423 7       984.386    21737470.000    89011287.426 8       984.386
R23  20727841.600   110879966.013 7      1831.449    20727840.500   110879966.017 7      1831.449
R13  20026125.240   106938376.544 6       848.275    20026123.900   106938376.529 6       848.275    20026133.060    83174332.107 7       659.769    20026133.260    83174331.103 6       659.769
R08  21584713.180   115585156.495 7      4874.591    21584714.520   115585156.537 7      4874.591    21584727.300    89899626.701 7      3791.348    21584727.020    89899628.698 7      3791.348
R07  22603228.740   120996852.063 7      1949.141    22603228.840   120996852.088 7      1949.141    22603244.960    94108730.426 7      1515.998    22603244.860    94108729.429 7      1515.998
R22  23119008.100   123410826.213 7       567.477    23119009.560   123410826.201 7       567.477    23119024.160    95986261.937 7       441.371    23119024.400    95986263.931 7       441.371
R12  22068891.520   117888043.702 7     -1378.673    22068891.980   117888043.698 7     -1378.673    22068906.260    91690752.668 7     -1072.301    22068906.000    91690752.677 7     -1072.301
G16  22749458.000   119549193.554 7      -507.789    22749456.260   119549193.564 5      -507.789    22749463.140    93155232.115 5      -395.680
G32  25092680.780   131862928.995 6      3908.798    25092679.260   131862929.003 5      3908.798    25092695.860   102750300.496 5      3045.817    25092696.680   102750400.496 6      3045.817
R24  21720776.960   116150749.951 7      4004.786    21720776.020   116150749.960 7      4004.786    21720789.280    90339525.364 7      3114.834    21720789.160    90339525.360 7      3114.834
R14  21772947.280   116062053.232 8      5177.054    21772946.660   116062053.233 7      5177.054    21772957.460    90270533.461 7      4026.598    21772958.080    90270539.466 7      4026.598
> 2024 06 03 12 01 25.0000000  0 17
G10  23302813.560   122457103.606 7       159.609    23302812.500   122457103.614 7       159.609    23302822.460    95421149.520 7       124.370    23302822.600    95421159.522 7       124.370
G02  21364271.000   112269994.495 7      3146.702    21364268.680   112269994.505 6      3146.702    21364271.800    87483116.815 6      2451.976
G03  23384147.620   122884522.499 7      6520.049    23384146.700   122884522.499 4      6520.049    23384157.640    95754220.993 5      5080.558    23384158.560    95754227.017 7      5080.558
R01  23317028.920   124642879.151 6      6711.147    23317026.540   124642879.150 6      6711.147    23317048.440    96944547.873 6      5219.781    23317047.800    96944544.871 6      5219.781
G08  20555619.020   108020499.233 8      2933.172    20555617.700   108020499.232 8      2933.172    20555624.380    84171841.831 8      2285.589    20555625.380    84171843.836 8      2285.589
G21  20611936.500   108316452.712 7      2150.234    20611934.640   108316452.714 6      2150.234    20611938.420    84402443.161 6      1675.507
G27  21737222.960   114229851.055 8      1263.006    21737221.700   114229851.060 7      1263.006    21737229.180    89010302.179 7       984.160    21737229.900    89010303.182 8       984.160
R23  20727499.160   110878134.637 7      1831.380    20727498.400   110878134.643 7      1831.380
R13  20025966.160   106937528.780 6       847.410    20025964.740   106937528.800 6       847.410    20025974.040    83173672.762 7       659.097    20025974.100    83173671.758 6       659.097
R08  21583802.720   115580282.330 7      4873.832    21583804.420   115580282.374 7      4873.832    21583816.940    89895835.692 7      3790.758    21583816.820    89895837.691 7      3790.758
R07  22602864.860   120994903.256 7      1948.364    22602864.880   120994903.281 7      1948.364    22602880.980    94107214.690 7      1515.394    22602881.300    94107213.689 7      1515.394
R22  23118901.360   123410258.622 7       567.776    23118903.400   123410258.617 7       567.776    23118917.700    95985820.481 7       441.603    23118918.160    95985822.483 7       441.603
R12  22069149.840   117889422.720 7     -1379.100    22069150.120   117889422.713 7     -1379.100    22069164.380    91691825.227 7     -1072.634    22069164.240    91691825.230 7     -1072.634
G16  22749554.680   119549701.603 7      -508.227    22749553.040   119549701.613 5      -508.227    22749559.780    93155627.991 5      -396.021
G32  25091936.820   131859020.518 6      3908.506    25091935.540   131859020.528 5      3908.506    25091952.180   102747254.933 5      3045.589    25091953.220   102747354.933 6      3045.589
R24  21720027.780   116146745.299 7      4004.598    21720026.820   116146745.300 7      4004.598    21720040.260    90336410.641 7      3114.687    21720040.060    90336410.638 7      3114.687
R14  21771976.140   116056876.598 8      5176.359    21771975.660   116056876.585 7      5176.359    21771986.160    90266507.185 7      4026.057    21771986.500    90266513.194 7      4026.057
> 2024 06 03 12 01 26.0000000  0 17
G10  23302783.240   122456944.200 7       159.148    23302781.940   122456944.200 7       159.148    23302792.280    95421025.299 7       124.011    23302792.520    95421035.301 7       124.011
G02  21363672.360   112266847.898 7      3146.158    21363669.980   112266847.908 6      3146.158    21363673.000    87480664.924 6      2451.552
G03  23382906.460   122878002.545 7      6519.660    23382906.140   122878002.545 4      6519.660    23382916.840    95749140.518 4      5080.254    23382917.740    95749146.533 7      5080.254
R01  23315774.020   124636167.854 6      6710.975    23315771.900   124636167.855 6      6710.975    23315792.520    96939327.983 6      5219.647    23315791.560    96939324.977 6      5219.647
G08  20555060.900   108017566.263 8      2932.613    20555059.560   108017566.266 8      2932.613    20555066.280    84169556.405 8      2285.153    20555067.260    84169558.412 8      2285.153
G21  20611527.340   108314302.695 7      2149.600    20611525.540   108314302.700 6      2149.600    20611529.280    84400767.828 6      1675.013
G27  21736982.280   114228588.241 7      1262.554    21736981.400   114228588.243 7      1262.554    21736988.980    89009318.166 7       983.809    21736989.340    89009319.167 8       983.809
R23  20727156.680   110876303.311 7      1831.075    20727155.800   110876303.328 7      1831.075
R13  20025806.920   106936681.755 6       846.512    20025805.700   106936681.783 6       846.512    20025815.540    83173013.971 7       658.398    20025815.780    83173012.971 6       658.398
R08  21582892.300   115575408.858 7      4873.018    21582894.460   115575408.897 7      4873.018    21582907.100    89892045.218 7      3790.125    21582906.320    89892047.219 7      3790.125
R07  22602501.220   120992955.327 7      1947.237    22602500.640   120992955.355 7      1947.237    22602517.120    94105699.630 7      1514.518    22602517.000    94105698.628 7      1514.518
R22  23118795.500   123409691.033 7       567.392    23118797.040   123409691.034 7       567.392    23118811.240    95985379.032 7       441.305    23118811.540    95985381.025 7       441.305
R12  22069408.160   117890801.917 7     -1379.445    22069408.040   117890801.910 7     -1379.445    22069422.500    91692897.923 7     -1072.902    22069422.200    91692897.923 7     -1072.902
G16  22749651.100   119550209.920 7      -508.505    22749649.760   119550209.928 5      -508.505    22749656.440    93156024.076 5      -396.237
G32  25091193.060   131855112.453 6      3907.608    25091191.960   131855112.469 5      3907.608    25091208.620   102744209.696 5      3044.890    25091209.720   102744309.700 6      3044.890
R24  21719278.920   116142740.800 7      4004.152    21719278.120   116142740.807 7      4004.152    21719291.280    90333296.035 7      3114.340    21719291.360    90333296.038 7      3114.340
R14  21771005.480   116051700.632 8      5175.291    21771004.720   116051700.630 8      5175.291    21771015.100    90262481.442 7      4025.226    21771015.700    90262487.445 7      4025.226
> 2024 06 03 12 01 27.0000000  0 17
G10  23302752.980   122456785.233 7       158.775    23302751.660   122456785.230 7       158.775    23302761.920    95420901.424 7       123.721    23302762.660    95420911.428 7       123.721
G02  21363073.540   112263701.708 8      3146.125    21363071.360   112263701.710 6      3146.125    21363074.240    87478213.347 6      2451.526
G03  23381666.020   122871482.812 7      6519.742    23381665.540   122871482.809 4      6519.742    23381676.120    95744060.210 4      5080.318    23381676.960    95744066.217 7      5080.318
R01  23314518.520   124629456.527 6      6711.218    23314516.680   124629456.515 6      6711.218    23314536.960    96934108.049 6      5219.836    23314535.920    96934105.048 6      5219.836
G08  20554502.720   108014633.604 8      2932.577    20554501.540   108014633.604 8      2932.577    20554508.200    84167271.214 8      2285.125    20554508.960    84167273.221 8      2285.125
G21  20611118.260   108312153.060 8      2149.456    20611116.500   108312153.070 6      2149.456    20611120.180    84399092.790 6      1674.901
G27  21736742.020   114227325.698 7      1262.435    21736741.020   114227325.695 7      1262.435    21736748.740    89008334.360 7       983.716    21736749.200    89008335.361 8       983.716
R23  20726814.000   110874472.151 7      1831.060    20726813.720   110874472.174 7      1831.060
R13  20025648.340   106935835.673 6       845.810    20025647.960   106935835.698 6       845.810    20025657.240    83172355.903 7       657.852    20025657.140    83172354.899 6       657.852
R08  21581982.600   115570535.978 7      4872.625    21581984.260   115570536.020 7      4872.625    21581997.200    89888255.208 7      3789.819    21581996.540    89888257.207 7      3789.819
R07  22602137.700   120991008.190 7      1946.693    22602136.900   120991008.226 7      1946.693    22602153.080    94104185.205 7      1514.095    22602153.500    94104184.201 7      1514.095
R22  23118689.040   123409123.359 7       567.625    23118690.660   123409123.363 7       567.625    23118705.000    95984937.503 7       441.486    23118705.160    95984939.499 7       441.486
R12  22069666.740   117892181.407 7     -1379.479    22069666.340   117892181.395 7     -1379.479    22069680.340    91693970.851 7     -1072.928    22069680.820    91693970.852 7     -1072.928
G16  22749747.780   119550718.552 7      -508.662    22749746.720   119550718.562 5      -508.662    22749753.280    93156420.409 5      -396.360
G32  25090449.340   131851204.625 6      3907.681    25090448.360   131851204.633 5      3907.681    25090465.020   102741164.635 5      3044.946    25090466.220   102741264.637 6      3044.946
R24  21718530.220   116138736.625 7      4004.211    21718529.140   116138736.626 7      4004.211    21718542.380    90330181.677 7      3114.386    21718542.800    90330181.677 7      3114.386
R14  21770034.540   116046525.556 8      5174.723    21770033.780   116046525.560 8      5174.723    21770044.220    90258456.394 7      4024.784    21770044.900    90258462.399 7      4024.784
> 2024 06 03 12 01 28.0000000  0 17
G10  23302722.840   122456626.809 7       157.838    23302721.540   122456626.806 7       157.838    23302731.820    95420777.975 7       122.990    23302732.480    95420787.979 7       122.990
G02  21362474.880   112260555.939 7      3145.215    21362472.660   112260555.941 6      3145.215    21362475.640    87475762.098 6      2450.817
G03  23380425.440   122864963.352 7      6518.969    23380424.940   122864963.346 4      6518.969    23380435.600    95738980.113 4      5079.716    23380436.340    95738986.121 7      5079.716
R01  23313262.920   124622745.261 6      6710.831    23313261.100   124622745.252 6      6710.831    23313281.980    96928888.183 6      5219.535    23313280.000    96928885.167 6      5219.535
G08  20553944.660   108011701.373 8      2931.784    20553943.480   108011701.375 8      2931.784    20553950.160    84164986.361 8      2284.507    20553951.060    84164988.365 8      2284.507
G21  20610709.280   108310003.819 8      2148.828    20610707.580   108310003.829 6      2148.828    20610711.260    84397418.056 6      1674.412
G27  21736501.800   114226063.567 7      1261.673    21736500.840   114226063.572 7      1261.673    21736508.520    89007350.887 7       983.122    21736508.720    89007351.889 8       983.122
R23  20726471.900   110872641.192 7      1830.489    20726471.180   110872641.207 7      1830.489
R13  20025490.460   106934990.475 6       844.700    20025489.880   106934990.495 6       844.700    20025498.960    83171698.521 7       656.989    20025498.880    83171697.520 6       656.989
R08  21581072.700   115565663.882 7      4871.436    21581074.260   115565663.916 7      4871.436    21581087.080    89884465.800 7      3788.894    21581086.660    89884467.802 7      3788.894
R07  22601773.880   120989062.033 7      1945.451    22601773.460   120989062.064 7      1945.451    22601789.480    94102671.521 7      1513.129    22601789.620    94102670.515 7      1513.129
R22  23118582.700   123408555.768 7       567.285    23118584.320   123408555.766 7       567.285    23118598.900    95984496.035 7       441.221    23118598.840    95984498.037 7       441.221
R12  22069924.900   117893561.245 7     -1380.277    22069924.820   117893561.219 7     -1380.277    22069938.660    91695044.046 7     -1073.549    22069938.940    91695044.043 7     -1073.549
G16  22749844.500   119551227.613 7      -509.524    22749843.320   119551227.620 5      -509.524    22749850.220    93156817.072 5      -397.032
G32  25089705.780   131847297.288 6      3906.930    25089704.800   131847297.290 5      3906.930    25089721.520   102738119.961 5      3044.361    25089722.460   102738219.953 6      3044.361
R24  21717781.500   116134732.677 7      4003.526    21717780.260   116134732.681 7      4003.526    21717794.040    90327067.499 7      3113.853    21717794.180    90327067.503 7      3113.853
R14  21769063.760   116041351.371 8      5173.472    21769063.220   116041351.374 7      5173.472    21769073.500    90254432.026 7      4023.811    21769074.160    90254438.030 7      4023.811
> 2024 06 03 12 01 29.0000000  0 17
G10  23302692.400   122456468.956 7       157.581    23302691.500   122456468.953 7       157.581    23302701.760    95420654.971 7       122.790    23302702.140    95420664.977 7       122.790
G02  21361876.160   112257410.527 7      3145.334    21361874.180   112257410.534 6      3145.334    21361877.080    87473311.132 6      2450.910
G03  23379184.680   122858444.144 7      6519.140    23379184.360   122858444.141 4      6519.140    23379194.840    95733900.217 4      5079.850    23379195.580    95733906.227 7      5079.850
R01  23312007.240   124616034.076 6      6711.375    23312004.860   124616034.069 6      6711.375    23312026.580    96923668.386 6      5219.959    23312025.160    96923665.377 6      5219.959
G08  20553386.760   108008769.565 8      2931.669    20553385.560   108008769.565 8      2931.669    20553392.360    84162701.837 8      2284.417    20553393.220    84162703.840 8      2284.417
G21  20610300.240   108307855.016 7      2148.698    20610298.640   108307855.021 6      2148.698    20610302.400    84395743.667 6      1674.310
G27  21736261.980   114224801.894 7      1261.532    21736260.740   114224801.891 7      1261.532    21736268.440    89006367.761 7       983.012    21736268.620    89006368.764 8       983.012
R23  20726129.900   110870810.428 7      1830.730    20726128.680   110870810.432 7      1830.730
R13  20025332.540   106934146.222 6       843.972    20025331.840   106934146.247 6       843.972    20025340.760    83171041.890 7       656.422    20025340.780    83171040.883 6       656.422
R08  21580162.780   115560792.558 7      4871.007    21580164.560   115560792.597 7      4871.007    21580177.540    89880677.003 7      3788.561    21580176.880    89880679.000 7      3788.561
R07  22601410.140   120987116.837 7      1944.736    22601410.000   120987116.865 7      1944.736    22601426.220    94101158.594 7      1512.573    22601426.120    94101157.593 7      1512.573
R22  23118475.960   123407988.286 7       567.500    23118478.180   123407988.294 7       567.500    23118492.460    95984054.656 7       441.389    23118492.400    95984056.656 7       441.389
R12  22070183.680   117894941.405 7     -1380.217    22070183.360   117894941.393 7     -1380.217    22070197.480    91696117.498 7     -1073.502    22070197.340    91696117.497 7     -1073.502
G16  22749941.660   119551737.096 7      -509.603    22749940.420   119551737.104 5      -509.603    22749947.200    93157214.064 5      -397.093
G32  25088962.840   131843390.448 6      3906.769    25088961.360   131843390.450 5      3906.769    25088978.100   102735075.678 5      3044.236    25088978.520   102735175.684 6      3044.236
R24  21717032.540   116130728.956 7      4003.651    21717031.840   116130728.960 7      4003.651    21717045.260    90323953.502 7      3113.951    21717045.600    90323953.509 7      3113.951
R14  21768093.320   116036178.033 8      5172.957    21768092.840   116036178.037 7      5172.957    21768102.820    90250408.321 7      4023.411    21768103.760    90250414.325 7      4023.411
> 2024 06 03 12 01 30.0000000  0 17
G10  23302662.580   122456311.349 7       157.501    23302661.440   122456311.352 7       157.501    23302671.780    95420532.163 7       122.728    23302672.440    95420542.173 7       122.728
G02  21361277.420   112254265.294 8      3145.176    21361275.620   112254265.304 6      3145.176    21361278.660    87470860.305 6      2450.786
G03  23377944.400   122851924.923 7      6519.200    23377943.720   122851924.920 4      6519.200    23377954.240    95728820.309 4      5079.896    23377955.200    95728826.322 7      5079.896
R01  23310751.500   124609322.696 6      6711.368    23310748.540   124609322.708 6      6711.368    23310771.640    96918448.455 6      5219.953    23310769.580    96918445.462 6      5219.953
G08  20552828.900   108005837.889 8      2931.599    20552827.740   108005837.886 8      2931.599    20552834.500    84160417.412 8      2284.363    20552835.040    84160419.416 8      2284.363
G21  20609891.260   108305706.372 7      2148.487    20609889.760   108305706.371 6      2148.487    20609893.500    84394069.394 6      1674.146
G27  21736021.880   114223540.325 7      1261.428    21736020.700   114223540.327 7      1261.428    21736028.400    89005384.724 7       982.931    21736028.640    89005385.728 8       982.931
R23  20725787.600   110868979.616 7      1830.844    20725786.620   110868979.620 7      1830.844
R13  20025173.360   106933302.607 6       843.396    20025173.260   106933302.640 6       843.396    20025182.600    83170385.740 7       655.974    20025182.660    83170384.738 6       655.974
R08  21579253.400   115555921.712 7      4870.613    21579254.880   115555921.749 7      4870.613    21579267.780    89876888.574 7      3788.254    21579267.400    89876890.573 7      3788.254
R07  22601046.880   120985172.269 7      1944.248    22601047.160   120985172.298 7      1944.248    22601062.820    94099646.153 6      1512.193    22601062.880    94099645.154 6      1512.193
R22  23118369.680   123407420.606 7       567.791    23118372.080   123407420.602 7       567.791    23118386.060    95983613.121 7       441.616    23118386.260    95983615.115 7       441.616
R12  22070441.900   117896321.654 7     -1380.467    22070441.800   117896321.647 7     -1380.467    22070455.780    91697191.023 7     -1073.696    22070455.660    91697191.020 7     -1073.696
G16  22750038.580   119552246.685 7      -509.663    22750037.400   119552246.693 5      -509.663    22750044.180    93157611.142 5      -397.140
G32  25088219.040   131839483.760 6      3906.702    25088217.980   131839483.765 5      3906.702    25088234.720   102732031.508 5      3044.183    25088235.240   102732131.526 6      3044.183
R24  21716283.960   116126725.291 7      4003.564    21716282.860   116126725.292 7      4003.564    21716296.820    90320839.540 7      3113.883    21716296.760    90320839.547 7      3113.883
R14  21767122.800   116031005.279 8      5172.425    21767122.360   116031005.277 7      5172.425    21767132.680    90246385.067 7      4022.997    21767133.080    90246391.070 7      4022.997
> 2024 06 03 12 01 31.0000000  0 17
G10  23302632.680   122456154.140 7       157.347    23302631.560   122456154.139 7       157.347    23302641.800    95420409.653 7       122.608    23302642.800    95420419.661 7       122.608
G02  21360678.920   112251120.423 7      3144.767    21360677.100   112251120.430 6      3144.767    21360680.160    87468409.754 6      2450.468
G03  23376703.820   122845405.949 7      6518.991    23376703.080   122845405.946 4      6518.991    23376713.620    95723740.597 4      5079.733    23376714.560    95723746.606 7      5079.733
R01  23309495.800   124602611.302 6      6711.402    23309492.760   124602611.316 6      6711.402    23309515.500    96913228.497 6      5219.980    23309514.220    96913225.495 6      5219.980
G08  20552271.180   108002906.496 8      2931.387    20552269.940   108002906.501 8      2931.387    20552276.620    84158133.218 8      2284.198    20552277.180    84158135.218 8      2284.198
G21  20609482.540   108303558.048 8      2148.207    20609480.900   108303558.047 6      2148.207    20609484.680    84392395.379 6      1673.928
G27  21735781.880   114222279.006 7      1261.368    21735780.700   114222279.008 7      1261.368    21735788.400    89004401.877 7       982.884    21735788.740    89004402.880 8       982.884
R23  20725445.480   110867148.914 7      1830.743    20725444.180   110867148.923 7      1830.743
R13  20025016.040   106932459.891 6       842.366    20025015.320   106932459.919 6       842.366    20025024.840    83169730.289 7       655.174    20025024.920    83169729.285 6       655.174
R08  21578343.300   115551051.486 7      4870.089    21578344.900   115551051.533 7      4870.089    21578358.240    89873100.632 7      3787.847    21578357.860    89873102.631 7      3787.847
R07  22600683.700   120983228.521 7      1943.453    22600683.720   120983228.542 7      1943.453    22600699.560    94098134.341 7      1511.574    22600699.560    94098133.346 7      1511.574
R22  23118263.420   123406852.852 7       567.847    23118265.620   123406852.847 7       567.847    23118279.740    95983171.528 7       441.659    23118279.920    95983173.522 7       441.659
R12  22070700.160   117897702.141 7     -1380.438    22070700.220   117897702.134 7     -1380.438    22070714.180    91698264.725 7     -1073.674    22070714.020    91698264.725 7     -1073.674
G16  22750135.660   119552756.605 7      -509.957    22750134.380   119552756.618 5      -509.957    22750141.340    93158008.482 5      -397.369
G32  25087475.800   131835577.390 6      3906.396    25087474.880   131835577.397 5      3906.396    25087491.420   102728987.589 5      3043.945    25087491.860   102729087.599 6      3043.945
R24  21715535.300   116122721.875 7      4003.394    21715534.600   116122721.881 7      4003.394    21715548.360    90317725.776 7      3113.751    21715547.920    90317725.781 7      3113.751
R14  21766152.580   116025833.255 8      5171.822    21766151.920   116025833.261 7      5171.822    21766162.180    90242362.384 7      4022.528    21766162.720    90242368.391 7      4022.528
> 2024 06 03 12 01 32.0000000  0 17
G10  23302602.920   122455997.340 7       156.466    23302601.740   122455997.342 7       156.466    23302612.140    95420287.476 7       121.921    23302612.720    95420297.482 7       121.921
G02  21360080.600   112247975.799 7      3144.411    21360078.700   112247975.807 6      3144.411    21360081.760    87465959.398 6      2450.191
G03  23375463.300   122838887.091 6      6518.719    23375462.700   122838887.088 4      6518.719    23375473.160    95718660.973 4      5079.521    23375474.040    95718666.962 7      5079.521
R01  23308241.000   124595899.815 6      6711.321    23308237.840   124595899.818 6      6711.321    23308260.180    96908008.451 6      5219.916    23308258.780    96908005.452 6      5219.916
G08  20551713.300   107999975.379 8      2930.889    20551712.180   107999975.379 8      2930.889    20551718.820    84155849.224 8      2283.809    20551719.680    84155851.225 8      2283.809
G21  20609073.900   108301409.983 8      2147.832    20609072.080   108301409.988 6      2147.832    20609075.900    84390721.565 6      1673.636
G27  21735541.920   114221017.945 7      1260.841    21735540.740   114221017.944 7      1260.841    21735548.440    89003419.229 7       982.474    21735549.060    89003420.231 8       982.474
R23  20725103.140   110865318.278 7      1830.392    20725101.640   110865318.290 7      1830.392
R13  20024858.220   106931617.908 6       841.462    20024858.060   106931617.930 6       841.462    20024867.460    83169075.413 7       654.471    20024867.260    83169074.411 6       654.471
R08  21577434.260   115546181.880 7      4869.146    21577435.640   115546181.917 7      4869.146    21577448.820    89869313.157 7      3787.113    21577448.820    89869315.160 7      3787.113
R07  22600321.420   120981285.557 7      1942.459    22600320.900   120981285.583 7      1942.459    22600336.880    94096623.146 6      1510.801    22600336.720    94096622.154 6      1510.801
R22  23118157.120   123406284.921 7       567.877    23118159.060   123406284.944 7       567.877    23118173.580    95982729.819 7       441.682    23118173.840    95982731.815 7       441.682
R12  22070958.780   117899082.849 7     -1380.888    22070957.960   117899082.845 7     -1380.888    22070972.460    91699338.601 7     -1074.024    22070972.720    91699338.601 7     -1074.024
G16  22750232.800   119553266.769 7      -510.480    22750231.380   119553266.779 5      -510.480    22750238.380    93158406.004 5      -397.776
G32  25086732.540   131831671.301 6      3905.961    25086731.620   131831671.311 5      3905.961    25086748.080   102725943.890 5      3043.606    25086748.480   102726043.896 6      3043.606
R24  21714786.560   116118718.614 7      4003.085    21714785.900   116118718.623 7      4003.085    21714799.800    90314612.131 7      3113.511    21714799.640    90314612.136 7      3113.511
R14  21765182.500   116020661.949 8      5170.891    21765181.680   116020661.949 7      5170.891    21765192.300    90238340.261 7      4021.804    21765192.560    90238346.263 7      4021.804
> 2024 06 03 12 01 33.0000000  0 17
G10  23302573.300   122455840.974 7       155.944    23302572.040   122455840.979 7       155.944    23302582.320    95420165.630 7       121.514    23302583.220    95420175.634 7       121.514
G02  21359482.440   112244831.483 7      3143.997    21359480.520   112244831.490 6      3143.997    21359483.580    87463509.284 6      2449.868
G03  23374223.020   122832368.417 6      6518.534    23374222.140   122832368.413 4      6518.534    23374232.760    95713581.491 4      5079.377    23374233.580    95713587.492 7      5079.377
R01  23306985.200   124589188.338 6      6711.295    23306983.260   124589188.320 6      6711.295    23307003.900    96902788.403 6      5219.896    23307003.360    96902785.402 6      5219.896
G08  20551155.780   107997044.564 8      2930.521    20551154.460   107997044.564 8      2930.521    20551161.160    84153565.477 8      2283.523    20551162.120    84153567.483 8      2283.523
G21  20608665.020   108299262.235 8      2147.515    20608663.400   108299262.242 6      2147.515    20608667.180    84389047.997 6      1673.388
G27  21735302.080   114219757.201 8      1260.461    21735300.800   114219757.204 7      1260.461    21735308.480    89002436.834 7       982.177    21735309.240    89002437.835 8       982.177
R23  20724760.680   110863487.741 7      1830.326    20724759.600   110863487.751 7      1830.326
R13  20024701.020   106930776.701 6       840.706    20024700.780   106930776.734 6       840.706    20024709.520    83168421.143 7       653.882    20024709.780    83168420.141 6       653.882
R08  21576525.060   115541312.960 7      4868.440    21576526.360   115541312.988 7      4868.440    21576539.480    89865526.223 7      3786.564    21576539.680    89865528.222 7      3786.564
R07  22599958.960   120979343.506 7      1941.483    22599958.500   120979343.521 7      1941.483    22599973.900    94095112.656 7      1510.042    22599973.960    94095111.655 6      1510.042
R22  23118050.360   123405717.055 7       567.766    23118052.580   123405717.059 7       567.766    23118067.040    95982288.131 7       441.596    23118067.240    95982290.129 7       441.596
R12  22071216.700   117900463.795 7     -1381.138    22071216.420   117900463.786 7     -1381.138    22071231.240    91700412.661 7     -1074.218    22071231.240    91700412.662 7     -1074.218
G16  22750329.920   119553777.269 7      -510.817    22750328.740   119553777.277 5      -510.817    22750335.480    93158803.792 5      -398.039
G32  25085989.080   131827765.601 6      3905.614    25085988.380   131827765.608 5      3905.614    25086004.740   102722900.493 5      3043.335    25086005.460   102723000.499 6      3043.335
R24  21714038.440   116114715.462 7      4002.921    21714037.360   116114715.469 7      4002.921    21714051.180    90311498.571 7      3113.383    21714050.900    90311498.573 7      3113.383
R14  21764212.680   116015491.343 7      5170.078    21764211.520   116015491.346 7      5170.078    21764222.440    90234318.683 7      4021.172    21764222.840    90234324.687 7      4021.172
> 2024 06 03 12 01 34.0000000  0 17
G10  23302543.740   122455684.991 7       155.722    23302542.360   122455684.993 7       155.722    23302552.720    95420044.081 7       121.342    23302553.140    95420054.081 7       121.342
G02  21358884.060   112241687.487 7      3143.718    21358882.240   112241687.500 6      3143.718    21358885.160    87461059.419 6      2449.650
G03  23372982.820   122825849.905 7      6518.253    23372981.640   122825849.907 4      6518.253    23372992.340    95708502.137 4      5079.158    23372993.920    95708508.130 7      5079.158
R01  23305729.660   124582476.714 6      6711.574    23305728.020   124582476.713 6      6711.574    23305747.960    96897568.260 6      5220.113    23305747.840    96897565.258 6      5220.113
G08  20550597.940   107994114.031 8      2930.302    20550596.800   107994114.033 8      2930.302    20550603.540    84151281.946 8      2283.352    20550604.340    84151283.951 8      2283.352
G21  20608256.560   108297114.833 8      2147.160    20608254.720   108297114.840 6      2147.160    20608258.600    84387374.699 6      1673.111
G27  21735062.080   114218496.710 7      1260.336    21735060.940   114218496.710 7      1260.336    21735068.620    89001454.627 7       982.080    21735069.240    89001455.628 8       982.080
R23  20724418.220   110861657.320 7      1830.247    20724417.420   110861657.329 7      1830.247
R13  20024543.420   106929936.290 6       839.923    20024542.920   106929936.326 6       839.923    20024552.080    83167767.490 7       653.274    20024552.360    83167766.492 6       653.274
R08  21575616.160   115536444.610 7      4867.919    21575616.840   115536444.641 7      4867.919    21575630.440    89861739.735 7      3786.159    21575630.060    89861741.736 7      3786.159
R07  22599595.720   120977402.241 7      1940.733    22599595.660   120977402.264 7      1940.733    22599611.120    94093602.792 6      1509.459    22599611.320    94093601.795 7      1509.459
R22  23117943.940   123405149.071 7       567.854    23117946.320   123405149.075 7       567.854    23117960.600    95981846.364 7       441.664    23117960.520    95981848.364 7       441.664
R12  22071475.340   117901844.955 7     -1381.389    22071475.140   117901844.956 7     -1381.389    22071489.620    91701486.886 7     -1074.414    22071490.000    91701486.891 7     -1074.414
G16  22750427.140   119554287.998 7      -510.881    22750425.900   119554288.006 5      -510.881    22750432.600    93159201.759 5      -398.089
G32  25085245.760   131823860.179 6      3905.306    25085245.220   131823860.187 5      3905.306    25085261.560   102719857.314 5      3043.095    25085262.980   102719957.322 6      3043.095
R24  21713289.680   116110712.493 7      4002.782    21713288.720   116110712.491 7      4002.782    21713302.580    90308385.144 7      3113.275    21713302.300    90308385.142 7      3113.275
R14  21763242.460   116010321.534 7      5169.323    21763241.160   116010321.540 7      5169.323    21763252.480    90230297.728 7      4020.585    21763252.680    90230303.733 7      4020.585
> 2024 06 03 12 01 35.0000000  0 17
G10  23302513.920   122455529.594 7       154.857    23302512.840   122455529.597 7       154.857    23302523.140    95419922.991 7       120.668    23302523.620    95419932.992 7       120.668
G02  21358285.840   112238543.927 7      3143.244    21358284.080   112238543.935 6      3143.244    21358287.000    87458609.890 6      2449.281
G03  23371742.080   122819331.667 7      6517.957    23371741.160   122819331.664 4      6517.957    23371751.980    95703422.993 4      5078.928    23371753.400    95703429.004 7      5078.928
R01  23304474.720   124575765.216 6      6711.409    23304473.000   124575765.223 6      6711.409    23304492.700    96892348.214 6      5219.985    23304492.000    96892345.215 6      5219.985
G08  20550040.360   107991183.925 8      2929.793    20550039.300   107991183.928 8      2929.793    20550045.920    84148998.747 8      2282.955    20550046.960    84149000.752 8      2282.955
G21  20607848.080   108294967.854 8      2146.718    20607846.160   108294967.856 6      2146.718    20607850.040    84385701.726 6      1672.768
G27  21734822.160   114217236.637 7      1259.762    21734821.200   114217236.636 7      1259.762    21734828.740    89000472.751 7       981.633    21734829.380    89000473.755 8       981.633
R23  20724076.420   110859827.110 7      1829.936    20724075.460   110859827.119 7      1829.936
R13  20024386.020   106929096.835 6       838.780    20024386.160   106929096.854 6       838.780    20024395.080    83167114.574 7       652.384    20024394.820    83167113.574 6       652.384
R08  21574706.920   115531577.012 7      4867.144    21574707.780   115531577.049 7      4867.144    21574721.240    89857953.836 7      3785.556    21574721.020    89857955.838 7      3785.556
R07  22599233.760   120975461.943 7      1939.758    22599233.280   120975461.956 7      1939.758    22599248.720    94092093.661 6      1508.701    22599249.160    94092092.664 7      1508.701
R22  23117837.620   123404581.162 7       567.695    23117840.200   123404581.169 7       567.695    23117854.100    95981404.652 7       441.540    23117854.420    95981406.652 7       441.540
R12  22071734.220   117903226.500 7     -1381.848    22071734.700   117903226.501 7     -1381.848    22071748.620    91702561.410 7     -1074.771    22071749.000    91702561.417 7     -1074.771
G16  22750524.460   119554799.195 7      -511.504    22750523.200   119554799.200 5      -511.504    22750529.900    93159600.086 5      -398.574
G32  25084503.380   131819955.244 6      3904.567    25084502.100   131819955.252 5      3904.567    25084518.480   102716814.519 5      3042.519    25084518.940   102716914.532 6      3042.519
R24  21712540.880   116106709.860 7      4002.310    21712540.160   116106709.861 7      4002.310    21712553.780    90305271.993 7      3112.908    21712553.900    90305271.994 7      3112.908
R14  21762272.920   116005152.639 7      5168.285    21762271.580   116005152.645 7      5168.285    21762282.820    90226277.481 7      4019.777    21762283.180    90226283.486 7      4019.777
> 2024 06 03 12 01 36.0000000  0 17
G10  23302484.500   122455374.742 7       154.570    23302483.360   122455374.744 7       154.570    23302493.760    95419802.324 7       120.444    23302494.080    95419812.320 7       120.444
G02  21357687.780   112235400.836 7      3142.863    21357686.040   112235400.846 6      3142.863    21357688.800    87456160.731 6      2448.984
G03  23370502.000   122812813.775 7      6517.842    23370500.880   122812813.772 4      6517.842    23370511.960    95698344.122 4      5078.838    23370513.420    95698350.130 7      5078.838
R01  23303218.340   124569053.852 6      6711.216    23303217.620   124569053.872 6      6711.216    23303238.200    96887128.285 6      5219.835    23303236.600    96887125.277 6      5219.835
G08  20549482.940   107988254.267 8      2929.494    20549481.800   107988254.272 8      2929.494    20549488.480    84146715.900 8      2282.722    20549489.240    84146717.905 8      2282.722
G21  20607439.640   108292821.358 8      2146.301    20607437.680   108292821.363 6      2146.301    20607441.480    84384029.134 6      1672.442
G27  21734582.500   114215976.997 7      1259.478    21734581.500   114215976.999 7      1259.478    21734589.060    88999491.216 7       981.411    21734589.680    88999492.219 8       981.411
R23  20723734.640   110857997.175 7      1829.877    20723733.600   110857997.176 7      1829.877
R13  20024229.360   106928258.333 6       837.921    20024229.120   106928258.366 6       837.921    20024237.820    83166462.410 7       651.716    20024238.100    83166461.406 6       651.716
R08  21573798.440   115526710.240 7      4866.389    21573799.140   115526710.276 7      4866.389    21573812.680    89854168.573 7      3784.969    21573811.980    89854170.570 7      3784.969
R07  22598871.720   120973522.630 7      1938.778    22598871.120   120973522.634 7      1938.778    22598886.620    94090585.302 7      1507.938    22598886.720    94090584.298 6      1507.938
R22  23117731.440   123404013.368 7       567.826    23117733.840   123404013.380 7       567.826    23117747.540    95980963.033 7       441.642    23117747.860    95980965.033 7       441.642
R12  22071992.600   117904608.429 7     -1382.161    22071993.720   117904608.443 7     -1382.161    22072007.560    91703636.246 7     -1075.014    22072007.500    91703636.253 7     -1075.014
G16  22750621.940   119555310.828 7      -511.917    22750620.580   119555310.835 5      -511.917    22750627.100    93159998.759 5      -398.896
G32  25083759.820   131816050.776 6      3904.346    25083759.180   131816050.784 5      3904.346    25083775.460   102713772.085 5      3042.347    25083775.820   102713872.081 6      3042.347
R24  21711792.660   116102707.618 7      4002.045    21711791.760   116102707.619 7      4002.045    21711805.380    90302159.142 7      3112.702    21711805.280    90302159.143 7      3112.702
R14  21761303.500   115999984.653 7      5167.638    21761301.900   115999984.648 7      5167.638    21761313.280    90222257.937 7      4019.274    21761313.540    90222263.939 7      4019.274
> 2024 06 03 12 01 37.0000000  0 17
G10  23302455.480   122455220.294 7       154.044    23302454.040   122455220.298 7       154.044    23302464.340    95419681.971 7       120.034    23302464.620    95419691.973 7       120.034
G02  21357089.820   112232258.048 7      3142.426    21357087.960   112232258.056 6      3142.426    21357090.620    87453711.806 6      2448.644
G03  23369261.660   122806296.081 7      6517.489    23369260.720   122806296.078 4      6517.489    23369271.760    95693265.404 4      5078.563    23369273.440    95693271.415 7      5078.563
R01  23301963.060   124562342.466 6      6711.270    23301961.240   124562342.478 6      6711.270    23301983.160    96881908.312 6      5219.877    23301981.280    96881905.292 6      5219.877
G08  20548925.400   107985324.900 8      2929.065    20548924.320   107985324.902 8      2929.065    20548930.980    84144433.275 8      2282.388    20548931.920    84144435.281 8      2282.388
G21  20607031.100   108290675.147 8      2145.912    20607029.300   108290675.152 6      2145.912    20607033.160    84382356.764 6      1672.140
G27  21734342.840   114214717.649 7      1259.047    21734341.820   114214717.651 7      1259.047    21734349.500    88998509.903 7       981.075    21734350.000    88998510.905 8       981.075
R23  20723392.820   110856167.310 7      1829.543    20723391.460   110856167.311 7      1829.543
R13  20024072.120   106927420.666 6       837.075    20024071.920   106927420.691 6       837.075    20024081.020    83165810.894 7       651.058    20024081.180    83165809.889 6       651.058
R08  21572889.320   115521844.096 7      4865.614    21572890.040   115521844.135 7      4865.614    21572903.800    89850383.807 7      3784.367    21572903.240    89850385.804 7      3784.367
R07  22598509.340   120971584.045 7      1937.967    22598508.940   120971584.055 7      1937.967    22598524.080    94089077.519 6      1507.308    22598524.300    94089076.522 6      1507.308
R22  23117625.100   123403445.507 7       567.755    23117627.560   123403445.513 7       567.755    23117641.280    95980521.359 7       441.587    23117641.140    95980523.355 7       441.587
R12  22072251.240   117905990.614 7     -1382.445    22072252.660   117905990.626 7     -1382.445    22072266.460    91704711.267 7     -1075.235    22072266.200    91704711.270 7     -1075.235
G16  22750719.200   119555822.776 7      -512.219    22750718.040   119555822.784 5      -512.219    22750724.540    93160397.673 5      -399.132
G32  25083016.720   131812146.658 6      3903.907    25083016.380   131812146.660 5      3903.907    25083032.400   102710729.913 5      3042.006    25083032.920   102710829.913 6      3042.006
R24  21711044.460   116098705.520 7      4001.832    21711043.440   116098705.518 7      4001.832    21711056.840    90299046.406 7      3112.536    21711056.720    90299046.406 7      3112.536
R14  21760333.960   115994817.371 7      5166.741    21760332.360   115994817.372 7      5166.741    21760343.860    90218238.950 7      4018.576    21760344.240    90218244.956 7      4018.576
> 2024 06 03 12 01 38.0000000  0 17
G10  23302425.880   122455066.447 7       153.521    23302424.680   122455066.452 7       153.521    23302435.000    95419562.088 7       119.626    23302435.620    95419572.088 7       119.626
G02  21356491.860   112229115.677 7      3142.053    21356490.200   112229115.684 6      3142.053    21356492.580    87451263.211 6      2448.353
G03  23368021.220   122799778.660 7      6517.140    23368020.540   122799778.657 4      6517.140    23368031.460    95688186.900 4      5078.291    23368033.120    95688192.919 7      5078.291
R01  23300708.160   124555631.190 6      6711.184    23300705.400   124555631.191 6      6711.184    23300727.680    96876688.430 6      5219.809    23300726.160    96876685.415 6      5219.809
G08  20548368.020   107982395.990 8      2928.580    20548367.020   107982395.990 8      2928.580    20548373.600    84142151.005 8      2282.010    20548374.520    84142153.008 8      2282.010
G21  20606622.840   108288529.395 8      2145.435    20606621.060   108288529.397 6      2145.435    20606624.820    84380684.747 6      1671.767
G27  21734103.240   114213458.742 7      1258.633    21734102.240   114213458.744 7      1258.633    21734109.960    88997528.937 7       980.753    21734110.400    88997529.941 8       980.753
R23  20723050.780   110854337.669 7      1829.452    20723049.320   110854337.673 7      1829.452
R13  20023915.640   106926583.972 6       836.292    20023915.860   106926583.983 6       836.292    20023924.660    83165160.110 7       650.450    20023924.560    83165159.110 6       650.450
R08  21571981.180   115516978.796 7      4864.857    21571981.820   115516978.830 7      4864.857    21571995.440    89846599.684 7      3783.778    21571994.700    89846601.686 7      3783.778
R07  22598147.580   120969646.469 7      1937.027    22598147.120   120969646.484 7      1937.027    22598162.220    94087570.518 6      1506.577    22598162.320    94087569.519 6      1506.577
R22  23117519.300   123402877.782 7       567.565    23117521.080   123402877.780 7       567.565    23117534.940    95980079.787 7       441.439    23117535.120    95980081.780 7       441.439
R12  22072510.240   117907373.168 7     -1382.859    22072511.260   117907373.169 7     -1382.859    22072525.400    91705786.570 7     -1075.557    22072525.040    91705786.571 7     -1075.557
G16  22750816.920   119556335.139 7      -512.622    22750815.580   119556335.150 5      -512.622    22750822.080    93160796.915 5      -399.446
G32  25082274.300   131808243.052 6      3903.319    25082273.620   131808243.049 5      3903.319    25082289.440   102707688.144 5      3041.548    25082290.040   102707788.150 6      3041.548
R24  21710295.580   116094703.708 7      4001.488    21710295.300   116094703.714 7      4001.488    21710308.460    90295933.892 7      3112.269    21710308.480    90295933.894 7      3112.269
R14  21759364.760   115989650.966 7      5165.917    21759363.280   115989650.958 7      5165.917    21759374.760    90214220.632 7      4017.936    21759375.220    90214226.637 8      4017.936
> 2024 06 03 12 01 39.0000000  0 17
G10  23302396.880   122454912.987 7       153.249    23302395.460   122454912.989 7       153.249    23302405.640    95419442.505 7       119.414    23302406.320    95419452.505 7       119.414
G02  21355893.900   112225973.617 7      3141.963    21355892.220   112225973.627 6      3141.963    21355894.760    87448814.855 6      2448.283
G03  23366781.140   122793261.352 7      6517.196    23366780.480   122793261.349 4      6517.196    23366791.360    95683108.482 4      5078.335    23366792.520    95683114.504 7      5078.335
R01  23299452.160   124548919.770 6      6711.434    23299449.500   124548919.776 6      6711.434    23299472.380    96871468.455 6      5220.004    23299470.660    96871465.452 6      5220.004
G08  20547810.600   107979467.338 8      2928.504    20547809.660   107979467.340 8      2928.504    20547816.340    84139868.941 8      2281.951    20547817.120    84139870.945 8      2281.951
G21  20606214.660   108286383.956 8      2145.239    20606212.680   108286383.961 6      2145.239    20606216.600    84379012.978 6      1671.615
G27  21733863.900   114212200.066 8      1258.556    21733862.720   114212200.069 7      1258.556    21733870.340    88996548.149 7       980.693    21733870.760    88996549.154 8       980.693
R23  20722708.520   110852508.135 7      1829.487    20722707.200   110852508.153 7      1829.487
R13  20023759.740   106925748.070 6       835.658    20023758.300   106925748.084 6       835.658    20023768.020    83164509.971 7       649.956    20023767.960    83164508.973 6       649.956
R08  21571072.700   115512114.071 7      4864.473    21571073.140   115512114.108 7      4864.473    21571086.840    89842816.016 7      3783.479    21571086.160    89842818.015 7      3783.479
R07  22597785.340   120967709.669 7      1936.408    22597785.320   120967709.692 7      1936.408    22597800.540    94086064.124 6      1506.095    22597800.520    94086063.136 6      1506.095
R22  23117412.960   123402309.918 7       568.104    23117414.940   123402309.917 7       568.104    23117428.760    95979638.100 7       441.858    23117428.740    95979640.098 7       441.858
R12  22072769.540   117908755.877 7     -1382.783    22072769.820   117908755.875 7     -1382.783    22072783.980    91706861.996 7     -1075.498    22072784.140    91706861.996 7     -1075.498
G16  22750914.360   119556847.742 7      -512.702    22750913.160   119556847.749 5      -512.702    22750919.620    93161196.338 5      -399.508
G32  25081531.020   131804339.688 6      3903.147    25081530.800   131804339.688 5      3903.147    25081546.660   102704646.568 5      3041.413    25081547.580   102704746.584 6      3041.413
R24  21709547.680   116090702.078 7      4001.497    21709547.000   116090702.082 7      4001.497    21709560.340    90292821.513 7      3112.276    21709560.080    90292821.519 7      3112.276
R14  21758395.380   115984485.344 7      5165.128    21758394.000   115984485.339 7      5165.128    21758405.600    90210202.933 7      4017.322    21758406.460    90210208.937 7      4017.322
> 2024 06 03 12 01 40.0000000  0 17
G10  23302367.780   122454759.850 7       152.933    23302366.300   122454759.852 7       152.933    23302376.660    95419323.173 7       119.168    23302377.140    95419333.177 7       119.168
G02  21355296.280   112222831.763 7      3141.627    21355294.400   112222831.773 6      3141.627    21355296.960    87446366.657 6      2448.021
G03  23365540.880   122786744.122 7      6517.208    23365540.220   122786744.119 4      6517.208    23365551.140    95678030.130 4      5078.344    23365552.240    95678036.155 7      5078.344
R01  23298196.740   124542208.298 6      6711.495    23298194.860   124542208.289 6      6711.495    23298216.580    96866248.424 6      5220.051    23298214.680    96866245.417 6      5220.051
G08  20547253.560   107976538.882 8      2928.330    20547252.440   107976538.879 8      2928.330    20547259.140    84137587.025 8      2281.816    20547259.920    84137589.028 8      2281.816
G21  20605806.380   108284238.680 7      2145.148    20605804.380   108284238.682 6      2145.148    20605808.380    84377341.332 6      1671.544
G27  21733624.520   114210941.611 7      1258.265    21733623.340   114210941.614 7      1258.265    21733631.000    88995567.531 7       980.466    21733631.420    88995568.536 8       980.466
R23  20722366.440   110850678.583 7      1829.536    20722365.320   110850678.595 7      1829.536
R13  20023603.820   106924912.868 6       834.899    20023602.100   106924912.888 6       834.899    20023611.300    83163860.365 7       649.366    20023611.700    83163859.371 6       649.366
R08  21570164.440   115507249.928 7      4863.803    21570164.640   115507249.959 7      4863.803    21570178.380    89839032.795 7      3782.958    21570178.000    89839034.792 7      3782.958
R07  22597423.340   120965773.645 7      1935.502    22597423.920   120965773.665 7      1935.502    22597438.820    94084558.326 6      1505.390    22597438.940    94084557.331 6      1505.390
R22  23117306.460   123401741.953 7       567.929    23117308.540   123401741.962 7       567.929    23117322.000    95979196.358 7       441.723    23117322.440    95979198.354 7       441.723
R12  22073028.180   117910138.767 7     -1383.010    22073028.520   117910138.755 7     -1383.010    22073043.000    91707937.563 7     -1075.675    22073042.760    91707937.559 7     -1075.675
G16  22751011.580   119557360.583 7      -513.006    22751010.780   119557360.591 5      -513.006    22751017.360    93161595.948 5      -399.745
G32  25080788.520   131800436.589 6      3902.858    25080787.960   131800436.594 5      3902.858    25080803.940   102701605.204 5      3041.188    25080804.980   102701705.211 6      3041.188
R24  21708799.220   116086700.498 7      4001.431    21708798.480   116086700.500 7      4001.431    21708812.180    90289709.175 7      3112.224    21708812.180    90289709.180 7      3112.224
R14  21757426.280   115979320.250 7      5164.787    21757424.980   115979320.237 7      5164.787    21757436.720    90206185.633 7      4017.056    21757437.360    90206191.638 7      4017.056
> 2024 06 03 12 01 41.0000000  0 17
G10  23302338.760   122454607.099 7       152.514    23302337.200   122454607.102 7       152.514    23302347.580    95419204.145 7       118.842    23302348.200    95419214.149 7       118.842
G02  21354698.200   112219690.195 7      3141.399    21354696.440   112219690.208 6      3141.399    21354699.140    87443918.684 6      2447.843
G03  23364300.620   122780227.103 7      6516.893    23364300.000   122780227.100 4      6516.893    23364311.040    95672951.941 4      5078.099    23364311.780    95672957.967 7      5078.099
R01  23296940.920   124535496.717 6      6711.815    23296939.460   124535496.716 6      6711.815    23296960.460    96861028.325 6      5220.300    23296959.640    96861025.325 6      5220.300
G08  20546696.260   107973610.698 8      2928.107    20546695.240   107973610.697 8      2928.107    20546701.900    84135305.329 8      2281.642    20546702.620    84135307.332 8      2281.642
G21  20605398.300   108282093.716 8      2144.934    20605396.180   108282093.718 6      2144.934    20605400.200    84375669.936 6      1671.377
G27  21733385.060   114209683.383 7      1258.165    21733383.840   114209683.382 7      1258.165    21733391.480    88994587.093 7       980.389    21733391.780    88994588.098 8       980.389
R23  20722024.680   110848849.132 7      1829.470    20722023.060   110848849.134 7      1829.470
R13  20023446.960   106924078.481 6       834.025    20023446.000   106924078.503 6       834.025    20023455.120    83163211.408 7       648.686    20023455.200    83163210.412 6       648.686
R08  21569256.040   115502386.341 7      4863.317    21569256.400   115502386.375 7      4863.317    21569270.100    89835250.014 7      3782.580    21569270.080    89835252.013 7      3782.580
R07  22597062.220   120963838.382 7      1935.034    22597062.100   120963838.396 7      1935.034    22597077.000    94083053.119 6      1505.026    22597077.500    94083052.120 6      1505.026
R22  23117200.780   123401173.871 7       568.220    23117201.860   123401173.869 7       568.220    23117215.580    95978754.504 7       441.949    23117216.160    95978756.499 7       441.949
R12  22073287.380   117911521.885 7     -1383.265    22073287.340   117911521.872 7     -1383.265    22073301.880    91709013.308 7     -1075.873    22073301.460    91709013.305 7     -1075.873
G16  22751109.320   119557873.698 7      -513.295    22751108.540   119557873.706 5      -513.295    22751115.020    93161995.774 5      -399.970
G32  25080045.740   131796533.785 6      3902.721    25080045.200   131796533.790 5      3902.721    25080061.360   102698564.066 5      3041.081    25080062.260   102698664.081 6      3041.081
R24  21708051.080   116082699.128 7      4001.370    21708050.240   116082699.126 7      4001.370    21708064.260    90286597.000 7      3112.177    21708063.620    90286597.003 7      3112.177
R14  21756457.560   115974155.923 7      5164.046    21756456.300   115974155.919 7      5164.046    21756468.160    90202168.949 7      4016.481    21756468.300    90202174.952 7      4016.481
> 2024 06 03 12 01 42.0000000  0 17
G10  23302309.640   122454454.769 7       152.091    23302308.320   122454454.774 7       152.091    23302318.500    95419085.446 7       118.513    23302319.100    95419095.442 7       118.513
G02  21354100.380   112216548.963 7      3141.007    21354098.800   112216548.974 6      3141.007    21354101.320    87441470.971 6      2447.538
G03  23363060.500   122773710.255 6      6516.706    23363059.820   122773710.255 4      6516.706    23363070.860    95667873.884 4      5077.953    23363071.740    95667879.899 7      5077.953
R01  23295685.500   124528785.193 6      6711.550    23295684.140   124528785.189 6      6711.550    23295704.240    96855808.254 6      5220.095    23295703.740    96855805.251 6      5220.095
G08  20546139.160   107970682.836 8      2927.659    20546138.120   107970682.833 8      2927.659    20546144.720    84133023.875 8      2281.293    20546145.580    84133025.873 8      2281.293
G21  20604990.140   108279949.104 7      2144.355    20604988.140   108279949.112 6      2144.355    20604992.140    84373998.813 6      1670.926
G27  21733145.720   114208425.474 7      1257.674    21733144.480   114208425.479 7      1257.674    21733152.020    88993606.906 7       980.006    21733152.540    88993607.910 8       980.006
R23  20721682.700   110847019.783 7      1829.259    20721681.420   110847019.793 7      1829.259
R13  20023291.040   106923244.918 6       833.095    20023290.000   106923244.932 6       833.095    20023299.100    83162563.069 7       647.963    20023298.880    83162562.066 6       647.963
R08  21568347.800   115497523.472 7      4862.377    21568348.420   115497523.503 7      4862.377    21568362.200    89831467.787 7      3781.849    21568361.660    89831469.788 7      3781.849
R07  22596700.880   120961903.996 7      1933.933    22596700.800   120961904.016 7      1933.933    22596715.540    94081548.603 6      1504.170    22596716.440    94081547.604 6      1504.170
R22  23117093.820   123400605.754 7       568.063    23117095.900   123400605.749 7       568.063    23117109.540    95978312.633 7       441.827    23117109.700    95978314.631 7       441.827
R12  22073546.500   117912905.283 7     -1383.672    22073546.520   117912905.276 7     -1383.672    22073560.560    91710089.276 7     -1076.189    22073560.660    91710089.275 7     -1076.189
G16  22751207.140   119558387.120 7      -513.601    22751206.280   119558387.131 5      -513.601    22751212.620    93162395.843 5      -400.209
G32  25079302.960   131792631.364 6      3902.118    25079302.520   131792631.369 5      3902.118    25079318.600   102695523.223 5      3040.612    25079319.360   102695623.223 6      3040.612
R24  21707302.480   116078697.957 7      4001.003    21707301.880   116078697.953 7      4001.003    21707315.720    90283484.979 7      3111.891    21707315.780    90283484.979 7      3111.891
R14  21755489.120   115968992.378 7      5163.113    21755487.720   115968992.368 7      5163.113    21755499.240    90198152.862 7      4015.754    21755499.900    90198158.865 7      4015.754
> 2024 06 03 12 01 43.0000000  0 17
G10  23302280.920   122454302.809 7       151.812    23302279.300   122454302.814 7       151.812    23302289.560    95418967.029 7       118.295    23302290.300    95418977.029 7       118.295
G02  21353502.660   112213407.958 7      3140.890    21353501.120   112213407.965 6      3140.890    21353503.600    87439023.434 6      2447.447
G03  23361820.820   122767193.480 7      6516.656    23361819.720   122767193.480 5      6516.656    23361830.640    95662795.883 4      5077.914    23361831.280    95662801.905 7      5077.914
R01  23294430.760   124522073.492 6      6711.731    23294428.380   124522073.485 6      6711.731    23294448.360    96850588.034 6      5220.235    23294448.040    96850585.024 6      5220.235
G08  20545581.860   107967755.201 8      2927.415    20545581.020   107967755.201 8      2927.415    20545587.620    84130742.600 8      2281.103    20545588.580    84130744.603 8      2281.103
G21  20604582.020   108277804.714 7      2144.275    20604580.060   108277804.721 6      2144.275    20604584.040    84372327.861 6      1670.864
G27  21732906.460   114207167.760 8      1257.557    21732905.220   114207167.765 7      1257.557    21732912.660    88992626.867 7       979.915    21732913.000    88992627.871 8       979.915
R23  20721340.660   110845190.483 7      1829.280    20721339.140   110845190.492 7      1829.280
R13  20023135.120   106922412.039 6       832.425    20023134.140   106922412.064 6       832.425    20023143.220    83161915.284 7       647.442    20023142.580    83161914.280 6       647.442
R08  21567440.120   115492661.130 7      4862.043    21567440.680   115492661.162 7      4862.043    21567454.200    89827685.967 7      3781.589    21567453.540    89827687.975 7      3781.589
R07  22596339.880   120959970.354 7      1933.283    22596340.260   120959970.380 7      1933.283    22596354.560    94080044.661 6      1503.664    22596354.800    94080043.660 6      1503.664
R22  23116987.240   123400037.503 7       568.293    23116989.100   123400037.507 7       568.293    23117003.100    95977870.658 7       442.006    23117003.020    95977872.656 7       442.006
R12  22073805.460   117914288.804 7     -1383.648    22073805.240   117914288.807 7     -1383.648    22073819.360    91711165.346 7     -1076.171    22073819.800    91711165.346 7     -1076.171
G16  22751305.080   119558900.740 7      -513.699    22751303.960   119558900.747 5      -513.699    22751310.440    93162796.058 5      -400.285
G32  25078560.160   131788729.132 6      3902.244    25078559.860   131788729.129 5      3902.244    25078576.100   102692482.523 5      3040.710    25078576.980   102692582.539 6      3040.710
R24  21706554.400   116074696.894 7      4000.884    21706553.680   116074696.893 7      4000.884    21706567.460    90280373.043 7      3111.798    21706567.300    90280373.041 7      3111.798
R14  21754520.300   115963829.541 7      5162.428    21754519.120   115963829.526 7      5162.428    21754530.680    90194137.325 7      4015.222    21754531.440    90194143.328 7      4015.222
> 2024 06 03 12 01 44.0000000  0 17
G10  23302252.020   122454151.351 7       151.047    23302250.440   122454151.356 7       151.047    23302260.640    95418849.010 7       117.699    23302261.060    95418859.014 7       117.699
G02  21352904.920   112210267.333 7      3140.464    21352903.420   112210267.341 6      3140.464    21352906.060    87436576.196 6      2447.115
G03  23360580.540   122760676.950 7      6516.446    23360579.540   122760676.952 5      6516.446    23360590.620    95657718.072 4      5077.750    23360590.940    95657724.083 7      5077.750
R01  23293174.960   124515361.798 6      6711.638    23293172.060   124515361.808 6      6711.638    23293193.540    96845367.840 6      5220.163    23293191.920    96845364.843 6      5220.163
G08  20545024.840   107964827.923 8      2926.959    20545023.900   107964827.925 8      2926.959    20545030.600    84128461.611 8      2280.747    20545031.520    84128463.611 8      2280.747
G21  20604173.940   108275660.714 7      2143.801    20604172.020   108275660.714 6      2143.801    20604176.060    84370657.206 6      1670.494
G27  21732667.160   114205910.419 7      1257.066    21732665.960   114205910.427 7      1257.066    21732673.360    88991647.121 7       979.532    21732673.800    88991648.125 8       979.532
R23  20720998.740   110843361.350 7      1829.016    20720997.260   110843361.352 7      1829.016
R13  20022979.040   106921580.051 6       831.425    20022977.760   106921580.068 6       831.425    20022987.460    83161268.175 7       646.664    20022987.140    83161267.177 6       646.664
R08  21566531.980   115487799.536 7      4861.194    21566532.400   115487799.567 7      4861.194    21566546.220    89823904.740 7      3780.929    21566545.860    89823906.743 7      3780.929
R07  22595978.560   120958037.604 7      1932.266    22595978.420   120958037.643 7      1932.266    22595993.560    94078541.426 6      1502.874    22595994.020    94078540.429 6      1502.874
R22  23116881.300   123399469.266 7       568.254    23116882.760   123399469.275 7       568.254    23116896.700    95977428.700 7       441.975    23116896.400    95977430.700 7       441.975
R12  22074064.540   117915672.637 7     -1383.977    22074064.240   117915672.643 7     -1383.977    22074078.440    91712241.652 7     -1076.426    22074078.880    91712241.651 7     -1076.426
G16  22751402.720   119559414.766 7      -514.328    22751401.720   119559414.774 5      -514.328    22751408.320    93163196.592 5      -400.775
G32  25077817.980   131784827.373 6      3901.601    25077817.240   131784827.370 5      3901.601    25077833.560   102689442.197 5      3040.209    25077834.320   102689542.210 6      3040.209
R24  21705806.320   116070696.042 7      4000.718    21705805.500   116070696.041 7      4000.718    21705819.080    90277261.269 7      3111.670    21705819.060    90277261.268 7      3111.670
R14  21753552.280   115958667.523 7      5161.596    21753550.760   115958667.515 7      5161.596    21753562.460    90190122.432 7      4014.575    21753563.000    90190128.437 7      4014.575
> 2024 06 03 12 01 45.0000000  0 17
G10  23302223.220   122454000.461 7       150.399    23302221.780   122454000.468 7       150.399    23302232.080    95418731.433 7       117.194    23302232.280    95418741.433 7       117.194
G02  21352307.500   112207127.160 7      3139.767    21352305.820   112207127.170 6      3139.767    21352308.440    87434129.313 6      2446.571
G03  23359340.680   122754160.777 7      6515.879    23359339.560   122754160.779 5      6515.879    23359350.420    95652640.540 4      5077.308    23359350.940    95652646.552 7      5077.308
R01  23291918.760   124508650.263 6      6711.437    23291916.100   124508650.267 6      6711.437    23291938.060    96840147.772 6      5220.007    23291936.680    96840144.764 6      5220.007
G08  20544467.960   107961901.113 8      2926.365    20544467.060   107961901.115 7      2926.365    20544473.620    84126180.979 7      2280.285    20544474.720    84126182.980 8      2280.285
G21  20603766.020   108273517.167 7      2143.193    20603764.000   108273517.169 6      2143.193    20603768.160    84368986.911 6      1670.020
G27  21732427.860   114204653.544 7      1256.478    21732426.780   114204653.551 7      1256.478    21732434.280    88990667.736 7       979.074    21732434.800    88990668.737 8       979.074
R23  20720656.820   110841532.453 7      1828.547    20720655.560   110841532.455 7      1828.547
R13  20022824.060   106920748.988 6       830.399    20022822.000   106920749.016 6       830.399    20022831.260    83160621.794 7       645.866    20022831.760    83160620.798 6       645.866
R08  21565624.240   115482938.769 7      4860.188    21565624.980   115482938.794 7      4860.188    21565638.340    89820124.143 7      3780.146    21565638.280    89820126.140 7      3780.146
R07  22595617.820   120956105.863 7      1930.994    22595617.380   120956105.902 7      1930.994    22595632.720    94077038.958 6      1501.884    22595633.080    94077037.957 6      1501.884
R22  23116774.780   123398901.172 7       567.860    23116776.220   123398901.192 7       567.860    23116790.380    95976986.849 7       441.669    23116790.000    95976988.849 7       441.669
R12  22074323.560   117917056.895 7     -1384.652    22074323.400   117917056.893 7     -1384.652    22074337.340    91713318.281 7     -1076.951    22074337.820    91713318.279 7     -1076.951
G16  22751500.840   119559929.250 7      -514.905    22751499.460   119559929.252 5      -514.905    22751506.220    93163597.482 5      -401.224
G32  25077075.360   131780926.135 6      3900.800    25077074.940   131780926.132 5      3900.800    25077091.120   102686402.278 5      3039.584    25077091.260   102686502.286 6      3039.584
R24  21705058.080   116066695.506 7      4000.197    21705057.360   116066695.499 7      4000.197    21705070.780    90274149.743 7      3111.264    21705070.940    90274149.741 7      3111.264
R14  21752583.860   115953506.381 7      5160.501    21752582.640   115953506.374 7      5160.501    21752594.340    90186108.219 7      4013.723    21752594.600    90186114.220 7      4013.723
> 2024 06 03 12 01 46.0000000  0 17
G10  23601987.160   124029270.222 7       150.232    23601985.720   124029270.229 7       150.232    23601995.800    96646214.360 7       117.064    23601996.560    96646224.360 7       117.064
G02  21651503.040   113779410.480 7      3139.792    21651501.440   113779410.492 6      3139.792    21651504.060    88659285.144 6      2446.591
G03  23657894.600   124323071.293 7      6516.053    23657893.320   124323071.296 5      6516.053    23657904.060    96875168.224 4      5077.444    23657904.900    96875174.225 7      5077.444
R01  23590456.660   126104507.934 6      6711.562    23590454.120   126104507.943 6      6711.562    23590475.840    98081370.417 6      5220.104    23590474.900    98081367.407 6      5220.104
G08  20843704.180   109534397.568 8      2926.398    20843703.180   109534397.573 8      2926.398    20843709.760    85351502.897 8      2280.310    20843710.680    85351504.899 8      2280.310
G21  20903151.160   109846796.147 8      2143.057    20903149.060   109846796.152 6      2143.057    20903153.180    85594918.586 6      1669.915
G27  22031981.560   115778818.268 7      1256.459    22031980.320   115778818.270 7      1256.459    22031987.880    90217289.593 7       979.059    22031988.140    90217290.594 7       979.059
R23  21020107.960   112443393.030 7      1828.823    21020106.200   112443393.031 7      1828.823
R13  20322461.080   108520794.625 6       829.920    20322459.060   108520794.637 6       829.920    20322468.380    84405101.722 7       645.493    20322469.100    84405100.717 6       645.493
R08  21864510.140   117083458.506 7      4859.906    21864510.640   117083458.535 7      4859.906    21864524.140    91064972.832 7      3779.927    21864523.960    91064974.831 7      3779.927
R07  22895050.260   122558989.392 7      1930.577    22895050.160   122558989.425 7      1930.577    22895064.800    95323726.145 6      1501.560    22895064.820    95323725.146 6      1501.560
R22  23416460.500   124998646.158 7       568.117    23416462.600   124998646.173 7       568.117    23416476.280    97221232.950 7       441.869    23416476.080    97221234.945 7       441.869
R12  22374375.100   119519877.518 7     -1384.602    22374375.020   119519877.508 7     -1384.602    22374388.720    92959956.526 7     -1076.913    22374389.120    92959956.525 7     -1076.913
G16  23051391.140   121135863.539 7      -514.940    23051389.860   121135863.542 5      -514.940    23051396.540    94391598.221 5      -401.252
G32  25376126.060   133352449.161 6      3900.855    25376125.840   133352449.161 5      3900.855    25376142.000   103910965.681 5      3039.627    25376142.160   103911065.689 6      3039.627
R24  22004103.120   117665824.204 7      4000.206    22004102.880   117665824.206 7      4000.206    22004115.580    91517916.517 7      3111.271    22004115.960    91517916.515 7      3111.271
R14  22051409.000   117546413.708 7      5159.941    22051407.540   117546413.700 7      5159.941    22051419.380    91425036.146 7      4013.287    22051419.800    91425042.149 7      4013.287
> 2024 06 03 12 01 47.0000000  0 17
G10  23601958.340   124029120.188 7       149.551    23601957.120   124029120.195 7       149.551    23601967.260    96646097.450 7       116.534    23601968.100    96646107.454 7       116.534
G02  21650905.680   113776271.008 7      3139.092    21650904.060   113776271.019 6      3139.092    21650906.620    88656838.807 6      2446.046
G03  23656654.420   124316555.509 7      6515.514    23656653.280   124316555.512 4      6515.514    23656664.100    96870090.994 4      5077.024    23656664.720    96870096.997 7      5077.024
R01  23589200.900   126097796.315 6      6711.513    23589199.880   126097796.330 6      6711.513    23589221.320    98076150.280 6      5220.066    23589219.260    98076147.268 6      5220.066
G08  20843147.380   109531471.362 8      2925.888    20843146.320   109531471.364 8      2925.888    20843152.880    85349222.734 8      2279.913    20843154.060    85349224.737 8      2279.913
G21  20902743.360   109844653.291 7      2142.527    20902741.320   109844653.291 6      2142.527    20902745.460    85593248.828 6      1669.502
G27  22031742.360   115777561.939 8      1255.953    22031741.260   115777561.944 7      1255.953    22031748.720    90216310.635 7       978.665    22031749.400    90216311.640 7       978.665
R23  21019765.900   112441564.336 7      1828.500    21019764.380   112441564.338 7      1828.500
R13  20322305.400   108519965.284 6       828.597    20322303.940   108519965.306 6       828.597    20322313.300    84404456.693 7       644.464    20322313.540    84404455.691 6       644.464
R08  21863602.820   117078598.971 7      4858.972    21863603.060   117078599.007 7      4858.972    21863616.920    91061193.204 7      3779.201    21863616.420    91061195.207 7      3779.201
R07  22894689.560   122557059.205 7      1929.702    22894690.000   122557059.231 7      1929.702    22894704.200    95322224.881 6      1500.879    22894704.420    95322223.882 6      1500.879
R22  23416354.560   124998077.929 7       568.173    23416355.960   124998077.930 7       568.173    23416369.880    97220790.977 7       441.912    23416370.040    97220792.968 7       441.912
R12  22374634.280   119521262.230 7     -1385.043    22374634.760   119521262.226 7     -1385.043    22374647.920    92961033.518 7     -1077.256    22374648.460    92961033.519 7     -1077.256
G16  23051489.280   121136378.606 7      -515.406    23051487.820   121136378.606 5      -515.406    23051494.680    94391999.568 5      -401.615
G32  25375383.960   133348548.540 6      3900.330    25375383.520   133348548.537 5      3900.330    25375399.780   103907926.240 5      3039.218    25375400.000   103908026.240 6      3039.218
R24  22003355.000   117661824.133 7      3999.738    22003354.520   117661824.129 7      3999.738    22003367.380    91514805.342 7      3110.907    22003368.120    91514805.347 7      3110.907
R14  22050441.320   117541254.117 7      5159.054    22050439.600   117541254.113 7      5159.054    22050451.620    91421023.138 7      4012.598    22050452.080    91421029.142 7      4012.598
> 2024 06 03 12 01 48.0000000  0 17
G10  23601930.080   124028970.611 7       149.357    23601928.660   124028970.616 7       149.357    23601938.800    96645980.893 7       116.382    23601939.160    96645990.891 7       116.382
G02  21650308.260   113773131.913 7      3138.971    21650306.660   113773131.918 6      3138.971    21650309.400    88654392.758 6      2445.951
G03  23655414.380   124310040.001 7      6515.279    23655413.620   124310039.995 4      6515.279    23655424.320    96865013.976 4      5076.841    23655425.160    96865019.981 7      5076.841
R01  23587946.020   126091084.823 6      6711.547    23587944.600   126091084.821 6      6711.547    23587965.700    98070930.222 6      5220.092    23587963.940    98070927.214 6      5220.092
G08  20842590.520   109528545.532 8      2925.702    20842589.500   109528545.534 8      2925.702    20842596.260    85346942.866 8      2279.768    20842597.240    85346944.869 8      2279.768
G21  20902335.560   109842510.816 8      2142.297    20902333.700   109842510.818 6      2142.297    20902337.640    85591579.365 6      1669.323
G27  22031503.360   115776305.972 8      1255.861    22031502.360   115776305.975 7      1255.861    22031509.740    90215331.960 7       978.593    22031510.480    90215332.963 8       978.593
R23  21019423.920   112439735.795 7      1828.543    21019422.560   112439735.802 7      1828.543
R13  20322150.520   108519136.874 6       827.839    20322148.980   108519136.913 6       827.839    20322158.380    84403812.383 7       643.875    20322158.640    84403811.380 6       643.875
R08  21862695.140   117073740.163 7      4858.514    21862695.740   117073740.205 7      4858.514    21862709.560    91057414.150 7      3778.844    21862709.180    91057416.149 7      3778.844
R07  22894328.900   122555129.905 7      1929.064    22894329.060   122555129.931 7      1929.064    22894343.840    95320724.316 6      1500.383    22894344.180    95320723.317 6      1500.383
R22  23416247.720   124997509.724 7       568.311    23416249.580   124997509.735 7       568.311    23416263.440    97220349.043 7       442.020    23416263.720    97220351.043 7       442.020
R12  22374893.440   119522647.297 7     -1385.232    22374894.580   119522647.298 7     -1385.232    22374907.220    92962110.791 7     -1077.403    22374907.800    92962110.800 7     -1077.403
G16  23051587.180   121136894.060 7      -515.534    23051585.860   121136894.059 5      -515.534    23051592.800    94392401.213 5      -401.715
G32  25374642.100   133344648.313 6      3900.137    25374641.260   133344648.310 5      3900.137    25374657.580   103904887.106 5      3039.068    25374658.740   103904987.125 6      3039.068
R24  22002606.980   117657824.324 7      3999.672    22002606.220   117657824.317 7      3999.672    22002619.620    91511694.387 7      3110.856    22002619.940    91511694.390 7      3110.856
R14  22049473.220   117536095.343 7      5158.399    22049471.920   117536095.338 7      5158.399    22049483.960    91417010.766 7      4012.088    22049484.060    91417016.768 8      4012.088
> 2024 06 03 12 01 49.0000000  0 17
G10  23601901.580   124028821.678 7       148.634    23601900.260   124028821.686 7       148.634    23601910.520    96645864.839 7       115.819    23601910.880    96645874.843 7       115.819
G02  21649711.140   113769993.201 7      3138.470    21649709.380   113769993.206 6      3138.470    21649712.080    88651947.011 6      2445.561
G03  23654174.560   124303524.661 7      6515.161    23654173.920   124303524.658 4      6515.161    23654184.520    96859937.092 4      5076.749    23654185.320    96859943.103 7      5076.749
R01  23586690.820   126084373.376 6      6711.282    23586688.700   126084373.385 6      6711.282    23586710.040    98065710.224 6      5219.886    23586708.520    98065707.212 6      5219.886
G08  20842033.880   109525620.153 8      2925.120    20842032.820   109525620.153 8      2925.120    20842039.520    85344663.353 8      2279.314    20842040.600    85344665.357 8      2279.314
G21  20901927.900   109840368.769 8      2141.816    20901925.920   109840368.771 6      2141.816    20901930.080    85589910.239 6      1668.947
G27  22031264.560   115775050.497 7      1255.174    22031263.400   115775050.502 7      1255.174    22031270.760    90214353.665 7       978.058    22031271.460    90214354.666 8       978.058
R23  21019082.320   112437907.519 7      1828.206    21019080.880   112437907.531 7      1828.206
R13  20321995.260   108518309.322 6       827.093    20321993.880   108518309.344 6       827.093    20322003.380    84403168.718 7       643.295    20322003.760    84403167.718 6       643.295
R08  21861787.880   117068882.237 7      4857.487    21861789.000   117068882.279 7      4857.487    21861802.320    91053635.763 7      3778.045    21861801.820    91053637.764 7      3778.045
R07  22893968.660   122553201.734 7      1927.576    22893968.980   122553201.763 7      1927.576    22893983.680    95319224.634 6      1499.226    22893984.140    95319223.633 7      1499.226
R22  23416141.020   124996941.689 7       567.882    23416143.020   124996941.701 7       567.882    23416157.180    97219907.239 7       441.686    23416157.360    97219909.237 7       441.686
R12  22375152.660   119524032.666 7     -1385.583    22375154.160   119524032.673 7     -1385.583    22375166.840    92963188.298 7     -1077.676    22375167.100    92963188.305 7     -1077.676
G16  23051685.360   121137409.923 7      -516.074    23051684.040   121137409.928 5      -516.074    23051690.860    94392803.183 5      -402.136
G32  25373900.360   133340748.698 6      3899.097    25373899.160   133340748.701 5      3899.097    25373915.480   103901848.457 5      3038.257    25373915.800   103901948.472 6      3038.257
R24  22001859.060   117653824.744 7      3999.393    22001858.200   117653824.759 7      3999.393    22001871.820    91508583.618 7      3110.639    22001871.800    91508583.625 7      3110.639
R14  22048505.660   117530937.424 7      5157.420    22048504.240   117530937.413 7      5157.420    22048516.200    91412999.057 7      4011.327    22048516.400    91413005.057 8      4011.327
> 2024 06 03 12 01 50.0000000  0 17
G10  23601873.440   124028673.134 7       148.272    23601872.020   124028673.144 7       148.272    23601882.180    96645749.091 7       115.536    23601882.320    96645759.097 7       115.536
G02  21649113.960   113766854.789 7      3138.287    21649112.020   113766854.794 6      3138.287    21649114.720    88649501.497 6      2445.419
G03  23652934.580   124297009.505 7      6515.066    23652934.060   124297009.507 4      6515.066    23652944.580    96854860.357 4      5076.675    23652945.620    96854866.366 7      5076.675
R01  23585434.740   126077661.845 6      6711.466    23585433.680   126077661.868 6      6711.466    23585454.100    98060490.164 6      5220.029    23585452.820    98060487.158 6      5220.029
G08  20841477.160   109522695.038 8      2924.989    20841476.120   109522695.040 8      2924.989    20841482.900    85342384.046 8      2279.212    20841483.720    85342386.048 8      2279.212
G21  20901520.400   109838227.026 8      2141.587    20901518.440   109838227.031 6      2141.587    20901522.540    85588241.351 6      1668.769
G27  22031025.620   115773795.245 7      1255.180    22031024.440   115773795.250 7      1255.180    22031031.940    90213375.547 7       978.062    22031032.480    90213376.548 8       978.062
R23  21018740.160   112436079.325 7      1828.209    21018739.000   112436079.337 7      1828.209
R13  20321840.320   108517482.632 6       826.334    20321838.120   108517482.625 6       826.334    20321848.500    84402525.714 7       642.704    20321848.740    84402524.716 6       642.704
R08  21860880.280   117064024.870 7      4857.089    21860881.760   117064024.909 7      4857.089    21860895.340    91049857.815 7      3777.736    21860894.820    91049859.820 7      3777.736
R07  22893608.480   122551274.316 7      1927.092    22893609.220   122551274.341 7      1927.092    22893623.480    95317725.522 6      1498.849    22893624.240    95317724.517 6      1498.849
R22  23416034.700   124996373.553 7       568.069    23416036.660   124996373.576 7       568.069    23416050.600    97219465.355 7       441.832    23416050.880    97219467.355 7       441.832
R12  22375412.060   119525418.281 7     -1385.788    22375413.860   119525418.293 7     -1385.788    22375426.500    92964265.996 7     -1077.835    22375426.560    92964266.005 7     -1077.835
G16  23051783.720   121137926.054 7      -516.219    23051782.160   121137926.062 5      -516.219    23051789.180    94393205.359 5      -402.249
G32  25373158.200   133336849.273 6      3899.346    25373157.040   133336849.273 5      3899.346    25373173.500   103898809.950 5      3038.451    25373173.680   103898909.959 6      3038.451
R24  22001111.540   117649825.360 7      3999.296    22001110.460   117649825.370 7      3999.296    22001124.200    91505472.988 7      3110.564    22001123.920    91505472.991 7      3110.564
R14  22047538.360   117525780.267 7      5156.739    22047536.980   117525780.257 7      5156.739    22047548.800    91408987.941 7      4010.797    22047549.280    91408993.942 8      4010.797
> 2024 06 03 12 01 51.0000000  0 17
G10  23601845.200   124028524.869 7       148.135    23601843.880   124028524.873 7       148.135    23601853.940    96645633.555 7       115.430    23601854.240    96645643.557 7       115.430
G02  21648516.420   113763716.624 8      3137.972    21648514.960   113763716.634 6      3137.972    21648517.620    88647056.175 6      2445.173
G03  23651694.720   124290494.475 7      6515.048    23651694.360   124290494.477 4      6515.048    23651705.060    96849783.714 4      5076.661    23651705.900    96849789.722 7      5076.661
R01  23584179.000   126070950.219 6      6711.619    23584176.840   126070950.236 6      6711.619    23584198.120    98055270.024 6      5220.148    23584197.600    98055267.023 6      5220.148
G08  20840920.540   109519770.132 8      2924.759    20840919.700   109519770.132 8      2924.759    20840926.280    85340104.899 8      2279.033    20840927.240    85340106.901 8      2279.033
G21  20901112.940   109836085.507 8      2141.441    20901110.920   109836085.512 6      2141.441    20901115.020    85586572.637 6      1668.655
G27  22030786.520   115772540.201 7      1254.888    22030785.740   115772540.203 7      1254.888    22030793.060    90212397.586 7       977.835    22030793.400    90212398.587 7       977.835
R23  21018398.360   112434251.142 7      1828.134    21018397.560   112434251.152 7      1828.134
R13  20321685.640   108516656.628 6       825.771    20321683.660   108516656.639 6       825.771    20321693.740    84401883.285 7       642.266    20321694.200    84401882.283 6       642.266
R08  21859973.880   117059168.039 7      4856.655    21859974.680   117059168.083 7      4856.655    21859988.360    91046080.294 7      3777.398    21859987.740    91046082.295 7      3777.398
R07  22893248.940   122549347.649 7      1926.333    22893249.460   122549347.659 7      1926.333    22893263.780    95316227.000 6      1498.259    22893263.940    95316225.997 6      1498.259
R22  23415928.660   124995805.236 7       568.295    23415929.940   124995805.253 7       568.295    23415943.980    97219023.322 7       442.007    23415944.860    97219025.322 7       442.007
R12  22375671.600   119526804.056 7     -1385.776    22375673.000   119526804.068 7     -1385.776    22375686.140    92965343.809 7     -1077.826    22375686.020    92965343.818 7     -1077.826
G16  23051881.840   121138442.416 7      -516.531    23051880.420   121138442.424 5      -516.531    23051887.480    94393607.713 5      -402.491
G32  25372416.120   133332950.171 6      3898.817    25372415.020   133332950.170 5      3898.817    25372431.440   103895771.697 5      3038.040    25372431.320   103895871.701 6      3038.040
R24  22000362.840   117645826.083 7      3999.168    22000362.600   117645826.084 7      3999.168    22000376.420    91502362.435 7      3110.464    22000376.460    91502362.427 7      3110.464
R14  22046570.720   117520623.774 7      5156.194    22046569.800   117520623.758 7      5156.194    22046581.440    91404977.337 7      4010.373    22046581.780    91404983.342 8      4010.373
> 2024 06 03 12 01 52.0000000  0 17
G10  23601817.300   124028376.992 7       147.632    23601815.760   124028376.997 7       147.632    23601825.800    96645518.320 7       115.038    23601826.280    96645528.320 7       115.038
G02  21647919.560   113760578.718 7      3137.805    21647918.000   113760578.723 6      3137.805    21647920.580    88644611.054 6      2445.043
G03  23650454.860   124283979.573 7      6514.748    23650454.620   124283979.576 4      6514.748    23650465.340    96844707.174 4      5076.427    23650466.100    96844713.173 7      5076.427
R01  23582923.600   126064238.491 6      6711.583    23582921.740   126064238.509 6      6711.583    23582943.560    98050049.792 6      5220.120    23582942.300    98050046.788 6      5220.120
G08  20840364.360   109516845.458 8      2924.515    20840363.020   109516845.463 8      2924.515    20840369.680    85337825.932 8      2278.843    20840370.720    85337827.934 8      2278.843
G21  20900705.200   109833944.275 8      2141.078    20900703.280   109833944.277 6      2141.078    20900707.460    85584904.144 6      1668.372
G27  22030547.720   115771285.351 7      1254.693    22030546.920   115771285.356 7      1254.693    22030554.120    90211419.781 7       977.683    22030554.600    90211420.780 8       977.683
R23  21018056.820   112432423.007 7      1828.151    21018055.940   112432423.011 7      1828.151
R13  20321531.600   108515831.465 6       824.639    20321529.400   108515831.452 6       824.639    20321539.240    84401241.465 7       641.386    20321539.120    84401240.463 6       641.386
R08  21859066.420   117054311.802 7      4855.838    21859068.200   117054311.835 7      4855.838    21859081.540    91042303.212 7      3776.763    21859081.440    91042305.218 7      3776.763
R07  22892888.880   122547421.727 7      1925.505    22892889.280   122547421.750 7      1925.505    22892904.120    95314729.066 6      1497.615    22892904.080    95314728.065 6      1497.615
R22  23415821.300   124995236.820 7       568.353    23415823.620   124995236.821 7       568.353    23415837.340    97218581.204 7       442.052    23415837.740    97218583.204 7       442.052
R12  22375930.580   119528190.007 7     -1386.176    22375931.720   119528190.006 7     -1386.176    22375946.060    92966421.752 7     -1078.137    22375945.440    92966421.761 7     -1078.137
G16  23051980.360   121138959.000 7      -516.801    23051978.740   121138959.007 5      -516.801    23051985.720    94394010.241 5      -402.702
G32  25371674.220   133329051.252 6      3898.801    25371673.140   133329051.247 5      3898.801    25371689.340   103892733.583 5      3038.026    25371690.260   103892833.587 6      3038.026
R24  21999615.500   117641826.961 7      3999.047    21999614.900   117641826.954 7      3999.047    21999628.760    91499251.994 7      3110.370    21999628.280    91499251.997 7      3110.370
R14  22045603.940   117515467.995 7      5155.454    22045602.600   117515467.982 7      5155.454    22045614.300    91400967.293 7      4009.798    22045614.960    91400973.294 7      4009.798
> 2024 06 03 12 01 53.0000000  0 17
G10  23601789.260   124028229.572 7       147.307    23601787.680   124028229.580 7       147.307    23601797.860    96645403.448 7       114.785    23601798.280    96645413.454 7       114.785
G02  21647322.280   113757441.231 7      3137.376    21647320.740   113757441.241 6      3137.376    21647323.600    88642166.261 6      2444.708
G03  23649215.380   124277464.972 7      6514.471    23649214.900   124277464.976 4      6514.471    23649225.640    96839630.867 4      5076.211    23649226.200    96839636.881 7      5076.211
R01  23581667.780   126057526.846 6      6711.696    23581666.640   126057526.864 6      6711.696    23581686.880    98044829.634 6      5220.208    23581686.540    98044826.639 6      5220.208
G08  20839807.680   109513921.173 8      2924.184    20839806.540   109513921.175 8      2924.184    20839813.200    85335547.270 8      2278.585    20839814.100    85335549.268 8      2278.585
G21  20900298.020   109831803.426 8      2140.822    20900295.820   109831803.426 6      2140.822    20900300.100    85583235.948 6      1668.173
G27  22030309.120   115770030.892 7      1254.341    22030308.200   115770030.895 7      1254.341    22030315.480    90210442.279 7       977.408    22030316.060    90210443.282 8       977.408
R23  21017715.160   112430595.041 7      1828.049    21017714.280   112430595.051 7      1828.049
R13  20321376.800   108515007.132 6       823.831    20321375.120   108515007.155 6       823.831    20321385.000    84400600.342 7       640.757    20321384.920    84400599.344 6       640.757
R08  21858159.900   117049456.277 7      4855.254    21858161.160   117049456.316 7      4855.254    21858174.740    91038526.706 7      3776.309    21858174.520    91038528.711 7      3776.309
R07  22892528.700   122545496.698 7      1924.593    22892529.240   122545496.726 7      1924.593    22892544.520    95313231.830 6      1496.906    22892544.500    95313230.829 6      1496.906
R22  23415714.940   124994668.369 7       568.530    23415717.060   124994668.381 7       568.530    23415731.280    97218139.084 7       442.190    23415731.300    97218141.082 7       442.190
R12  22376190.180   119529576.287 7     -1386.339    22376190.520   119529576.286 7     -1386.339    22376205.500    92967499.960 7     -1078.263    22376205.280    92967499.960 7     -1078.263
G16  23052078.600   121139475.979 7      -517.058    23052077.180   121139475.987 5      -517.058    23052084.180    94394413.077 5      -402.902
G32  25370932.400   133325152.765 6      3898.439    25370931.440   133325152.759 5      3898.439    25370947.460   103889695.804 5      3037.745    25370948.060   103889795.819 6      3037.745
R24  21998867.440   117637828.133 7      3998.657    21998866.580   117637828.137 7      3998.657    21998881.020    91496141.807 7      3110.067    21998880.620    91496141.801 7      3110.067
R14  22044636.480   117510313.031 7      5154.625    22044636.060   117510313.016 7      5154.625    22044647.080    91396957.879 7      4009.153    22044647.720    91396963.880 8      4009.153
> 2024 06 03 12 01 54.0000000  0 17
G10  23601761.380   124028082.812 7       146.504    23601759.820   124028082.820 7       146.504    23601769.880    96645289.089 7       114.159    23601770.500    96645299.089 7       114.159
G02  21646725.320   113754304.156 7      3136.826    21646723.780   113754304.166 6      3136.826    21646726.700    88639721.793 6      2444.280
G03  23647975.800   124270950.627 7      6514.067    23647975.160   124270950.635 4      6514.067    23647985.920    96834554.761 4      5075.896    23647986.800    96834560.778 7      5075.896
R01  23580412.680   126050815.340 6      6711.277    23580411.740   126050815.347 6      6711.277    23580431.800    98039609.580 6      5219.882    23580431.020    98039606.568 6      5219.882
G08  20839251.340   109510997.352 8      2923.567    20839250.300   109510997.357 8      2923.567    20839256.880    85333268.970 8      2278.105    20839257.780    85333270.971 8      2278.105
G21  20899890.800   109829663.032 8      2140.197    20899888.740   109829663.037 6      2140.197    20899892.780    85581568.113 6      1667.686
G27  22030070.800   115768776.907 7      1253.698    22030069.520   115768776.914 7      1253.698    22030076.820    90209465.153 7       976.908    22030077.580    90209466.155 8       976.908
R23  21017373.440   112428767.391 7      1827.573    21017372.700   112428767.397 7      1827.573
R13  20321223.240   108514183.716 6       823.043    20321220.780   108514183.719 6       823.043    20321230.560    84399959.890 7       640.144    20321230.620    84399958.888 6       640.144
R08  21857252.900   117044601.646 7      4854.096    21857254.880   117044601.686 7      4854.096    21857268.060    91034750.888 7      3775.408    21857267.920    91034752.894 7      3775.408
R07  22892169.540   122543572.708 7      1923.446    22892170.180   122543572.728 7      1923.446    22892185.260    95311735.391 7      1496.014    22892185.120    95311734.394 6      1496.014
R22  23415608.480   124994100.134 7       568.083    23415610.540   124994100.149 7       568.083    23415624.640    97217697.120 7       441.842    23415624.560    97217699.116 7       441.842
R12  22376449.900   119530962.938 7     -1386.951    22376449.840   119530962.931 7     -1386.951    22376465.020    92968578.456 7     -1078.739    22376464.940    92968578.450 7     -1078.739
G16  23052176.980   121139993.432 7      -517.816    23052175.680   121139993.442 5      -517.816    23052182.740    94394816.280 5      -403.493
G32  25370190.540   133321254.845 6      3897.711    25370189.740   133321254.839 5      3897.711    25370205.920   103886658.474 5      3037.178    25370206.720   103886758.489 6      3037.178
R24  21998120.000   117633829.588 7      3998.436    21998119.040   117633829.584 7      3998.436    21998133.100    91493031.824 7      3109.895    21998132.640    91493031.820 7      3109.895
R14  22043669.320   117505158.950 7      5153.703    22043669.260   117505158.935 7      5153.703    22043680.240    91392949.152 7      4008.435    22043680.700    91392955.150 7      4008.435
> 2024 06 03 12 01 55.0000000  0 17
G10  23601733.340   124027936.504 7       146.361    23601731.920   124027936.504 7       146.361    23601742.060    96645175.077 7       114.048    23601742.700    96645185.075 7       114.048
G02  21646128.380   113751167.423 7      3136.648    21646126.880   113751167.438 6      3136.648    21646129.740    88637277.585 6      2444.141
G03  23646736.200   124264436.493 7      6514.238    23646735.520   124264436.498 4      6514.238    23646746.300    96829478.820 4      5076.029    23646747.420    96829484.819 7      5076.029
R01  23579157.320   126044103.802 6      6711.690    23579156.420   126044103.817 6      6711.690    23579176.360    98034389.496 6      5220.204    23579175.360    98034386.495 6      5220.204
G08  20838695.080   109508073.866 8      2923.549    20838694.020   109508073.868 8      2923.549    20838700.560    85330990.929 8      2278.090    20838701.420    85330992.934 8      2278.090
G21  20899483.420   109827522.974 7      2140.106    20899481.440   109827522.973 6      2140.106    20899485.560    85579900.533 6      1667.615
G27  22029832.300   115767523.263 8      1253.641    22029831.060   115767523.265 7      1253.641    22029838.260    90208488.282 7       976.863    22029838.980    90208489.277 7       976.863
R23  21017031.500   112426939.855 7      1827.701    21017031.080   112426939.862 7      1827.701
R13  20321069.120   108513361.132 6       822.416    20321066.840   108513361.143 6       822.416    20321076.500    84399320.114 7       639.657    20321076.640    84399319.109 6       639.657
R08  21856346.760   117039747.658 7      4853.924    21856348.660   117039747.698 7      4853.924    21856361.300    91030975.566 7      3775.274    21856361.440    91030977.572 7      3775.274
R07  22891810.440   122541649.569 7      1922.930    22891810.880   122541649.598 7      1922.930    22891826.020    95310239.623 6      1495.613    22891825.840    95310238.628 6      1495.613
R22  23415501.580   124993531.873 7       568.477    23415503.840   124993531.874 7       568.477    23415518.240    97217255.133 7       442.149    23415518.500    97217257.130 7       442.149
R12  22376709.840   119532349.883 7     -1386.848    22376709.880   119532349.871 7     -1386.848    22376724.340    92969657.168 7     -1078.660    22376724.760    92969657.162 7     -1078.660
G16  23052275.460   121140511.179 7      -517.695    23052273.960   121140511.192 5      -517.695    23052281.240    94395219.718 5      -403.399
G32  25369448.980   133317357.329 6      3897.447    25369447.840   133317357.329 5      3897.447    25369464.220   103883621.458 5      3036.972    25369465.140   103883721.462 6      3036.972
R24  21997372.480   117629831.244 7      3998.442    21997371.520   117629831.246 7      3998.442    21997385.140    91489922.003 7      3109.900    21997385.020    91489921.999 7      3109.900
R14  22042702.740   117500005.653 7      5153.067    22042702.320   117500005.640 7      5153.067    22042713.500    91388941.038 7      4007.941    22042713.780    91388947.038 8      4007.941
> 2024 06 03 12 01 56.0000000  0 17
G10  23601705.660   124027790.462 7       145.830    23601704.140   124027790.464 7       145.830    23601714.240    96645061.275 7       113.634    23601714.980    96645071.273 7       113.634
G02  21645531.640   113748030.905 8      3136.371    21645529.960   113748030.913 6      3136.371    21645532.880    88634833.543 6      2443.925
G03  23645496.620   124257922.438 7      6514.107    23645495.800   124257922.440 4      6514.107    23645506.820    96824402.939 4      5075.927    23645507.960    96824408.945 7      5075.927
R01  23577901.380   126037392.141 6      6711.641    23577901.080   126037392.142 6      6711.641    23577921.020    98029169.314 6      5220.165    23577919.860    98029166.300 6      5220.165
G08  20838138.660   109505150.542 8      2923.272    20838137.640   109505150.544 8      2923.272    20838144.300    85328713.014 8      2277.874    20838144.900    85328715.017 8      2277.874
G21  20899076.280   109825383.115 7      2139.805    20899074.200   109825383.120 6      2139.805    20899078.400    85578233.113 6      1667.381
G27  22029593.700   115766269.724 8      1253.469    22029592.500   115766269.727 7      1253.469    22029599.740    90207511.498 7       976.729    22029600.300    90207512.498 7       976.729
R23  21016689.680   112425112.277 7      1827.724    21016689.060   112425112.283 7      1827.724
R13  20320914.140   108512539.290 6       821.556    20320913.420   108512539.297 6       821.556    20320922.720    84398680.895 7       638.988    20320922.860    84398679.891 6       638.988
R08  21855440.780   117034894.177 7      4853.189    21855442.360   117034894.216 7      4853.189    21855455.080    91027200.644 7      3774.703    21855455.060    91027202.646 7      3774.703
R07  22891451.120   122539727.105 7      1922.260    22891451.320   122539727.122 7      1922.260    22891467.000    95308744.367 6      1495.091    22891467.040    95308743.366 6      1495.091
R22  23415395.340   124992963.387 7       568.569    23415397.540   124992963.396 7       568.569    23415411.880    97216812.977 6       442.220    23415411.880    97216814.975 7       442.220
R12  22376969.360   119533736.970 7     -1387.237    22376969.620   119533736.971 7     -1387.237    22376983.820    92970736.013 7     -1078.962    22376984.280    92970736.010 7     -1078.962
G16  23052374.000   121141029.137 7      -518.125    23052372.460   121141029.147 5      -518.125    23052379.760    94395623.315 5      -403.734
G32  25368707.380   133313459.927 6      3897.381    25368706.140   133313459.927 5      3897.381    25368722.460   103880584.523 5      3036.920    25368723.700   103880684.535 6      3036.920
R24  21996624.420   117625832.986 7      3998.188    21996623.640   117625832.990 7      3998.188    21996637.300    91486812.254 7      3109.701    21996637.400    91486812.251 7      3109.701
R14  22041736.120   117494852.992 7      5152.376    22041735.920   117494852.995 7      5152.376    22041746.780    91384933.425 7      4007.403    22041747.260    91384939.430 7      4007.403
> 2024 06 03 12 01 57.0000000  0 17
G10  23601678.020   124027644.797 7       145.255    23601676.440   124027644.799 7       145.255    23601686.600    96644947.767 7       113.186    23601687.040    96644957.766 7       113.186
G02  21644934.940   113744894.684 7      3135.932    21644933.200   113744894.686 6      3135.932    21644935.980    88632389.735 6      2443.584
G03  23644257.080   124251408.546 7      6513.660    23644256.200   124251408.545 4      6513.660    23644267.320    96819327.183 4      5075.580    23644268.460    96819333.190 7      5075.580
R01  23576646.540   126030680.365 6      6711.637    23576644.520   126030680.366 6      6711.637    23576665.500    98023949.050 6      5220.162    23576664.420    98023946.044 6      5220.162
G08  20837582.400   109502227.513 8      2922.763    20837581.460   109502227.512 8      2922.763    20837588.020    85326435.329 8      2277.478    20837588.920    85326437.328 8      2277.478
G21  20898669.100   109823243.583 8      2139.197    20898667.020   109823243.588 6      2139.197    20898671.280    85576565.947 6      1666.907
G27  22029355.240   115765016.467 7      1252.963    22029354.020   115765016.464 8      1252.963    22029361.300    90206534.928 7       976.334    22029361.820    90206535.929 7       976.334
R23  21016348.200   112423284.821 7      1827.218    21016347.540   112423284.825 7      1827.218
R13  20320761.040   108511718.237 6       820.610    20320759.260   108511718.238 6       820.610    20320769.180    84398042.294 7       638.252    20320769.120    84398041.291 6       638.252
R08  21854534.760   117030041.303 7      4852.326    21854536.040   117030041.342 7      4852.326    21854548.720    91023426.191 7      3774.032    21854548.720    91023428.197 7      3774.032
R07  22891092.180   122537805.454 7      1921.092    22891092.380   122537805.472 7      1921.092    22891107.800    95307249.739 7      1494.183    22891108.180    95307248.740 7      1494.183
R22  23415289.100   124992394.835 7       568.455    23415291.240   124992394.847 7       568.455    23415305.360    97216370.766 6       442.131    23415305.440    97216372.768 7       442.131
R12  22377229.140   119535124.214 7     -1387.454    22377229.660   119535124.215 7     -1387.454    22377243.060    92971814.964 7     -1079.131    22377243.840    92971814.965 7     -1079.131
G16  23052472.700   121141547.325 7      -518.508    23052470.960   121141547.335 5      -518.508    23052478.200    94396027.092 5      -404.032
G32  25367965.600   133309562.880 6      3896.672    25367964.420   133309562.882 5      3896.672    25367980.860   103877547.871 5      3036.368    25367981.740   103877647.881 6      3036.368
R24  21995876.400   117621834.901 7      3997.826    21995876.160   117621834.913 7      3997.826    21995889.680    91483702.639 7      3109.420    21995889.840    91483702.638 7      3109.420
R14  22040769.720   117489701.145 7      5151.293    22040769.480   117489701.142 7      5151.293    22040780.380    91380926.433 7      4006.561    22040780.920    91380932.437 7      4006.561
> 2024 06 03 12 01 58.0000000  0 17
G10  23601650.440   124027499.622 7       145.069    23601648.840   124027499.627 7       145.069    23601658.760    96644834.643 7       113.041    23601659.940    96644844.647 7       113.041
G02  21644338.140   113741758.807 8      3135.781    21644336.460   113741758.815 6      3135.781    21644339.360    88629946.199 6      2443.466
G03  23643017.540   124244894.858 7      6513.910    23643016.660   124244894.858 4      6513.910    23643027.800    96814251.587 4      5075.774    23643029.120    96814257.598 7      5075.774
R01  23575390.500   126023968.661 6      6711.873    23575389.020   126023968.665 6      6711.873    23575410.200    98018728.842 6      5220.345    23575408.760    98018725.834 6      5220.345
G08  20837026.260   109499304.820 8      2922.668    20837025.200   109499304.822 8      2922.668    20837031.960    85324157.908 8      2277.404    20837032.720    85324159.909 8      2277.404
G21  20898262.060   109821104.371 8      2139.209    20898259.980   109821104.373 6      2139.209    20898264.220    85574899.026 6      1666.916
G27  22029116.900   115763763.551 7      1252.876    22029115.540   115763763.553 7      1252.876    22029122.860    90205558.634 7       976.267    22029123.420    90205559.633 7       976.267
R23  21016006.560   112421457.449 7      1827.377    21016005.740   112421457.461 7      1827.377
R13  20320607.980   108510898.072 6       819.859    20320605.980   108510898.076 6       819.859    20320615.400    84397404.388 7       637.668    20320615.580    84397403.386 6       637.668
R08  21853628.660   117025189.159 7      4852.013    21853630.060   117025189.204 7      4852.013    21853642.640    91019652.312 7      3773.788    21853642.540    91019654.316 7      3773.788
R07  22890733.320   122535884.644 7      1920.556    22890733.800   122535884.672 7      1920.556    22890749.220    95305755.788 7      1493.766    22890749.360    95305754.787 7      1493.766
R22  23415182.700   124991826.302 7       568.684    23415184.540   124991826.308 7       568.684    23415198.740    97215928.562 7       442.309    23415198.740    97215930.567 7       442.309
R12  22377488.940   119536511.757 7     -1387.467    22377489.520   119536511.761 7     -1387.467    22377502.420    92972894.156 7     -1079.141    22377503.320    92972894.157 7     -1079.141
G16  23052571.520   121142065.908 7      -518.620    23052569.500   121142065.918 5      -518.620    23052577.020    94396431.176 5      -404.119
G32  25367224.340   133305666.210 6      3896.713    25367222.900   133305666.210 5      3896.713    25367239.420   103874511.507 5      3036.400    25367240.220   103874611.519 6      3036.400
R24  21995129.000   117617837.012 7      3997.929    21995128.520   117617837.029 7      3997.929    21995141.860    91480593.174 7      3109.500    21995142.220    91480593.174 7      3109.500
R14  22039803.060   117484550.025 8      5150.928    22039802.960   117484550.025 7      5150.928    22039813.920    91376920.012 7      4006.277    22039814.480    91376926.013 8      4006.277
> 2024 06 03 12 01 59.0000000  0 17
G10  23601622.780   124027354.814 7       144.551    23601621.340   124027354.819 7       144.551    23601631.380    96644721.806 7       112.637    23601632.240    96644731.807 7       112.637
G02  21643741.560   113738623.222 8      3135.430    21643739.680   113738623.222 6      3135.430    21643742.720    88627502.880 6      2443.192
G03  23641778.260   124238381.360 7      6513.489    23641777.160   124238381.357 4      6513.489    23641788.360    96809176.135 4      5075.446    23641789.300    96809182.155 7      5075.446
R01  23574134.760   126017256.861 6      6711.816    23574132.840   126017256.876 6      6711.816    23574154.340    98013508.582 6      5220.302    23574153.000    98013505.574 6      5220.302
G08  20836470.180   109496382.387 8      2922.241    20836469.100   109496382.392 8      2922.241    20836475.840    85321880.690 8      2277.071    20836476.780    85321882.690 8      2277.071
G21  20897855.260   109818965.466 8      2138.685    20897852.900   109818965.474 6      2138.685    20897857.220    85573232.349 6      1666.508
G27  22028878.480   115762510.889 8      1252.388    22028877.140   115762510.892 7      1252.388    22028884.480    90204582.532 7       975.887    22028884.980    90204583.529 8       975.887
R23  21015665.320   112419630.146 7      1827.144    21015664.580   112419630.150 7      1827.144
R13  20320454.700   108510078.657 6       819.179    20320452.180   108510078.664 6       819.179    20320462.020    84396767.063 7       637.139    20320462.460    84396766.061 6       637.139
R08  21852722.640   117020337.613 7      4851.176    21852724.320   117020337.661 7      4851.176    21852736.820    91015878.896 7      3773.137    21852736.820    91015880.901 7      3773.137
R07  22890374.860   122533964.618 7      1919.553    22890375.100   122533964.641 7      1919.553    22890390.580    95304262.432 7      1492.985    22890390.500    95304261.431 6      1492.985
R22  23415076.360   124991257.651 7       568.620    23415077.680   124991257.657 7       568.620    23415092.440    97215486.276 6       442.260    23415092.300    97215488.274 7       442.260
R12  22377748.720   119537899.501 7     -1387.863    22377749.620   119537899.502 7     -1387.863    22377762.220    92973973.508 7     -1079.449    22377763.140    92973973.509 7     -1079.449
G16  23052670.140   121142584.743 7      -519.054    23052668.280   121142584.750 5      -519.054    23052675.740    94396835.457 5      -404.458
G32  25366482.220   133301769.883 6      3896.011    25366481.420   133301769.882 5      3896.011    25366497.980   103871475.416 5      3035.852    25366498.560   103871575.416 6      3035.852
R24  21994381.300   117613839.320 7      3997.613    21994381.220   117613839.327 7      3997.613    21994394.520    91477483.852 7      3109.255    21994394.680    91477483.854 7      3109.255
R14  22038836.980   117479399.651 7      5149.933    22038836.920   117479399.654 7      5149.933    22038847.680    91372914.168 7      4005.503    22038848.220    91372920.171 7      4005.503
> 2024 06 03 12 02  0.0000000  0 17
G10  23601595.180   124027210.463 7       144.213    23601593.820   124027210.468 7       144.213    23601603.960    96644609.323 7       112.373    23601604.420    96644619.324 7       112.373
G02  21643144.880   113735487.916 7      3135.210    21643142.980   113735487.921 6      3135.210    21643146.020    88625059.788 6      2443.021
G03  23640538.880   124231867.962 7      6513.316    23640537.860   124231867.956 4      6513.316    23640548.820    96804100.766 4      5075.311    23640550.020    96804106.784 7      5075.311
R01  23572878.700   126010545.019 6      6711.760    23572877.860   126010545.052 6      6711.760    23572898.560    98008288.274 6      5220.258    23572897.460    98008285.267 6      5220.258
G08  20835914.080   109493460.264 8      2922.002    20835913.000   109493460.271 8      2922.002    20835919.660    85319603.713 8      2276.884    20835920.580    85319605.717 8      2276.884
G21  20897448.280   109816826.864 7      2138.439    20897446.060   109816826.869 6      2138.439    20897450.320    85571565.904 6      1666.316
G27  22028640.200   115761258.496 7      1252.325    22028639.000   115761258.498 7      1252.325    22028646.120    90203606.637 7       975.838    22028646.640    90203607.638 8       975.838
R23  21015323.520   112417802.936 7      1827.228    21015322.920   112417802.946 7      1827.228
R13  20320300.740   108509260.031 6       818.388    20320299.480   108509260.053 6       818.388    20320308.480    84396130.364 7       636.524    20320308.820    84396129.364 6       636.524
R08  21851816.940   117015486.702 7      4850.598    21851818.440   117015486.749 7      4850.598    21851831.060    91012105.967 7      3772.687    21851830.960    91012107.970 7      3772.687
R07  22890016.640   122532045.429 7      1918.867    22890016.820   122532045.458 7      1918.867    22890032.100    95302769.732 7      1492.452    22890032.180    95302768.731 6      1492.452
R22  23414969.860   124990688.967 7       568.812    23414971.080   124990688.974 7       568.812    23414985.980    97215043.961 7       442.409    23414985.940    97215045.957 7       442.409
R12  22378008.480   119539287.434 7     -1388.093    22378009.860   119539287.446 7     -1388.093    22378021.940    92975053.007 7     -1079.628    22378022.780    92975053.012 7     -1079.628
G16  23052769.040   121143103.819 7      -519.189    23052767.240   121143103.827 5      -519.189    23052774.520    94397239.928 5      -404.563
G32  25365741.040   133297873.836 6      3896.051    25365740.080   133297873.836 5      3896.051    25365756.440   103868439.539 5      3035.884    25365757.140   103868539.540 6      3035.884
R24  21993634.140   117609841.754 7      3997.489    21993633.440   117609841.758 7      3997.489    21993647.220    91474374.632 7      3109.158    21993646.840    91474374.632 7      3109.158
R14  22037870.720   117474249.975 7      5149.347    22037870.920   117474249.979 7      5149.347    22037881.620    91368908.869 8      4005.048    22037882.360    91368914.870 8      4005.048
> 2024 06 03 12 02  1.0000000  0 17
G10  23601567.700   124027066.578 7       143.540    23601566.500   124027066.580 7       143.540    23601576.600    96644497.202 7       111.849    23601577.540    96644507.204 7       111.849
G02  21642548.180   113732352.932 7      3134.818    21642546.540   113732352.940 6      3134.818    21642549.440    88622616.948 6      2442.715
G03  23639299.460   124225354.760 7      6513.088    23639298.460   124225354.757 4      6513.088    23639309.380    96799025.551 4      5075.133    23639310.420    96799031.570 7      5075.133
R01  23571623.400   126003833.186 6      6711.687    23571622.340   126003833.212 6      6711.687    23571642.680    98003067.971 6      5220.201    23571641.880    98003064.968 6      5220.201
G08  20835358.060   109490538.475 8      2921.531    20835356.980   109490538.479 8      2921.531    20835363.720    85317326.998 8      2276.518    20835364.720    85317329.001 8      2276.518
G21  20897041.240   109814688.579 7      2138.010    20897039.120   109814688.584 6      2138.010    20897043.320    85569899.710 6      1665.982
G27  22028401.760   115760006.460 7      1251.834    22028400.660   115760006.468 7      1251.834    22028407.820    90202631.029 7       975.455    22028408.520    90202632.030 8       975.455
R23  21014981.920   112415975.866 7      1826.946    21014981.260   112415975.884 7      1826.946
R13  20320147.720   108508442.282 6       817.191    20320146.640   108508442.307 6       817.191    20320155.580    84395494.342 7       635.593    20320155.560    84395493.337 6       635.593
R08  21850911.120   117010636.516 7      4849.827    21850912.860   117010636.561 7      4849.827    21850925.040    91008333.604 7      3772.088    21850925.100    91008335.608 7      3772.088
R07  22889658.300   122530127.148 7      1917.806    22889657.680   122530127.177 7      1917.806    22889673.480    95301277.742 7      1491.627    22889673.520    95301276.747 7      1491.627
R22  23414863.200   124990120.327 7       568.449    23414864.940   124990120.328 7       568.449    23414879.300    97214601.677 7       442.127    23414879.380    97214603.677 7       442.127
R12  22378268.220   119540675.661 7     -1388.429    22378269.800   119540675.665 7     -1388.429    22378282.040    92976132.731 7     -1079.889    22378282.720    92976132.734 7     -1079.889
G16  23052867.900   121143623.259 7      -519.609    23052866.120   121143623.266 5      -519.609    23052873.380    94397644.682 5      -404.890
G32  25364999.940   133293978.249 6      3895.234    25364998.760   133293978.249 5      3895.234    25365015.000   103865404.019 5      3035.248    25365016.000   103865504.034 6      3035.248
R24  21992886.780   117605844.372 7      3997.221    21992886.020   117605844.368 7      3997.221    21992899.980    91471265.555 7      3108.950    21992899.380    91471265.558 7      3108.950
R14  22036905.060   117469101.044 7      5148.480    22036904.800   117469101.050 7      5148.480    22036915.820    91364904.153 8      4004.373    22036916.200    91364910.153 8      4004.373
> 2024 06 03 12 02  2.0000000  0 17
G10  23601540.540   124026923.029 7       143.234    23601539.240   124026923.039 7       143.234    23601549.280    96644385.345 7       111.611    23601550.220    96644395.347 7       111.611
G02  21641951.700   113729218.262 8      3134.386    21641950.040   113729218.267 6      3134.386    21641952.980    88620174.347 6      2442.379
G03  23638059.700   124218841.751 7      6512.755    23638059.160   124218841.750 4      6512.755    23638069.980    96793950.482 4      5074.874    23638070.880    96793956.494 7      5074.874
R01  23570367.900   125997121.282 6      6711.914    23570367.020   125997121.291 6      6711.914    23570386.820    97997847.591 6      5220.377    23570386.220    97997844.585 6      5220.377
G08  20834802.200   109487616.922 8      2921.371    20834801.040   109487616.927 8      2921.371    20834807.860    85315050.461 8      2276.393    20834808.600    85315052.464 8      2276.393
G21  20896634.420   109812550.584 8      2137.646    20896632.260   109812550.589 6      2137.646    20896636.460    85568233.740 6      1665.698
G27  22028163.480   115758754.640 7      1251.657    22028162.480   115758754.642 7      1251.657    22028169.720    90201655.578 7       975.317    22028169.900    90201656.578 7       975.317
R23  21014640.540   112414148.863 7      1826.832    21014640.060   112414148.883 7      1826.832
R13  20319994.800   108507625.281 6       816.494    20319993.840   108507625.298 6       816.494    20320002.640    84394858.886 7       635.051    20320002.900    84394857.888 6       635.051
R08  21850005.800   117005786.927 7      4849.239    21850007.220   117005786.967 7      4849.239    21850019.640    91004561.704 7      3771.631    21850019.080    91004563.707 7      3771.631
R07  22889299.720   122528209.641 7      1917.019    22889299.840   122528209.667 7      1917.019    22889315.440    95299786.350 6      1491.015    22889315.160    95299785.351 7      1491.015
R22  23414756.080   124989551.489 7       568.834    23414758.500   124989551.496 7       568.834    23414772.840    97214159.243 7       442.427    23414772.800    97214161.241 7       442.427
R12  22378528.220   119542064.101 7     -1388.639    22378529.180   119542064.097 7     -1388.639    22378542.180    92977212.617 7     -1080.053    22378542.660    92977212.624 7     -1080.053
G16  23052966.860   121144142.953 7      -519.880    23052964.940   121144142.958 5      -519.880    23052972.260    94398049.630 5      -405.101
G32  25364258.480   133290082.852 6      3895.312    25364257.400   133290082.852 5      3895.312    25364273.780   103862368.649 5      3035.308    25364275.400   103862468.645 6      3035.308
R24  21992138.920   117601847.181 7      3996.923    21992138.740   117601847.193 7      3996.923    21992152.700    91468156.643 7      3108.718    21992152.280    91468156.641 7      3108.718
R14  22035939.180   117463952.874 7      5147.660    22035939.100   117463952.880 7      5147.660    22035950.160    91360900.025 8      4003.736    22035950.740    91360906.026 8      4003.736
> 2024 06 03 12 02  3.0000000  0 17
G10  23601513.260   124026779.850 7       142.989    23601512.120   124026779.850 7       142.989    23601521.960    96644273.769 7       111.420    23601522.600    96644283.769 7       111.420
G02  21641355.360   113726083.806 8      3134.231    21641353.480   113726083.811 6      3134.231    21641356.360    88617731.916 6      2442.258
G03  23636820.460   124212328.783 7      6512.868    23636819.780   124212328.783 4      6512.868    23636830.620    96788875.449 4      5074.962    23636831.080    96788881.458 7      5074.962
R01  23569112.440   125990409.255 6      6712.064    23569112.060   125990409.283 6      6712.064    23569132.000    97992627.135 6      5220.494    23569130.440    97992624.124 6      5220.494
G08  20834246.180   109484695.600 8      2921.244    20834245.180   109484695.605 8      2921.244    20834251.820    85312774.107 8      2276.294    20834252.520    85312776.112 8      2276.294
G21  20896227.480   109810412.812 8      2137.583    20896225.360   109810412.819 6      2137.583    20896229.780    85566567.946 6      1665.649
G27  22027925.440   115757503.043 8      1251.428    22027924.260   115757503.048 7      1251.428    22027931.420    90200680.308 7       975.139    22027931.900    90200681.311 7       975.139
R23  21014299.140   112412321.894 7      1826.868    21014298.460   112412321.909 7      1826.868
R13  20319841.480   108506809.020 6       815.970    20319840.600   108506809.027 6       815.970    20319849.560    84394224.008 7       634.643    20319849.840    84394223.010 6       634.643
R08  21849100.080   117000937.882 7      4848.703    21849101.880   117000937.927 7      4848.703    21849113.780    91000790.233 7      3771.213    21849113.840    91000792.234 7      3771.213
R07  22888941.540   122526292.894 7      1916.331    22888942.140   122526292.922 7      1916.331    22888957.320    95298295.544 6      1490.480    22888957.240    95298294.545 6      1490.480
R22  23414649.840   124988982.590 7       568.833    23414652.120   124988982.594 7       568.833    23414665.860    97213716.764 7       442.426    23414665.960    97213718.766 7       442.426
R12  22378788.060   119543452.657 7     -1388.647    22378788.900   119543452.655 7     -1388.647    22378802.500    92978292.592 7     -1080.059    22378802.600    92978292.595 7     -1080.059
G16  23053065.780   121144662.862 7      -520.144    23053063.800   121144662.867 5      -520.144    23053071.400    94398454.746 5      -405.307
G32  25363517.320   133286187.791 6      3894.866    25363516.060   133286187.790 5      3894.866    25363532.580   103859333.540 5      3034.960    25363533.800   103859433.540 6      3034.960
R24  21991391.300   117597850.056 7      3997.104    21991391.100   117597850.073 7      3997.104    21991405.280    91465047.772 7      3108.859    21991404.920    91465047.772 7      3108.859
R14  22034973.840   117458805.403 7      5147.095    22034973.420   117458805.411 7      5147.095    22034984.680    91356896.443 7      4003.296    22034984.900    91356902.445 8      4003.296
> 2024 06 03 12 02  4.0000000  0 17
G10  23601486.100   124026637.152 7       142.419    23601484.920   124026637.154 7       142.419    23601494.740    96644162.572 7       110.976    23601495.460    96644172.574 7       110.976
G02  21640759.060   113722949.672 8      3134.056    21640757.080   113722949.679 6      3134.056    21640759.980    88615289.734 6      2442.122
G03  23635580.980   124205816.081 7      6512.651    23635580.420   124205816.076 5      6512.651    23635591.120    96783800.616 4      5074.793    23635591.880    96783806.615 7      5074.793
R01  23567856.400   125983697.273 6      6712.159    23567856.100   125983697.307 6      6712.159    23567876.960    97987406.711 6      5220.568    23567875.020    97987403.708 6      5220.568
G08  20833690.360   109481774.634 8      2920.854    20833689.300   109481774.641 8      2920.854    20833696.040    85310498.029 8      2275.990    20833696.680    85310500.032 8      2275.990
G21  20895820.960   109808275.395 8      2137.244    20895818.760   109808275.400 6      2137.244    20895823.040    85564902.426 6      1665.385
G27  22027687.400   115756251.803 7      1251.073    22027686.180   115756251.805 7      1251.073    22027693.380    90199705.314 7       974.862    22027693.720    90199706.315 7       974.862
R23  21013957.920   112410495.033 7      1826.833    21013956.840   112410495.042 7      1826.833
R13  20319689.360   108505993.619 6       815.023    20319687.440   108505993.630 6       815.023    20319696.960    84393589.811 7       633.907    20319697.520    84393588.807 6       633.907
R08  21848194.680   116996089.549 7      4848.023    21848196.480   116996089.599 7      4848.023    21848208.300    90997019.313 7      3770.684    21848208.560    90997021.315 7      3770.684
R07  22888583.760   122524377.056 7      1915.433    22888584.320   122524377.087 7      1915.433    22888599.540    95296805.448 7      1489.781    22888599.560    95296804.449 7      1489.781
R22  23414543.660   124988413.667 7       568.909    23414545.600   124988413.673 7       568.909    23414559.520    97213274.262 7       442.485    23414559.580    97213276.264 7       442.485
R12  22379048.240   119544841.530 7     -1388.892    22379048.280   119544841.531 7     -1388.892    22379062.640    92979372.819 7     -1080.249    22379062.700    92979372.823 7     -1080.249
G16  23053164.740   121145183.119 7      -520.333    23053162.880   121145183.129 5      -520.333    23053170.320    94398860.135 5      -405.454
G32  25362776.600   133282293.103 6      3894.550    25362775.020   133282293.100 5      3894.550    25362791.300   103856298.722 5      3034.714    25362792.780   103856398.716 6      3034.714
R24  21990644.160   117593853.150 7      3996.825    21990643.960   117593853.157 7      3996.825    21990657.660    91461939.059 7      3108.642    21990657.380    91461939.058 7      3108.642
R14  22034008.320   117453658.726 8      5146.326    22034007.680   117453658.726 7      5146.326    22034019.200    91352893.472 8      4002.698    22034019.440    91352899.474 8      4002.698
> 2024 06 03 12 02  5.0000000  0 17
G10  23601459.100   124026494.827 7       141.788    23601457.920   124026494.830 7       141.788    23601467.720    96644051.672 7       110.484    23601467.840    96644061.676 7       110.484
G02  21640162.680   113719815.860 7      3133.506    21640160.760   113719815.870 6      3133.506    21640163.700    88612847.805 6      2441.693
G03  23634341.740   124199303.484 7      6512.376    23634341.120   124199303.481 5      6512.376    23634351.820    96778725.871 4      5074.579    23634352.300    96778731.873 7      5074.579
R01  23566600.800   125976985.262 6      6711.658    23566599.600   125976985.282 6      6711.658    23566620.720    97982186.269 6      5220.178    23566619.580    97982183.261 6      5220.178
G08  20833134.540   109478853.953 8      2920.233    20833133.540   109478853.958 8      2920.233    20833140.280    85308222.174 8      2275.506    20833141.060    85308224.177 8      2275.506
G21  20895414.300   109806138.277 8      2136.685    20895412.140   109806138.284 6      2136.685    20895416.340    85563237.139 6      1664.949
G27  22027449.260   115755000.803 7      1250.531    22027448.120   115755000.807 7      1250.531    22027455.320    90198730.510 7       974.440    22027455.680    90198731.507 7       974.440
R23  21013616.260   112408668.289 7      1826.482    21013615.240   112408668.296 7      1826.482
R13  20319536.160   108505178.968 6       813.950    20319535.540   108505178.993 6       813.950    20319544.500    84392956.202 7       633.072    20319544.940    84392955.202 6       633.072
R08  21847289.400   116991241.808 7      4847.122    21847290.880   116991241.852 7      4847.122    21847303.120    90993248.852 7      3769.983    21847303.280    90993250.851 7      3769.983
R07  22888226.060   122522462.019 7      1914.281    22888226.340   122522462.045 7      1914.281    22888241.780    95295315.975 7      1488.885    22888241.620    95295314.972 7      1488.885
R22  23414436.640   124987844.655 7       568.841    23414438.900   124987844.670 7       568.841    23414453.240    97212831.706 7       442.432    23414452.900    97212833.706 7       442.432
R12  22379308.100   119546230.601 7     -1389.339    22379308.180   119546230.597 7     -1389.339    22379323.320    92980453.193 7     -1080.597    22379322.700    92980453.197 7     -1080.597
G16  23053263.840   121145703.654 7      -521.109    23053262.000   121145703.661 5      -521.109    23053269.440    94399265.744 5      -406.059
G32  25362035.320   133278398.704 6      3894.023    25362033.780   133278398.703 5      3894.023    25362050.340   103853264.130 5      3034.304    25362051.500   103853364.146 6      3034.304
R24  21989896.580   117589856.386 7      3996.454    21989896.160   117589856.390 7      3996.454    21989910.200    91458830.474 7      3108.353    21989910.040    91458830.468 7      3108.353
R14  22033043.260   117448512.771 7      5145.368    22033042.540   117448512.769 7      5145.368    22033053.840    91348891.064 8      4001.953    22033054.180    91348897.069 8      4001.953
> 2024 06 03 12 02  6.0000000  0 17
G10  23601432.040   124026353.131 7       141.591    23601431.000   124026353.133 7       141.591    23601440.640    96643941.255 7       110.331    23601441.280    96643951.261 7       110.331
G02  21639566.440   113716682.603 7      3133.180    21639564.500   113716682.611 6      3133.180    21639567.560    88610406.308 6      2441.439
G03  23633102.820   124192791.352 7      6512.207    23633101.840   124192791.352 5      6512.207    23633112.640    96773651.489 4      5074.447    23633113.260    96773657.482 7      5074.447
R01  23565345.620   125970273.433 6      6711.958    23565343.520   125970273.437 6      6711.958    23565365.960    97976965.953 6      5220.412    23565364.160    97976962.951 6      5220.412
G08  20832578.820   109475933.782 8      2920.100    20832577.820   109475933.787 8      2920.100    20832584.520    85305946.718 8      2275.402    20832585.180    85305948.719 8      2275.402
G21  20895007.580   109804001.708 7      2136.492    20895005.440   109804001.716 6      2136.492    20895009.640    85561572.280 6      1664.799
G27  22027211.220   115753750.293 8      1250.602    22027210.080   115753750.296 7      1250.602    22027217.420    90197756.083 7       974.495    22027218.100    90197757.087 7       974.495
R23  21013274.980   112406841.869 7      1826.424    21013273.880   112406841.878 7      1826.424
R13  20319383.580   108504365.368 6       813.464    20319382.960   108504365.380 6       813.464    20319392.260    84392323.392 7       632.694    20319392.840    84392322.392 6       632.694
R08  21846384.160   116986394.939 7      4846.760    21846385.600   116986394.981 7      4846.760    21846398.300    90989479.067 7      3769.702    21846398.040    90989481.067 7      3769.702
R07  22887868.540   122520547.994 7      1913.770    22887868.420   122520548.012 7      1913.770    22887884.380    95293827.276 7      1488.487    22887884.380    95293826.277 6      1488.487
R22  23414330.020   124987275.826 7       569.008    23414332.480   124987275.834 7       569.008    23414346.640    97212389.274 7       442.562    23414346.420    97212391.278 7       442.562
R12  22379568.440   119547620.180 7     -1389.540    22379568.320   119547620.175 7     -1389.540    22379583.300    92981533.963 7     -1080.754    22379583.040    92981533.966 7     -1080.754
G16  23053362.960   121146224.675 7      -521.000    23053361.000   121146224.685 5      -521.000    23053368.580    94399671.726 5      -405.974
G32  25361294.360   133274504.885 6      3893.692    25361292.720   133274504.885 5      3893.692    25361309.320   103850229.990 5      3034.046    25361310.380   103850329.992 6      3034.046
R24  21989149.340   117585860.104 7      3996.155    21989148.880   117585860.110 7      3996.155    21989162.740    91455722.256 7      3108.121    21989162.680    91455722.250 7      3108.121
R14  22032078.040   117443367.792 7      5144.671    22032077.340   117443367.793 7      5144.671    22032088.820    91344889.422 8      4001.411    22032088.920    91344895.427 8      4001.411
> 2024 06 03 12 02  7.0000000  0 17
G10  23601404.940   124026211.707 7       141.046    23601404.000   124026211.712 7       141.046    23601413.780    96643831.055 7       109.906    23601414.220    96643841.054 7       109.906
G02  21638970.220   113713549.564 8      3132.729    21638968.220   113713549.569 6      3132.729    21638971.380    88607964.980 6      2441.088
G03  23631863.320   124186279.315 7      6511.795    23631862.480   124186279.312 5      6511.795    23631873.480    96768577.178 4      5074.126    23631874.340    96768583.167 7      5074.126
R01  23564090.600   125963561.464 6      6711.611    23564088.200   125963561.473 6      6711.611    23564109.520    97971745.545 6      5220.142    23564108.320    97971742.548 6      5220.142
G08  20832023.280   109473013.775 8      2919.733    20832022.200   109473013.780 8      2919.733    20832028.840    85303671.388 8      2275.117    20832029.640    85303673.390 8      2275.117
G21  20894601.040   109801865.347 7      2136.030    20894599.000   109801865.355 6      2136.030    20894603.100    85559907.587 6      1664.439
G27  22026973.140   115752499.957 7      1249.979    22026972.200   115752499.960 7      1249.979    22026979.360    90196781.798 7       974.009    22026979.940    90196782.797 7       974.009
R23  21012933.360   112405015.405 7      1826.235    21012932.660   112405015.412 7      1826.235
R13  20319231.660   108503552.527 6       812.473    20319231.000   108503552.534 6       812.473    20319239.840    84391691.178 7       631.923    20319240.460    84391690.174 6       631.923
R08  21845479.120   116981548.630 7      4845.741    21845480.840   116981548.675 7      4845.741    21845493.360    90985709.724 7      3768.909    21845493.140    90985711.726 7      3768.909
R07  22887510.940   122518634.598 7      1912.830    22887511.040   122518634.621 7      1912.830    22887527.080    95292339.092 7      1487.757    22887527.000    95292338.089 6      1487.757
R22  23414223.700   124986706.798 7       568.776    23414225.700   124986706.799 7       568.776    23414239.640    97211946.683 6       442.381    23414240.120    97211948.685 7       442.381
R12  22379828.660   119549009.881 7     -1389.987    22379828.500   119549009.885 7     -1389.987    22379843.180    92982614.834 7     -1081.101    22379843.020    92982614.837 7     -1081.101
G16  23053462.040   121146745.898 7      -521.449    23053460.100   121146745.905 5      -521.449    23053467.840    94400077.870 5      -406.324
G32  25360553.180   133270611.198 6      3893.339    25360551.760   133270611.206 5      3893.339    25360568.200   103847195.962 5      3033.771    25360568.880   103847295.981 6      3033.771
R24  21988401.880   117581863.928 7      3995.816    21988401.620   117581863.945 7      3995.816    21988415.180    91452614.123 7      3107.857    21988415.080    91452614.124 7      3107.857
R14  22031112.900   117438223.450 7      5143.823    22031112.140   117438223.453 7      5143.823    22031123.640    91340888.280 7      4000.751    22031124.020    91340894.280 8      4000.751
> 2024 06 03 12 02  8.0000000  0 17
G10  23601378.320   124026071.003 7       140.322    23601377.160   124026071.006 7       140.322    23601386.920    96643721.411 7       109.342    23601387.580    96643731.417 7       109.342
G02  21638374.040   113710417.072 8      3132.269    21638372.060   113710417.074 6      3132.269    21638375.220    88605524.073 6      2440.729
G03  23630624.120   124179767.664 7      6511.277    23630623.540   124179767.661 5      6511.277    23630634.460    96763503.171 5      5073.722    23630634.960    96763509.172 7      5073.722
R01  23562834.560   125956849.680 6      6711.554    23562833.280   125956849.692 6      6711.554    23562853.800    97966525.285 6      5220.097    23562852.560    97966522.286 6      5220.097
G08  20831467.820   109470094.356 8      2919.099    20831466.620   109470094.360 8      2919.099    20831473.260    85301396.518 8      2274.623    20831474.100    85301398.518 8      2274.623
G21  20894194.420   109799729.551 8      2135.490    20894192.560   109799729.556 6      2135.490    20894196.760    85558243.329 6      1664.018
G27  22026735.360   115751250.184 7      1249.342    22026734.440   115751250.189 7      1249.342    22026741.600    90195807.948 7       973.513    22026742.000    90195808.949 7       973.513
R23  21012591.800   112403189.312 7      1825.864    21012591.280   112403189.321 7      1825.864
R13  20319079.400   108502740.738 6       811.151    20319079.180   108502740.774 6       811.151    20319088.140    84391059.810 7       630.895    20319088.380    84391058.809 6       630.895
R08  21844574.380   116976703.221 7      4844.928    21844575.980   116976703.263 7      4844.928    21844588.380    90981941.079 7      3768.277    21844587.960    90981943.082 7      3768.277
R07  22887153.720   122516722.336 7      1911.666    22887153.800   122516722.359 7      1911.666    22887169.780    95290851.769 7      1486.851    22887169.560    95290850.770 7      1486.851
R22  23414116.820   124986137.990 7       568.646    23414118.820   124986137.983 7       568.646    23414133.260    97211504.274 7       442.280    23414133.260    97211506.266 7       442.280
R12  22380088.960   119550400.050 7     -1390.565    22380089.000   119550400.054 7     -1390.565    22380103.560    92983696.070 7     -1081.551    22380103.460    92983696.073 7     -1081.551
G16  23053561.320   121147267.676 7      -522.078    23053559.580   121147267.683 5      -522.078    23053567.080    94400484.444 5      -406.814
G32  25359812.580   133266718.194 6      3892.635    25359810.920   133266718.202 5      3892.635    25359827.440   103844162.459 5      3033.222    25359827.780   103844262.457 6      3033.222
R24  21987655.060   117577868.210 7      3995.447    21987654.980   117577868.224 7      3995.447    21987667.660    91449506.342 7      3107.570    21987667.620    91449506.343 7      3107.570
R14  22030147.920   117433080.097 7      5142.803    22030147.440   117433080.105 7      5142.803    22030159.040    91336887.900 8      3999.958    22030159.400    91336893.905 8      3999.958
> 2024 06 03 12 02  9.0000000  0 17
G10  23601351.560   124025930.686 7       140.194    23601350.520   124025930.694 7       140.194    23601360.280    96643612.075 7       109.242    23601360.320    96643622.079 7       109.242
G02  21637777.820   113707284.826 8      3132.205    21637775.940   113707284.826 6      3132.205    21637779.320    88603083.364 6      2440.679
G03  23629385.060   124173256.139 7      6511.416    23629384.300   124173256.136 5      6511.416    23629395.500    96758429.259 5      5073.831    23629396.160    96758435.264 7      5073.831
R01  23561578.960   125950137.827 6      6712.159    23561577.880   125950137.831 6      6712.159    23561597.780    97961304.953 6      5220.568    23561596.400    97961301.950 6      5220.568
G08  20830912.300   109467175.186 8      2919.075    20830911.160   109467175.193 8      2919.075    20830917.760    85299121.842 8      2274.604    20830918.880    85299123.847 8      2274.604
G21  20893788.120   109797594.010 8      2135.520    20893786.280   109797594.020 6      2135.520    20893790.500    85556579.272 6      1664.042
G27  22026497.640   115750000.657 7      1249.408    22026496.560   115750000.665 7      1249.408    22026503.840    90194834.293 7       973.565    22026504.120    90194835.294 7       973.565
R23  21012250.720   112401363.271 7      1826.148    21012249.800   112401363.275 7      1826.148
R13  20318927.860   108501929.673 6       810.763    20318926.440   108501929.709 6       810.763    20318936.240    84390428.981 7       630.594    20318936.560    84390427.979 6       630.594
R08  21843669.320   116971858.409 7      4844.572    21843671.120   116971858.459 7      4844.572    21843683.620    90978172.902 7      3768.001    21843683.300    90978174.899 7      3768.001
R07  22886796.640   122514810.841 7      1911.114    22886796.780   122514810.864 7      1911.114    22886812.560    95289365.056 7      1486.422    22886812.560    95289364.057 6      1486.422
R22  23414010.000   124985569.096 7       568.991    23414012.160   124985569.107 7       568.991    23414026.640    97211061.807 7       442.549    23414026.680    97211063.809 7       442.549
R12  22380349.380   119551790.392 7     -1390.331    22380349.520   119551790.393 7     -1390.331    22380363.500    92984777.429 7     -1081.369    22380363.760    92984777.436 7     -1081.369
G16  23053660.480   121147789.698 7      -522.036    23053658.920   121147789.708 5      -522.036    23053666.520    94400891.209 5      -406.781
G32  25359071.460   133262825.482 6      3892.712    25359070.260   133262825.482 5      3892.712    25359086.800   103841129.181 5      3033.282    25359087.720   103841229.181 6      3033.282
R24  21986907.480   117573872.582 7      3995.668    21986907.520   117573872.597 7      3995.668    21986920.440    91446398.634 7      3107.742    21986920.720    91446398.639 7      3107.742
R14  22029183.320   117427937.447 7      5142.339    22029182.880   117427937.447 7      5142.339    22029194.140    91332888.063 7      3999.597    22029194.500    91332894.068 7      3999.597
> 2024 06 03 12 02 10.0000000  0 17
G10  23601325.160   124025790.779 7       139.730    23601323.840   124025790.784 7       139.730    23601333.640    96643503.054 7       108.880    23601334.420    96643513.054 7       108.880
G02  21637181.920   113704152.841 8      3131.986    21637180.000   113704152.840 6      3131.986    21637183.280    88600642.856 6      2440.509
G03  23628145.900   124166744.703 6      6511.569    23628145.160   124166744.706 5      6511.569    23628156.420    96753355.419 5      5073.950    23628157.440    96753361.437 7      5073.950
R01  23560323.400   125943425.944 6      6712.106    23560322.400   125943425.948 6      6712.106    23560341.600    97956084.604 6      5220.527    23560340.780    97956081.594 6      5220.527
G08  20830356.780   109464256.271 8      2918.929    20830355.720   109464256.274 8      2918.929    20830362.380    85296847.361 8      2274.490    20830363.060    85296849.364 8      2274.490
G21  20893382.060   109795458.749 8      2135.211    20893380.080   109795458.757 6      2135.211    20893384.260    85554915.431 6      1663.800
G27  22026259.760   115748751.391 7      1249.261    22026258.880   115748751.398 7      1249.261    22026266.080    90193860.837 7       973.450    22026266.740    90193861.838 7       973.450
R23  21011909.120   112399537.292 7      1826.058    21011908.560   112399537.294 7      1826.058
R13  20318775.980   108501119.392 6       810.187    20318775.800   108501119.442 6       810.187    20318784.300    84389798.767 7       630.146    20318784.820    84389797.761 6       630.146
R08  21842764.680   116967014.205 7      4844.029    21842766.400   116967014.249 7      4844.029    21842779.040    90974405.188 7      3767.578    21842778.600    90974407.189 7      3767.578
R07  22886439.500   122512900.148 7      1910.318    22886439.880   122512900.179 7      1910.318    22886455.940    95287878.966 6      1485.803    22886455.740    95287877.965 6      1485.803
R22  23413903.700   124985000.138 7       569.139    23413905.880   124985000.144 7       569.139    23413920.100    97210619.280 7       442.664    23413920.220    97210621.274 7       442.664
R12  22380609.440   119553180.964 7     -1390.520    22380610.140   119553180.968 7     -1390.520    22380623.580    92985858.972 7     -1081.515    22380623.880    92985858.979 7     -1081.515
G16  23053759.560   121148311.991 7      -522.257    23053758.220   121148312.003 5      -522.257    23053765.780    94401298.186 5      -406.953
G32  25358330.240   133258933.117 6      3892.281    25358329.500   133258933.116 5      3892.281    25358346.180   103838096.171 5      3032.947    25358346.960   103838196.173 6      3032.947
R24  21986160.480   117569877.075 7      3995.524    21986160.360   117569877.087 7      3995.524    21986173.460    91443291.015 7      3107.630    21986173.260    91443291.020 7      3107.630
R14  22028218.980   117422795.517 7      5141.659    22028218.480   117422795.512 7      5141.659    22028229.600    91328888.782 8      3999.068    22028230.120    91328894.789 8      3999.068
> 2024 06 03 12 02 11.0000000  0 17
G10  23601298.380   124025651.155 7       139.457    23601297.280   124025651.157 7       139.457    23601307.040    96643394.253 7       108.668    23601308.080    96643404.256 7       108.668
G02  21636585.920   113701021.063 7      3131.698    21636583.960   113701021.068 6      3131.698    21636587.320    88598202.514 6      2440.284
G03  23626906.860   124160233.381 7      6511.293    23626906.260   124160233.383 5      6511.293    23626917.480    96748281.668 5      5073.735    23626918.240    96748287.679 7      5073.735
R01  23559067.420   125936713.887 6      6712.143    23559066.980   125936713.894 6      6712.143    23559086.040    97950864.117 6      5220.556    23559085.380    97950861.112 6      5220.556
G08  20829801.240   109461337.562 8      2918.616    20829800.340   109461337.564 8      2918.616    20829806.960    85294573.044 8      2274.246    20829807.760    85294575.046 8      2274.246
G21  20892975.760   109793323.692 8      2134.918    20892973.660   109793323.702 6      2134.918    20892977.920    85553251.752 6      1663.572
G27  22026022.260   115747502.293 7      1249.037    22026021.120   115747502.295 7      1249.037    22026028.380    90192887.509 7       973.275    22026029.020    90192888.511 7       973.275
R23  21011567.900   112397711.300 7      1826.006    21011567.120   112397711.312 7      1826.006
R13  20318624.160   108500309.817 6       809.430    20318623.700   108500309.831 6       809.430    20318632.900    84389169.072 7       629.556    20318632.920    84389168.068 6       629.556
R08  21841860.240   116962170.528 7      4843.375    21841862.080   116962170.570 7      4843.375    21841874.400    90970637.892 7      3767.069    21841874.280    90970639.891 7      3767.069
R07  22886082.860   122510990.185 7      1909.618    22886083.140   122510990.208 7      1909.618    22886098.820    95286393.431 7      1485.259    22886099.060    95286392.430 7      1485.259
R22  23413797.160   124984430.988 7       569.332    23413799.240   124984431.002 6       569.332    23413813.420    97210176.610 6       442.813    23413813.580    97210178.612 7       442.813
R12  22380870.260   119554571.614 7     -1390.716    22380870.240   119554571.609 7     -1390.716    22380883.960    92986940.576 7     -1081.668    22380884.340    92986940.575 7     -1081.668
G16  23053859.380   121148834.436 7      -522.528    23053857.620   121148834.448 5      -522.528    23053865.200    94401705.284 5      -407.165
G32  25357589.920   133255040.893 6      3892.243    25357588.860   133255040.890 5      3892.243    25357605.580   103835063.272 5      3032.917    25357606.300   103835163.278 6      3032.917
R24  21985413.120   117565881.621 7      3995.546    21985413.260   117565881.628 7      3995.546    21985426.540    91440183.438 7      3107.647    21985426.240    91440183.443 7      3107.647
R14  22027254.280   117417654.272 7      5140.921    22027253.820   117417654.267 7      5140.921    22027265.100    91324890.046 8      3998.494    22027265.340    91324896.051 8      3998.494
> 2024 06 03 12 02 12.0000000  0 17
G10  23601271.860   124025511.925 7       139.015    23601270.760   124025511.922 7       139.015    23601280.540    96643285.754 7       108.323    23601281.820    96643295.754 7       108.323
G02  21635990.000   113697889.603 8      3131.272    21635988.040   113697889.608 6      3131.272    21635991.540    88595762.418 6      2439.952
G03  23625668.020   124153722.216 7      6511.067    23625667.360   124153722.218 5      6511.067    23625678.700    96743208.039 5      5073.559    23625679.460    96743214.048 7      5073.559
R01  23557811.820   125930001.788 6      6712.028    23557810.280   125930001.797 6      6712.028    23557830.640    97945643.610 6      5220.466    23557830.180    97945640.605 6      5220.466
G08  20829245.880   109458419.125 8      2918.299    20829244.940   109458419.127 8      2918.299    20829251.500    85292298.938 8      2273.999    20829252.420    85292300.940 8      2273.999
G21  20892569.540   109791188.920 8      2134.645    20892567.460   109791188.930 6      2134.645    20892571.620    85551588.298 6      1663.359
G27  22025784.880   115746253.454 7      1248.773    22025783.460   115746253.457 7      1248.773    22025790.680    90191914.387 7       973.070    22025791.420    90191915.388 8       973.070
R23  21011226.800   112395885.390 7      1825.860    21011225.800   112395885.405 7      1825.860
R13  20318472.940   108499501.053 6       808.303    20318472.860   108499501.059 6       808.303    20318481.520    84388540.023 7       628.680    20318481.560    84388539.027 6       628.680
R08  21840956.060   116957327.504 7      4842.716    21840957.480   116957327.549 7      4842.716    21840969.980    90966871.098 7      3766.557    21840969.740    90966873.097 7      3766.557
R07  22885726.660   122509081.058 7      1908.762    22885726.540   122509081.078 7      1908.762    22885742.220    95284908.550 6      1484.592    22885742.640    95284907.549 7      1484.592
R22  23413690.720   124983861.792 7       569.362    23413692.800   124983861.790 6       569.362    23413706.500    97209733.882 7       442.837    23413706.960    97209735.886 7       442.837
R12  22381130.360   119555962.482 7     -1391.035    22381130.640   119555962.481 7     -1391.035    22381144.000    92988022.356 7     -1081.916    22381144.580    92988022.357 7     -1081.916
G16  23053958.900   121149357.162 7      -522.802    23053957.020   121149357.175 5      -522.802    23053964.680    94402112.597 5      -407.378
G32  25356849.860   133251149.046 6      3891.647    25356848.160   133251149.051 5      3891.647    25356864.940   103832030.673 5      3032.452    25356865.900   103832130.679 6      3032.452
R24  21984666.240   117561886.365 7      3995.205    21984666.100   117561886.374 7      3995.205    21984679.480    91437076.021 7      3107.382    21984679.360    91437076.021 7      3107.382
R14  22026289.960   117412513.743 7      5140.179    22026289.300   117412513.736 7      5140.179    22026300.560    91320891.856 8      3997.917    22026300.940    91320897.863 8      3997.917
> 2024 06 03 12 02 13.0000000  0 17
G10  23601245.520   124025373.193 7       138.429    23601244.220   124025373.192 7       138.429    23601254.140    96643177.648 7       107.867    23601254.920    96643187.648 7       107.867
G02  21635394.220   113694758.572 7      3130.811    21635392.260   113694758.571 6      3130.811    21635395.640    88593322.651 6      2439.593
G03  23624428.820   124147211.366 7      6510.730    23624428.480   124147211.366 5      6510.730    23624439.820    96738134.653 5      5073.296    23624440.540    96738140.671 7      5073.296
R01  23556556.620   125923289.793 6      6711.856    23556554.220   125923289.810 6      6711.856    23556575.180    97940423.184 6      5220.332    23556574.520    97940420.172 6      5220.332
G08  20828690.720   109455501.088 8      2917.823    20828689.660   109455501.090 8      2917.823    20828696.300    85290025.142 8      2273.628    20828696.960    85290027.145 8      2273.628
G21  20892163.360   109789054.593 8      2134.093    20892161.320   109789054.600 6      2134.093    20892165.340    85549925.185 6      1662.930
G27  22025547.160   115745005.005 8      1248.277    22025545.980   115745005.005 7      1248.277    22025553.100    90190941.571 7       972.683    22025553.640    90190942.570 8       972.683
R23  21010885.220   112394059.695 7      1825.581    21010884.920   112394059.699 7      1825.581
R13  20318321.880   108498693.191 6       807.272    20318321.340   108498693.211 6       807.272    20318329.940    84387911.697 7       627.878    20318330.560    84387910.701 6       627.878
R08  21840051.620   116952485.254 7      4841.815    21840053.360   116952485.296 7      4841.815    21840065.860    90963104.910 7      3765.856    21840065.660    90963106.907 7      3765.856
R07  22885370.380   122507172.849 7      1907.749    22885370.340   122507172.872 7      1907.749    22885386.020    95283424.390 7      1483.805    22885386.020    95283423.385 7      1483.805
R22  23413583.840   124983292.623 7       569.115    23413585.800   124983292.614 6       569.115    23413600.260    97209291.184 6       442.645    23413600.040    97209293.184 7       442.645
R12  22381390.640   119557353.735 7     -1391.433    22381390.980   119557353.726 7     -1391.433    22381403.800    92989104.432 7     -1082.226    22381404.820    92989104.430 7     -1082.226
G16  23054058.320   121149880.337 7      -523.451    23054056.500   121149880.345 5      -523.451    23054064.280    94402520.260 5      -407.884
G32  25356109.080   133247257.589 6      3891.221    25356107.360   133247257.594 5      3891.221    25356124.340   103828998.376 5      3032.120    25356125.120   103829098.388 6      3032.120
R24  21983919.120   117557891.414 7      3994.845    21983918.760   117557891.421 7      3994.845    21983932.540    91433968.841 7      3107.102    21983932.060    91433968.839 7      3107.102
R14  22025325.620   117407374.074 7      5139.163    22025324.940   117407374.079 7      5139.163    22025336.400    91316894.353 8      3997.127    22025336.580    91316900.360 8      3997.127
> 2024 06 03 12 02 14.0000000  0 17
G10  23601219.320   124025234.880 7       138.063    23601217.980   124025234.885 7       138.063    23601227.780    96643069.874 7       107.582    23601228.520    96643079.872 7       107.582
G02  21634798.460   113691627.855 7      3130.435    21634796.500   113691627.855 6      3130.435    21634799.940    88590883.131 6      2439.300
G03  23623190.160   124140700.705 7      6510.482    23623189.600   124140700.708 5      6510.482    23623201.000    96733061.418 5      5073.103    23623201.440    96733067.441 7      5073.103
R01  23555301.200   125916577.776 6      6712.000    23555299.300   125916577.786 6      6712.000    23555319.640    97935202.727 6      5220.444    23555319.080    97935199.721 6      5220.444
G08  20828135.520   109452583.356 8      2917.466    20828134.420   109452583.363 8      2917.466    20828141.040    85287751.589 8      2273.350    20828141.700    85287753.589 8      2273.350
G21  20891757.360   109786920.578 7      2133.748    20891755.220   109786920.583 6      2133.748    20891759.380    85548262.313 6      1662.661
G27  22025309.440   115743756.848 7      1247.991    22025308.340   115743756.847 7      1247.991    22025315.680    90189968.976 7       972.460    22025316.220    90189969.980 7       972.460
R23  21010543.980   112392234.096 7      1825.495    21010543.300   112392234.097 7      1825.495
R13  20318170.800   108497886.139 6       806.587    20318170.240   108497886.164 6       806.587    20318179.020    84387283.996 7       627.345    20318179.560    84387282.993 6       627.345
R08  21839147.460   116947643.604 7      4841.299    21839148.900   116947643.649 7      4841.299    21839161.760    90959339.188 7      3765.455    21839161.520    90959341.189 7      3765.455
R07  22885013.460   122505265.456 7      1906.891    22885013.580   122505265.471 7      1906.891    22885029.580    95281940.854 6      1483.137    22885029.740    95281939.853 7      1483.137
R22  23413477.760   124982723.364 7       569.209    23413478.680   124982723.359 7       569.209    23413493.600    97208848.435 6       442.718    23413493.680    97208850.431 7       442.718
R12  22381651.360   119558745.223 7     -1391.664    22381651.260   119558745.214 7     -1391.664    22381664.340    92990186.692 7     -1082.405    22381665.080    92990186.697 7     -1082.405
G16  23054158.200   121150403.784 7      -523.663    23054156.060   121150403.794 5      -523.663    23054163.900    94402928.132 5      -408.049
G32  25355368.540   133243366.464 6      3891.096    25355367.060   133243366.469 5      3891.096    25355383.840   103825966.336 5      3032.023    25355384.560   103826066.345 6      3032.023
R24  21983171.980   117553896.671 7      3994.498    21983171.860   117553896.681 7      3994.498    21983185.560    91430861.817 7      3106.832    21983185.120    91430861.815 7      3106.832
R14  22024361.300   117402235.158 7      5138.483    22024360.740   117402235.164 7      5138.483    22024372.320    91312897.421 8      3996.598    22024372.540    91312903.424 8      3996.598
> 2024 06 03 12 02 15.0000000  0 17
G10  23601193.080   124025097.019 7       137.567    23601191.840   124025097.022 7       137.567    23601201.660    96642962.446 7       107.195    23601202.240    96642972.450 7       107.195
G02  21634202.840   113688497.417 7      3130.320    21634200.840   113688497.420 6      3130.320    21634204.220    88588443.833 6      2439.211
G03  23621951.620   124134190.200 7      6510.319    23621950.880   124134190.202 5      6510.319    23621962.080    96727988.303 5      5072.976    23621962.320    96727994.322 7      5072.976
R01  23554045.460   125909865.728 6      6711.978    23554043.680   125909865.726 6      6711.978    23554064.020    97929982.242 6      5220.427    23554063.200    97929979.237 6      5220.427
G08  20827580.400   109449665.931 8      2917.214    20827579.240   109449665.933 8      2917.214    20827585.820    85285478.269 8      2273.154    20827586.840    85285480.267 8      2273.154
G21  20891351.200   109784786.879 7      2133.456    20891349.400   109784786.883 6      2133.456    20891353.340    85546599.692 6      1662.433
G27  22025071.880   115742508.997 7      1247.616    22025070.920   115742508.997 7      1247.616    22025078.300    90188996.626 7       972.168    22025078.740    90188997.623 7       972.168
R23  21010202.880   112390408.625 7      1825.318    21010202.420   112390408.626 7      1825.318
R13  20318020.100   108497079.904 6       805.948    20318019.080   108497079.921 6       805.948    20318028.060    84386656.911 7       626.849    20318028.660    84386655.911 6       626.849
R08  21838243.100   116942802.591 7      4840.595    21838244.820   116942802.644 7      4840.595    21838257.880    90955573.972 7      3764.907    21838257.440    90955575.978 7      3764.907
R07  22884657.500   122503358.861 7      1906.201    22884656.980   122503358.887 7      1906.201    22884673.440    95280457.955 7      1482.601    22884673.380    95280456.952 7      1482.601
R22  23413370.940   124982154.094 7       569.273    23413372.040   124982154.094 7       569.273    23413387.040    97208405.672 6       442.768    23413386.920    97208407.663 7       442.768
R12  22381911.820   119560136.933 7     -1391.917    22381911.240   119560136.916 7     -1391.917    22381925.260    92991269.116 7     -1082.602    22381925.860    92991269.121 7     -1082.602
G16  23054257.860   121150927.516 7      -523.975    23054255.800   121150927.524 5      -523.975    23054263.700    94403336.231 5      -408.292
G32  25354628.400   133239475.717 6      3890.596    25354626.840   133239475.722 5      3890.596    25354643.600   103822934.592 5      3031.633    25354644.420   103823034.608 6      3031.633
R24  21982424.840   117549902.084 7      3994.481    21982424.860   117549902.093 7      3994.481    21982438.280    91427754.911 7      3106.818    21982438.240    91427754.908 7      3106.818
R14  22023397.380   117397096.999 7      5137.861    22023396.600   117397097.005 7      5137.861    22023408.160    91308901.084 8      3996.114    22023408.540    91308907.088 8      3996.114
> 2024 06 03 12 02 16.0000000  0 17
G10  23601166.860   124024959.550 7       137.298    23601165.560   124024959.555 7       137.298    23601175.520    96642855.325 7       106.985    23601175.840    96642865.329 7       106.985
G02  21633607.160   113685367.214 7      3129.937    21633605.160   113685367.213 6      3129.937    21633608.480    88586004.718 6      2438.912
G03  23620712.420   124127679.750 7      6510.321    23620712.060   124127679.749 5      6510.321    23620723.140    96722915.226 5      5072.977    23620723.780    96722921.240 7      5072.977
R01  23552789.780   125903153.572 6      6712.098    23552788.600   125903153.579 6      6712.098    23552808.340    97924761.696 6      5220.520    23552807.320    97924758.694 6      5220.520
G08  20827025.220   109446748.755 8      2916.914    20827024.100   109446748.765 8      2916.914    20827030.840    85283205.149 8      2272.920    20827031.800    85283207.152 8      2272.920
G21  20890945.100   109782653.381 7      2133.302    20890943.320   109782653.389 6      2133.302    20890947.300    85544937.229 6      1662.314
G27  22024834.600   115741261.391 7      1247.498    22024833.500   115741261.396 7      1247.498    22024840.840    90188024.467 7       972.076    22024841.440    90188025.469 8       972.076
R23  21009861.340   112388583.186 7      1825.300    21009861.060   112388583.204 7      1825.300
R13  20317868.800   108496274.352 6       805.005    20317868.500   108496274.406 6       805.005    20317877.240    84386030.396 7       626.115    20317877.560    84386029.395 6       626.115
R08  21837339.260   116937962.240 7      4840.004    21837340.860   116937962.287 7      4840.004    21837353.700    90951809.253 7      3764.448    21837353.400    90951811.254 7      3764.448
R07  22884301.720   122501453.112 7      1905.371    22884301.460   122501453.145 7      1905.371    22884317.340    95278975.712 7      1481.955    22884317.440    95278974.712 7      1481.955
R22  23413264.760   124981584.775 6       569.353    23413266.100   124981584.779 6       569.353    23413280.280    97207962.866 6       442.830    23413280.400    97207964.862 7       442.830
R12  22382172.540   119561528.787 7     -1392.028    22382171.180   119561528.772 7     -1392.028    22382185.720    92992351.659 7     -1082.689    22382186.220    92992351.672 7     -1082.689
G16  23054357.320   121151451.488 7      -524.176    23054355.660   121151451.501 5      -524.176    23054363.440    94403744.513 5      -408.449
G32  25353887.900   133235585.323 6      3890.228    25353886.640   133235585.328 5      3890.228    25353903.300   103819903.121 5      3031.346    25353903.980   103820003.140 6      3031.346
R24  21981677.720   117545907.515 7      3994.301    21981678.140   117545907.524 7      3994.301    21981690.860    91424648.058 7      3106.678    21981691.120    91424648.052 7      3106.678
R14  22022433.820   117391959.491 7      5137.056    22022432.700   117391959.499 7      5137.056    22022444.420    91304905.260 7      3995.488    22022445.020    91304911.265 8      3995.488
> 2024 06 03 12 02 17.0000000  0 17
G10  23601140.940   124024822.630 7       136.375    23601139.500   124024822.635 7       136.375    23601149.400    96642748.635 7       106.266    23601149.900    96642758.634 7       106.266
G02  21633011.660   113682237.377 7      3129.740    21633009.420   113682237.380 6      3129.740    21633012.900    88583565.884 6      2438.759
G03  23619473.540   124121169.588 7      6510.209    23619473.120   124121169.585 5      6510.209    23619484.180    96717842.382 5      5072.890    23619484.760    96717848.391 7      5072.890
R01  23551534.520   125896441.508 6      6711.962    23551533.400   125896441.522 6      6711.962    23551552.980    97919541.213 6      5220.415    23551551.600    97919538.200 6      5220.415
G08  20826470.240   109443831.972 8      2916.451    20826468.980   109443831.974 8      2916.451    20826475.680    85280932.326 8      2272.559    20826476.860    85280934.329 8      2272.559
G21  20890539.420   109780520.310 8      2132.847    20890537.400   109780520.317 6      2132.847    20890541.560    85543275.099 6      1661.959
G27  22024597.300   115740014.224 7      1246.673    22024596.080   115740014.227 7      1246.673    22024603.540    90187052.643 7       971.434    22024604.200    90187053.642 8       971.434
R23  21009520.180   112386757.951 7      1825.029    21009520.140   112386757.960 7      1825.029
R13  20317717.840   108495469.707 6       804.442    20317717.600   108495469.757 6       804.442    20317726.520    84385404.553 7       625.677    20317726.480    84385403.559 6       625.677
R08  21836436.140   116933122.718 7      4838.776    21836436.980   116933122.766 7      4838.776    21836449.840    90948045.182 7      3763.493    21836449.600    90948047.182 7      3763.493
R07  22883945.580   122499548.288 7      1904.054    22883945.420   122499548.322 7      1904.054    22883961.700    95277494.182 7      1480.931    22883961.420    95277493.183 7      1480.931
R22  23413157.000   124981015.516 6       568.907    23413159.180   124981015.519 6       568.907    23413173.200    97207520.103 7       442.484    23413173.600    97207522.101 7       442.484
R12  22382433.020   119562920.983 7     -1392.223    22382431.820   119562920.974 7     -1392.223    22382446.620    92993434.472 7     -1082.840    22382447.220    92993434.483 7     -1082.840
G16  23054457.020   121151975.849 7      -524.512    23054455.580   121151975.861 5      -524.512    23054463.220    94404153.101 5      -408.711
G32  25353148.360   133231695.369 6      3889.568    25353146.580   133231695.374 5      3889.568    25353163.000   103816871.995 5      3030.832    25353163.580   103816971.999 6      3030.832
R24  21980930.860   117541913.208 7      3994.353    21980931.440   117541913.210 7      3994.353    21980943.840    91421541.375 7      3106.719    21980944.480    91421541.373 7      3106.719
R14  22021469.940   117386822.835 7      5136.255    22021468.460   117386822.836 7      5136.255    22021480.740    91300910.088 7      3994.865    22021481.040    91300916.091 7      3994.865
> 2024 06 03 12 02 18.0000000  0 17
G10  23601115.140   124024686.407 7       136.188    23601113.640   124024686.409 7       136.188    23601123.480    96642642.472 7       106.120    23601124.160    96642652.476 7       106.120
G02  21632415.860   113679107.912 8      3129.318    21632414.020   113679107.919 6      3129.318    21632417.200    88581127.340 6      2438.430
G03  23618234.400   124114659.464 7      6509.978    23618234.220   124114659.461 5      6509.978    23618245.240    96712769.557 5      5072.710    23618245.800    96712775.561 7      5072.710
R01  23550278.180   125889729.328 6      6712.187    23550277.280   125889729.343 6      6712.187    23550297.180    97914320.640 6      5220.590    23550296.500    97914317.641 6      5220.590
G08  20825915.140   109440915.692 8      2916.215    20825913.880   109440915.697 8      2916.215    20825920.800    85278659.905 8      2272.375    20825921.700    85278661.908 8      2272.375
G21  20890133.440   109778387.651 8      2132.581    20890131.440   109778387.659 6      2132.581    20890135.560    85541613.289 6      1661.751
G27  22024360.160   115738767.504 7      1246.729    22024358.820   115738767.509 7      1246.729    22024366.240    90186081.162 7       971.477    22024367.040    90186082.163 8       971.477
R23  21009179.300   112384933.066 7      1825.062    21009178.220   112384933.081 7      1825.062
R13  20317567.760   108494665.878 6       803.415    20317567.680   108494665.908 6       803.415    20317575.980    84384779.331 7       624.878    20317576.400    84384778.331 6       624.878
R08  21835532.400   116928283.973 7      4838.614    21835533.320   116928284.013 7      4838.614    21835546.220    90944281.714 7      3763.366    21835546.000    90944283.713 7      3763.366
R07  22883589.960   122497644.565 7      1903.533    22883589.960   122497644.607 7      1903.533    22883606.380    95276013.519 7      1480.526    22883605.980    95276012.518 7      1480.526
R22  23413050.940   124980446.462 6       569.362    23413052.960   124980446.476 7       569.362    23413067.040    97207077.516 7       442.837    23413066.660    97207079.516 7       442.837
R12  22382693.560   119564313.267 7     -1392.467    22382692.680   119564313.260 7     -1392.467    22382707.680    92994517.343 7     -1083.030    22382707.860    92994517.344 7     -1083.030
G16  23054556.980   121152500.511 7      -524.820    23054555.460   121152500.521 5      -524.820    23054562.960    94404561.919 5      -408.951
G32  25352408.160   133227805.968 6      3889.494    25352406.640   133227805.973 5      3889.494    25352422.760   103813841.293 5      3030.774    25352423.260   103813941.287 6      3030.774
R24  21980184.540   117537919.169 7      3993.954    21980183.860   117537919.176 7      3993.954    21980196.860    91418434.912 7      3106.409    21980196.780    91418434.908 7      3106.409
R14  22020507.000   117381687.062 7      5135.465    22020505.260   117381687.065 7      5135.465    22020517.520    91296915.618 8      3994.251    22020517.780    91296921.619 8      3994.251
> 2024 06 03 12 02 19.0000000  0 17
G10  23601089.000   124024550.404 7       135.380    23601088.040   124024550.409 7       135.380    23601097.520    96642536.498 7       105.491    23601098.500    96642546.514 7       105.491
G02  21631820.580   113675978.819 8      3128.943    21631818.580   113675978.827 6      3128.943    21631821.720    88578689.086 6      2438.137
G03  23616995.940   124108149.886 7      6509.548    23616995.480   124108149.883 5      6509.548    23617006.200    96707697.165 5      5072.375    23617006.680    96707703.172 7      5072.375
R01  23549022.020   125883017.434 6      6711.943    23549020.880   125883017.444 6      6711.943    23549041.660    97909100.284 6      5220.400    23549040.980    97909097.277 6      5220.400
G08  20825360.240   109437999.610 8      2915.761    20825359.000   109437999.612 8      2915.761    20825365.940    85276387.633 8      2272.022    20825366.680    85276389.638 8      2272.022
G21  20889727.680   109776255.302 8      2132.109    20889725.660   109776255.310 6      2132.109    20889729.760    85539951.718 6      1661.384
G27  22024122.940   115737521.033 7      1246.111    22024121.760   115737521.038 7      1246.111    22024129.080    90185109.886 7       970.995    22024129.700    90185110.883 7       970.995
R23  21008838.000   112383108.101 7      1824.733    21008837.060   112383108.113 7      1824.733
R13  20317417.040   108493863.089 6       802.358    20317417.420   108493863.087 6       802.358    20317426.020    84384154.917 7       624.056    20317425.820    84384153.917 6       624.056
R08  21834628.940   116923445.860 7      4837.691    21834629.960   116923445.897 7      4837.691    21834643.060    90940518.739 7      3762.649    21834642.660    90940520.741 7      3762.649
R07  22883234.460   122495741.524 7      1902.339    22883234.800   122495741.555 7      1902.339    22883250.700    95274533.368 7      1479.597    22883250.680    95274532.363 7      1479.597
R22  23412944.200   124979877.226 6       569.025    23412946.280   124979877.224 7       569.025    23412960.900    97206634.756 7       442.575    23412960.300    97206636.758 7       442.575
R12  22382954.160   119565706.118 7     -1392.973    22382953.680   119565706.103 7     -1392.973    22382968.840    92995600.658 7     -1083.424    22382968.600    92995600.665 7     -1083.424
G16  23054656.960   121153025.692 7      -525.385    23054655.780   121153025.702 5      -525.385    23054662.820    94404971.146 5      -409.391
G32  25351667.880   133223916.858 6      3888.737    25351666.700   133223916.858 5      3888.737    25351682.760   103810810.811 5      3030.185    25351683.720   103810910.816 6      3030.185
R24  21979437.540   117533925.365 7      3993.625    21979437.400   117533925.369 7      3993.625    21979449.740    91415328.618 7      3106.153    21979449.820    91415328.614 7      3106.153
R14  22019543.300   117376551.987 7      5134.624    22019541.760   117376551.985 7      5134.624    22019554.320    91292921.669 8      3993.596    22019554.680    91292927.674 8      3993.596
> 2024 06 03 12 02 20.0000000  0 17
G10  23601063.140   124024414.679 7       135.842    23601062.320   124024414.679 7       135.842    23601071.640    96642430.734 7       105.851    23601072.480    96642440.746 7       105.851
G02  21631225.180   113672850.163 8      3128.703    21631223.220   113672850.171 6      3128.703    21631226.300    88576251.174 6      2437.950
G03  23615757.040   124101640.424 7      6509.500    23615756.620   124101640.426 5      6509.500    23615767.440    96702624.865 5      5072.338    23615767.360    96702630.881 7      5072.338
R01  23547766.520   125876305.319 6      6712.336    23547764.840   125876305.326 6      6712.336    23547786.220    97903879.754 6      5220.706    23547785.380    97903876.753 6      5220.706
G08  20824805.320   109435083.806 8      2915.835    20824804.300   109435083.811 8      2915.835    20824810.920    85274115.583 8      2272.079    20824812.020    85274117.587 8      2272.079
G21  20889321.960   109774123.363 8      2131.951    20889319.920   109774123.365 6      2131.951    20889324.080    85538290.465 6      1661.261
G27  22023886.120   115736274.644 7      1246.520    22023884.460   115736274.657 7      1246.520    22023892.040    90184138.682 7       971.314    22023892.660    90184139.683 7       971.314
R23  21008496.940   112381283.261 7      1824.988    21008496.360   112381283.271 7      1824.988
R13  20317266.800   108493061.115 6       801.636    20317266.320   108493061.129 6       801.636    20317275.720    84383531.172 7       623.495    20317275.620    84383530.172 7       623.495
R08  21833725.260   116918608.087 7      4837.714    21833726.320   116918608.134 7      4837.714    21833739.560    90936756.046 7      3762.666    21833739.180    90936758.047 7      3762.666
R07  22882879.140   122493839.174 7      1902.233    22882879.020   122493839.208 7      1902.233    22882895.340    95273053.760 7      1479.514    22882895.040    95273052.755 6      1479.514
R22  23412837.380   124979307.774 7       569.733    23412840.480   124979307.765 6       569.733    23412853.580    97206191.843 7       443.126    23412854.120    97206193.839 7       443.126
R12  22383214.980   119567099.069 7     -1392.900    22383214.740   119567099.068 7     -1392.900    22383229.500    92996684.063 7     -1083.366    22383229.440    92996684.068 7     -1083.366
G16  23054756.920   121153551.009 7      -525.254    23054755.760   121153551.016 5      -525.254    23054762.840    94405380.474 5      -409.288
G32  25350927.360   133220027.780 6      3889.277    25350926.880   133220027.782 5      3889.277    25350942.660   103807780.373 5      3030.605    25350943.180   103807880.396 6      3030.605
R24  21978690.880   117529931.965 7      3993.304    21978690.800   117529931.974 7      3993.304    21978703.000    91412222.646 7      3105.903    21978703.060    91412222.649 7      3105.903
R14  22018580.140   117371417.858 7      5133.853    22018579.040   117371417.845 7      5133.853    22018591.060    91288928.448 8      3992.997    22018591.700    91288934.452 8      3992.997
> 2024 06 03 12 02 21.0000000  0 17
G10  23601037.300   124024279.551 7       134.964    23601036.420   124024279.556 7       134.964    23601045.980    96642325.442 7       105.167    23601046.760    96642335.448 7       105.167
G02  21630629.820   113669721.780 7      3128.214    21630627.820   113669721.785 6      3128.214    21630631.080    88573813.481 6      2437.570
G03  23614518.280   124095131.011 7      6509.164    23614517.860   124095131.016 5      6509.164    23614528.840    96697552.602 5      5072.076    23614528.960    96697558.607 7      5072.076
R01  23546511.000   125869593.107 6      6712.062    23546508.960   125869593.101 6      6712.062    23546529.720    97898659.135 6      5220.493    23546529.240    97898656.134 6      5220.493
G08  20824250.420   109432168.352 8      2915.396    20824249.540   109432168.357 7      2915.396    20824256.160    85271843.802 7      2271.737    20824257.060    85271845.807 8      2271.737
G21  20888916.300   109771991.726 7      2131.483    20888914.320   109771991.729 6      2131.483    20888918.440    85536629.448 6      1660.896
G27  22023648.760   115735028.649 7      1245.925    22023647.180   115735028.654 7      1245.925    22023654.880    90183167.766 7       970.851    22023655.260    90183168.768 7       970.851
R23  21008155.840   112379458.598 7      1824.628    21008154.980   112379458.610 7      1824.628
R13  20317117.480   108492259.872 6       800.721    20317116.720   108492259.868 6       800.721    20317125.740    84382907.973 7       622.783    20317125.680    84382906.973 6       622.783
R08  21832822.040   116913771.091 7      4836.694    21832823.420   116913771.132 7      4836.694    21832836.320    90932993.935 7      3761.873    21832836.060    90932995.934 6      3761.873
R07  22882524.440   122491937.793 7      1901.043    22882524.600   122491937.818 7      1901.043    22882540.160    95271574.902 6      1478.589    22882539.740    95271573.894 6      1478.589
R22  23412730.960   124978738.365 7       569.645    23412733.340   124978738.356 6       569.645    23412746.680    97205748.959 6       443.057    23412747.340    97205750.965 7       443.057
R12  22383475.760   119568492.200 7     -1393.452    22383476.120   119568492.204 7     -1393.452    22383490.360    92997767.601 7     -1083.796    22383490.280    92997767.596 7     -1083.796
G16  23054857.060   121154076.538 7      -525.703    23054855.680   121154076.546 5      -525.703    23054862.880    94405789.970 5      -409.639
G32  25350187.460   133216139.174 6      3888.693    25350186.780   133216139.182 5      3888.693    25350202.720   103804750.307 5      3030.151    25350203.200   103804850.311 6      3030.151
R24  21977943.840   117525938.666 7      3993.243    21977943.480   117525938.678 7      3993.243    21977956.380    91409116.722 7      3105.856    21977956.620    91409116.723 7      3105.856
R14  22017617.060   117366284.489 7      5133.046    22017616.100   117366284.479 7      5133.046    22017627.940    91284935.829 8      3992.369    22017628.260    91284941.832 7      3992.369
> 2024 06 03 12 02 22.0000000  0 17
G10  23601011.580   124024144.439 7       135.093    23601010.700   124024144.444 7       135.093    23601020.280    96642220.156 7       105.267    23601021.300    96642230.159 7       105.267
G02  21630034.800   113666593.515 7      3128.005    21630032.560   113666593.520 6      3128.005    21630035.800    88571375.868 6      2437.407
G03  23613279.640   124088621.751 7      6509.146    23613279.080   124088621.751 5      6509.146    23613290.060    96692480.455 5      5072.062    23613290.420    96692486.465 7      5072.062
R01  23545255.720   125862880.759 6      6712.391    23545253.260   125862880.771 6      6712.391    23545274.420    97893438.447 6      5220.748    23545273.320    97893435.431 6      5220.748
G08  20823695.720   109429252.929 8      2915.296    20823694.580   109429252.937 8      2915.296    20823701.340    85269572.040 8      2271.659    20823702.140    85269574.045 8      2271.659
G21  20888510.480   109769860.142 7      2131.459    20888508.600   109769860.144 6      2131.459    20888512.820    85534968.469 6      1660.877
G27  22023411.580   115733782.659 7      1246.059    22023410.240   115733782.658 7      1246.059    22023417.800    90182196.863 7       970.955    22023418.060    90182197.866 7       970.955
R23  21007815.020   112377633.668 7      1824.975    21007813.540   112377633.661 7      1824.975
R13  20316967.680   108491459.279 6       800.166    20316965.860   108491459.290 6       800.166    20316975.500    84382285.297 7       622.351    20316975.700    84382284.295 6       622.351
R08  21831918.880   116908934.584 7      4836.287    21831920.080   116908934.620 7      4836.287    21831933.040    90929232.206 7      3761.556    21831932.900    90929234.207 7      3761.556
R07  22882169.080   122490036.813 7      1900.794    22882169.080   122490036.833 7      1900.794    22882184.740    95270096.354 6      1478.395    22882184.400    95270095.348 6      1478.395
R22  23412624.000   124978168.572 7       570.155    23412626.540   124978168.554 6       570.155    23412639.980    97205305.774 6       443.454    23412640.400    97205307.780 6       443.454
R12  22383736.500   119569885.563 7     -1393.431    22383737.220   119569885.559 7     -1393.431    22383751.280    92998851.311 7     -1083.780    22383751.100    92998851.306 7     -1083.780
G16  23054957.020   121154602.302 7      -525.901    23054955.740   121154602.310 5      -525.901    23054962.940    94406199.652 5      -409.793
G32  25349447.180   133212250.669 6      3888.464    25349446.700   133212250.676 5      3888.464    25349462.720   103801720.313 5      3029.972    25349463.260   103801820.321 6      3029.972
R24  21977197.060   117521945.316 7      3993.162    21977196.740   117521945.323 7      3993.162    21977209.940    91406010.773 7      3105.793    21977209.840    91406010.776 7      3105.793
R14  22016654.460   117361151.602 7      5132.484    22016653.200   117361151.597 7      5132.484    22016664.880    91280943.592 8      3991.932    22016665.580    91280949.595 8      3991.932
> 2024 06 03 12 02 23.0000000  0 17
G10  23600986.220   124024009.779 7       134.463    23600985.140   124024009.786 7       134.463    23600994.720    96642115.225 7       104.776    23600995.440    96642125.229 7       104.776
G02  21629439.680   113663465.608 7      3127.791    21629437.200   113663465.610 6      3127.791    21629440.640    88568938.535 6      2437.239
G03  23612041.080   124082112.791 7      6508.856    23612040.500   124082112.793 5      6508.856    23612051.420    96687408.540 5      5071.836    23612052.020    96687414.557 7      5071.836
R01  23543999.560   125856168.526 6      6712.190    23543998.000   125856168.520 6      6712.190    23544019.440    97888217.796 6      5220.593    23544017.400    97888214.789 6      5220.593
G08  20823141.020   109426337.832 8      2915.028    20823140.060   109426337.829 8      2915.028    20823146.600    85267300.530 8      2271.450    20823147.320    85267302.532 8      2271.450
G21  20888104.920   109767728.936 7      2131.097    20888103.200   109767728.941 6      2131.097    20888107.180    85533307.793 6      1660.595
G27  22023174.360   115732537.010 7      1245.494    22023173.340   115732537.010 7      1245.494    22023180.640    90181226.228 7       970.515    22023181.160    90181227.227 7       970.515
R23  21007474.060   112375808.860 7      1824.840    21007472.500   112375808.862 7      1824.840
R13  20316817.860   108490659.574 6       799.603    20316816.220   108490659.588 6       799.603    20316825.520    84381663.298 7       621.913    20316826.000    84381662.292 6       621.913
R08  21831016.220   116904098.731 7      4835.584    21831016.920   116904098.764 7      4835.584    21831029.900    90925470.990 7      3761.009    21831029.740    90925472.994 7      3761.009
R07  22881814.120   122488136.690 7      1899.756    22881814.400   122488136.705 7      1899.756    22881830.020    95268618.472 7      1477.588    22881829.680    95268617.472 6      1477.588
R22  23412517.420   124977598.714 7       570.047    23412519.400   124977598.702 6       570.047    23412533.200    97204862.555 6       443.370    23412533.520    97204864.553 6       443.370
R12  22383997.280   119571279.247 7     -1393.684    22383998.320   119571279.245 7     -1393.684    22384011.840    92999935.277 7     -1083.976    22384011.760    92999935.274 7     -1083.976
G16  23055057.280   121155128.442 7      -526.382    23055055.720   121155128.452 5      -526.382    23055063.100    94406609.626 5      -410.167
G32  25348707.600   133208362.497 6      3887.953    25348706.800   133208362.507 5      3887.953    25348722.740   103798690.575 5      3029.574    25348723.860   103798790.596 6      3029.574
R24  21976450.740   117517952.202 7      3993.263    21976450.580   117517952.198 7      3993.263    21976463.380    91402905.007 7      3105.871    21976463.180    91402905.008 7      3105.871
R14  22015691.760   117356019.531 7      5131.774    22015690.740   117356019.526 7      5131.774    22015702.200    91276951.985 8      3991.379    22015702.700    91276957.984 8      3991.379
> 2024 06 03 12 02 24.0000000  0 17
G10  23600960.840   124023875.773 7       133.874    23600959.720   124023875.778 7       133.874    23600969.240    96642010.803 7       104.317    23600970.400    96642020.811 7       104.317
G02  21628844.400   113660338.118 7      3127.503    21628842.040   113660338.120 6      3127.503    21628845.680    88566501.532 6      2437.015
G03  23610802.560   124075604.082 7      6508.676    23610801.840   124075604.085 5      6508.676    23610813.060    96682336.827 5      5071.696    23610813.460    96682342.845 7      5071.696
R01  23542743.980   125849456.333 6      6712.230    23542742.740   125849456.337 6      6712.230    23542763.440    97882997.227 6      5220.624    23542762.200    97882994.215 6      5220.624
G08  20822586.380   109423423.219 8      2914.561    20822585.320   109423423.219 8      2914.561    20822591.880    85265029.406 8      2271.086    20822592.760    85265031.409 8      2271.086
G21  20887699.440   109765598.169 8      2130.778    20887697.940   109765598.174 6      2130.778    20887701.700    85531647.455 6      1660.347
G27  22022937.400   115731291.838 7      1245.147    22022936.440   115731291.843 7      1245.147    22022943.720    90180255.967 7       970.244    22022944.000    90180256.969 8       970.244
R23  21007132.880   112373984.339 7      1824.610    21007131.660   112373984.348 7      1824.610
R13  20316667.700   108489860.817 6       798.523    20316667.520   108489860.829 6       798.523    20316676.000    84381042.045 7       621.073    20316676.300    84381041.039 6       621.073
R08  21830113.320   116899263.737 7      4834.702    21830113.800   116899263.779 7      4834.702    21830126.980    90921710.461 7      3760.324    21830127.000    90921712.462 7      3760.324
R07  22881459.480   122486237.594 7      1898.920    22881459.180   122486237.612 7      1898.920    22881475.180    95267141.399 7      1476.937    22881475.120    95267140.398 7      1476.937
R22  23412410.400   124977029.060 7       569.774    23412412.760   124977029.058 6       569.774    23412426.180    97204419.495 6       443.158    23412426.700    97204421.495 6       443.158
R12  22384258.240   119572673.248 7     -1394.002    22384259.280   119572673.247 7     -1394.002    22384272.620    93001019.492 7     -1084.224    22384272.900    93001019.493 7     -1084.224
G16  23055157.420   121155655.012 7      -526.673    23055156.020   121155655.025 5      -526.673    23055163.280    94407019.941 5      -410.395
G32  25347968.000   133204474.919 6      3887.358    25347967.000   133204474.929 5      3887.358    25347982.900   103795661.302 5      3029.110    25347984.280   103795761.312 6      3029.110
R24  21975703.880   117513959.374 7      3992.961    21975703.800   117513959.364 7      3992.961    21975716.640    91399799.508 7      3105.637    21975716.480    91399799.510 7      3105.637
R14  22014728.920   117350888.291 7      5131.140    22014728.200   117350888.278 7      5131.140    22014739.380    91272961.005 7      3990.887    22014740.020    91272967.005 8      3990.887
> 2024 06 03 12 02 25.0000000  0 17
G10  23600935.400   124023742.298 7       133.168    23600934.300   124023742.300 7       133.168    23600943.920    96641906.796 7       103.767    23600945.080    96641916.804 7       103.767
G02  21628249.440   113657210.928 7      3127.022    21628247.040   113657210.928 6      3127.022    21628250.560    88564064.761 6      2436.641
G03  23609564.120   124069095.534 7      6508.456    23609563.260   124069095.537 5      6508.456    23609574.520    96677265.236 5      5071.524    23609575.340    96677271.241 7      5071.524
R01  23541488.480   125842744.213 6      6712.120    23541487.380   125842744.209 6      6712.120    23541507.460    97877776.688 6      5220.538    23541506.360    97877773.674 6      5220.538
G08  20822031.840   109420508.979 8      2914.010    20822030.800   109420508.983 8      2914.010    20822037.380    85262758.578 8      2270.657    20822038.140    85262760.581 8      2270.657
G21  20887294.140   109763467.746 7      2130.258    20887292.500   109763467.751 6      2130.258    20887296.420    85529987.383 6      1659.942
G27  22022700.580   115730047.091 7      1244.570    22022699.580   115730047.090 7      1244.570    22022706.840    90179286.035 7       969.795    22022707.080    90179287.034 8       969.795
R23  21006791.600   112372160.021 7      1824.203    21006790.160   112372160.030 7      1824.203
R13  20316517.580   108489062.832 6       797.471    20316518.020   108489062.854 6       797.471    20316526.600    84380421.398 7       620.255    20316526.560    84380420.400 6       620.255
R08  21829210.360   116894429.525 7      4833.846    21829211.200   116894429.561 7      4833.846    21829224.220    90917950.522 7      3759.658    21829223.820    90917952.525 7      3759.658
R07  22881105.060   122484339.532 7      1897.548    22881104.760   122484339.555 7      1897.548    22881120.540    95265665.137 7      1475.871    22881120.540    95265664.138 7      1475.871
R22  23412303.980   124976459.504 7       569.418    23412305.560   124976459.521 6       569.418    23412319.920    97203976.513 6       442.881    23412320.120    97203978.511 6       442.881
R12  22384519.480   119574067.440 7     -1394.272    22384519.840   119574067.443 7     -1394.272    22384533.500    93002103.855 7     -1084.434    22384533.860    93002103.858 7     -1084.434
G16  23055257.540   121156181.926 7      -527.037    23055256.140   121156181.937 5      -527.037    23055263.560    94407430.513 5      -410.678
G32  25347228.380   133200587.772 6      3886.990    25347227.160   133200587.785 5      3886.990    25347243.400   103792632.364 5      3028.824    25347244.020   103792732.374 6      3028.824
R24  21974957.040   117509966.727 7      3992.571    21974957.400   117509966.726 7      3992.571    21974970.220    91396694.116 7      3105.333    21974970.140    91396694.108 7      3105.333
R14  22013766.520   117345757.777 7      5130.083    22013765.600   117345757.772 7      5130.083    22013776.720    91268970.619 7      3990.065    22013777.540    91268976.621 7      3990.065
> 2024 06 03 12 02 26.0000000  0 17
G10  23600910.000   124023609.324 7       132.594    23600908.900   124023609.329 7       132.594    23600918.700    96641803.177 7       103.320    23600919.160    96641813.189 7       103.320
G02  21627654.340   113654084.095 7      3126.492    21627652.060   113654084.100 6      3126.492    21627655.580    88561628.270 6      2436.227
G03  23608325.980   124062587.173 7      6508.084    23608324.720   124062587.173 5      6508.084    23608335.960    96672193.789 5      5071.235    23608336.600    96672199.786 7      5071.235
R01  23540232.960   125836032.038 6      6711.907    23540230.740   125836032.064 6      6711.907    23540252.540    97872556.140 6      5220.372    23540250.600    97872553.138 6      5220.372
G08  20821477.240   109417595.111 8      2913.500    20821476.360   109417595.116 8      2913.500    20821482.980    85260488.032 8      2270.260    20821483.740    85260490.035 8      2270.260
G21  20886888.780   109761337.673 8      2129.855    20886887.240   109761337.675 6      2129.855    20886891.120    85528327.583 6      1659.627
G27  22022463.960   115728802.682 7      1244.103    22022462.720   115728802.685 7      1244.103    22022470.120    90178316.364 7       969.431    22022470.440    90178317.363 8       969.431
R23  21006450.440   112370335.895 7      1823.897    21006449.320   112370335.902 7      1823.897
R13  20316368.480   108488265.709 6       796.488    20316368.540   108488265.718 6       796.488    20316377.040    84379801.401 7       619.491    20316377.440    84379800.397 6       619.491
R08  21828307.680   116889596.001 7      4833.076    21828308.700   116889596.032 7      4833.076    21828321.660    90914191.117 7      3759.059    21828321.200    90914193.118 7      3759.059
R07  22880750.920   122482442.345 7      1896.607    22880749.780   122482442.368 7      1896.607    22880766.160    95264189.541 7      1475.139    22880766.180    95264188.546 7      1475.139
R22  23412197.260   124975889.988 7       569.320    23412198.960   124975889.992 6       569.320    23412213.340    97203533.540 6       442.804    23412213.080    97203535.538 6       442.804
R12  22384780.680   119575461.906 7     -1394.744    22384780.080   119575461.891 7     -1394.744    22384794.100    93003188.419 7     -1084.801    22384794.700    93003188.420 7     -1084.801
G16  23055358.000   121156709.156 7      -527.527    23055356.460   121156709.164 5      -527.527    23055363.900    94407841.338 5      -411.060
G32  25346488.720   133196701.090 6      3886.351    25346487.440   133196701.100 5      3886.351    25346503.720   103789603.781 5      3028.325    25346504.280   103789703.777 6      3028.325
R24  21974210.800   117505974.295 7      3992.216    21974210.740   117505974.304 7      3992.216    21974223.560    91393588.870 7      3105.057    21974223.440    91393588.864 7      3105.057
R14  22012803.820   117340628.085 7      5129.175    22012803.320   117340628.083 7      5129.175    22012814.660    91264980.861 8      3989.359    22012815.040    91264986.868 8      3989.359
> 2024 06 03 12 02 27.0000000  0 17
G10  23600884.780   124023476.550 7       132.715    23600883.660   124023476.555 7       132.715    23600893.320    96641699.715 7       103.414    23600894.340    96641709.723 7       103.414
G02  21627059.360   113650957.478 7      3126.617    21627057.180   113650957.480 6      3126.617    21627060.600    88559191.941 6      2436.325
G03  23607087.360   124056078.898 7      6508.230    23607086.220   124056078.900 5      6508.230    23607097.440    96667122.408 5      5071.348    23607098.380    96667128.410 7      5071.348
R01  23538977.840   125829319.733 6      6712.309    23538975.360   125829319.748 6      6712.309    23538995.840    97867335.462 6      5220.685    23538995.260    97867332.465 6      5220.685
G08  20820922.880   109414681.365 8      2913.654    20820921.820   109414681.372 8      2913.654    20820928.420    85258217.582 8      2270.380    20820929.340    85258219.585 8      2270.380
G21  20886483.500   109759207.815 8      2129.873    20886481.880   109759207.820 6      2129.873    20886485.880    85526667.954 6      1659.641
G27  22022227.200   115727558.345 7      1244.361    22022225.940   115727558.347 7      1244.361    22022233.380    90177346.748 7       969.632    22022233.620    90177347.750 7       969.632
R23  21006109.160   112368511.679 7      1824.352    21006108.620   112368511.681 7      1824.352
R13  20316219.460   108487469.318 6       796.044    20316219.500   108487469.324 6       796.044    20316228.080    84379181.988 7       619.145    20316227.940    84379180.982 6       619.145
R08  21827405.000   116884762.895 7      4832.886    21827405.900   116884762.931 7      4832.886    21827418.720    90910432.038 7      3758.911    21827418.880    90910434.046 7      3758.911
R07  22880396.560   122480545.757 7      1896.379    22880395.760   122480545.769 7      1896.379    22880411.960    95262714.411 7      1474.962    22880412.020    95262713.410 7      1474.962
R22  23412090.640   124975320.163 7       570.023    23412092.460   124975320.166 6       570.023    23412106.520    97203090.336 6       443.351    23412106.420    97203092.334 6       443.351
R12  22385041.640   119576856.514 7     -1394.584    22385040.460   119576856.493 7     -1394.584    22385054.900    93004273.101 7     -1084.676    22385055.820    93004273.102 7     -1084.676
G16  23055458.300   121157236.517 7      -527.291    23055456.800   121157236.530 5      -527.291    23055464.180    94408252.268 5      -410.876
G32  25345749.160   133192814.460 6      3886.563    25345747.740   133192814.473 5      3886.563    25345764.080   103786575.246 5      3028.491    25345764.860   103786675.263 6      3028.491
R24  21973464.480   117501981.975 7      3992.357    21973464.400   117501981.982 7      3992.357    21973476.940    91390483.730 7      3105.167    21973476.760    91390483.724 7      3105.167
R14  22011841.600   117335499.111 7      5128.690    22011841.040   117335499.114 7      5128.690    22011852.380    91260991.667 7      3988.981    22011853.200    91260997.670 8      3988.981
> 2024 06 03 12 02 28.0000000  0 17
G10  23600859.840   124023344.610 7       131.705    23600858.520   124023344.620 7       131.705    23600868.180    96641596.906 7       102.627    23600868.960    96641606.914 7       102.627
G02  21626464.500   113647831.460 7      3125.961    21626462.440   113647831.464 6      3125.961    21626465.780    88556756.084 6      2435.814
G03  23605848.780   124049571.081 7      6507.716    23605847.980   124049571.078 5      6507.716    23605859.140    96662051.386 5      5070.947    23605859.900    96662057.391 7      5070.947
R01  23537722.520   125822607.714 6      6712.045    23537719.360   125822607.718 6      6712.045    23537740.300    97862115.007 6      5220.480    23537739.520    97862112.014 6      5220.480
G08  20820368.700   109411768.265 8      2913.052    20820367.500   109411768.270 8      2913.052    20820374.140    85255947.632 8      2269.911    20820375.160    85255949.637 8      2269.911
G21  20886078.420   109757078.582 8      2129.128    20886076.760   109757078.587 6      2129.128    20886080.580    85525008.816 6      1659.060
G27  22021990.360   115726314.691 8      1243.582    22021989.200   115726314.693 7      1243.582    22021996.780    90176377.667 7       969.025    22021997.040    90176378.669 8       969.025
R23  21005768.060   112366687.923 7      1823.779    21005767.180   112366687.932 7      1823.779
R13  20316070.760   108486674.008 6       794.802    20316069.920   108486674.038 6       794.802    20316079.320    84378563.422 7       618.179    20316079.180    84378562.420 6       618.179
R08  21826502.440   116879930.846 7      4831.745    21826503.680   116879930.888 7      4831.745    21826516.640    90906673.793 7      3758.024    21826516.600    90906675.798 7      3758.024
R07  22880041.900   122478650.409 7      1894.958    22880041.480   122478650.432 7      1894.958    22880057.800    95261240.263 7      1473.856    22880058.060    95261239.262 7      1473.856
R22  23411983.800   124974750.711 6       569.665    23411985.500   124974750.712 6       569.665    23411999.780    97202647.421 6       443.073    23411999.560    97202649.423 7       443.073
R12  22385303.080   119578251.653 7     -1395.222    22385301.380   119578251.630 7     -1395.222    22385316.160    93005358.199 7     -1085.173    22385317.080    93005358.204 7     -1085.173
G16  23055558.860   121157764.546 7      -528.121    23055557.340   121157764.551 5      -528.121    23055564.700    94408663.709 5      -411.523
G32  25345008.940   133188928.588 6      3886.030    25345008.400   133188928.598 5      3886.030    25345024.640   103783547.298 5      3028.075    25345025.200   103783647.306 6      3028.075
R24  21972717.880   117497990.128 7      3991.737    21972717.900   117497990.135 7      3991.737    21972730.360    91387378.962 7      3104.684    21972730.300    91387378.958 7      3104.684
R14  22010879.820   117330371.222 7      5127.546    22010878.760   117330371.217 7      5127.546    22010890.660    91257003.311 8      3988.091    22010891.080    91257009.316 8      3988.091
> 2024 06 03 12 02 29.0000000  0 17
G10  23600834.720   124023212.971 7       131.420    23600833.480   124023212.976 7       131.420    23600843.240    96641494.326 7       102.405    23600843.820    96641504.328 7       102.405
G02  21625869.600   113644705.775 7      3125.581    21625867.660   113644705.782 6      3125.581    21625871.000    88554320.490 6      2435.517
G03  23604610.520   124043063.463 7      6507.534    23604609.780   124043063.462 5      6507.534    23604620.940    96656980.519 5      5070.806    23604621.740    96656986.530 7      5070.806
R01  23536466.800   125815895.623 6      6712.325    23536463.840   125815895.619 6      6712.325    23536483.840    97856894.495 6      5220.697    23536484.120    97856891.482 6      5220.697
G08  20819814.320   109408855.433 8      2912.691    20819813.200   109408855.435 8      2912.691    20819819.800    85253677.891 8      2269.629    20819820.700    85253679.896 8      2269.629
G21  20885673.200   109754949.644 8      2128.800    20885671.460   109754949.649 6      2128.800    20885675.360    85523349.901 6      1658.805
G27  22021753.840   115725071.232 7      1243.373    22021752.620   115725071.236 7      1243.373    22021760.180    90175408.738 7       968.862    22021760.720    90175409.737 8       968.862
R23  21005427.220   112364864.204 7      1823.659    21005426.660   112364864.221 7      1823.659
R13  20315922.180   108485879.525 6       794.142    20315921.060   108485879.542 6       794.142    20315930.660    84377945.481 7       617.666    20315929.860    84377944.473 6       617.666
R08  21825599.940   116875099.368 7      4831.288    21825601.340   116875099.409 7      4831.288    21825614.360    90902915.980 7      3757.669    21825614.060    90902917.980 7      3757.669
R07  22879688.000   122476755.786 7      1894.275    22879687.480   122476755.800 7      1894.275    22879703.800    95259766.666 7      1473.325    22879703.880    95259765.662 7      1473.325
R22  23411876.920   124974181.110 6       569.635    23411878.600   124974181.113 6       569.635    23411892.940    97202204.398 6       443.050    23411893.180    97202206.394 7       443.050
R12  22385564.500   119579646.974 7     -1395.394    22385562.440   119579646.964 7     -1395.394    22385577.340    93006443.447 7     -1085.307    22385578.280    93006443.450 7     -1085.307
G16  23055659.440   121158292.811 7      -528.384    23055657.820   121158292.816 5      -528.384    23055665.280    94409075.340 5      -411.728
G32  25344269.740   133185043.012 6      3885.182    25344268.960   133185043.022 5      3885.182    25344285.160   103780519.580 5      3027.415    25344286.280   103780619.593 6      3027.415
R24  21971971.480   117493998.506 7      3991.518    21971970.800   117493998.512 7      3991.518    21971983.880    91384274.361 7      3104.514    21971983.700    91384274.359 7      3104.514
R14  22009918.140   117325244.065 7      5126.790    22009916.660   117325244.061 7      5126.790    22009928.800    91253015.531 8      3987.503    22009929.300    91253021.529 8      3987.503
> 2024 06 03 12 02 30.0000000  0 17
G10  23600809.700   124023081.734 7       131.014    23600808.400   124023081.737 7       131.014    23600818.200    96641392.055 7       102.089    23600818.880    96641402.063 7       102.089
G02  21625274.940   113641580.356 7      3125.253    21625272.900   113641580.361 6      3125.253    21625276.220    88551885.100 6      2435.262
G03  23603372.040   124036555.947 7      6507.429    23603371.560   124036555.944 5      6507.429    23603382.580    96651909.734 5      5070.724    23603383.440    96651915.749 7      5070.724
R01  23535210.900   125809183.478 6      6712.183    23535208.520   125809183.471 6      6712.183    23535227.760    97851673.942 6      5220.587    23535228.280    97851670.935 6      5220.587
G08  20819260.160   109405942.864 8      2912.396    20819258.960   109405942.863 8      2912.396    20819265.500    85251408.355 8      2269.399    20819266.680    85251410.357 8      2269.399
G21  20885268.200   109752820.968 8      2128.437    20885266.600   109752820.976 6      2128.437    20885270.400    85521691.194 6      1658.522
G27  22021517.380   115723828.029 7      1243.041    22021516.000   115723828.029 7      1243.041    22021523.560    90174440.003 7       968.603    22021524.240    90174440.998 8       968.603
R23  21005086.340   112363040.533 7      1823.679    21005085.680   112363040.543 7      1823.679
R13  20315773.760   108485085.801 6       793.302    20315772.600   108485085.813 6       793.302    20315781.920    84377328.132 7       617.013    20315781.560    84377327.132 6       617.013
R08  21824697.780   116870268.537 7      4830.357    21824699.220   116870268.576 7      4830.357    21824712.200    90899158.674 7      3756.945    21824711.900    90899160.675 7      3756.945
R07  22879334.620   122474861.976 7      1893.383    22879333.440   122474861.991 7      1893.383    22879350.040    95258293.699 7      1472.632    22879350.280    95258292.691 7      1472.632
R22  23411770.620   124973611.431 6       569.570    23411772.000   124973611.435 6       569.570    23411786.180    97201761.310 6       442.999    23411786.320    97201763.308 7       442.999
R12  22385825.620   119581042.439 7     -1395.543    22385824.380   119581042.435 7     -1395.543    22385838.480    93007528.794 7     -1085.422    22385839.400    93007528.803 7     -1085.422
G16  23055759.900   121158821.313 7      -528.637    23055758.440   121158821.320 5      -528.637    23055765.800    94409487.155 5      -411.925
G32  25343530.780   133181157.706 6      3884.844    25343529.540   133181157.711 5      3884.844    25343545.880   103777492.072 5      3027.151    25343546.680   103777592.078 6      3027.151
R24  21971224.940   117490006.990 7      3991.396    21971223.860   117490006.997 7      3991.396    21971237.340    91381169.851 7      3104.419    21971237.200    91381169.851 7      3104.419
R14  22008956.260   117320117.589 7      5126.134    22008955.160   117320117.589 7      5126.134    22008967.200    91249028.279 7      3986.993    22008967.680    91249034.278 8      3986.993
> 2024 06 03 12 02 31.0000000  0 17
G10  23600784.700   124022951.055 7       130.349    23600783.640   124022951.060 7       130.349    23600793.440    96641290.227 7       101.571    23600794.060    96641300.237 7       101.571
G02  21624680.460   113638455.346 7      3124.807    21624678.220   113638455.349 6      3124.807    21624681.580    88549450.028 6      2434.915
G03  23602133.900   124030048.784 7      6507.022    23602133.240   124030048.786 5      6507.022    23602144.340    96646839.223 5      5070.407    23602145.280    96646845.233 7      5070.407
R01  23533955.200   125802471.440 6      6711.996    23533953.320   125802471.447 6      6711.996    23533972.980    97846453.473 6      5220.441    23533972.680    97846450.463 6      5220.441
G08  20818706.100   109403030.715 8      2911.919    20818704.820   109403030.720 8      2911.919    20818711.400    85249139.152 8      2269.028    20818711.980    85249141.156 8      2269.028
G21  20884863.220   109750692.721 8      2128.083    20884861.600   109750692.728 6      2128.083    20884865.420    85520032.822 6      1658.247
G27  22021280.940   115722585.261 7      1242.618    22021279.600   115722585.263 7      1242.618    22021287.060    90173471.616 7       968.273    22021287.840    90173472.611 8       968.273
R23  21004745.140   112361217.103 7      1823.271    21004744.860   112361217.115 7      1823.271
R13  20315625.580   108484293.039 6       792.285    20315624.460   108484293.026 6       792.285    20315633.120    84376711.518 7       616.221    20315633.240    84376710.518 6       616.221
R08  21823795.980   116865438.489 7      4829.655    21823797.080   116865438.536 7      4829.655    21823810.180    90895401.978 7      3756.399    21823809.960    90895403.981 7      3756.399
R07  22878981.120   122472969.138 7      1892.330    22878980.360   122472969.153 7      1892.330    22878996.460    95256821.491 7      1471.813    22878996.540    95256820.486 7      1471.813
R22  23411664.040   124973041.803 6       569.490    23411665.180   124973041.820 6       569.490    23411679.740    97201318.266 6       442.937    23411679.720    97201320.260 7       442.937
R12  22386087.160   119582438.345 7     -1396.194    22386086.520   119582438.346 7     -1396.194    22386100.140    93008614.499 7     -1085.929    22386100.720    93008614.501 7     -1085.929
G16  23055860.560   121159350.287 7      -529.206    23055859.120   121159350.292 5      -529.206    23055866.360    94409899.335 5      -412.368
G32  25342791.600   133177272.853 6      3884.504    25342790.340   133177272.858 5      3884.504    25342806.700   103774464.919 5      3026.886    25342807.600   103774564.930 6      3026.886
R24  21970478.360   117486015.753 7      3991.038    21970477.520   117486015.757 7      3991.038    21970491.160    91378065.559 7      3104.141    21970491.100    91378065.562 7      3104.141
R14  22007994.680   117314991.981 7      5125.230    22007993.460   117314991.981 7      5125.230    22008005.680    91245041.698 8      3986.290    22008006.100    91245047.700 8      3986.290
> 2024 06 03 12 02 32.0000000  0 17
G10  23600760.100   124022820.756 7       130.268    23600758.800   124022820.758 7       130.268    23600768.520    96641188.696 7       101.507    23600769.540    96641198.704 7       101.507
G02  21624085.740   113635330.679 7      3124.606    21624083.600   113635330.684 6      3124.606    21624087.000    88547015.222 6      2434.758
G03  23600895.740   124023541.784 7      6507.119    23600895.100   124023541.781 5      6507.119    23600906.180    96641768.839 5      5070.482    23600907.240    96641774.849 7      5070.482
R01  23532699.640   125795759.349 6      6712.326    23532697.320   125795759.355 6      6712.326    23532717.660    97841232.972 6      5220.698    23532717.000    97841229.960 6      5220.698
G08  20818151.940   109400118.863 8      2911.801    20818150.640   109400118.868 8      2911.801    20818157.280    85246870.180 8      2268.936    20818158.080    85246872.181 8      2268.936
G21  20884458.300   109748564.818 8      2127.906    20884456.700   109748564.823 6      2127.906    20884460.420    85518374.713 6      1658.108
G27  22021044.260   115721342.765 7      1242.515    22021043.100   115721342.768 7      1242.515    22021050.560    90172503.438 7       968.194    22021051.140    90172504.435 7       968.194
R23  21004404.460   112359393.748 7      1823.456    21004404.120   112359393.763 7      1823.456
R13  20315477.440   108483501.064 6       791.499    20315475.460   108483501.073 6       791.499    20315485.140    84376095.558 7       615.610    20315484.940    84376094.554 6       615.610
R08  21822893.600   116860609.061 7      4829.359    21822895.420   116860609.100 7      4829.359    21822908.440    90891645.757 7      3756.168    21822907.960    90891647.764 7      3756.168
R07  22878627.380   122471077.117 7      1891.752    22878626.880   122471077.132 7      1891.752    22878643.080    95255349.921 7      1471.362    22878643.200    95255348.920 7      1471.362
R22  23411557.160   124972472.122 6       569.952    23411558.400   124972472.128 6       569.952    23411572.840    97200875.175 6       443.296    23411572.960    97200877.171 7       443.296
R12  22386348.660   119583834.470 7     -1396.101    22386348.800   119583834.476 7     -1396.101    22386361.400    93009700.369 7     -1085.857    22386362.380    93009700.372 7     -1085.857
G16  23055961.100   121159879.501 7      -529.036    23055959.860   121159879.506 5      -529.036    23055967.060    94410311.707 5      -412.236
G32  25342052.420   133173388.320 6      3884.595    25342051.380   133173388.328 5      3884.595    25342067.560   103771438.017 5      3026.957    25342068.880   103771538.036 6      3026.957
R24  21969731.860   117482024.695 7      3991.087    21969731.300   117482024.696 7      3991.087    21969745.080    91374961.401 7      3104.179    21969744.560    91374961.401 7      3104.179
R14  22007033.180   117309867.146 7      5124.596    22007032.100   117309867.146 7      5124.596    22007044.220    91241055.723 8      3985.797    22007044.760    91241061.724 8      3985.797
> 2024 06 03 12 02 33.0000000  0 17
G10  23600735.300   124022690.781 7       129.905    23600734.060   124022690.786 7       129.905    23600743.760    96641087.414 7       101.224    23600744.660    96641097.420 7       101.224
G02  21623491.060   113632206.190 8      3124.352    21623489.180   113632206.194 6      3124.352    21623492.420    88544580.553 6      2434.560
G03  23599657.280   124017034.854 7      6506.893    23599656.940   124017034.854 5      6506.893    23599667.960    96636698.509 5      5070.307    23599668.880    96636704.516 7      5070.307
R01  23531443.460   125789047.153 6      6712.170    23531442.160   125789047.157 6      6712.170    23531462.200    97836012.371 6      5220.577    23531461.700    97836009.361 6      5220.577
G08  20817597.780   109397207.203 8      2911.598    20817596.640   109397207.208 7      2911.598    20817603.220    85244601.352 7      2268.777    20817603.960    85244603.353 8      2268.777
G21  20884053.420   109746437.091 8      2127.694    20884051.780   109746437.098 6      2127.694    20884055.560    85516716.748 6      1657.944
G27  22020807.940   115720100.451 7      1242.302    22020806.660   115720100.454 7      1242.302    22020814.120    90171535.396 7       968.027    22020814.700    90171536.400 7       968.027
R23  21004063.500   112357570.390 7      1823.404    21004063.060   112357570.405 7      1823.404
R13  20315328.080   108482709.748 6       790.927    20315327.680   108482709.752 6       790.927    20315336.620    84375480.088 7       615.165    20315336.500    84375479.086 6       615.165
R08  21821992.380   116855780.175 7      4828.590    21821993.320   116855780.219 7      4828.590    21822006.480    90887889.964 7      3755.570    21822006.160    90887891.972 7      3755.570
R07  22878273.880   122469185.818 7      1890.905    22878273.440   122469185.841 7      1890.905    22878289.520    95253878.919 6      1470.704    22878289.660    95253877.920 6      1470.704
R22  23411449.920   124971902.318 7       569.883    23411451.780   124971902.327 6       569.883    23411466.340    97200431.992 6       443.242    23411466.340    97200433.988 6       443.242
R12  22386609.900   119585230.736 7     -1396.315    22386610.240   119585230.748 7     -1396.315    22386623.060    93010786.346 7     -1086.022    22386623.800    93010786.353 7     -1086.022
G16  23056061.980   121160408.946 7      -529.651    23056060.620   121160408.953 5      -529.651    23056067.860    94410724.258 5      -412.715
G32  25341312.920   133169504.085 6      3884.231    25341312.320   133169504.087 5      3884.231    25341328.560   103768411.342 5      3026.674    25341328.980   103768511.342 6      3026.674
R24  21968985.680   117478033.653 7      3991.084    21968984.900   117478033.659 7      3991.084    21968998.740    91371857.267 7      3104.177    21968998.160    91371857.270 7      3104.177
R14  22006071.840   117304742.924 7      5123.970    22006070.940   117304742.930 7      5123.970    22006082.900    91237070.223 8      3985.310    22006083.180    91237076.228 7      3985.310
> 2024 06 03 12 02 34.0000000  0 17
G10  23600710.760   124022561.281 7       129.468    23600709.340   124022561.283 7       129.468    23600719.180    96640986.503 7       100.884    23600719.820    96640996.507 7       100.884
G02  21622896.540   113629082.011 8      3124.286    21622894.900   113629082.013 6      3124.286    21622897.900    88542146.128 6      2434.509
G03  23598419.180   124010528.111 7      6506.857    23598418.740   124010528.111 5      6506.857    23598429.800    96631628.326 5      5070.278    23598430.340    96631634.331 7      5070.278
R01  23530187.680   125782334.909 6      6712.568    23530185.700   125782334.897 6      6712.568    23530206.460    97830791.751 6      5220.886    23530205.840    97830788.742 6      5220.886
G08  20817043.740   109394295.887 8      2911.353    20817042.440   109394295.889 8      2911.353    20817049.200    85242332.794 8      2268.587    20817050.020    85242334.797 8      2268.587
G21  20883648.520   109744309.729 8      2127.343    20883646.980   109744309.736 6      2127.343    20883650.700    85515059.062 6      1657.670
G27  22020571.780   115718858.471 7      1242.043    22020570.420   115718858.471 7      1242.043    22020577.900    90170567.616 7       967.826    22020578.300    90170568.619 8       967.826
R23  21003722.840   112355747.190 7      1823.273    21003722.320   112355747.200 7      1823.273
R13  20315179.660   108481919.265 6       790.266    20315178.740   108481919.272 6       790.266    20315189.200    84374865.266 7       614.651    20315188.640    84374864.264 6       614.651
R08  21821090.320   116850951.966 7      4828.098    21821091.900   116850952.015 7      4828.098    21821104.820    90884134.707 7      3755.187    21821104.820    90884136.707 7      3755.187
R07  22877920.700   122467295.352 7      1890.291    22877920.600   122467295.375 7      1890.291    22877936.400    95252408.553 7      1470.227    22877936.600    95252407.551 7      1470.227
R22  23411343.280   124971332.466 7       570.035    23411345.180   124971332.470 6       570.035    23411359.620    97199988.773 6       443.360    23411359.680    97199990.771 6       443.360
R12  22386871.080   119586627.243 7     -1396.423    22386871.500   119586627.244 7     -1396.423    22386884.880    93011872.503 7     -1086.107    22386885.220    93011872.502 7     -1086.107
G16  23056162.840   121160938.666 7      -529.663    23056161.320   121160938.674 5      -529.663    23056168.760    94411137.017 5      -412.724
G32  25340573.900   133165620.183 6      3883.824    25340573.220   133165620.187 5      3883.824    25340589.480   103765384.931 5      3026.356    25340590.060   103765484.949 6      3026.356
R24  21968239.240   117474042.878 7      3990.885    21968238.840   117474042.890 7      3990.885    21968252.360    91368753.332 7      3104.022    21968251.960    91368753.330 7      3104.022
R14  22005110.640   117299619.507 7      5123.324    22005109.960   117299619.502 7      5123.324    22005121.820    91233085.343 8      3984.807    22005122.240    91233091.346 8      3984.807
> 2024 06 03 12 02 35.0000000  0 17
G10  23600685.980   124022432.209 7       128.838    23600684.700   124022432.209 7       128.838    23600694.620    96640885.924 7       100.393    23600695.480    96640895.926 7       100.393
G02  21622302.140   113625958.142 7      3123.534    21622300.300   113625958.144 6      3123.534    21622303.560    88539711.946 6      2433.923
G03  23597180.960   124004021.532 7      6506.327    23597180.460   124004021.531 5      6506.327    23597191.600    96626558.270 5      5069.865    23597192.320    96626564.273 7      5069.865
R01  23528931.700   125775622.690 6      6712.147    23528929.460   125775622.694 6      6712.147    23528950.900    97825571.161 6      5220.559    23528950.140    97825568.147 6      5220.559
G08  20816489.720   109391384.876 8      2910.708    20816488.540   109391384.878 8      2910.708    20816495.240    85240064.472 8      2268.084    20816496.160    85240066.477 8      2268.084
G21  20883243.920   109742182.640 8      2126.760    20883242.160   109742182.648 6      2126.760    20883245.860    85513401.590 6      1657.215
G27  22020335.520   115717616.796 7      1241.442    22020334.020   115717616.800 7      1241.442    22020341.780    90169600.084 7       967.358    22020342.180    90169601.086 7       967.358
R23  21003382.280   112353924.089 7      1822.968    21003381.400   112353924.101 7      1822.968
R13  20315032.940   108481129.536 6       789.106    20315031.720   108481129.566 6       789.106    20315041.020    84374251.053 7       613.749    20315041.320    84374250.048 6       613.749
R08  21820188.800   116846124.482 7      4827.079    21820190.520   116846124.535 7      4827.079    21820203.260    90880380.002 7      3754.395    21820203.240    90880382.005 7      3754.395
R07  22877567.620   122465405.777 7      1889.012    22877567.420   122465405.789 7      1889.012    22877583.260    95250938.873 7      1469.231    22877583.480    95250937.872 7      1469.231
R22  23411236.520   124970762.638 7       569.726    23411238.240   124970762.631 6       569.726    23411253.140    97199545.549 6       443.120    23411252.820    97199547.547 7       443.120
R12  22387132.880   119588023.915 7     -1396.864    22387132.300   119588023.914 7     -1396.864    22387146.080    93012958.794 7     -1086.450    22387146.800    93012958.795 7     -1086.450
G16  23056263.840   121161468.708 7      -530.281    23056262.080   121161468.718 5      -530.281    23056269.620    94411550.032 5      -413.206
G32  25339834.800   133161736.698 6      3883.205    25339834.160   133161736.695 5      3883.205    25339850.400   103762358.841 5      3025.874    25339851.160   103762458.849 6      3025.874
R24  21967492.780   117470052.293 7      3990.298    21967492.680   117470052.294 7      3990.298    21967506.460    91365649.539 7      3103.565    21967505.840    91365649.535 7      3103.565
R14  22004149.420   117294496.828 7      5122.169    22004148.920   117294496.826 7      5122.169    22004160.960    91229101.046 8      3983.909    22004161.180    91229107.049 8      3983.909
> 2024 06 03 12 02 36.0000000  0 17
G10  23600661.420   124022303.616 7       128.480    23600660.260   124022303.618 7       128.480    23600670.080    96640785.717 7       100.114    23600670.780    96640795.723 7       100.114
G02  21621707.860   113622834.596 8      3123.401    21621705.960   113622834.598 6      3123.401    21621709.100    88537278.015 6      2433.819
G03  23595942.900   123997515.107 7      6506.388    23595942.340   123997515.106 5      6506.388    23595953.520    96621488.328 5      5069.912    23595954.460    96621494.340 7      5069.912
R01  23527676.120   125768910.467 6      6712.179    23527674.540   125768910.455 6      6712.179    23527694.780    97820350.535 6      5220.584    23527694.680    97820347.534 6      5220.584
G08  20815935.920   109388474.196 8      2910.575    20815934.880   109388474.203 8      2910.575    20815941.380    85237796.416 8      2267.980    20815942.260    85237798.418 8      2267.980
G21  20882839.240   109740055.906 8      2126.593    20882837.440   109740055.914 6      2126.593    20882841.260    85511744.397 6      1657.086
G27  22020099.120   115716375.459 7      1241.212    22020097.840   115716375.459 7      1241.212    22020105.580    90168632.795 7       967.178    22020105.740    90168633.796 7       967.178
R23  21003041.600   112352101.146 7      1822.993    21003040.240   112352101.166 7      1822.993
R13  20314885.140   108480340.674 6       788.369    20314884.240   108480340.696 6       788.369    20314893.640    84373637.481 7       613.176    20314893.640    84373636.473 6       613.176
R08  21819288.100   116841297.689 7      4826.378    21819288.980   116841297.739 7      4826.378    21819302.320    90876625.832 7      3753.850    21819301.620    90876627.840 7      3753.850
R07  22877214.840   122463517.042 7      1888.330    22877214.400   122463517.060 7      1888.330    22877230.860    95249469.865 6      1468.701    22877230.660    95249468.856 7      1468.701
R22  23411129.440   124970192.764 7       569.895    23411131.800   124970192.773 6       569.895    23411146.120    97199102.318 6       443.252    23411145.800    97199104.314 7       443.252
R12  22387394.000   119589420.860 7     -1397.166    22387392.960   119589420.853 7     -1397.166    22387407.760    93014045.298 7     -1086.685    22387408.100    93014045.297 7     -1086.685
G16  23056364.560   121161999.054 7      -530.561    23056363.020   121161999.064 5      -530.561    23056370.700    94411963.282 5      -413.424
G32  25339095.800   133157853.532 6      3883.004    25339095.160   133157853.529 5      3883.004    25339111.280   103759333.005 5      3025.718    25339112.140   103759433.030 6      3025.718
R24  21966746.760   117466061.914 7      3990.448    21966746.460   117466061.915 7      3990.448    21966760.200    91362545.913 7      3103.682    21966759.740    91362545.907 7      3103.682
R14  22003188.760   117289374.938 7      5121.559    22003188.560   117289374.941 7      5121.559    22003200.240    91225117.360 8      3983.435    22003200.560    91225123.363 8      3983.435
> 2024 06 03 12 02 37.0000000  0 17
G10  23600637.220   124022175.435 7       127.884    23600635.900   124022175.437 7       127.884    23600645.640    96640685.832 7        99.650    23600646.360    96640695.840 7        99.650
G02  21621113.560   113619711.352 7      3123.120    21621111.600   113619711.354 6      3123.120    21621114.820    88534844.316 6      2433.600
G03  23594704.460   123991008.929 7      6506.123    23594704.140   123991008.933 5      6506.123    23594715.500    96616418.583 5      5069.706    23594716.340    96616424.599 7      5069.706
R01  23526419.920   125762198.240 6      6712.265    23526419.520   125762198.246 6      6712.265    23526438.020    97815129.935 6      5220.650    23526438.520    97815126.921 6      5220.650
G08  20815382.120   109385563.820 8      2910.216    20815380.980   109385563.823 8      2910.216    20815387.540    85235528.585 8      2267.701    20815388.500    85235530.589 8      2267.701
G21  20882434.540   109737929.482 8      2126.211    20882432.740   109737929.493 6      2126.211    20882436.540    85510087.443 6      1656.788
G27  22019862.780   115715134.401 7      1240.942    22019861.620   115715134.398 7      1240.942    22019869.300    90167665.732 7       966.968    22019869.580    90167666.734 7       966.968
R23  21002701.060   112350278.302 7      1822.789    21002699.860   112350278.317 7      1822.789
R13  20314737.000   108479552.573 6       787.853    20314736.020   108479552.619 6       787.853    20314746.080    84373024.530 7       612.774    20314745.840    84373023.530 6       612.774
R08  21818387.040   116836471.496 7      4825.968    21818387.980   116836471.530 7      4825.968    21818400.660    90872872.116 7      3753.531    21818400.500    90872874.121 7      3753.531
R07  22876861.900   122461629.094 7      1887.532    22876862.200   122461629.120 7      1887.532    22876878.040    95248001.468 7      1468.080    22876878.040    95248000.460 6      1468.080
R22  23411022.880   124969622.843 7       569.899    23411025.180   124969622.855 6       569.899    23411039.460    97198659.042 6       443.255    23411039.240    97198661.040 7       443.255
R12  22387655.700   119590818.051 7     -1397.240    22387654.260   119590818.033 7     -1397.240    22387669.380    93015131.977 7     -1086.743    22387669.660    93015131.974 7     -1086.743
G16  23056465.560   121162529.720 7      -530.798    23056464.100   121162529.730 5      -530.798    23056471.660    94412376.781 5      -413.609
G32  25338357.140   133153970.752 6      3882.531    25338356.380   133153970.756 5      3882.531    25338372.400   103756307.468 5      3025.349    25338373.740   103756407.479 6      3025.349
R24  21966000.860   117462071.706 7      3990.163    21966000.040   117462071.705 7      3990.163    21966013.700    91359442.418 7      3103.460    21966013.500    91359442.410 7      3103.460
R14  22002227.580   117284253.765 7      5120.743    22002227.800   117284253.768 7      5120.743    22002239.400    91221134.230 8      3982.800    22002240.000    91221140.232 8      3982.800
> 2024 06 03 12 02 38.0000000  0 17
G10  23600613.080   124022047.719 7       127.560    23600611.580   124022047.722 7       127.560    23600621.400    96640586.311 7        99.397    23600621.960    96640596.313 7        99.397
G02  21620519.440   113616588.582 8      3122.786    21620517.360   113616588.586 6      3122.786    21620520.580    88532410.993 6      2433.340
G03  23593466.680   123984503.097 7      6505.750    23593466.160   123984503.100 5      6505.750    23593477.460    96611349.108 5      5069.415    23593478.020    96611355.118 7      5069.415
R01  23525164.240   125755486.151 6      6712.167    23525164.300   125755486.139 6      6712.167    23525182.960    97809909.409 6      5220.574    23525182.940    97809906.397 6      5220.574
G08  20814828.340   109382653.850 8      2909.958    20814827.280   109382653.849 8      2909.958    20814833.740    85233261.075 8      2267.500    20814834.660    85233263.080 8      2267.500
G21  20882030.020   109735803.503 8      2125.855    20882028.120   109735803.510 6      2125.855    20882031.920    85508430.836 6      1656.510
G27  22019626.620   115713893.703 7      1240.707    22019625.480   115713893.697 7      1240.707    22019633.220    90166698.955 7       966.785    22019633.400    90166699.956 8       966.785
R23  21002360.300   112348455.664 7      1822.744    21002359.020   112348455.665 7      1822.744
R13  20314589.300   108478765.548 6       786.703    20314588.960   108478765.575 6       786.703    20314598.480    84372412.383 7       611.880    20314598.660    84372411.381 6       611.880
R08  21817485.720   116831646.032 7      4825.261    21817486.820   116831646.068 7      4825.261    21817499.780    90869118.987 7      3752.981    21817499.540    90869120.993 7      3752.981
R07  22876509.380   122459742.054 7      1886.791    22876509.580   122459742.080 7      1886.791    22876525.440    95246533.765 6      1467.504    22876525.400    95246532.756 6      1467.504
R22  23410915.980   124969052.938 7       570.121    23410918.140   124969052.936 6       570.121    23410932.640    97198215.767 6       443.428    23410932.360    97198217.761 7       443.428
R12  22387917.120   119592215.599 7     -1397.537    22387915.680   119592215.589 7     -1397.537    22387930.760    93016218.949 7     -1086.973    22387931.340    93016218.949 7     -1086.973
G16  23056566.820   121163060.802 7      -531.153    23056565.220   121163060.812 5      -531.153    23056572.660    94412790.608 5      -413.885
G32  25337618.400   133150088.363 6      3882.259    25337617.640   133150088.368 5      3882.259    25337633.480   103753282.237 5      3025.137    25337634.800   103753382.255 6      3025.137
R24  21965254.660   117458081.806 7      3989.845    21965253.620   117458081.802 7      3989.845    21965267.540    91356339.160 7      3103.213    21965267.380    91356339.152 7      3103.213
R14  22001267.140   117279133.528 7      5119.927    22001267.580   117279133.531 7      5119.927    22001279.000    91217151.825 8      3982.165    22001279.280    91217157.830 8      3982.165
> 2024 06 03 12 02 39.0000000  0 17
G10  23600588.560   124021920.282 7       127.320    23600587.260   124021920.284 7       127.320    23600597.120    96640487.007 7        99.210    23600597.620    96640497.005 7        99.210
G02  21619925.300   113613466.034 7      3122.589    21619923.280   113613466.039 6      3122.589    21619926.260    88529977.841 6      2433.187
G03  23592228.860   123977997.295 7      6505.802    23592228.340   123977997.297 5      6505.802    23592239.440    96606279.660 5      5069.456    23592239.940    96606285.674 7      5069.456
R01  23523908.600   125748773.792 6      6712.561    23523907.280   125748773.802 6      6712.561    23523927.420    97804688.700 6      5220.880    23523927.300    97804685.699 6      5220.880
G08  20814274.560   109379744.053 8      2909.707    20814273.480   109379744.057 8      2909.707    20814280.020    85230993.707 8      2267.304    20814280.860    85230995.709 8      2267.304
G21  20881625.580   109733677.712 7      2125.803    20881623.640   109733677.717 6      2125.803    20881627.420    85506774.376 6      1656.470
G27  22019390.720   115712653.147 7      1240.480    22019389.620   115712653.144 7      1240.480    22019397.140    90165732.289 7       966.608    22019397.400    90165733.293 7       966.608
R23  21002019.380   112346633.001 7      1822.706    21002018.400   112346633.008 7      1822.706
R13  20314442.780   108477979.185 6       786.079    20314441.580   108477979.204 6       786.079    20314451.280    84371800.761 7       611.395    20314451.140    84371799.763 6       611.395
R08  21816585.320   116826821.070 7      4824.662    21816586.100   116826821.107 7      4824.662    21816598.920    90865366.244 7      3752.515    21816598.260    90865368.249 7      3752.515
R07  22876157.060   122457855.715 7      1886.020    22876156.980   122457855.740 7      1886.020    22876172.940    95245066.604 7      1466.904    22876172.800    95245065.601 6      1466.904
R22  23410809.300   124968482.819 7       570.299    23410811.040   124968482.822 6       570.299    23410825.380    97197772.337 6       443.566    23410825.680    97197774.333 7       443.566
R12  22388178.860   119593613.257 7     -1397.633    22388177.580   119593613.255 7     -1397.633    22388192.640    93017306.008 7     -1087.048    22388193.100    93017306.010 7     -1087.048
G16  23056667.880   121163592.028 7      -531.272    23056666.340   121163592.036 5      -531.272    23056673.580    94413204.545 5      -413.978
G32  25336879.760   133146206.161 6      3882.027    25336878.960   133146206.171 5      3882.027    25336894.740   103750257.146 5      3024.956    25336895.060   103750357.148 6      3024.956
R24  21964508.820   117454091.983 7      3989.855    21964507.200   117454091.979 7      3989.855    21964521.040    91353235.967 7      3103.221    21964521.020    91353235.965 7      3103.221
R14  22000306.840   117274013.957 8      5119.389    22000307.180   117274013.952 7      5119.389    22000318.720    91213169.936 8      3981.747    22000318.920    91213175.939 8      3981.747
> 2024 06 03 12 02 40.0000000  0 17
G10  23600564.500   124021793.242 7       126.869    23600563.060   124021793.239 7       126.869    23600573.000    96640388.013 7        98.859    23600573.520    96640398.014 7        98.859
G02  21619331.020   113610343.700 8      3122.286    21619329.060   113610343.707 6      3122.286    21619332.100    88527544.853 6      2432.950
G03  23590991.020   123971491.603 7      6505.656    23590990.280   123971491.608 5      6505.656    23591001.300    96601210.296 5      5069.342    23591002.200    96601216.316 7      5069.342
R01  23522653.680   125742061.412 6      6712.553    23522651.620   125742061.427 6      6712.553    23522672.060    97799467.972 6      5220.875    23522671.580    97799464.969 6      5220.875
G08  20813720.940   109376834.508 8      2909.412    20813719.980   109376834.507 8      2909.412    20813726.360    85228726.525 8      2267.074    20813727.060    85228728.527 8      2267.074
G21  20881221.020   109731552.174 7      2125.444    20881219.260   109731552.181 6      2125.444    20881222.960    85505118.110 6      1656.190
G27  22019154.840   115711412.853 7      1240.176    22019153.480   115711412.853 7      1240.176    22019161.100    90164765.825 7       966.371    22019161.440    90164766.828 8       966.371
R23  21001678.480   112344810.376 7      1822.619    21001677.780   112344810.383 7      1822.619
R13  20314295.460   108477193.572 6       785.211    20314294.680   108477193.584 6       785.211    20314304.300    84371189.717 7       610.720    20314304.000    84371188.715 6       610.720
R08  21815683.920   116821996.786 7      4823.892    21815684.780   116821996.823 7      4823.892    21815698.020    90861614.027 7      3751.916    21815697.520    90861616.034 7      3751.916
R07  22875804.780   122455970.181 7      1885.007    22875804.660   122455970.215 7      1885.007    22875820.740    95243600.095 7      1466.116    22875820.860    95243599.094 6      1466.116
R22  23410702.560   124967912.619 7       570.280    23410704.160   124967912.628 6       570.280    23410719.040    97197328.855 6       443.551    23410719.080    97197330.851 7       443.551
R12  22388440.500   119595011.113 7     -1397.916    22388439.420   119595011.119 7     -1397.916    22388454.160    93018393.227 7     -1087.268    22388454.620    93018393.225 7     -1087.268
G16  23056769.120   121164123.499 7      -531.616    23056767.420   121164123.509 5      -531.616    23056774.740    94413618.670 5      -414.246
G32  25336141.400   133142324.279 6      3881.663    25336140.220   133142324.281 5      3881.663    25336156.160   103747232.307 5      3024.672    25336157.180   103747332.318 6      3024.672
R24  21963762.520   117450102.269 7      3989.670    21963761.040   117450102.276 7      3989.670    21963774.780    91350132.865 7      3103.077    21963774.800    91350132.865 7      3103.077
R14  21999346.720   117268895.041 8      5118.621    21999346.780   117268895.045 7      5118.621    21999358.240    91209188.566 8      3981.149    21999358.420    91209194.567 8      3981.149
> 2024 06 03 12 02 41.0000000  0 17
G10  23600540.300   124021666.548 7       126.579    23600538.920   124021666.548 7       126.579    23600548.980    96640289.286 7        98.633    23600549.400    96640299.290 7        98.633
G02  21618736.860   113607221.499 8      3122.051    21618734.960   113607221.507 6      3122.051    21618738.060    88525111.969 6      2432.767
G03  23589752.900   123964985.933 7      6505.688    23589752.120   123964985.937 5      6505.688    23589763.220    96596140.948 5      5069.368    23589763.680    96596146.958 7      5069.368
R01  23521397.240   125735348.909 6      6712.614    23521395.500   125735348.916 6      6712.614    23521416.280    97794247.156 6      5220.922    23521415.100    97794244.150 6      5220.922
G08  20813167.260   109373925.133 8      2909.318    20813166.220   109373925.136 8      2909.318    20813172.620    85226459.484 8      2267.001    20813173.420    85226461.489 8      2267.001
G21  20880816.740   109729426.788 8      2125.291    20880814.780   109729426.795 6      2125.291    20880818.580    85503461.967 6      1656.071
G27  22018918.840   115710172.775 7      1240.062    22018917.520   115710172.775 7      1240.062    22018925.180    90163799.530 7       966.282    22018925.640    90163800.536 8       966.282
R23  21001337.460   112342987.687 7      1822.723    21001337.020   112342987.699 7      1822.723
R13  20314148.640   108476408.531 6       784.572    20314147.340   108476408.559 6       784.572    20314157.260    84370579.144 7       610.222    20314157.000    84370578.139 6       610.222
R08  21814782.920   116817173.062 7      4823.532    21814784.040   116817173.101 7      4823.532    21814797.000    90857862.254 7      3751.636    21814796.940    90857864.255 7      3751.636
R07  22875453.260   122454085.403 7      1884.460    22875452.780   122454085.428 7      1884.460    22875468.580    95242134.143 7      1465.691    22875468.500    95242133.140 6      1465.691
R22  23410595.900   124967342.311 7       570.504    23410597.620   124967342.320 6       570.504    23410612.300    97196885.274 6       443.725    23410612.260    97196887.266 7       443.725
R12  22388701.600   119596409.086 7     -1398.088    22388701.740   119596409.084 7     -1398.088    22388715.660    93019480.520 7     -1087.402    22388716.180    93019480.521 7     -1087.402
G16  23056870.020   121164655.148 7      -531.651    23056868.560   121164655.158 5      -531.651    23056875.900    94414032.938 5      -414.274
G32  25335402.440   133138442.666 6      3881.675    25335401.640   133138442.668 5      3881.675    25335417.480   103744207.678 5      3024.682    25335418.840   103744307.682 6      3024.682
R24  21963015.940   117446112.567 7      3989.674    21963015.100   117446112.576 7      3989.674    21963028.920    91347029.775 7      3103.080    21963028.820    91347029.775 7      3103.080
R14  21998386.540   117263776.691 7      5117.975    21998386.360   117263776.689 7      5117.975    21998398.060    91205207.625 8      3980.647    21998398.160    91205213.627 8      3980.647
> 2024 06 03 12 02 42.0000000  0 17
G10  23600516.280   124021540.025 7       126.336    23600514.940   124021540.030 7       126.336    23600524.860    96640190.699 7        98.444    23600525.120    96640200.697 7        98.444
G02  21618142.740   113604099.572 8      3121.767    21618140.920   113604099.577 6      3121.767    21618143.980    88522679.297 6      2432.546
G03  23588514.800   123958480.390 7      6505.423    23588514.120   123958480.393 5      6505.423    23588525.380    96591071.699 5      5069.161    23588526.260    96591077.704 7      5069.161
R01  23520141.260   125728636.177 6      6712.661    23520140.420   125728636.181 6      6712.661    23520160.720    97789026.145 6      5220.959    23520159.360    97789023.134 6      5220.959
G08  20812613.720   109371015.927 8      2909.037    20812612.720   109371015.930 8      2909.037    20812619.140    85224192.568 8      2266.782    20812620.000    85224194.573 8      2266.782
G21  20880412.220   109727301.649 8      2124.921    20880410.440   109727301.656 6      2124.921    20880414.120    85501806.013 6      1655.783
G27  22018682.980   115708932.747 7      1239.883    22018681.520   115708932.749 7      1239.883    22018689.100    90162833.275 7       966.142    22018689.520    90162834.276 7       966.142
R23  21000996.980   112341164.971 7      1822.667    21000995.940   112341164.981 7      1822.667
R13  20314001.880   108475624.288 6       783.918    20314000.340   108475624.294 6       783.918    20314010.540    84369969.164 7       609.714    20314010.140    84369968.156 6       609.714
R08  21813882.240   116812349.731 7      4822.947    21813883.220   116812349.773 7      4822.947    21813896.340    90854110.776 7      3751.181    21813896.200    90854112.782 7      3751.181
R07  22875101.420   122452201.186 7      1883.749    22875100.960   122452201.204 7      1883.749    22875116.400    95240668.637 6      1465.138    22875116.360    95240667.634 6      1465.138
R22  23410488.880   124966771.725 7       570.544    23410490.900   124966771.728 6       570.544    23410505.120    97196441.483 6       443.756    23410505.500    97196443.478 7       443.756
R12  22388963.640   119597807.147 7     -1398.310    22388964.020   119597807.143 7     -1398.310    22388977.200    93020567.883 7     -1087.574    22388977.900    93020567.881 7     -1087.574
G16  23056970.960   121165186.945 7      -532.030    23056969.700   121165186.952 5      -532.030    23056977.120    94414447.314 5      -414.569
G32  25334663.480   133134561.165 6      3881.189    25334663.040   133134561.170 5      3881.189    25334678.900   103741183.138 5      3024.303    25334679.360   103741283.150 6      3024.303
R24  21962270.020   117442123.043 7      3989.425    21962269.280   117442123.058 7      3989.425    21962282.740    91343926.821 7      3102.886    21962282.540    91343926.821 7      3102.886
R14  21997426.360   117258659.063 7      5117.235    21997426.780   117258659.064 7      5117.235    21997438.160    91201227.252 8      3980.072    21997438.140    91201233.256 8      3980.072
> 2024 06 03 12 02 43.0000000  0 17
G10  23600492.440   124021414.004 7       125.668    23600490.960   124021414.009 7       125.668    23600500.900    96640092.499 7        97.923    23600501.300    96640102.505 7        97.923
G02  21617548.700   113600977.942 8      3121.410    21617546.840   113600977.944 6      3121.410    21617549.880    88520246.860 6      2432.268
G03  23587276.940   123951975.019 7      6505.335    23587276.240   123951975.021 5      6505.335    23587287.680    96586002.587 5      5069.092    23587287.900    96586008.592 7      5069.092
R01  23518886.140   125721923.492 6      6712.528    23518885.440   125721923.499 6      6712.528    23518904.480    97783805.175 6      5220.855    23518904.060    97783802.161 6      5220.855
G08  20812060.040   109368107.058 8      2908.561    20812059.100   109368107.057 8      2908.561    20812065.580    85221925.918 8      2266.411    20812066.700    85221927.923 8      2266.411
G21  20880007.700   109725176.809 7      2124.507    20880006.000   109725176.817 6      2124.507    20880009.760    85500150.296 6      1655.460
G27  22018446.940   115707693.105 7      1239.357    22018445.720   115707693.105 7      1239.357    22018453.220    90161867.318 7       965.733    22018453.860    90161868.319 7       965.733
R23  21000656.280   112339342.378 7      1822.282    21000655.580   112339342.391 7      1822.282
R13  20313855.840   108474840.830 6       783.134    20313854.380   108474840.850 6       783.134    20313863.880    84369359.808 7       609.104    20313863.420    84369358.804 6       609.104
R08  21812981.640   116807527.123 7      4822.193    21812982.980   116807527.163 7      4822.193    21812995.860    90850359.867 7      3750.595    21812995.940    90850361.867 7      3750.595
R07  22874749.720   122450317.850 7      1882.658    22874749.260   122450317.876 7      1882.658    22874764.520    95239203.827 7      1464.290    22874764.500    95239202.824 7      1464.290
R22  23410381.700   124966201.152 6       570.423    23410384.460   124966201.158 6       570.423    23410398.380    97195997.693 6       443.663    23410398.400    97195999.698 7       443.663
R12  22389225.740   119599205.430 7     -1398.461    22389225.960   119599205.431 7     -1398.461    22389239.380    93021655.436 7     -1087.692    22389239.680    93021655.433 7     -1087.692
G16  23057072.400   121165719.067 7      -532.364    23057071.100   121165719.072 5      -532.364    23057078.320    94414861.947 5      -414.829
G32  25333924.780   133130680.072 6      3880.858    25333924.660   133130680.071 5      3880.858    25333940.400   103738158.909 5      3024.045    25333940.940   103738258.922 6      3024.045
R24  21961524.300   117438133.635 7      3989.205    21961523.860   117438133.639 7      3989.205    21961536.800    91340823.939 7      3102.715    21961536.360    91340823.942 7      3102.715
R14  21996467.220   117253542.195 7      5116.352    21996466.560   117253542.192 7      5116.352    21996478.420    91197247.473 8      3979.385    21996478.340    91197253.472 8      3979.385
> 2024 06 03 12 02 44.0000000  0 17
G10  23600468.540   124021288.522 7       125.185    23600467.120   124021288.521 7       125.185    23600476.920    96639994.714 7        97.547    23600477.560    96640004.718 7        97.547
G02  21616954.660   113597856.708 8      3120.881    21616952.840   113597856.713 6      3120.881    21616955.940    88517814.734 6      2431.856
G03  23586038.720   123945469.926 7      6504.752    23586038.180   123945469.929 5      6504.752    23586049.900    96580933.689 5      5068.638    23586050.480    96580939.701 7      5068.638
R01  23517630.220   125715210.863 6      6712.434    23517629.620   125715210.865 6      6712.434    23517649.160    97778584.241 6      5220.782    23517648.620    97778581.236 6      5220.782
G08  20811506.800   109365198.582 8      2908.171    20811505.600   109365198.587 8      2908.171    20811512.100    85219659.576 8      2266.107    20811513.060    85219661.581 8      2266.107
G21  20879603.600   109723052.369 7      2124.091    20879601.680   109723052.377 6      2124.091    20879605.500    85498494.886 6      1655.136
G27  22018211.100   115706453.855 7      1238.928    22018209.880   115706453.860 7      1238.928    22018217.440    90160901.670 7       965.399    22018217.900    90160902.672 7       965.399
R23  21000315.420   112337519.949 7      1822.235    21000315.100   112337519.964 7      1822.235
R13  20313709.400   108474058.285 6       782.030    20313707.760   108474058.289 6       782.030    20313717.280    84368751.146 7       608.245    20313717.300    84368750.144 6       608.245
R08  21812081.220   116802705.295 7      4821.305    21812082.400   116802705.331 7      4821.305    21812095.280    90846609.556 7      3749.904    21812095.340    90846611.560 7      3749.904
R07  22874398.100   122448435.464 7      1881.874    22874397.640   122448435.482 7      1881.874    22874412.860    95237739.741 6      1463.679    22874413.380    95237738.739 7      1463.679
R22  23410275.140   124965630.657 6       570.490    23410277.180   124965630.655 7       570.490    23410291.700    97195553.964 6       443.714    23410291.720    97195555.962 7       443.714
R12  22389487.540   119600604.039 7     -1398.927    22389487.840   119600604.032 7     -1398.927    22389501.160    93022743.228 7     -1088.054    22389501.440    93022743.221 7     -1088.054
G16  23057173.480   121166251.583 7      -532.857    23057172.500   121166251.591 5      -532.857    23057179.860    94415276.891 5      -415.214
G32  25333186.420   133126799.451 6      3880.334    25333186.060   133126799.451 5      3880.334    25333201.900   103735135.055 5      3023.637    25333202.620   103735235.064 6      3023.637
R24  21960777.920   117434144.443 7      3988.946    21960777.820   117434144.471 7      3988.946    21960790.840    91337721.255 7      3102.513    21960790.460    91337721.255 7      3102.513
R14  21995506.620   117248426.136 7      5115.616    21995506.920   117248426.148 7      5115.616    21995518.620    91193268.325 8      3978.813    21995518.660    91193274.328 8      3978.813
> 2024 06 03 12 02 45.0000000  0 17
G10  23600444.540   124021163.473 7       124.825    23600443.440   124021163.478 7       124.825    23600453.160    96639897.271 7        97.266    23600453.480    96639907.275 7        97.266
G02  21616360.660   113594735.795 8      3120.733    21616359.040   113594735.800 6      3120.733    21616362.120    88515382.853 6      2431.740
G03  23584800.920   123938964.986 7      6504.862    23584800.260   123938964.988 5      6504.862    23584811.940    96575864.909 5      5068.723    23584812.220    96575870.908 7      5068.723
R01  23516374.640   125708498.168 6      6712.792    23516374.240   125708498.180 6      6712.792    23516392.980    97773363.270 6      5221.061    23516392.920    97773360.263 6      5221.061
G08  20810953.400   109362290.427 8      2908.048    20810952.240   109362290.429 7      2908.048    20810958.640    85217393.483 7      2266.011    20810959.580    85217395.486 8      2266.011
G21  20879199.400   109720928.266 8      2123.940    20879197.540   109720928.270 6      2123.940    20879201.160    85496839.744 6      1655.018
G27  22017975.340   115705214.888 7      1238.919    22017974.040   115705214.888 7      1238.919    22017981.660    90159936.236 7       965.391    22017982.220    90159937.237 8       965.391
R23  20999975.120   112335697.685 7      1822.238    20999974.140   112335697.689 7      1822.238
R13  20313563.620   108473276.526 6       781.361    20313561.120   108473276.519 6       781.361    20313570.940    84368143.104 7       607.725    20313570.640    84368142.104 6       607.725
R08  21811180.760   116797884.103 7      4820.851    21811181.740   116797884.150 7      4820.851    21811195.120    90842859.757 7      3749.551    21811194.880    90842861.763 7      3749.551
R07  22874046.360   122446553.927 7      1881.161    22874046.060   122446553.955 7      1881.161    22874061.360    95236276.333 6      1463.125    22874061.560    95236275.326 6      1463.125
R22  23410167.760   124965060.100 7       570.651    23410170.160   124965060.101 7       570.651    23410184.900    97195110.208 6       443.840    23410184.520    97195112.200 6       443.840
R12  22389749.600   119602002.875 7     -1399.006    22389749.880   119602002.868 7     -1399.006    22389763.180    93023831.199 7     -1088.116    22389763.400    93023831.198 7     -1088.116
G16  23057275.340   121166784.370 7      -532.878    23057273.740   121166784.378 5      -532.878    23057281.240    94415692.045 5      -415.230
G32  25332448.580   133122919.173 6      3880.232    25332447.660   133122919.175 5      3880.232    25332463.500   103732111.466 5      3023.557    25332464.360   103732211.468 6      3023.557
R24  21960031.680   117430155.534 7      3988.702    21960031.780   117430155.557 7      3988.702    21960044.820    91334618.769 7      3102.323    21960044.560    91334618.771 7      3102.323
R14  21994547.140   117243310.934 7      5114.785    21994547.380   117243310.934 7      5114.785    21994559.000    91189289.836 7      3978.166    21994559.340    91189295.841 8      3978.166
> 2024 06 03 12 02 46.0000000  0 17
G10  23600420.680   124021038.721 7       124.427    23600419.680   124021038.723 7       124.427    23600429.480    96639800.060 7        96.956    23600429.920    96639810.064 7        96.956
G02  21615766.860   113591615.103 8      3120.507    21615765.220   113591615.108 6      3120.507    21615768.340    88512951.143 6      2431.564
G03  23583563.040   123932460.156 7      6504.719    23583562.580   123932460.161 5      6504.719    23583574.140    96570796.212 5      5068.612    23583574.480    96570802.221 7      5068.612
R01  23515118.880   125701785.400 6      6712.802    23515118.520   125701785.404 6      6712.802    23515138.020    97768142.229 6      5221.068    23515137.100    97768139.217 6      5221.068
G08  20810399.940   109359382.480 8      2907.756    20810398.880   109359382.484 8      2907.756    20810405.280    85215127.552 8      2265.784    20810406.240    85215129.557 8      2265.784
G21  20878795.180   109718804.377 8      2123.705    20878793.300   109718804.382 6      2123.705    20878797.060    85495184.764 6      1654.835
G27  22017739.720   115703976.116 7      1238.562    22017738.340   115703976.118 7      1238.562    22017745.880    90158970.959 7       965.113    22017746.620    90158971.960 7       965.113
R23  20999634.620   112333875.394 7      1822.158    20999633.700   112333875.396 7      1822.158
R13  20313416.560   108472495.471 6       780.537    20313414.640   108472495.485 6       780.537    20313424.400    84367535.629 7       607.084    20313424.380    84367534.631 6       607.084
R08  21810280.340   116793063.503 7      4820.232    21810281.900   116793063.556 7      4820.232    21810294.700    90839110.410 7      3749.070    21810294.540    90839112.414 7      3749.070
R07  22873694.720   122444673.090 7      1880.477    22873694.900   122444673.119 7      1880.477    22873710.120    95234813.460 7      1462.593    22873710.080    95234812.457 6      1462.593
R22  23410061.140   124964489.378 7       570.764    23410063.200   124964489.381 7       570.764    23410077.660    97194666.307 6       443.928    23410077.780    97194668.303 7       443.928
R12  22390011.800   119603401.884 7     -1399.130    22390011.520   119603401.874 7     -1399.130    22390025.140    93024919.307 7     -1088.212    22390025.300    93024919.302 7     -1088.212
G16  23057376.740   121167317.383 7      -533.224    23057375.080   121167317.391 5      -533.224    23057382.760    94416107.376 5      -415.500
G32  25331710.240   133119039.130 6      3879.781    25331709.360   133119039.133 5      3879.781    25331725.240   103729088.060 5      3023.206    25331726.320   103729188.070 6      3023.206
R24  21959285.880   117426166.714 7      3988.720    21959285.660   117426166.729 7      3988.720    21959298.840    91331516.351 7      3102.338    21959298.660    91331516.343 7      3102.338
R14  21993588.100   117238196.333 7      5114.227    21993587.640   117238196.331 7      5114.227    21993599.720    91185311.816 8      3977.732    21993599.860    91185317.821 8      3977.732
> 2024 06 03 12 02 47.0000000  0 17
G10  23600397.320   124020914.418 7       124.083    23600396.040   124020914.421 7       124.083    23600405.820    96639703.197 7        96.688    23600406.440    96639713.203 7        96.688
G02  21615172.760   113588494.705 7      3120.353    21615171.580   113588494.710 6      3120.353    21615174.520    88510519.666 6      2431.444
G03  23582325.280   123925955.528 7      6504.478    23582324.640   123925955.538 5      6504.478    23582336.380    96565727.677 5      5068.424    23582336.380    96565733.686 7      5068.424
R01  23513863.280   125695072.609 6      6712.932    23513861.500   125695072.623 6      6712.932    23513881.700    97762921.185 6      5221.169    23513881.680    97762918.180 6      5221.169
G08  20809846.760   109356474.858 8      2907.485    20809845.620   109356474.860 8      2907.485    20809852.040    85212861.871 8      2265.573    20809852.720    85212863.873 8      2265.573
G21  20878391.060   109716680.820 8      2123.371    20878389.180   109716680.822 6      2123.371    20878392.860    85493530.042 6      1654.575
G27  22017503.880   115702737.680 7      1238.290    22017502.620   115702737.682 7      1238.290    22017510.220    90158005.940 7       964.902    22017510.840    90158006.941 7       964.902
R23  20999294.100   112332053.208 7      1822.168    20999293.020   112332053.218 7      1822.168
R13  20313270.180   108471715.241 6       779.858    20313267.840   108471715.250 6       779.858    20313278.660    84366928.774 7       606.557    20313278.120    84366927.767 6       606.557
R08  21809380.560   116788243.640 7      4819.541    21809381.860   116788243.690 7      4819.541    21809394.820    90835361.628 7      3748.532    21809394.560    90835363.627 7      3748.532
R07  22873343.400   122442793.183 7      1879.516    22873343.580   122442793.211 7      1879.516    22873359.160    95233351.308 7      1461.846    22873358.840    95233350.301 6      1461.846
R22  23409954.300   124963918.696 6       570.803    23409956.260   124963918.678 7       570.803    23409970.860    97194222.420 6       443.958    23409971.000    97194224.420 7       443.958
R12  22390273.540   119604801.118 7     -1399.317    22390272.960   119604801.113 7     -1399.317    22390286.920    93026007.594 7     -1088.358    22390287.320    93026007.589 7     -1088.358
G16  23057478.340   121167850.722 7      -533.481    23057476.600   121167850.730 5      -533.481    23057484.360    94416522.961 5      -415.699
G32  25330972.060   133115159.480 6      3879.454    25330971.020   133115159.479 5      3879.454    25330986.880   103726064.960 5      3022.952    25330987.860   103726164.970 6      3022.952
R24  21958540.160   117422178.089 7      3988.683    21958539.380   117422178.099 7      3988.683    21958552.400    91328414.083 7      3102.309    21958552.700    91328414.077 7      3102.309
R14  21992628.460   117233082.503 7      5113.454    21992628.540   117233082.504 7      5113.454    21992640.280    91181334.403 8      3977.131    21992640.700    91181340.403 8      3977.131
> 2024 06 03 12 02 48.0000000  0 17
G10  23600373.760   124020790.670 7       123.434    23600372.600   124020790.678 7       123.434    23600382.320    96639606.772 7        96.183    23600382.860    96639616.778 7        96.183
G02  21614579.220   113585374.764 7      3119.633    21614577.800   113585374.769 6      3119.633    21614580.720    88508088.543 6      2430.883
G03  23581087.660   123919451.197 7      6504.180    23581086.880   123919451.202 5      6504.180    23581098.420    96560659.371 5      5068.192    23581098.780    96560665.375 7      5068.192
R01  23512606.900   125688359.977 6      6712.518    23512605.720   125688359.997 6      6712.518    23512626.140    97757700.267 6      5220.847    23512626.000    97757697.257 6      5220.847
G08  20809293.460   109353567.657 8      2906.984    20809292.320   109353567.656 8      2906.984    20809298.780    85210596.519 8      2265.182    20809299.640    85210598.522 8      2265.182
G21  20877986.980   109714557.668 8      2122.854    20877985.220   109714557.672 6      2122.854    20877988.860    85491875.642 6      1654.172
G27  22017268.240   115701499.649 8      1237.886    22017266.980   115701499.651 7      1237.886    22017274.680    90157041.242 7       964.587    22017275.560    90157042.246 7       964.587
R23  20998953.740   112330231.271 7      1821.779    20998952.700   112330231.275 7      1821.779
R13  20313124.780   108470935.932 6       778.770    20313122.160   108470935.952 6       778.770    20313133.060    84366322.663 7       605.710    20313132.320    84366321.663 6       605.710
R08  21808480.320   116783424.548 7      4818.625    21808481.900   116783424.598 7      4818.625    21808494.860    90831613.453 7      3747.819    21808494.700    90831615.454 7      3747.819
R07  22872992.960   122440914.223 7      1878.529    22872992.380   122440914.235 7      1878.529    22873008.180    95231889.889 7      1461.078    22873007.780    95231888.892 6      1461.078
R22  23409847.680   124963348.046 6       570.725    23409849.560   124963348.036 6       570.725    23409864.020    97193778.590 6       443.897    23409864.560    97193780.588 7       443.897
R12  22390535.380   119606200.693 7     -1399.739    22390534.980   119606200.676 7     -1399.739    22390548.700    93027096.132 7     -1088.686    22390549.340    93027096.131 7     -1088.686
G16  23057580.160   121168384.471 7      -533.944    23057578.000   121168384.478 5      -533.944    23057585.880    94416938.862 5      -416.060
G32  25330233.800   133111280.325 6      3878.937    25330232.760   133111280.322 5      3878.937    25330248.700   103723042.246 5      3022.549    25330249.800   103723142.246 6      3022.549
R24  21957794.320   117418189.756 7      3988.193    21957793.780   117418189.762 7      3988.193    21957806.420    91325312.045 7      3101.928    21957806.660    91325312.042 7      3101.928
R14  21991669.700   117227969.540 7      5112.479    21991669.040   117227969.543 7      5112.479    21991681.320    91177357.662 8      3976.372    21991681.400    91177363.666 8      3976.372
> 2024 06 03 12 02 49.0000000  0 17
G10  23600350.540   124020667.293 7       123.196    23600348.980   124020667.290 7       123.196    23600359.000    96639510.623 7        95.997    23600359.260    96639520.631 7        95.997
G02  21613985.700   113582255.075 7      3119.624    21613984.180   113582255.078 6      3119.624    21613987.140    88505657.617 6      2430.876
G03  23579849.940   123912946.995 7      6503.984    23579848.960   123912946.998 5      6503.984    23579860.880    96555591.162 5      5068.039    23579861.420    96555597.177 7      5068.039
R01  23511351.200   125681647.178 6      6712.957    23511349.700   125681647.179 6      6712.957    23511370.440    97752479.194 6      5221.188    23511369.720    97752476.187 6      5221.188
G08  20808740.180   109350660.716 8      2906.819    20808739.260   109350660.713 8      2906.819    20808745.600    85208331.366 8      2265.054    20808746.300    85208333.369 8      2265.054
G21  20877583.120   109712434.804 8      2122.722    20877581.220   109712434.809 6      2122.722    20877584.900    85490221.462 6      1654.069
G27  22017032.780   115700261.833 7      1237.750    22017031.540   115700261.836 7      1237.750    22017039.120    90156076.711 7       964.480    22017039.740    90156077.710 8       964.480
R23  20998613.160   112328409.389 7      1821.889    20998611.940   112328409.388 7      1821.889
R13  20312978.300   108470157.440 6       777.979    20312976.800   108470157.452 6       777.979    20312986.700    84365717.151 7       605.095    20312986.440    84365716.147 6       605.095
R08  21807580.880   116778605.975 7      4818.304    21807582.560   116778606.019 7      4818.304    21807595.040    90827865.674 7      3747.570    21807595.060    90827867.673 7      3747.570
R07  22872642.040   122439035.988 7      1877.992    22872641.760   122439036.003 7      1877.992    22872657.040    95230429.029 6      1460.661    22872657.200    95230428.038 6      1460.661
R22  23409740.420   124962777.297 7       570.814    23409742.200   124962777.295 6       570.814    23409757.540    97193334.672 6       443.966    23409757.680    97193336.674 7       443.966
R12  22390797.720   119607600.392 7     -1399.796    22390796.460   119607600.377 7     -1399.796    22390811.000    93028184.774 7     -1088.730    22390811.620    93028184.775 7     -1088.730
G16  23057681.440   121168918.401 7      -533.992    23057679.500   121168918.411 5      -533.992    23057687.340    94417354.910 5      -416.098
G32  25329495.540   133107401.360 6      3878.932    25329494.640   133107401.357 5      3878.932    25329510.620   103720019.680 5      3022.544    25329511.700   103720119.691 6      3022.544
R24  21957048.200   117414201.588 7      3988.118    21957048.120   117414201.586 7      3988.118    21957060.500    91322210.131 7      3101.869    21957060.980    91322210.127 7      3101.869
R14  21990710.560   117222857.357 7      5111.863    21990709.860   117222857.363 7      5111.863    21990722.300    91173381.526 8      3975.893    21990722.460    91173387.528 8      3975.893
> 2024 06 03 12 02 50.0000000  0 17
G10  23600327.140   124020544.338 7       122.515    23600325.640   124020544.343 7       122.515    23600335.620    96639414.820 7        95.466    23600336.120    96639424.820 7        95.466
G02  21613392.080   113579135.781 8      3119.003    21613390.500   113579135.783 6      3119.003    21613393.520    88503226.998 6      2430.392
G03  23578612.300   123906443.045 6      6503.638    23578611.160   123906443.050 5      6503.638    23578623.160    96550523.159 5      5067.770    23578623.800    96550529.179 7      5067.770
R01  23510095.840   125674934.528 6      6712.414    23510094.500   125674934.513 6      6712.414    23510114.380    97747258.240 6      5220.766    23510114.020    97747255.239 6      5220.766
G08  20808187.100   109347754.116 8      2906.223    20808186.100   109347754.118 8      2906.223    20808192.480    85206066.488 8      2264.589    20808193.300    85206068.492 8      2264.589
G21  20877179.060   109710312.314 7      2122.116    20877177.360   109710312.318 6      2122.116    20877181.060    85488567.576 6      1653.597
G27  22016797.180   115699024.378 7      1237.111    22016796.060   115699024.380 7      1237.111    22016803.560    90155112.457 7       963.983    22016804.060    90155113.461 8       963.983
R23  20998272.620   112326587.647 7      1821.514    20998271.120   112326587.648 7      1821.514
R13  20312832.460   108469379.821 6       776.919    20312831.940   108469379.822 6       776.919    20312841.460    84365112.328 7       604.270    20312841.220    84365111.322 6       604.270
R08  21806681.120   116773788.157 7      4817.270    21806682.780   116773788.210 7      4817.270    21806695.400    90824118.497 7      3746.765    21806695.200    90824120.492 7      3746.765
R07  22872291.300   122437158.626 7      1876.732    22872290.760   122437158.652 7      1876.732    22872306.240    95228968.877 7      1459.681    22872306.620    95228967.878 6      1459.681
R22  23409633.900   124962206.545 7       570.478    23409635.320   124962206.551 6       570.478    23409650.360    97192890.760 6       443.705    23409650.800    97192892.760 7       443.705
R12  22391059.800   119609000.478 7     -1400.372    22391058.360   119609000.471 7     -1400.372    22391073.340    93029273.728 7     -1089.178    22391073.480    93029273.724 7     -1089.178
G16  23057783.020   121169452.762 7      -534.682    23057781.220   121169452.772 5      -534.682    23057789.140    94417771.289 5      -416.635
G32  25328757.300   133103522.860 6      3878.032    25328756.740   133103522.860 5      3878.032    25328772.560   103716997.479 5      3021.843    25328773.520   103717097.487 6      3021.843
R24  21956302.600   117410213.602 7      3987.815    21956302.400   117410213.614 7      3987.815    21956314.760    91319108.378 7      3101.634    21956315.200    91319108.381 7      3101.634
R14  21989751.360   117217746.005 7      5110.796    21989751.260   117217746.009 7      5110.796    21989763.380    91169406.036 8      3975.064    21989763.380    91169412.043 8      3975.064
> 2024 06 03 12 02 51.0000000  0 17
G10  23600303.760   124020422.058 7       122.099    23600302.280   124020422.061 7       122.099    23600312.320    96639319.534 7        95.142    23600312.640    96639329.540 7        95.142
G02  21612798.660   113576016.946 8      3118.616    21612797.000   113576016.951 6      3118.616    21612800.020    88500796.740 6      2430.090
G03  23577374.880   123899939.466 7      6503.474    23577373.460   123899939.474 5      6503.474    23577385.600    96545455.443 5      5067.642    23577385.920    96545461.453 7      5067.642
R01  23508839.960   125668222.009 6      6712.392    23508839.080   125668222.013 6      6712.392    23508858.640    97742037.419 6      5220.749    23508858.320    97742034.409 6      5220.749
G08  20807634.300   109344848.034 8      2905.933    20807633.100   109344848.034 8      2905.933    20807639.480    85203802.008 8      2264.364    20807640.520    85203804.013 8      2264.364
G21  20876774.960   109708190.299 8      2121.840    20876773.500   109708190.304 6      2121.840    20876777.360    85486914.055 6      1653.382
G27  22016561.720   115697787.434 7      1236.874    22016560.600   115697787.436 7      1236.874    22016568.240    90154148.601 7       963.798    22016568.820    90154149.607 8       963.798
R23  20997931.720   112324766.220 7      1821.263    20997930.600   112324766.224 7      1821.263
R13  20312687.100   108468603.129 6       776.137    20312685.900   108468603.141 6       776.137    20312695.560    84364508.244 7       603.662    20312695.700    84364507.244 6       603.662
R08  21805781.520   116768971.239 7      4816.707    21805783.300   116768971.278 7      4816.707    21805795.740    90820371.997 7      3746.327    21805795.680    90820373.998 7      3746.327
R07  22871940.740   122435282.343 7      1875.929    22871940.240   122435282.363 7      1875.929    22871955.740    95227509.539 7      1459.056    22871955.940    95227508.545 7      1459.056
R22  23409526.440   124961635.964 7       570.624    23409528.680   124961635.973 6       570.624    23409543.820    97192446.971 6       443.818    23409543.540    97192448.971 7       443.818
R12  22391321.560   119610401.020 7     -1400.665    22391320.400   119610401.011 7     -1400.665    22391335.160    93030363.024 7     -1089.406    22391335.720    93030363.021 7     -1089.406
G16  23057884.880   121169987.609 7      -534.972    23057883.120   121169987.619 5      -534.972    23057890.940    94418188.049 5      -416.861
G32  25328019.600   133099644.946 6      3877.599    25328018.840   133099644.943 5      3877.599    25328034.600   103713975.736 5      3021.506    25328035.000   103714075.754 6      3021.506
R24  21955556.640   117406225.985 7      3987.514    21955556.820   117406225.997 7      3987.514    21955569.120    91316006.901 7      3101.400    21955569.620    91316006.903 7      3101.400
R14  21988792.780   117212635.544 7      5110.097    21988792.400   117212635.553 7      5110.097    21988804.580    91165431.239 8      3974.520    21988804.680    91165437.244 8      3974.520
> 2024 06 03 12 02 52.0000000  0 17
G10  23600280.380   124020300.226 7       121.592    23600278.940   124020300.231 7       121.592    23600289.100    96639224.595 7        94.747    23600289.740    96639234.597 7        94.747
G02  21612205.180   113572898.485 8      3118.477    21612203.520   113572898.490 6      3118.477    21612206.560    88498366.774 6      2429.982
G03  23576137.380   123893436.128 7      6503.354    23576135.720   123893436.133 5      6503.354    23576147.860    96540387.910 5      5067.548    23576148.380    96540393.917 7      5067.548
R01  23507583.860   125661509.458 6      6712.729    23507583.480   125661509.475 6      6712.729    23507603.740    97736816.562 6      5221.011    23507602.700    97736813.553 6      5221.011
G08  20807081.160   109341942.286 8      2905.644    20807080.100   109341942.293 8      2905.644    20807086.500    85201537.791 8      2264.138    20807087.300    85201539.795 8      2264.138
G21  20876371.460   109706068.667 8      2121.567    20876369.900   109706068.675 6      2121.567    20876373.620    85485260.838 6      1653.169
G27  22016326.240   115696550.803 7      1236.545    22016325.280   115696550.803 7      1236.545    22016332.920    90153184.993 7       963.541    22016333.220    90153185.998 8       963.541
R23  20997591.200   112322944.911 7      1821.377    20997589.920   112322944.921 7      1821.377
R13  20312542.240   108467827.361 6       775.405    20312540.340   108467827.348 6       775.405    20312550.640    84363904.850 7       603.093    20312550.380    84363903.846 6       603.093
R08  21804882.360   116764154.974 7      4816.024    21804884.100   116764155.010 7      4816.024    21804896.660    90816626.015 7      3745.797    21804896.260    90816628.010 7      3745.797
R07  22871590.700   122433406.913 7      1875.026    22871589.800   122433406.934 7      1875.026    22871605.520    95226050.872 7      1458.353    22871605.420    95226049.873 6      1458.353
R22  23409419.800   124961065.378 7       570.665    23409421.480   124961065.371 7       570.665    23409436.660    97192003.167 6       443.850    23409436.840    97192005.161 7       443.850
R12  22391583.780   119611801.806 7     -1400.771    22391582.940   119611801.794 7     -1400.771    22391597.580    93031452.509 7     -1089.488    22391597.820    93031452.510 7     -1089.488
G16  23057986.720   121170522.771 7      -535.192    23057985.100   121170522.784 5      -535.192    23057992.700    94418605.048 5      -417.033
G32  25327281.700   133095767.337 6      3877.499    25327280.760   133095767.329 5      3877.499    25327296.720   103710954.222 5      3021.428    25327296.880   103711054.228 6      3021.428
R24  21954811.060   117402238.656 7      3987.374    21954811.000   117402238.663 7      3987.374    21954823.620    91312905.645 7      3101.291    21954823.880    91312905.648 7      3101.291
R14  21987834.540   117207525.901 7      5109.477    21987833.720   117207525.894 7      5109.477    21987846.160    91161457.071 8      3974.037    21987846.240    91161463.077 8      3974.037
