     3.05           OBSERVATION DATA    MIXED               RINEX VERSION / TYPE
TPS2RIN 1.0.28.3459 TPS-USER            20260427 162829 UTC PGM / RUN BY / DATE
Win64 build Jun 01, 2022 (c) Topcon Positioning Systems     COMMENT
SRC: 20240603_GUI26.tps                                     COMMENT
Observer            Agency                                  OBSERVER / AGENCY
O0M3X53SBGM         TPS HIPER_SR        4.8 HSR Jul,08,2022 REC # / TYPE / VERS
FW: 4.8 HSR Jul,08,2022 p3                                  COMMENT
SN: HiPer SR 1212-12575                                     COMMENT
000                 TPSHIPER_SR     NONE                    ANT # / TYPE
        1.8000        0.0000        0.0000                  ANTENNA: DELTA H/E/N
GUI26                                                       MARKER NAME
  5391793.0727 -1590189.5229  3005661.4652                  APPROX POSITION XYZ
  2024     6     3    15    10   22.0000000     GPS         TIME OF FIRST OBS
  2024     6     3    15    25   23.0000000     GPS         TIME OF LAST OBS
     1.000                                                  INTERVAL
   902 EPOCHS                                               COMMENT
G   12 C1C L1C D1C C1W L1W D1W C2W L2W D2W C2X L2X D2X      SYS / # / OBS TYPES
R   12 C1C L1C D1C C1P L1P D1P C2P L2P D2P C2C L2C D2C      SYS / # / OBS TYPES
    17                                                      # OF SATELLITES
   G02   902   902   902   902   902   902   902   902   902PRN / # OF OBS
           0     0     0                                    PRN / # OF OBS
   G03   902   902   902   902   902   902   902   902   902PRN / # OF OBS
         902   902   902                                    PRN / # OF OBS
   G04   902   902   902   902   902   902   902   902   902PRN / # OF OBS
         902   902   902                                    PRN / # OF OBS
   G06    65    65    65    63    63    63    63    63    63PRN / # OF OBS
          56    56    56                                    PRN / # OF OBS
   G08   902   902   902   902   902   902   902   902   902PRN / # OF OBS
         902   902   902                                    PRN / # OF OBS
   G09   902   902   902   902   902   902   902   902   902PRN / # OF OBS
         902   902   902                                    PRN / # OF OBS
   G14   902   902   902   902   902   902   902   902   902PRN / # OF OBS
         902   902   902                                    PRN / # OF OBS
   G17   902   902   902   902   902   902   902   902   902PRN / # OF OBS
         902   902   902                                    PRN / # OF OBS
   G19   902   902   902   902   902   902   902   902   902PRN / # OF OBS
           0     0     0                                    PRN / # OF OBS
   G21   902   902   902   902   902   902   902   902   902PRN / # OF OBS
           0     0     0                                    PRN / # OF OBS
   G22   902   902   902   902   902   902   902   902   902PRN / # OF OBS
           0     0     0                                    PRN / # OF OBS
   R01   902   902   902   902   902   902   902   902   902PRN / # OF OBS
         902   902   902                                    PRN / # OF OBS
   R02   902   902   902   902   902   902   902   902   902PRN / # OF OBS
         902   902   902                                    PRN / # OF OBS
   R03   902   902   902   902   902   902   902   902   902PRN / # OF OBS
         902   902   902                                    PRN / # OF OBS
   R17   902   902   902   902   902   902   902   902   902PRN / # OF OBS
         902   902   902                                    PRN / # OF OBS
   R23   666   666   666   662   662   662     0     0     0PRN / # OF OBS
           0     0     0                                    PRN / # OF OBS
   R24   902   902   902   902   902   902   902   902   902PRN / # OF OBS
         902   902   902                                    PRN / # OF OBS
G L1C                                                       SYS / PHASE SHIFT
G L1W -0.25000                                              SYS / PHASE SHIFT
G L2W  0.00000                                              SYS / PHASE SHIFT
G L2X  0.25000                                              SYS / PHASE SHIFT
R L1C                                                       SYS / PHASE SHIFT
R L1P -0.25000                                              SYS / PHASE SHIFT
R L2P -0.25000                                              SYS / PHASE SHIFT
R L2C                                                       SYS / PHASE SHIFT
  6 R01  1 R02 -4 R03  5 R17  4 R23  3 R24  2               GLONASS SLOT / FRQ #
                                                            GLONASS COD/PHS/BIS
               *** Undefined LeapSeconds ***                COMMENT
                                                            END OF HEADER
> 2024 06 03 15 10 22.0000000  0 15
G03  20290793.700   106628854.426 8      1228.111    20290791.080   106628854.433 8      1228.111    20290797.740    83087423.337 8       956.969    20290799.900    83087440.337 8       956.969
G14  22562264.060   118565504.140 7       910.548    22562263.620   118565504.153 5       910.548    22562272.580    92388737.795 5       709.518    22562273.260    92388744.802 7       709.518
R02  19190198.500   102402577.188 8      3747.857    19190198.260   102402577.191 8      3747.857    19190207.600    79646483.467 8      2915.000    19190207.580    79646484.470 8      2915.000
R03  22046137.280   118014707.161 7      6733.585    22046136.760   118014707.189 7      6733.585    22046156.340    91789291.201 7      5237.232    22046155.860    91789295.208 7      5237.232
G17  21412228.460   112522016.965 7      4857.848    21412228.460   112522016.965 6      4857.848    21412232.220    87679508.251 6      3785.336    21412232.580    87679514.244 8      3785.336
G22  23101708.060   121400306.139 7      2227.100    23101707.200   121400306.149 5      2227.100    23101714.860    94597659.924 5      1735.402
G04  21242811.420   111631729.795 7      4699.043    21242810.000   111631729.802 6      4699.043    21242816.840    86985789.884 6      3661.592    21242817.260    86985787.886 8      3661.592
G21  23113789.400   121463782.939 7      1221.136    23113787.400   121463782.949 5      1221.136    23113794.920    94647121.715 5       951.534
R01  20504559.760   109608612.448 7      -199.506    20504558.880   109608612.446 7      -199.506    20504570.840    85251196.964 7      -155.171    20504570.200    85251193.948 7      -155.171
G08  24239071.940   127377174.401 5      -768.424    24239069.720   127377174.417 3      -768.424    24239088.920    99255012.858 3      -598.772    24239090.480    99255018.828 5      -598.772
R17  20780956.520   111203100.334 7      5067.685    20780954.820   111203100.340 7      5067.685    20780968.200    86491349.844 8      3941.533    20780967.940    86491347.846 8      3941.533
G09  23041213.740   121082401.554 7      6125.560    23041212.260   121082401.567 6      6125.560    23041226.660    94349981.135 6      4773.164    23041227.240    94349980.146 7      4773.164
G19  23097384.960   121377598.991 6      6099.872    23097383.560   121377599.004 5      6099.872    23097391.300    94579905.591 5      4753.147
R24  20199833.340   108017581.657 8      2323.409    20199832.940   108017581.664 8      2323.409    20199843.500    84013720.324 8      1807.096    20199843.760    84013720.327 8      1807.096
G02  22084035.220   116052402.977 7      1812.238    22084033.720   116052402.979 6      1812.238    22084038.120    90430435.217 6      1412.133
> 2024 06 03 15 10 23.0000000  0 15
G03  20290559.940   106627626.519 8      1227.757    20290557.360   106627626.531 8      1227.757    20290564.040    83086466.532 8       956.694    20290566.300    83086483.528 8       956.694
G14  22562090.840   118564593.760 7       910.260    22562090.660   118564593.765 5       910.260    22562099.380    92388028.400 5       709.294    22562100.100    92388035.390 7       709.294
R02  19189496.020   102398829.767 8      3747.017    19189495.840   102398829.766 8      3747.017    19189505.020    79643568.816 8      2914.347    19189505.180    79643569.818 8      2914.347
R03  22044879.100   118007973.786 7      6733.292    22044878.900   118007973.817 7      6733.292    22044898.020    91784054.161 7      5237.005    22044898.040    91784058.168 7      5237.005
G17  21411304.020   112517159.310 7      4857.548    21411304.080   112517159.313 6      4857.548    21411308.020    87675723.072 6      3785.102    21411308.240    87675729.075 8      3785.102
G22  23101284.380   121398079.336 7      2226.591    23101283.400   121398079.341 5      2226.591    23101290.960    94595924.747 5      1735.006
G04  21241917.180   111627030.908 7      4698.800    21241915.760   111627030.918 6      4698.800    21241922.780    86982128.416 6      3661.403    21241923.160    86982126.416 8      3661.403
G21  23113557.000   121462561.677 7      1221.476    23113555.000   121462561.679 5      1221.476    23113562.500    94646170.082 5       951.800
R01  20504597.280   109608812.249 7      -200.045    20504595.880   109608812.250 7      -200.045    20504608.180    85251352.374 7      -155.590    20504607.400    85251349.362 7      -155.590
G08  24239218.240   127377941.770 5      -767.636    24239215.580   127377941.786 3      -767.636    24239234.980    99255614.809 3      -598.158    24239237.800    99255622.769 5      -598.158
R17  20780009.420   111198032.716 7      5067.504    20780009.100   111198032.720 7      5067.504    20780021.140    86487408.361 8      3941.392    20780020.980    86487406.366 8      3941.392
G09  23040047.820   121076275.883 7      6125.774    23040046.440   121076275.888 6      6125.774    23040060.920    94345207.894 6      4773.331    23040061.340    94345206.910 7      4773.331
G19  23096223.900   121371499.206 6      6099.732    23096222.960   121371499.211 5      6099.732    23096230.600    94575152.509 5      4753.038
R24  20199398.680   108015258.469 8      2323.124    20199398.320   108015258.473 8      2323.124    20199409.160    84011913.402 8      1806.874    20199409.320    84011913.404 8      1806.874
G02  22083690.480   116050590.883 7      1812.151    22083688.840   116050590.888 6      1812.151    22083693.200    90429023.190 6      1412.066
> 2024 06 03 15 10 24.0000000  0 15
G03  20290326.280   106626398.979 8      1227.465    20290323.700   106626398.987 8      1227.465    20290330.500    83085510.004 8       956.466    20290332.480    83085527.002 8       956.466
G14  22561917.700   118563683.919 7       909.879    22561917.560   118563683.924 5       909.879    22561926.220    92387319.423 5       708.997    22561926.800    92387326.411 7       708.997
R02  19188793.980   102395083.273 8      3746.231    19188793.700   102395083.268 8      3746.231    19188802.760    79640654.876 8      2913.735    19188802.980    79640655.879 8      2913.735
R03  22043621.000   118001240.925 7      6732.832    22043620.980   118001240.958 7      6732.832    22043639.980    91778817.512 7      5236.647    22043639.980    91778821.519 7      5236.647
G17  21410379.620   112512302.078 7      4857.259    21410379.620   112512302.081 6      4857.259    21410383.760    87671938.220 6      3784.877    21410384.040    87671944.215 8      3784.877
G22  23100860.740   121395853.151 7      2226.074    23100859.820   121395853.153 5      2226.074    23100867.380    94594190.057 5      1734.603
G04  21241022.860   111622332.543 7      4698.320    21241021.620   111622332.551 6      4698.320    21241028.800    86978467.355 6      3661.028    21241029.040    86978465.354 8      3661.028
G21  23113324.540   121461340.470 7      1221.387    23113322.700   121461340.477 5      1221.387    23113329.920    94645218.484 5       951.730
R01  20504634.460   109609012.601 7      -200.484    20504633.140   109609012.600 7      -200.484    20504645.620    85251508.195 7      -155.932    20504645.060    85251505.185 7      -155.932
G08  24239363.780   127378709.421 5      -768.007    24239361.440   127378709.439 3      -768.007    24239381.280    99256212.967 3      -598.447    24239383.300    99256220.889 5      -598.447
R17  20779062.540   111192965.162 7      5067.685    20779062.560   111192965.161 7      5067.685    20779073.980    86483466.927 8      3941.533    20779074.020    86483464.929 8      3941.533
G09  23038882.020   121070150.482 6      6125.572    23038880.700   121070150.487 6      6125.572    23038895.420    94340434.875 6      4773.173    23038895.740    94340433.885 7      4773.173
G19  23095063.240   121365399.610 7      6099.777    23095062.360   121365399.613 5      6099.777    23095069.980    94570399.584 5      4753.073
R24  20198964.460   108012935.660 8      2322.689    20198963.720   108012935.664 8      2322.689    20198974.900    84010106.773 8      1806.536    20198975.080    84010106.777 8      1806.536
G02  22083345.780   116048778.862 7      1812.124    22083344.160   116048778.867 6      1812.124    22083348.360    90427611.222 6      1412.045
> 2024 06 03 15 10 25.0000000  0 15
G03  20290092.460   106625171.742 8      1227.204    20290090.140   106625171.744 8      1227.204    20290096.900    83084553.711 8       956.263    20290098.940    83084570.709 8       956.263
G14  22561744.620   118562774.330 7       909.504    22561744.720   118562774.338 5       909.504    22561753.220    92386610.646 5       708.705    22561753.740    92386617.640 7       708.705
R02  19188092.200   102391337.552 8      3745.418    19188091.740   102391337.550 8      3745.418    19188100.760    79637741.540 8      2913.103    19188101.040    79637742.543 8      2913.103
R03  22042363.160   117994508.238 7      6732.659    22042363.000   117994508.258 7      6732.659    22042382.500    91773580.990 7      5236.513    22042382.360    91773585.000 7      5236.513
G17  21409455.340   112507445.109 7      4856.973    21409455.360   112507445.114 6      4856.973    21409459.440    87668153.566 6      3784.654    21409460.120    87668159.570 8      3784.654
G22  23100437.240   121393627.359 7      2225.641    23100436.140   121393627.369 5      2225.641    23100443.940    94592455.676 5      1734.266
G04  21240128.860   111617634.552 7      4697.906    21240127.620   111617634.560 6      4697.906    21240134.820    86974806.586 6      3660.706    21240135.080    86974804.586 8      3660.706
G21  23113092.280   121460119.289 7      1221.417    23113090.400   121460119.291 5      1221.417    23113097.580    94644266.918 5       951.753
R01  20504672.000   109609213.509 7      -201.063    20504670.640   109609213.508 7      -201.063    20504683.360    85251664.450 7      -156.382    20504682.420    85251661.443 7      -156.382
G08  24239508.460   127379477.024 5      -767.667    24239507.640   127379477.047 3      -767.667    24239527.180    99256811.096 3      -598.182    24239529.840    99256818.999 5      -598.182
R17  20778115.640   111187897.665 7      5067.658    20778116.020   111187897.669 7      5067.658    20778126.840    86479525.544 8      3941.512    20778127.040    86479523.544 8      3941.512
G09  23037716.620   121064025.071 7      6125.581    23037714.920   121064025.076 6      6125.581    23037729.820    94335661.842 6      4773.180    23037730.460    94335660.849 7      4773.180
G19  23093902.680   121359300.127 7      6099.483    23093901.760   121359300.132 5      6099.483    23093909.340    94565646.748 5      4752.844
R24  20198530.140   108010613.171 8      2322.455    20198529.380   108010613.181 8      2322.455    20198540.520    84008300.397 8      1806.354    20198540.800    84008300.402 8      1806.354
G02  22083000.980   116046966.939 7      1812.056    22082999.320   116046966.944 6      1812.056    22083003.560    90426199.332 6      1411.992
> 2024 06 03 15 10 26.0000000  0 15
G03  20289859.120   106623944.633 8      1226.985    20289856.600   106623944.635 8      1226.985    20289863.520    83083597.526 8       956.092    20289865.580    83083614.522 8       956.092
G14  22561571.260   118561864.965 7       909.169    22561571.780   118561864.970 5       909.169    22561580.100    92385902.044 5       708.443    22561580.640    92385909.042 7       708.443
R02  19187390.320   102387592.476 8      3744.662    19187390.040   102387592.472 8      3744.662    19187398.860    79634828.703 8      2912.515    19187399.140    79634829.707 8      2912.515
R03  22041105.680   117987775.738 7      6732.285    22041105.120   117987775.756 7      6732.285    22041124.640    91768344.614 7      5236.222    22041124.480    91768348.623 7      5236.222
G17  21408531.100   112502588.285 7      4856.721    21408531.000   112502588.289 6      4856.721    21408535.400    87664369.032 6      3784.458    21408535.480    87664375.033 8      3784.458
G22  23100013.800   121391401.881 7      2225.187    23100012.800   121391401.893 5      2225.187    23100020.400    94590721.535 5      1733.912
G04  21239235.100   111612936.839 7      4697.525    21239233.740   111612936.847 6      4697.525    21239240.760    86971146.031 6      3660.409    21239241.140    86971144.037 8      3660.409
G21  23112859.620   121458897.961 7      1221.409    23112858.120   121458897.966 5      1221.409    23112865.180    94643315.238 5       951.747
R01  20504709.200   109609414.738 7      -201.536    20504708.080   109609414.747 7      -201.536    20504721.100    85251820.968 7      -156.750    20504720.080    85251817.960 7      -156.750
G08  24239653.700   127380244.693 4      -767.679    24239653.880   127380244.716 3      -767.679    24239673.320    99257409.275 3      -598.192    24239675.840    99257417.170 5      -598.192
R17  20777168.940   111182830.074 8      5067.539    20777169.220   111182830.081 7      5067.539    20777179.800    86475584.093 8      3941.419    20777180.040    86475582.093 8      3941.419
G09  23036551.020   121057899.641 6      6125.416    23036549.160   121057899.651 6      6125.416    23036564.280    94330888.798 6      4773.051    23036564.580    94330887.812 7      4773.051
G19  23092742.080   121353200.576 7      6099.512    23092741.020   121353200.584 5      6099.512    23092748.780    94560893.855 5      4752.867
R24  20198095.740   108008290.854 8      2322.161    20198095.040   108008290.864 8      2322.161    20198106.280    84006494.148 8      1806.125    20198106.480    84006494.153 8      1806.125
G02  22082656.260   116045154.919 7      1812.043    22082654.540   116045154.927 6      1812.043    22082658.800    90424787.372 6      1411.982
> 2024 06 03 15 10 27.0000000  0 15
G03  20289625.680   106622717.961 8      1226.333    20289623.280   106622717.963 8      1226.333    20289630.100    83082641.680 8       955.584    20289632.200    83082658.676 8       955.584
G14  22561398.220   118560955.991 7       908.716    22561398.960   118560956.001 5       908.716    22561406.940    92385193.754 5       708.090    22561407.880    92385200.742 7       708.090
R02  19186688.700   102383848.300 8      3743.551    19186688.500   102383848.296 8      3743.551    19186697.180    79631916.568 8      2911.651    19186697.560    79631917.572 8      2911.651
R03  22039848.120   117981043.544 7      6732.045    22039846.880   117981043.564 7      6732.045    22039867.140    91763108.473 7      5236.035    22039866.880    91763112.482 7      5236.035
G17  21407606.880   112497731.859 7      4856.075    21407606.820   112497731.867 6      4856.075    21407611.280    87660584.811 6      3783.955    21407611.700    87660590.814 8      3783.955
G22  23099590.680   121389176.899 7      2224.725    23099589.340   121389176.909 5      2224.725    23099597.160    94588987.781 5      1733.552
G04  21238341.360   111608239.650 7      4696.870    21238340.040   111608239.657 6      4696.870    21238347.120    86967485.889 6      3659.899    21238347.420    86967483.887 8      3659.899
G21  23112627.300   121457676.819 7      1220.865    23112625.840   121457676.827 5      1220.865    23112632.920    94642363.693 5       951.324
R01  20504747.060   109609616.648 7      -202.412    20504745.920   109609616.652 7      -202.412    20504759.040    85251978.003 7      -157.432    20504758.140    85251974.993 7      -157.432
G08  24239799.960   127381012.485 4      -767.905    24239800.040   127381012.508 3      -767.905    24239819.520    99258007.540 3      -598.368    24239820.920    99258015.427 5      -598.368
R17  20776221.980   111177762.641 7      5067.173    20776222.460   111177762.656 7      5067.173    20776232.740    86471642.756 8      3941.135    20776233.000    86471640.756 8      3941.135
G09  23035385.060   121051774.346 6      6125.299    23035383.600   121051774.356 6      6125.299    23035398.940    94326115.847 6      4772.960    23035398.880    94326114.850 7      4772.960
G19  23091581.560   121347101.267 7      6099.069    23091580.240   121347101.264 5      6099.069    23091588.460    94556141.151 5      4752.521
R24  20197661.700   108005969.040 8      2321.423    20197660.860   108005969.049 8      2321.423    20197672.080    84004688.289 8      1805.551    20197672.080    84004688.291 8      1805.551
G02  22082311.380   116043343.119 7      1811.575    22082309.700   116043343.127 6      1811.575    22082313.980    90423375.578 6      1411.617
> 2024 06 03 15 10 28.0000000  0 15
G03  20289392.400   106621491.688 8      1226.206    20289389.920   106621491.693 7      1226.206    20289396.780    83081686.138 7       955.485    20289398.920    83081703.138 8       955.485
G14  22561225.340   118560047.435 7       908.313    22561225.920   118560047.445 5       908.313    22561234.100    92384485.780 5       707.776    22561235.260    92384492.764 7       707.776
R02  19185987.300   102380104.996 8      3742.840    19185986.940   102380104.989 8      3742.840    19185995.720    79629005.108 7      2911.098    19185996.100    79629006.111 7      2911.098
R03  22038590.400   117974311.657 7      6731.797    22038589.300   117974311.674 7      6731.797    22038609.500    91757872.580 7      5235.842    22038609.700    91757876.589 7      5235.842
G17  21406682.840   112492875.823 7      4856.010    21406682.560   112492875.828 6      4856.010    21406687.140    87656800.890 6      3783.904    21406687.620    87656806.893 7      3783.904
G22  23099167.340   121386952.466 7      2224.308    23099166.000   121386952.478 5      2224.308    23099173.980    94587254.454 5      1733.227
G04  21237447.580   111603542.912 7      4696.352    21237446.280   111603542.922 6      4696.352    21237453.320    86963826.096 6      3659.495    21237453.700    86963824.095 8      3659.495
G21  23112394.860   121456455.728 7      1221.057    23112393.480   121456455.738 5      1221.057    23112400.500    94641412.183 5       951.473
R01  20504785.320   109609819.187 7      -202.696    20504784.300   109609819.185 7      -202.696    20504796.980    85252135.522 7      -157.653    20504796.020    85252132.515 7      -157.653
G08  24239947.540   127381780.390 4      -767.973    24239946.180   127381780.413 3      -767.973    24239965.860    99258605.900 3      -598.421    24239967.800    99258613.815 5      -598.421
R17  20775274.720   111172695.390 7      5067.298    20775275.340   111172695.399 7      5067.298    20775285.820    86467701.564 7      3941.231    20775286.080    86467699.567 7      3941.231
G09  23034219.880   121045649.160 6      6125.125    23034217.820   121045649.165 6      6125.125    23034233.260    94321342.984 6      4772.825    23034233.540    94321341.993 7      4772.825
G19  23090420.840   121341002.183 7      6098.997    23090419.620   121341002.183 5      6098.997    23090427.820    94551388.622 5      4752.466
R24  20197227.760   108003647.709 8      2321.137    20197226.820   108003647.708 8      2321.137    20197238.020    84002882.799 7      1805.328    20197237.980    84002882.804 8      1805.328
G02  22081966.600   116041531.488 7      1811.574    22081965.000   116041531.496 6      1811.574    22081969.180    90421963.915 6      1411.616
> 2024 06 03 15 10 29.0000000  0 15
G03  20289159.040   106620265.846 8      1225.622    20289156.620   106620265.848 8      1225.622    20289163.500    83080730.937 8       955.030    20289165.440    83080747.934 8       955.030
G14  22561052.660   118559139.325 7       907.893    22561053.160   118559139.333 5       907.893    22561061.100    92383778.152 5       707.449    22561062.120    92383785.134 7       707.449
R02  19185285.940   102376362.666 8      3741.870    19185285.720   102376362.654 8      3741.870    19185294.440    79626094.405 8      2910.343    19185294.620    79626095.412 8      2910.343
R03  22037332.840   117967580.249 7      6731.270    22037331.500   117967580.269 7      6731.270    22037352.220    91752637.057 7      5235.432    22037352.080    91752641.069 7      5235.432
G17  21405759.020   112488020.207 7      4855.431    21405758.440   112488020.212 6      4855.431    21405763.180    87653017.295 6      3783.453    21405763.760    87653023.297 8      3783.453
G22  23098744.060   121384728.598 7      2223.623    23098742.840   121384728.611 5      2223.623    23098750.880    94585521.568 5      1732.693
G04  21236553.700   111598846.736 7      4695.898    21236552.640   111598846.746 6      4695.898    21236559.700    86960166.742 6      3659.142    21236560.180    86960164.744 8      3659.142
G21  23112162.480   121455234.817 7      1220.844    23112161.200   121455234.825 5      1220.844    23112168.220    94640460.820 5       951.307
R01  20504823.320   109610022.367 7      -203.413    20504821.920   109610022.360 7      -203.413    20504835.200    85252293.545 7      -158.210    20504834.160    85252290.542 7      -158.210
G08  24240093.520   127382548.555 4      -768.063    24240092.600   127382548.576 3      -768.063    24240111.940    99259204.458 3      -598.491    24240113.380    99259212.349 5      -598.491
R17  20774327.680   111167628.288 8      5067.030    20774328.300   111167628.301 7      5067.030    20774338.720    86463760.492 8      3941.023    20774339.100    86463758.499 8      3941.023
G09  23033053.820   121039524.209 6      6124.981    23033052.460   121039524.219 6      6124.981    23033067.720    94316570.306 6      4772.713    23033068.180    94316569.314 7      4772.713
G19  23089260.140   121334903.281 7      6098.727    23089259.140   121334903.283 5      6098.727    23089267.240    94546636.239 5      4752.255
R24  20196793.520   108001326.858 8      2320.661    20196792.780   108001326.854 8      2320.661    20196803.960    84001077.692 8      1804.958    20196804.200    84001077.699 8      1804.958
G02  22081621.760   116039720.059 7      1811.359    22081620.460   116039720.064 6      1811.359    22081624.440    90420552.412 6      1411.448
> 2024 06 03 15 10 30.0000000  0 15
G03  20288925.820   106619040.321 7      1225.289    20288923.280   106619040.326 8      1225.289    20288930.240    83079775.979 8       954.770    20288932.320    83079792.974 8       954.770
G14  22560879.720   118558231.494 7       907.630    22560880.400   118558231.504 5       907.630    22560888.460    92383070.749 5       707.244    22560889.360    92383077.748 7       707.244
R02  19184584.620   102372621.089 8      3741.107    19184584.500   102372621.082 8      3741.107    19184593.260    79623184.291 8      2909.750    19184593.260    79623185.296 8      2909.750
R03  22036075.420   117960849.026 7      6730.941    22036074.500   117960849.039 7      6730.941    22036094.580    91747401.682 7      5235.176    22036094.680    91747405.696 7      5235.176
G17  21404835.120   112483164.914 7      4855.102    21404834.720   112483164.916 6      4855.102    21404839.260    87649233.950 6      3783.197    21404839.840    87649239.949 8      3783.197
G22  23098321.020   121382505.171 7      2223.136    23098319.700   121382505.184 5      2223.136    23098327.600    94583789.026 5      1732.314
G04  21235660.240   111594150.884 7      4695.529    21235659.000   111594150.894 6      4695.529    21235666.060    86956507.642 6      3658.854    21235666.460    86956505.642 8      3658.854
G21  23111930.360   121454013.884 7      1220.850    23111928.780   121454013.891 5      1220.850    23111935.880    94639509.443 5       951.312
R01  20504861.560   109610226.113 7      -203.959    20504860.180   109610226.117 7      -203.959    20504873.000    85252452.019 7      -158.635    20504872.040    85252449.011 7      -158.635
G08  24240239.900   127383316.637 5      -768.115    24240238.780   127383316.657 3      -768.115    24240258.260    99259802.950 3      -598.531    24240258.520    99259810.839 5      -598.531
R17  20773380.800   111162561.294 7      5066.936    20773380.680   111162561.304 7      5066.936    20773392.000    86459819.509 8      3940.950    20773392.380    86459817.513 8      3940.950
G09  23031888.340   121033399.226 6      6124.846    23031887.100   121033399.234 6      6124.846    23031902.100    94311797.607 6      4772.607    23031902.580    94311796.614 7      4772.607
G19  23088099.640   121328804.523 7      6098.695    23088098.600   121328804.531 5      6098.695    23088106.780    94541883.973 5      4752.230
R24  20196359.620   107999006.324 8      2320.319    20196359.120   107999006.328 8      2320.319    20196369.920    83999272.835 8      1804.693    20196370.340    83999272.843 8      1804.693
G02  22081277.180   116037908.701 7      1811.272    22081275.860   116037908.706 6      1811.272    22081279.700    90419140.962 6      1411.381
> 2024 06 03 15 10 31.0000000  0 15
G03  20288692.600   106617815.018 8      1225.156    20288690.140   106617815.020 8      1225.156    20288697.060    83078821.193 8       954.667    20288699.200    83078838.190 8       954.667
G14  22560707.360   118557323.921 7       907.407    22560707.680   118557323.931 5       907.407    22560715.820    92382363.547 5       707.070    22560716.720    92382370.539 7       707.070
R02  19183883.760   102368880.283 8      3740.415    19183883.580   102368880.281 8      3740.415    19183892.220    79620274.783 8      2909.212    19183892.220    79620275.786 8      2909.212
R03  22034818.220   117954118.100 7      6730.828    22034817.460   117954118.113 7      6730.828    22034837.000    91742166.534 7      5235.089    22034836.940    91742170.542 7      5235.089
G17  21403911.200   112478309.779 7      4854.967    21403910.960   112478309.784 6      4854.967    21403915.240    87645450.734 6      3783.091    21403915.540    87645456.729 8      3783.091
G22  23097897.960   121380282.028 7      2222.979    23097896.680   121380282.041 5      2222.979    23097904.480    94582056.707 5      1732.192
G04  21234766.440   111589455.497 7      4695.180    21234765.500   111589455.512 6      4695.180    21234772.560    86952848.905 6      3658.582    21234772.920    86952846.909 8      3658.582
G21  23111698.260   121452793.018 7      1220.848    23111696.480   121452793.028 5      1220.848    23111703.500    94638558.119 5       951.310
R01  20504899.380   109610430.327 7      -204.425    20504898.680   109610430.337 7      -204.425    20504911.600    85252610.858 7      -158.997    20504910.480    85252607.849 7      -158.997
G08  24240386.980   127384084.902 5      -768.495    24240384.940   127384084.928 3      -768.495    24240404.680    99260401.590 3      -598.828    24240405.440    99260409.520 5      -598.828
R17  20772433.900   111157494.254 7      5066.949    20772433.580   111157494.251 7      5066.949    20772445.140    86455878.470 8      3940.961    20772445.400    86455876.476 8      3940.961
G09  23030723.120   121027274.338 7      6124.958    23030721.500   121027274.335 6      6124.958    23030736.480    94307024.973 6      4772.694    23030736.860    94307023.984 7      4772.694
G19  23086939.060   121322705.763 7      6098.760    23086938.180   121322705.776 5      6098.760    23086946.300    94537131.698 5      4752.281
R24  20195925.360   107996686.140 8      2320.027    20195925.440   107996686.147 8      2320.027    20195936.080    83997468.250 8      1804.466    20195936.140    83997468.254 8      1804.466
G02  22080932.320   116036097.421 7      1811.290    22080930.900   116036097.426 6      1811.290    22080935.260    90417729.573 6      1411.395
> 2024 06 03 15 10 32.0000000  0 15
G03  20288459.620   106616590.311 8      1224.435    20288457.140   106616590.311 8      1224.435    20288464.040    83077866.873 8       954.105    20288466.060    83077883.869 8       954.105
G14  22560534.780   118556416.999 7       906.514    22560535.080   118556417.011 5       906.514    22560543.360    92381656.844 5       706.375    22560544.380    92381663.822 7       706.375
R02  19183183.000   102365140.578 8      3739.178    19183182.800   102365140.574 8      3739.178    19183191.300    79617366.126 8      2908.250    19183191.560    79617367.129 8      2908.250
R03  22033561.160   117947387.801 7      6730.056    22033559.520   117947387.810 7      6730.056    22033579.540    91736931.871 7      5234.488    22033579.800    91736935.881 7      5234.488
G17  21402987.480   112473455.219 7      4854.275    21402986.980   112473455.224 6      4854.275    21402991.560    87641667.962 6      3782.552    21402991.680    87641673.960 8      3782.552
G22  23097474.900   121378059.653 7      2221.949    23097473.720   121378059.663 5      2221.949    23097481.500    94580324.977 5      1731.389
G04  21233873.480   111584760.837 7      4694.328    21233872.040   111584760.852 6      4694.328    21233879.180    86949190.733 6      3657.918    21233879.720    86949188.735 8      3657.918
G21  23111466.100   121451572.462 7      1220.459    23111464.320   121451572.475 5      1220.459    23111471.260    94637607.035 5       951.007
R01  20504937.460   109610635.389 7      -205.452    20504937.120   109610635.398 7      -205.452    20504949.900    85252770.344 7      -159.796    20504948.740    85252767.339 7      -159.796
G08  24240533.380   127384853.545 5      -768.662    24240531.280   127384853.574 2      -768.662    24240551.180    99261000.517 3      -598.957    24240551.040    99261008.420 5      -598.957
R17  20771487.300   111152427.546 7      5066.589    20771487.120   111152427.545 7      5066.589    20771498.120    86451937.699 8      3940.680    20771498.420    86451935.705 8      3940.680
G09  23029557.820   121021149.836 6      6124.436    23029555.860   121021149.838 6      6124.436    23029571.040    94302252.656 6      4772.288    23029571.260    94302251.661 7      4772.288
G19  23085778.580   121316607.392 7      6098.171    23085777.660   121316607.399 5      6098.171    23085785.760    94532379.720 5      4751.822
R24  20195491.560   107994366.607 8      2319.300    20195491.600   107994366.613 8      2319.300    20195502.400    83995664.166 8      1803.900    20195502.340    83995664.170 8      1803.900
G02  22080587.800   116034286.510 7      1810.760    22080586.380   116034286.517 6      1810.760    22080590.560    90416318.472 6      1410.982
> 2024 06 03 15 10 33.0000000  0 15
G03  20288226.660   106615366.027 8      1224.107    20288224.300   106615366.032 8      1224.107    20288231.040    83076912.886 8       953.849    20288233.320    83076929.886 8       953.849
G14  22560362.320   118555510.447 7       906.635    22560362.560   118555510.455 5       906.635    22560370.620    92380950.428 5       706.468    22560371.800    92380957.406 7       706.468
R02  19182482.220   102361401.775 8      3738.509    19182482.120   102361401.766 8      3738.509    19182490.760    79614458.164 8      2907.729    19182490.920    79614459.170 8      2907.729
R03  22032303.900   117940657.839 7      6730.009    22032302.200   117940657.859 7      6730.009    22032322.640    91731697.471 7      5234.452    22032322.660    91731701.481 7      5234.452
G17  21402063.760   112468601.093 7      4854.055    21402063.240   112468601.095 6      4854.055    21402067.820    87637885.522 6      3782.380    21402068.160    87637891.524 8      3782.380
G22  23097051.960   121375837.821 7      2221.661    23097050.920   121375837.831 5      2221.661    23097058.720    94578593.678 5      1731.165
G04  21232980.040   111580066.645 7      4694.043    21232978.820   111580066.655 6      4694.043    21232986.000    86945532.919 6      3657.696    21232986.520    86945530.915 8      3657.696
G21  23111233.780   121450352.017 7      1220.410    23111232.040   121450352.027 5      1220.410    23111238.880    94636656.033 5       950.969
R01  20504976.060   109610841.089 7      -206.034    20504975.800   109610841.096 7      -206.034    20504988.540    85252930.329 7      -160.249    20504987.340    85252927.320 7      -160.249
G08  24240679.480   127385622.365 5      -769.072    24240677.700   127385622.388 2      -769.072    24240697.720    99261599.581 2      -599.277    24240698.160    99261607.447 5      -599.277
R17  20770540.320   111147361.039 7      5066.494    20770540.620   111147361.038 7      5066.494    20770551.240    86447997.082 8      3940.606    20770551.680    86447995.089 8      3940.606
G09  23028392.260   121015025.446 6      6124.535    23028390.560   121015025.454 6      6124.535    23028405.680    94297480.413 6      4772.365    23028405.800    94297479.422 7      4772.365
G19  23084618.060   121310509.257 7      6098.043    23084617.300   121310509.267 5      6098.043    23084625.080    94527627.933 5      4751.722
R24  20195058.160   107992047.528 8      2318.817    20195057.960   107992047.537 8      2318.817    20195068.660    83993860.444 8      1803.524    20195068.680    83993860.446 8      1803.524
G02  22080243.400   116032475.801 7      1810.619    22080241.920   116032475.808 6      1810.619    22080246.040    90414907.523 6      1410.872
> 2024 06 03 15 10 34.0000000  0 15
G03  20287993.820   106614142.077 8      1223.799    20287991.220   106614142.081 8      1223.799    20287998.060    83075959.154 8       953.609    20288000.220    83075976.152 8       953.609
G14  22560189.820   118554604.269 7       905.756    22560189.980   118554604.276 5       905.756    22560198.340    92380244.309 5       705.784    22560199.440    92380251.295 7       705.784
R02  19181781.780   102357663.835 8      3737.353    19181781.620   102357663.825 8      3737.353    19181790.240    79611550.875 8      2906.830    19181790.520    79611551.880 8      2906.830
R03  22031046.960   117933928.176 7      6729.210    22031046.040   117933928.188 7      6729.210    22031065.040    91726463.306 7      5233.830    22031065.540    91726467.311 7      5233.830
G17  21401140.160   112463747.272 7      4853.617    21401139.740   112463747.282 6      4853.617    21401143.980    87634103.334 6      3782.039    21401144.560    87634109.333 8      3782.039
G22  23096629.420   121373616.421 7      2220.972    23096628.140   121373616.433 5      2220.972    23096636.060    94576862.712 5      1730.628
G04  21232086.740   111575372.879 7      4693.346    21232085.680   111575372.892 6      4693.346    21232092.880    86941875.445 6      3657.153    21232093.160    86941873.441 8      3657.153
G21  23111001.540   121449131.659 7      1220.235    23110999.680   121449131.664 5      1220.235    23111006.580    94635705.106 5       950.833
R01  20505014.740   109611047.354 7      -206.433    20505014.460   109611047.355 7      -206.433    20505026.880    85253090.751 7      -160.559    20505025.940    85253087.741 7      -160.559
G08  24240824.300   127386391.158 5      -769.320    24240824.160   127386391.179 2      -769.320    24240844.040    99262198.628 2      -599.470    24240844.360    99262206.521 5      -599.470
R17  20769593.760   111142294.636 8      5066.457    20769593.000   111142294.624 7      5066.457    20769604.560    86444056.546 8      3940.578    20769604.720    86444054.551 8      3940.578
G09  23027226.840   121008901.165 6      6123.989    23027225.040   121008901.162 6      6123.989    23027239.920    94292708.252 6      4771.940    23027240.340    94292707.255 7      4771.940
G19  23083457.680   121304411.258 7      6097.945    23083456.880   121304411.266 5      6097.945    23083464.540    94522876.254 5      4751.646
R24  20194624.720   107989728.807 8      2318.524    20194624.540   107989728.819 8      2318.524    20194635.140    83992056.992 8      1803.296    20194635.320    83992056.999 8      1803.296
G02  22079898.900   116030665.199 7      1810.536    22079897.460   116030665.204 6      1810.536    22079901.480    90413496.667 6      1410.807
> 2024 06 03 15 10 35.0000000  0 15
G03  20287761.160   106612918.381 8      1223.440    20287758.520   106612918.381 8      1223.440    20287765.380    83075005.623 8       953.330    20287767.660    83075022.623 8       953.330
G14  22560017.320   118553698.437 7       905.738    22560017.540   118553698.448 5       905.738    22560026.040    92379538.460 5       705.770    22560026.880    92379545.451 7       705.770
R02  19181081.380   102353926.684 8      3736.730    19181081.360   102353926.679 8      3736.730    19181089.820    79608644.204 8      2906.346    19181090.140    79608645.209 8      2906.346
R03  22029789.840   117927198.864 7      6729.309    22029788.780   117927198.879 7      6729.309    22029808.420    91721229.403 7      5233.907    22029808.160    91721233.412 7      5233.907
G17  21400216.400   112458893.721 7      4853.347    21400216.160   112458893.723 6      4853.347    21400220.580    87630321.344 6      3781.829    21400220.880    87630327.342 8      3781.829
G22  23096206.680   121371395.467 7      2220.778    23096205.700   121371395.479 5      2220.778    23096213.520    94575132.093 5      1730.476
G04  21231193.620   111570679.533 7      4693.084    21231192.700   111570679.549 6      4693.084    21231199.740    86938218.297 6      3656.948    21231200.060    86938216.297 8      3656.948
G21  23110769.440   121447911.227 7      1220.217    23110767.340   121447911.231 5      1220.217    23110774.320    94634754.116 5       950.818
R01  20505053.640   109611254.059 7      -207.161    20505052.680   109611254.071 7      -207.161    20505065.740    85253251.528 7      -161.125    20505064.700    85253248.518 7      -161.125
G08  24240971.120   127387160.106 5      -768.969    24240970.520   127387160.122 2      -768.969    24240990.580    99262797.794 2      -599.197    24240991.040    99262805.687 5      -599.197
R17  20768646.980   111137228.212 7      5066.286    20768646.720   111137228.202 7      5066.286    20768657.520    86440115.998 8      3940.445    20768658.020    86440114.001 8      3940.445
G09  23026062.020   121002776.965 6      6124.250    23026059.620   121002776.967 6      6124.250    23026074.680    94287936.160 6      4772.143    23026075.060    94287935.167 7      4772.143
G19  23082297.440   121298313.302 7      6097.814    23082296.500   121298313.307 5      6097.814    23082304.080    94518124.608 5      4751.543
R24  20194191.200   107987410.396 8      2318.156    20194191.000   107987410.403 8      2318.156    20194201.460    83990253.779 8      1803.010    20194201.820    83990253.780 8      1803.010
G02  22079554.300   116028854.600 7      1810.471    22079552.840   116028854.603 6      1810.471    22079556.920    90412085.811 6      1410.757
> 2024 06 03 15 10 36.0000000  0 15
G03  20287528.220   106611695.201 8      1222.797    20287525.680   106611695.203 8      1222.797    20287532.460    83074052.500 8       952.829    20287534.820    83074069.498 8       952.829
G14  22559844.900   118552793.021 7       904.807    22559845.260   118552793.026 5       904.807    22559853.740    92378832.935 5       705.045    22559854.440    92378839.927 7       705.045
R02  19180381.220   102350190.493 8      3735.468    19180381.160   102350190.494 8      3735.468    19180389.540    79605738.290 8      2905.364    19180389.920    79605739.296 8      2905.364
R03  22028532.920   117920469.900 7      6728.342    22028531.380   117920469.904 7      6728.342    22028550.880    91715995.783 7      5233.155    22028551.220    91715999.792 7      5233.155
G17  21399292.920   112454040.630 7      4852.594    21399292.560   112454040.638 6      4852.594    21399296.940    87626539.719 6      3781.242    21399297.360    87626545.718 8      3781.242
G22  23095784.240   121369175.070 7      2219.676    23095783.140   121369175.082 5      2219.676    23095790.920    94573401.907 5      1729.618
G04  21230300.720   111565986.797 7      4692.256    21230299.740   111565986.810 6      4692.256    21230306.720    86934561.625 6      3656.303    21230307.200    86934559.627 8      3656.303
G21  23110537.380   121446691.118 7      1219.972    23110535.220   121446691.128 5      1219.972    23110542.060    94633803.369 5       950.628
R01  20505092.580   109611461.542 7      -207.858    20505091.740   109611461.546 7      -207.858    20505104.760    85253412.895 7      -161.667    20505103.600    85253409.892 7      -161.667
G08  24241117.460   127387929.310 5      -769.705    24241116.820   127387929.322 2      -769.705    24241137.180    99263397.157 2      -599.770    24241136.860    99263405.050 5      -599.770
R17  20767700.080   111132162.012 7      5065.927    20767700.080   111132162.005 7      5065.927    20767710.800    86436175.629 8      3940.165    20767711.240    86436173.629 8      3940.165
G09  23024896.180   120996652.973 7      6123.599    23024894.120   120996652.978 6      6123.599    23024909.220    94283164.236 6      4771.636    23024909.220    94283163.239 7      4771.636
G19  23081137.000   121292215.632 7      6097.325    23081136.020   121292215.637 5      6097.325    23081143.680    94513373.183 5      4751.162
R24  20193757.780   107985092.597 8      2317.456    20193757.440   107985092.607 8      2317.456    20193768.040    83988451.049 8      1802.466    20193768.240    83988451.054 8      1802.466
G02  22079210.060   116027044.375 7      1810.068    22079208.320   116027044.380 6      1810.068    22079212.480    90410675.243 6      1410.443
> 2024 06 03 15 10 37.0000000  0 15
G03  20287295.540   106610472.456 8      1222.542    20287293.020   106610472.456 8      1222.542    20287299.880    83073099.708 8       952.630    20287301.920    83073116.706 8       952.630
G14  22559672.620   118551888.091 7       904.702    22559673.120   118551888.096 5       904.702    22559681.560    92378127.791 5       704.963    22559682.300    92378134.787 7       704.963
R02  19179681.320   102346455.215 8      3734.792    19179681.140   102346455.210 8      3734.792    19179689.560    79602833.066 8      2904.839    19179690.060    79602834.073 8      2904.839
R03  22027276.040   117913741.289 7      6728.405    22027274.060   117913741.307 7      6728.405    22027294.140    91710762.446 7      5233.204    22027294.380    91710766.458 7      5233.204
G17  21398369.480   112449187.970 7      4852.545    21398369.280   112449187.975 6      4852.545    21398373.440    87622758.432 6      3781.204    21398373.880    87622764.429 8      3781.204
G22  23095361.720   121366955.269 7      2219.558    23095360.820   121366955.284 5      2219.558    23095368.400    94571672.194 5      1729.526
G04  21229407.860   111561294.568 7      4691.853    21229406.940   111561294.578 6      4691.853    21229413.740    86930905.341 6      3655.989    21229414.260    86930903.341 8      3655.989
G21  23110305.140   121445471.109 7      1219.765    23110303.080   121445471.108 5      1219.765    23110310.020    94632852.719 5       950.466
R01  20505131.440   109611669.685 7      -208.466    20505130.280   109611669.673 7      -208.466    20505143.400    85253574.768 7      -162.140    20505142.460    85253571.762 7      -162.140
G08  24241263.540   127388698.586 5      -769.307    24241263.200   127388698.599 2      -769.307    24241283.700    99263996.583 2      -599.460    24241283.840    99264004.472 5      -599.460
R17  20766753.420   111127096.013 7      5065.927    20766753.000   111127096.009 7      5065.927    20766764.460    86432235.412 8      3940.165    20766764.660    86432233.414 8      3940.165
G09  23023730.620   120990529.162 6      6123.742    23023728.820   120990529.167 6      6123.742    23023743.780    94278392.446 6      4771.747    23023744.160    94278391.441 7      4771.747
G19  23079976.880   121286118.251 7      6097.272    23079975.740   121286118.259 5      6097.272    23079983.420    94508621.981 5      4751.121
R24  20193324.520   107982775.237 8      2317.070    20193324.440   107982775.247 8      2317.070    20193334.600    83986648.656 8      1802.166    20193334.800    83986648.661 8      1802.166
G02  22078865.680   116025234.307 7      1809.859    22078863.840   116025234.314 6      1809.859    22078867.960    90409264.805 6      1410.280
> 2024 06 03 15 10 38.0000000  0 15
G03  20287062.960   106609250.238 8      1221.993    20287060.440   106609250.240 8      1221.993    20287067.340    83072147.330 8       952.202    20287069.400    83072164.332 8       952.202
G14  22559500.620   118550983.670 7       904.212    22559500.780   118550983.675 5       904.212    22559509.500    92377423.041 5       704.581    22559509.900    92377430.029 7       704.581
R02  19178981.520   102342720.988 8      3733.737    19178981.440   102342720.983 8      3733.737    19178989.760    79599928.671 8      2904.018    19178990.340    79599929.677 8      2904.018
R03  22026018.820   117907013.209 7      6727.804    22026017.400   117907013.229 7      6727.804    22026037.140    91705529.511 7      5232.736    22026037.100    91705533.521 7      5232.736
G17  21397445.880   112444335.817 7      4851.991    21397445.900   112444335.819 6      4851.991    21397450.200    87618977.531 6      3780.772    21397450.760    87618983.529 8      3780.772
G22  23094939.700   121364736.068 7      2218.991    23094938.420   121364736.083 5      2218.991    23094946.220    94569942.942 5      1729.084
G04  21228515.120   111556603.009 7      4691.257    21228514.080   111556603.019 6      4691.257    21228520.920    86927249.583 6      3655.525    21228521.560    86927247.583 8      3655.525
G21  23110072.760   121444251.381 7      1219.703    23110070.900   121444251.388 5      1219.703    23110077.800    94631902.274 5       950.418
R01  20505170.880   109611878.571 7      -209.164    20505169.520   109611878.567 7      -209.164    20505182.660    85253737.237 7      -162.683    20505181.520    85253734.232 7      -162.683
G08  24241410.400   127389468.268 5      -769.876    24241409.580   127389468.283 2      -769.876    24241430.100    99264596.325 2      -599.903    24241429.520    99264604.240 5      -599.903
R17  20765806.840   111122030.311 7      5065.598    20765805.820   111122030.302 7      5065.598    20765817.920    86428295.417 8      3939.910    20765818.100    86428293.420 8      3939.910
G09  23022565.600   120984405.676 6      6123.341    23022563.580   120984405.687 6      6123.341    23022578.380    94273620.915 6      4771.435    23022579.100    94273619.926 7      4771.435
G19  23078816.500   121280021.133 7      6097.131    23078815.680   121280021.138 5      6097.131    23078823.220    94503870.984 5      4751.011
R24  20192891.340   107980458.524 8      2316.491    20192891.200   107980458.537 8      2316.491    20192901.500    83984846.766 8      1801.715    20192901.600    83984846.773 8      1801.715
G02  22078521.160   116023424.593 7      1809.616    22078519.560   116023424.603 6      1809.616    22078523.820    90407854.636 6      1410.090
> 2024 06 03 15 10 39.0000000  0 15
G03  20586623.140   108183449.651 8      1221.463    20586620.600   108183449.650 8      1221.463    20586627.460    84298796.219 8       951.789    20586629.440    84298813.217 8       951.789
G14  22859121.480   120125500.627 7       903.623    22859121.320   120125500.632 5       903.623    22859130.160    93604319.365 5       704.122    22859130.800    93604326.351 7       704.122
R02  19478074.940   103938741.398 8      3732.673    19478074.960   103938741.394 8      3732.673    19478083.240    80841277.879 8      2903.190    19478083.740    80841278.885 8      2903.190
R03  22324555.660   119505104.753 7      6727.397    22324554.340   119505104.765 7      6727.397    22324574.060    92948489.611 7      5232.420    22324574.160    92948493.625 7      5232.420
G17  21696316.000   114014908.951 7      4851.320    21696316.000   114014908.950 6      4851.320    21696320.340    88842800.752 6      3780.249    21696321.000    88842806.752 8      3780.249
G22  23394310.380   122937939.709 7      2218.123    23394309.160   122937939.719 5      2218.123    23394316.880    95795815.910 5      1728.408
G04  21527415.780   113127336.660 7      4690.589    21527414.840   113127336.670 6      4690.589    21527421.700    88151197.887 6      3655.004    21527421.940    88151195.888 8      3655.004
G21  23409633.440   123018453.017 7      1219.346    23409631.800   123018453.021 5      1219.346    23409638.520    95858552.899 5       950.140
R01  20805002.260   111214650.399 7      -210.102    20805001.280   111214650.397 7      -210.102    20805014.280    86500337.549 7      -163.413    20805013.280    86500334.540 7      -163.413
G08  24541348.860   128965657.426 5      -770.037    24541348.480   128965657.442 2      -770.037    24541368.980   100492795.659 2      -600.029    24541369.080   100492803.527 5      -600.029
R17  21064653.840   112721219.867 7      5065.252    21064652.680   112721219.865 7      5065.252    21064664.600    87672109.526 8      3939.640    21064664.800    87672107.529 8      3939.640
G09  23321193.700   122553708.495 6      6123.045    23321192.000   122553708.499 6      6123.045    23321206.760    95496454.290 6      4771.204    23321207.500    95496453.293 7      4771.204
G19  23377449.940   122849350.392 7      6096.506    23377449.280   122849350.394 5      6096.506    23377456.580    95726724.956 5      4750.524
R24  20492250.980   109581269.568 8      2315.867    20492251.160   109581269.578 8      2315.867    20492261.020    85229922.018 8      1801.230    20492261.320    85229922.023 8      1801.230
G02  22377969.540   117597036.872 7      1809.262    22377968.160   117597036.876 6      1809.262    22377972.120    91634046.014 6      1409.815
> 2024 06 03 15 10 40.0000000  0 15
G03  20586390.600   108182228.199 8      1221.479    20586388.160   108182228.201 7      1221.479    20586395.100    84297844.438 7       951.802    20586397.380    84297861.436 7       951.802
G14  22858949.440   120124597.047 7       903.633    22858949.360   120124597.057 5       903.633    22858958.200    93603615.277 5       704.130    22858959.300    93603622.273 7       704.130
R02  19477375.480   103935008.884 8      3732.319    19477375.660   103935008.880 8      3732.319    19477383.860    80838374.813 7      2902.915    19477384.280    80838375.818 7      2902.915
R03  22323299.320   119498377.419 7      6727.471    22323297.540   119498377.431 7      6727.471    22323317.480    92943257.257 7      5232.478    22323317.580    92943261.263 7      5232.478
G17  21695392.800   114010057.557 7      4851.417    21695393.020   114010057.562 6      4851.417    21695397.160    88839020.452 6      3780.325    21695397.720    88839026.451 7      3780.325
G22  23393888.200   122935721.601 7      2218.060    23393886.920   122935721.608 5      2218.060    23393894.540    95794087.507 5      1728.359
G04  21526522.980   113122646.042 7      4690.592    21526522.220   113122646.052 6      4690.592    21526529.040    88147542.863 6      3655.007    21526529.360    88147540.861 8      3655.007
G21  23409401.080   123017233.452 7      1219.758    23409399.500   123017233.464 5      1219.758    23409406.200    95857602.580 5       950.461
R01  20805041.640   111214860.493 7      -210.251    20805040.420   111214860.500 7      -210.251    20805053.560    86500500.956 7      -163.529    20805052.480    86500497.948 7      -163.529
G08  24541495.600   128966427.331 5      -769.846    24541495.060   128966427.338 2      -769.846    24541515.660   100493395.568 2      -599.880    24541515.580   100493403.457 5      -599.880
R17  21063707.040   112716154.451 7      5065.561    21063705.580   112716154.450 7      5065.561    21063718.320    87668169.763 7      3939.881    21063718.160    87668167.765 7      3939.881
G09  23320028.540   122547585.280 7      6123.416    23320026.680   122547585.287 6      6123.416    23320041.620    95491682.968 6      4771.493    23320042.280    95491681.967 7      4771.493
G19  23376289.580   122843253.686 7      6096.838    23376289.120   122843253.689 5      6096.838    23376296.400    95721974.283 5      4750.783
R24  20491817.820   109578953.668 8      2315.876    20491818.120   109578953.675 8      2315.876    20491827.920    85228120.761 7      1801.237    20491828.100    85228120.767 7      1801.237
G02  22377625.260   117595227.426 8      1809.586    22377623.860   117595227.431 6      1809.586    22377627.860    91632636.058 6      1410.067
> 2024 06 03 15 10 41.0000000  0 15
G03  20586158.300   108181007.002 8      1221.133    20586155.740   108181007.002 8      1221.133    20586162.660    84296892.854 8       951.532    20586165.020    84296909.854 8       951.532
G14  22858777.560   120123693.764 7       903.075    22858777.680   120123693.780 5       903.075    22858786.280    93602911.416 5       703.695    22858787.100    93602918.410 7       703.695
R02  19476676.000   103931277.187 8      3731.281    19476676.260   103931277.185 8      3731.281    19476684.580    80835472.386 8      2902.108    19476684.740    80835473.389 8      2902.108
R03  22322042.040   119491650.350 7      6726.965    22322040.960   119491650.357 7      6726.965    22322060.940    92938025.101 7      5232.084    22322060.940    92938029.108 7      5232.084
G17  21694469.960   114005206.408 7      4851.001    21694469.940   114005206.405 6      4851.001    21694474.080    88835240.336 6      3780.001    21694474.460    88835246.337 8      3780.001
G22  23393466.120   122933503.860 7      2217.454    23393465.020   122933503.870 5      2217.454    23393472.600    95792359.394 5      1727.886
G04  21525630.760   113117955.865 7      4690.002    21525629.720   113117955.873 6      4690.002    21525636.540    88143888.184 6      3654.547    21525636.980    88143886.184 8      3654.547
G21  23409169.200   123016013.947 7      1219.526    23409167.460   123016013.941 5      1219.526    23409174.240    95856652.325 5       950.280
R01  20805080.840   111215071.071 7      -210.759    20805079.320   111215071.073 7      -210.759    20805093.120    86500664.737 7      -163.923    20805091.920    86500661.729 7      -163.923
G08  24541642.060   128967197.367 5      -769.983    24541641.520   128967197.375 2      -769.983    24541662.180   100493995.584 2      -599.987    24541663.500   100494003.469 5      -599.987
R17  21062760.740   112711089.035 7      5065.250    21062758.880   112711089.034 7      5065.250    21062771.740    87664229.997 8      3939.639    21062771.800    87664227.995 8      3939.639
G09  23318863.000   122541462.147 7      6123.072    23318861.600   122541462.162 6      6123.072    23318876.380    95486911.710 6      4771.225    23318877.120    95486910.705 7      4771.225
G19  23375129.600   122837157.041 7      6096.623    23375128.840   122837157.046 5      6096.623    23375136.280    95717223.658 5      4750.615
R24  20491384.540   109576638.110 8      2315.368    20491385.280   109576638.122 8      2315.368    20491394.960    85226319.771 8      1800.841    20491395.180    85226319.778 8      1800.841
G02  22377280.980   117593418.089 7      1809.362    22377279.540   117593418.091 6      1809.362    22377283.520    91631226.181 6      1409.893
> 2024 06 03 15 10 42.0000000  0 16
G03  20585925.760   108179786.252 8      1220.404    20585923.400   108179786.255 8      1220.404    20585930.380    84295941.621 8       950.964    20585932.660    84295958.621 8       950.964
R23  24004146.080   128405997.446 6       171.937
G14  22858605.640   120122790.870 7       902.605    22858605.800   120122790.886 5       902.605    22858614.380    93602207.856 5       703.329    22858615.260    93602214.856 7       703.329
R02  19475977.120   103927546.391 8      3730.234    19475976.980   103927546.389 8      3730.234    19475985.520    80832570.654 8      2901.293    19475985.900    80832571.659 8      2901.293
R03  22320785.960   119484923.549 7      6726.684    22320784.340   119484923.564 7      6726.684    22320804.460    92932793.171 7      5231.865    22320804.300    92932797.177 7      5231.865
G17  21693547.000   114000355.676 7      4850.375    21693547.000   114000355.676 6      4850.375    21693550.860    88831460.547 6      3779.513    21693551.440    88831466.544 8      3779.513
G22  23393043.980   122931286.634 7      2217.002    23393043.120   122931286.645 5      2217.002    23393050.700    95790631.686 5      1727.534
G04  21524738.420   113113266.153 7      4689.359    21524737.280   113113266.163 6      4689.359    21524744.140    88140233.865 6      3654.046    21524744.660    88140231.869 8      3654.046
G21  23408937.020   123014794.563 7      1219.090    23408935.580   123014794.579 5      1219.090    23408942.340    95855702.140 5       949.940
R01  20805120.240   111215282.331 7      -211.793    20805118.800   111215282.340 7      -211.793    20805132.580    86500829.058 7      -164.728    20805131.220    86500826.045 7      -164.728
G08  24541788.960   128967967.550 5      -770.603    24541788.120   128967967.558 2      -770.603    24541808.580   100494595.713 2      -600.470    24541809.900   100494603.632 5      -600.470
R17  21061814.300   112706023.791 7      5064.976    21061812.120   112706023.795 7      5064.976    21061825.540    87660290.356 8      3939.426    21061825.180    87660288.357 8      3939.426
G09  23317697.820   122535339.124 6      6122.852    23317696.580   122535339.134 6      6122.852    23317711.280    95482140.534 6      4771.053    23317711.700    95482139.535 7      4771.053
G19  23373969.480   122831060.622 7      6096.211    23373968.700   122831060.627 5      6096.211    23373976.160    95712473.208 5      4750.295
R24  20490951.860   109574323.012 8      2314.710    20490952.340   109574323.024 8      2314.710    20490961.880    85224519.139 8      1800.330    20490962.300    85224519.146 8      1800.330
G02  22376936.660   117591608.927 7      1808.845    22376935.160   117591608.927 6      1808.845    22376939.380    91629816.443 6      1409.490
> 2024 06 03 15 10 43.0000000  0 16
G03  20585693.680   108178565.839 8      1220.216    20585691.140   108178565.838 8      1220.216    20585698.160    84294990.645 8       950.818    20585700.360    84295007.647 8       950.818
R23  24004114.620   128405825.375 6       171.792
G14  22858433.920   120121888.313 7       902.290    22858433.980   120121888.323 5       902.290    22858442.500    93601504.554 5       703.083    22858443.080    93601511.542 7       703.083
R02  19475278.140   103923816.511 8      3729.430    19475278.060   103923816.506 8      3729.430    19475286.480    80829669.635 8      2900.668    19475286.840    80829670.641 8      2900.668
R03  22319529.020   119478197.112 7      6726.343    22319527.800   119478197.121 7      6726.343    22319547.620    92927561.517 7      5231.600    22319547.720    92927565.522 7      5231.600
G17  21692623.960   113995505.224 7      4850.342    21692623.980   113995505.223 6      4850.342    21692627.800    88827680.975 6      3779.487    21692628.300    88827686.977 8      3779.487
G22  23392622.200   122929069.877 7      2216.449    23392621.400   122929069.884 5      2216.449    23392628.940    95788904.338 5      1727.103
G04  21523845.880   113108576.993 7      4688.884    21523844.960   113108577.003 6      4688.884    21523851.880    88136579.978 6      3653.676    21523852.240    88136577.976 8      3653.676
G21  23408704.920   123013575.327 7      1219.170    23408703.300   123013575.340 5      1219.170    23408710.060    95854752.079 5       950.002
R01  20805159.880   111215494.200 7      -212.176    20805158.940   111215494.204 7      -212.176    20805172.280    86500993.827 7      -165.026    20805171.060    86500990.819 7      -165.026
G08  24541935.640   128968737.773 5      -769.787    24541934.780   128968737.781 2      -769.787    24541955.040   100495195.878 2      -599.834    24541955.600   100495203.818 5      -599.834
R17  21060867.520   112700958.634 7      5065.032    21060865.300   112700958.639 7      5065.032    21060878.960    87656350.803 8      3939.469    21060878.860    87656348.803 8      3939.469
G09  23316532.720   122529216.248 7      6122.902    23316531.240   122529216.253 6      6122.902    23316545.960    95477369.472 6      4771.093    23316546.520    95477368.475 7      4771.093
G19  23372809.400   122824964.329 7      6096.138    23372808.660   122824964.331 5      6096.138    23372816.240    95707722.848 5      4750.237
R24  20490519.020   109572008.425 8      2314.326    20490519.400   109572008.437 8      2314.326    20490528.940    85222718.907 8      1800.031    20490529.420    85222718.914 8      1800.031
G02  22376592.480   117589799.955 7      1808.838    22376590.860   117589799.962 6      1808.838    22376595.080    91628406.856 6      1409.484
> 2024 06 03 15 10 44.0000000  0 16
G03  20585461.420   108177345.814 8      1219.851    20585458.980   108177345.819 8      1219.851    20585465.980    84294039.980 8       950.533    20585468.200    84294056.982 8       950.533
R23  24004082.140   128405653.578 6       171.529
G14  22858262.440   120120986.210 7       901.703    22858262.240   120120986.225 5       901.703    22858271.060    93600801.613 5       702.626    22858272.060    93600808.609 7       702.626
R02  19474579.400   103920087.550 8      3728.514    19474579.180   103920087.549 8      3728.514    19474587.600    80826769.337 8      2899.956    19474588.040    80826770.343 8      2899.956
R03  22318271.860   119471471.097 7      6725.754    22318270.720   119471471.107 7      6725.754    22318291.080    92922330.191 7      5231.142    22318291.220    92922334.198 7      5231.142
G17  21691701.100   113990655.204 7      4849.804    21691701.100   113990655.204 6      4849.804    21691704.860    88823901.746 6      3779.068    21691705.300    88823907.743 7      3779.068
G22  23392200.480   122926853.668 7      2215.727    23392199.580   122926853.675 5      2215.727    23392207.360    95787177.420 5      1726.540
G04  21522953.560   113103888.314 7      4688.434    21522952.700   113103888.327 6      4688.434    21522959.620    88132926.468 6      3653.325    21522960.020    88132924.468 8      3653.325
G21  23408472.920   123012356.180 7      1219.149    23408471.220   123012356.177 5      1219.149    23408478.040    95853802.107 5       949.986
R01  20805199.500   111215706.668 7      -212.835    20805198.720   111215706.675 7      -212.835    20805211.980    86501159.082 7      -165.538    20805211.200    86501156.074 7      -165.538
G08  24542084.160   128969508.424 5      -770.808    24542081.280   128969508.434 2      -770.808    24542101.560   100495796.375 2      -600.630    24542103.300   100495804.290 5      -600.630
R17  21059921.120   112695893.655 7      5064.904    21059919.040   112695893.656 7      5064.904    21059932.420    87652411.372 8      3939.369    21059932.220    87652409.375 8      3939.369
G09  23315368.040   122523093.575 6      6122.584    23315366.120   122523093.582 6      6122.584    23315380.740    95472598.578 6      4770.845    23315381.080    95472597.585 7      4770.845
G19  23371649.560   122818868.230 7      6095.817    23371648.500   122818868.233 5      6095.817    23371656.180    95702972.645 5      4749.987
R24  20490086.040   109569694.265 8      2313.969    20490086.780   109569694.275 8      2313.969    20490096.260    85220919.003 8      1799.754    20490096.500    85220919.008 8      1799.754
G02  22376248.160   117587991.129 7      1808.830    22376246.600   117587991.132 6      1808.830    22376250.880    91626997.379 6      1409.478
> 2024 06 03 15 10 45.0000000  0 16
G03  20585229.540   108176126.120 8      1219.574    20585226.940   108176126.125 8      1219.574    20585233.920    84293089.570 8       950.317    20585235.940    84293106.569 8       950.317
R23  24004049.940   128405482.007 6       171.539
G14  22858091.120   120120084.411 7       901.638    22858090.500   120120084.429 5       901.638    22858099.480    93600098.906 5       702.575    22858100.060    93600105.899 7       702.575
R02  19473880.760   103916359.383 8      3727.836    19473880.640   103916359.384 8      3727.836    19473888.860    80823869.651 8      2899.428    19473889.320    80823870.657 8      2899.428
R03  22317015.420   119464745.358 7      6725.604    22317013.720   119464745.376 7      6725.604    22317034.440    92917099.086 7      5231.025    22317034.700    92917103.093 7      5231.025
G17  21690778.220   113985805.469 7      4849.653    21690778.080   113985805.471 6      4849.653    21690781.900    88820122.733 6      3778.951    21690782.720    88820128.736 8      3778.951
G22  23391779.120   122924637.880 7      2215.508    23391777.960   122924637.890 5      2215.508    23391785.640    95785450.825 5      1726.370
G04  21522061.500   113099200.076 7      4688.088    21522060.580   113099200.089 6      4688.088    21522067.440    88129273.296 6      3653.056    21522067.880    88129271.298 8      3653.056
G21  23408240.920   123011137.098 7      1219.160    23408239.380   123011137.082 5      1219.160    23408246.020    95852852.173 5       949.995
R01  20805239.500   111215919.660 7      -213.223    20805238.580   111215919.669 7      -213.223    20805251.680    86501324.744 7      -165.840    20805250.820    86501321.732 7      -165.840
G08  24542229.760   128970279.067 5      -770.794    24542228.000   128970279.077 2      -770.794    24542248.280   100496396.866 2      -600.618    24542248.820   100496404.755 5      -600.618
R17  21058974.260   112690828.710 7      5065.053    21058972.580   112690828.706 7      5065.053    21058985.900    87648471.971 8      3939.485    21058985.880    87648469.973 8      3939.485
G09  23314202.980   122516970.973 7      6122.758    23314201.000   122516970.977 6      6122.758    23314215.680    95467827.727 6      4770.980    23314216.060    95467826.733 7      4770.980
G19  23370489.180   122812772.221 7      6095.947    23370488.560   122812772.229 5      6095.947    23370496.160    95698222.518 5      4750.088
R24  20489653.500   109567380.440 8      2313.746    20489653.980   109567380.447 8      2313.746    20489663.660    85219119.359 8      1799.580    20489664.000    85219119.366 8      1799.580
G02  22375904.100   117586182.420 7      1808.769    22375902.560   117586182.422 6      1808.769    22375906.800    91625587.995 6      1409.431
> 2024 06 03 15 10 46.0000000  0 16
G03  20584997.500   108174906.810 8      1219.239    20584994.960   108174906.812 8      1219.239    20585001.860    84292139.454 8       950.056    20585003.920    84292156.454 8       950.056
R23  24004017.560   128405310.780 6       170.992    24004016.280   128405310.800 6       170.992
G14  22857919.280   120119182.992 7       901.215    22857918.940   120119183.012 5       901.215    22857928.100    93599396.499 5       702.245    22857928.600    93599403.489 7       702.245
R02  19473182.060   103912632.037 8      3726.941    19473181.920   103912632.035 8      3726.941    19473190.300    80820970.607 8      2898.732    19473190.640    80820971.610 8      2898.732
R03  22315759.480   119458019.933 7      6725.225    22315757.760   119458019.945 7      6725.225    22315778.060    92911868.218 7      5230.731    22315778.100    92911872.223 7      5230.731
G17  21689855.380   113980956.122 7      4849.241    21689855.380   113980956.127 6      4849.241    21689859.060    88816344.025 6      3778.629    21689859.640    88816350.033 8      3778.629
G22  23391357.280   122922422.598 7      2215.018    23391356.360   122922422.606 5      2215.018    23391364.120    95783724.632 5      1725.988
G04  21521169.560   113094512.295 7      4687.543    21521168.460   113094512.311 6      4687.543    21521175.340    88125620.486 6      3652.631    21521175.880    88125618.480 8      3652.631
G21  23408009.160   123009918.122 7      1218.916    23408007.600   123009918.113 5      1218.916    23408014.280    95851902.325 5       949.805
R01  20805279.380   111216133.271 7      -213.779    20805278.760   111216133.283 7      -213.779    20805292.000    86501490.882 7      -166.272    20805291.060    86501487.873 7      -166.272
G08  24542376.440   128971049.718 5      -770.419    24542374.440   128971049.726 2      -770.419    24542394.880   100496997.355 2      -600.326    24542395.760   100497005.250 5      -600.326
R17  21058027.980   112685763.939 7      5064.818    21058025.940   112685763.933 7      5064.818    21058039.700    87644532.702 8      3939.303    21058039.360    87644530.703 8      3939.303
G09  23313038.040   122510848.465 7      6122.412    23313035.860   122510848.480 6      6122.412    23313050.460    95463056.965 6      4770.711    23313051.000    95463055.970 7      4770.711
G19  23369329.140   122806676.459 7      6095.633    23369328.700   122806676.466 5      6095.633    23369336.180    95693472.580 5      4749.844
R24  20489221.000   109565067.016 8      2313.281    20489221.320   109565067.028 8      2313.281    20489230.980    85217320.031 8      1799.219    20489231.380    85217320.036 8      1799.219
G02  22375559.820   117584373.884 7      1808.432    22375558.300   117584373.891 6      1808.432    22375562.600    91624178.746 6      1409.168
> 2024 06 03 15 10 47.0000000  0 16
G03  20584765.480   108173687.899 8      1218.617    20584762.940   108173687.902 8      1218.617    20584769.940    84291189.653 8       949.572    20584772.020    84291206.649 8       949.572
R23  24003985.060   128405139.931 6       170.631    24003984.060   128405139.938 6       170.631
G14  22857747.820   120118281.979 7       900.648    22857747.360   120118281.997 5       900.648    22857756.660    93598694.405 5       701.804    22857757.120    93598701.385 7       701.804
R02  19472483.720   103908905.590 8      3725.862    19472483.600   103908905.586 8      3725.862    19472491.940    80818072.261 8      2897.893    19472492.440    80818073.267 8      2897.893
R03  22314502.860   119451294.922 7      6724.608    22314501.740   119451294.937 7      6724.608    22314521.800    92906637.675 7      5230.251    22314521.880    92906641.682 7      5230.251
G17  21688932.560   113976107.130 7      4848.668    21688932.580   113976107.132 6      4848.668    21688936.200    88812565.592 6      3778.183    21688936.840    88812571.595 8      3778.183
G22  23390935.840   122920207.806 7      2214.335    23390934.740   122920207.813 5      2214.335    23390942.640    95781998.818 5      1725.456
G04  21520277.560   113089825.069 7      4686.813    21520276.560   113089825.082 6      4686.813    21520283.420    88121968.108 6      3652.062    21520283.880    88121966.106 8      3652.062
G21  23407777.620   123008699.295 7      1218.673    23407776.060   123008699.276 5      1218.673    23407782.680    95850952.568 5       949.615
R01  20805319.360   111216347.530 7      -214.714    20805319.380   111216347.534 7      -214.714    20805331.860    86501657.524 7      -167.000    20805331.380    86501654.512 7      -167.000
G08  24542523.120   128971820.676 5      -771.155    24542520.980   128971820.687 2      -771.155    24542541.800   100497598.089 2      -600.900    24542541.500   100497605.982 5      -600.900
R17  21057081.600   112680699.289 7      5064.437    21057079.780   112680699.285 7      5064.437    21057093.060    87640593.540 8      3939.006    21057092.980    87640591.540 8      3939.006
G09  23311872.740   122504726.167 7      6122.072    23311870.820   122504726.175 6      6122.072    23311885.260    95458286.353 6      4770.445    23311886.280    95458285.363 7      4770.445
G19  23368169.280   122800580.815 7      6095.449    23368168.720   122800580.820 5      6095.449    23368176.260    95688722.731 5      4749.701
R24  20488788.220   109562754.078 8      2312.653    20488789.000   109562754.085 8      2312.653    20488798.760    85215521.082 8      1798.730    20488798.800    85215521.088 8      1798.730
G02  22375215.960   117582565.544 7      1808.113    22375214.180   117582565.552 6      1808.113    22375218.500    91622769.651 6      1408.919
> 2024 06 03 15 10 48.0000000  0 16
G03  20584533.740   108172469.643 8      1217.930    20584531.220   108172469.650 8      1217.930    20584538.020    84290240.364 8       949.037    20584540.040    84290257.366 8       949.037
R23  24003953.260   128404969.656 6       170.205    24003952.360   128404969.658 6       170.205
G14  22857576.400   120117381.699 7       899.850    22857576.040   120117381.712 5       899.850    22857585.500    93597992.881 5       701.182    22857585.840    93597999.861 7       701.182
R02  19471785.500   103905180.347 8      3724.679    19471785.620   103905180.340 8      3724.679    19471793.860    80815174.850 8      2896.973    19471794.360    80815175.857 8      2896.973
R03  22313246.480   119444570.607 7      6724.010    22313245.460   119444570.614 7      6724.010    22313265.460    92901407.662 7      5229.786    22313265.580    92901411.672 7      5229.786
G17  21688010.040   113971258.795 7      4848.062    21688009.860   113971258.800 6      4848.062    21688013.820    88808787.671 6      3777.711    21688014.260    88808793.676 8      3777.711
G22  23390514.680   122917993.846 7      2213.550    23390513.400   122917993.851 5      2213.550    23390521.420    95780273.654 5      1724.844
G04  21519385.920   113085138.605 7      4686.181    21519384.820   113085138.620 6      4686.181    21519391.560    88118316.320 6      3651.569    21519392.140    88118314.321 8      3651.569
G21  23407545.660   123007480.841 7      1218.441    23407544.280   123007480.820 5      1218.441    23407550.920    95850003.117 5       949.434
R01  20805359.500   111216562.628 7      -215.470    20805359.600   111216562.634 7      -215.470    20805372.300    86501824.822 7      -167.588    20805371.240    86501821.810 7      -167.588
G08  24542670.140   128972592.047 5      -771.517    24542667.860   128972592.057 2      -771.517    24542688.520   100498199.143 2      -601.182    24542687.720   100498207.063 5      -601.182
R17  21056135.000   112675635.080 7      5063.947    21056133.560   112675635.073 7      5063.947    21056146.660    87636654.713 8      3938.625    21056146.460    87636652.715 8      3938.625
G09  23310707.800   122498604.337 6      6121.619    23310705.940   122498604.339 6      6121.619    23310720.400    95453516.104 6      4770.092    23310721.420    95453515.110 7      4770.092
G19  23367009.640   122794485.672 7      6094.868    23367008.680   122794485.677 5      6094.868    23367016.200    95683973.276 5      4749.248
R24  20488355.920   109560441.900 8      2311.892    20488356.540   109560441.909 8      2311.892    20488366.280    85213722.719 8      1798.138    20488366.480    85213722.725 8      1798.138
G02  22374871.980   117580757.615 7      1807.792    22374870.200   117580757.625 6      1807.792    22374874.340    91621360.873 6      1408.669
> 2024 06 03 15 10 49.0000000  0 16
G03  20584301.800   108171251.828 8      1217.658    20584299.480   108171251.830 8      1217.658    20584306.340    84289291.416 8       948.825    20584308.360    84289308.420 8       948.825
R23  24003921.380   128404799.756 6       169.814    24003920.300   128404799.755 6       169.814
G14  22857405.460   120116481.882 7       899.646    22857404.700   120116481.895 5       899.646    22857414.340    93597291.720 5       701.023    22857414.920    93597298.713 7       701.023
R02  19471087.340   103901456.037 8      3723.889    19471087.660   103901456.038 8      3723.889    19471095.920    80812278.169 8      2896.358    19471096.220    80812279.174 8      2896.358
R03  22311990.520   119437846.753 7      6723.698    22311988.560   119437846.741 7      6723.698    22312009.640    92896178.000 7      5229.543    22312009.240    92896182.005 7      5229.543
G17  21687087.560   113966410.919 7      4847.735    21687087.300   113966410.924 6      4847.735    21687091.260    88805010.109 6      3777.456    21687092.080    88805016.113 8      3777.456
G22  23390093.480   122915780.499 7      2213.197    23390092.340   122915780.501 5      2213.197    23390100.360    95778548.962 5      1724.569
G04  21518494.060   113080452.703 7      4685.721    21518493.220   113080452.718 6      4685.721    21518499.900    88114664.969 6      3651.211    21518500.400    88114662.967 8      3651.211
G21  23407313.520   123006262.532 7      1218.314    23407312.580   123006262.516 5      1218.314    23407319.260    95849053.800 5       949.336
R01  20805400.140   111216778.397 7      -215.990    20805399.900   111216778.406 7      -215.990    20805412.520    86501992.640 7      -167.992    20805411.520    86501989.630 7      -167.992
G08  24542817.080   128973363.615 5      -771.320    24542814.880   128973363.617 2      -771.320    24542835.500   100498800.353 2      -601.028    24542834.700   100498808.229 5      -601.028
R17  21055188.800   112670571.066 7      5063.903    21055187.140   112670571.060 7      5063.903    21055200.460    87632716.033 8      3938.591    21055200.340    87632714.038 8      3938.591
G09  23309542.700   122492482.686 7      6121.617    23309541.000   122492482.696 6      6121.617    23309555.580    95448746.001 6      4770.091    23309556.420    95448745.006 7      4770.091
G19  23365849.860   122788390.782 7      6094.786    23365849.040   122788390.790 5      6094.786    23365856.260    95679224.015 5      4749.184
R24  20487923.480   109558130.224 8      2311.550    20487924.040   109558130.236 8      2311.550    20487933.920    85211924.747 8      1797.872    20487934.180    85211924.751 8      1797.872
G02  22374527.900   117578949.899 7      1807.705    22374526.140   117578949.904 6      1807.705    22374530.280    91619952.261 6      1408.601
> 2024 06 03 15 10 50.0000000  0 16
G03  20584070.180   108170034.231 7      1217.282    20584067.740   108170034.236 8      1217.282    20584074.640    84288342.637 8       948.531    20584076.760    84288359.639 8       948.531
R23  24003889.880   128404629.953 6       169.271    24003888.040   128404629.976 6       169.271
G14  22857234.240   120115582.283 7       899.307    22857233.560   120115582.301 5       899.307    22857243.100    93596590.730 5       700.758    22857243.340    93596597.724 7       700.758
R02  19470389.640   103897732.427 8      3723.095    19470389.860   103897732.430 8      3723.095    19470398.140    80809382.029 8      2895.740    19470398.340    80809383.035 8      2895.740
R03  22310734.640   119431122.995 7      6723.478    22310732.320   119431122.991 6      6723.478    22310753.740    92890948.427 7      5229.372    22310753.480    92890952.430 7      5229.372
G17  21686165.000   113961563.249 7      4847.478    21686164.920   113961563.251 6      4847.478    21686168.820    88801232.704 6      3777.256    21686169.400    88801238.707 8      3777.256
G22  23389672.300   122913567.480 7      2212.730    23389671.280   122913567.482 5      2212.730    23389679.320    95776824.530 5      1724.205
G04  21517602.640   113075767.079 7      4685.183    21517601.480   113075767.092 6      4685.183    21517608.340    88111013.838 6      3650.792    21517608.800    88111011.836 8      3650.792
G21  23407081.700   123005044.147 7      1218.243    23407080.360   123005044.128 5      1218.243    23407087.080    95848104.411 5       949.280
R01  20805440.240   111216994.622 7      -216.547    20805439.700   111216994.634 7      -216.547    20805453.220    86502160.807 7      -168.425    20805451.920    86502157.800 7      -168.425
G08  24542963.420   128974135.115 5      -771.585    24542961.680   128974135.114 2      -771.585    24542982.280   100499401.503 2      -601.235    24542981.540   100499409.394 5      -601.235
R17  21054242.480   112665507.002 7      5063.946    21054240.400   112665507.003 7      5063.946    21054254.340    87628777.315 8      3938.625    21054254.100    87628775.317 8      3938.625
G09  23308377.900   122486360.961 6      6121.566    23308376.200   122486360.977 6      6121.566    23308390.700    95443975.842 6      4770.051    23308391.420    95443974.843 7      4770.051
G19  23364689.980   122782295.940 7      6094.653    23364689.320   122782295.955 5      6094.653    23364696.440    95674474.799 5      4749.080
R24  20487491.060   109555818.803 8      2311.107    20487491.600   109555818.817 8      2311.107    20487501.520    85210126.976 8      1797.528    20487501.780    85210126.985 8      1797.528
G02  22374183.840   117577142.177 7      1807.458    22374182.240   117577142.187 6      1807.458    22374186.380    91618543.646 6      1408.409
> 2024 06 03 15 10 51.0000000  0 16
G03  20583838.540   108168817.112 8      1216.862    20583836.140   108168817.117 8      1216.862    20583843.020    84287394.232 8       948.204    20583845.160    84287411.234 8       948.204
R23  24003858.120   128404460.657 6       169.138    24003856.240   128404460.669 6       169.138
G14  22857062.940   120114683.128 7       898.873    22857062.420   120114683.144 5       898.873    22857072.060    93595890.080 5       700.420    22857072.380    93595897.064 7       700.420
R02  19469692.300   103894009.873 8      3722.029    19469692.200   103894009.874 8      3722.029    19469700.540    80806486.710 8      2894.912    19469701.020    80806487.713 8      2894.912
R03  22309478.940   119424399.713 7      6722.931    22309476.120   119424399.723 6      6722.931    22309497.640    92885719.239 7      5228.946    22309497.620    92885723.247 7      5228.946
G17  21685242.720   113956716.007 8      4847.024    21685242.600   113956716.009 6      4847.024    21685246.400    88797455.632 6      3776.902    21685247.080    88797461.635 8      3776.902
G22  23389251.320   122911355.002 7      2212.162    23389250.220   122911355.007 5      2212.162    23389258.220    95775100.519 5      1723.762
G04  21516710.880   113071082.107 7      4684.614    21516710.140   113071082.118 6      4684.614    21516716.840    88107363.209 6      3650.348    21516717.220    88107361.213 8      3650.348
G21  23406850.080   123003826.059 7      1217.959    23406848.220   123003826.051 5      1217.959    23406854.980    95847155.239 5       949.059
R01  20805480.500   111217211.591 7      -217.300    20805480.500   111217211.606 7      -217.300    20805493.560    86502329.561 7      -169.011    20805492.480    86502326.553 7      -169.011
G08  24543110.360   128974906.919 5      -771.989    24543108.620   128974906.924 2      -771.989    24543129.320   100500002.896 2      -601.550    24543129.380   100500010.794 5      -601.550
R17  21053296.520   112660443.143 7      5063.661    21053293.880   112660443.145 7      5063.661    21053308.180    87624838.768 8      3938.403    21053307.780    87624836.769 8      3938.403
G09  23307213.180   122480239.541 7      6121.336    23307211.320   122480239.543 6      6121.336    23307225.840    95439205.907 6      4769.872    23307226.100    95439204.910 7      4769.872
G19  23363530.020   122776201.320 7      6094.500    23363529.600   122776201.331 5      6094.500    23363536.800    95669725.747 5      4748.961
R24  20487059.080   109553507.932 8      2310.662    20487059.460   109553507.949 8      2310.662    20487069.240    85208329.634 8      1797.182    20487069.840    85208329.641 8      1797.182
G02  22373840.100   117575334.779 7      1807.192    22373838.240   117575334.786 6      1807.192    22373842.380    91617135.282 6      1408.201
> 2024 06 03 15 10 52.0000000  0 16
G03  20583607.040   108167600.390 7      1216.716    20583604.760   108167600.387 7      1216.716    20583611.540    84286446.133 7       948.091    20583613.820    84286463.133 7       948.091
R23  24003826.020   128404291.720 6       169.065    24003825.860   128404291.724 6       169.065
G14  22856891.800   120113784.402 7       898.650    22856891.380   120113784.414 5       898.650    22856900.940    93595189.767 5       700.246    22856901.340    93595196.749 7       700.246
R02  19468995.080   103890288.197 8      3721.443    19468994.880   103890288.198 8      3721.443    19469003.120    80803592.075 8      2894.455    19469003.560    80803593.082 7      2894.455
R03  22308223.180   119417676.836 7      6722.942    22308220.260   119417676.837 6      6722.942    22308241.860    92880490.347 7      5228.955    22308241.820    92880494.359 7      5228.955
G17  21684320.200   113951869.143 7      4846.848    21684320.200   113951869.145 6      4846.848    21684324.120    88793678.861 6      3776.765    21684324.800    88793684.867 7      3776.765
G22  23388830.400   122909143.063 7      2211.781    23388829.380   122909143.073 5      2211.781    23388837.360    95773376.930 5      1723.466
G04  21515819.320   113066397.661 7      4684.346    21515818.680   113066397.671 6      4684.346    21515825.440    88103712.997 6      3650.140    21515825.740    88103710.997 8      3650.140
G21  23406618.100   123002608.084 7      1218.085    23406616.520   123002608.096 5      1218.085    23406623.280    95846206.153 5       949.157
R01  20805521.660   111217429.161 7      -217.611    20805521.380   111217429.176 7      -217.611    20805534.400    86502498.788 7      -169.253    20805532.780    86502495.772 7      -169.253
G08  24543257.420   128975678.918 5      -771.881    24543255.400   128975678.926 2      -771.881    24543276.480   100500604.444 2      -601.466    24543277.500   100500612.349 5      -601.466
R17  21052349.940   112655379.453 7      5063.743    21052347.920   112655379.457 7      5063.743    21052361.620    87620900.349 7      3938.467    21052361.340    87620898.352 7      3938.467
G09  23306048.200   122474118.305 6      6121.340    23306046.540   122474118.310 6      6121.340    23306060.940    95434436.129 6      4769.875    23306061.120    95434435.130 7      4769.875
G19  23362370.240   122770106.888 7      6094.497    23362369.860   122770106.895 5      6094.497    23362376.880    95664976.845 5      4748.959
R24  20486627.100   109551197.513 8      2310.372    20486627.500   109551197.527 8      2310.372    20486637.300    85206532.640 7      1796.956    20486637.760    85206532.646 7      1796.956
G02  22373496.160   117573527.543 7      1807.375    22373494.420   117573527.550 6      1807.375    22373498.540    91615727.040 6      1408.344
> 2024 06 03 15 10 53.0000000  0 16
G03  20583375.400   108166384.041 7      1216.036    20583373.180   108166384.043 8      1216.036    20583380.020    84285498.327 8       947.561    20583382.380    84285515.329 8       947.561
R23  24003795.060   128404122.960 6       168.117    24003794.040   128404122.985 6       168.117
G14  22856720.900   120112886.024 7       898.093    22856720.480   120112886.040 5       898.093    22856729.940    93594489.727 5       699.813    22856730.380    93594496.725 7       699.813
R02  19468297.760   103886567.292 8      3720.370    19468297.440   103886567.295 8      3720.370    19468305.820    80800698.035 8      2893.621    19468306.460    80800699.043 8      2893.621
R03  22306967.200   119410954.196 7      6722.419    22306964.180   119410954.201 6      6722.419    22306986.020    92875261.653 7      5228.548    22306985.980    92875265.662 7      5228.548
G17  21683397.900   113947022.674 7      4846.283    21683397.900   113947022.676 6      4846.283    21683401.840    88789902.398 6      3776.324    21683402.260    88789908.399 8      3776.324
G22  23388409.520   122906931.642 7      2211.091    23388408.540   122906931.655 5      2211.091    23388416.640    95771653.741 5      1722.928
G04  21514928.240   113061713.564 7      4683.695    21514927.300   113061713.574 6      4683.695    21514934.120    88100063.053 6      3649.632    21514934.360    88100061.053 8      3649.632
G21  23406386.060   123001390.111 7      1217.809    23406385.060   123001390.118 5      1217.809    23406391.700    95845257.083 5       948.942
R01  20805562.660   111217647.346 7      -218.558    20805562.100   111217647.358 7      -218.558    20805574.960    86502668.475 7      -169.989    20805573.740    86502665.465 7      -169.989
G08  24543405.480   128976450.909 5      -771.983    24543402.300   128976450.917 2      -771.983    24543423.460   100501205.981 2      -601.546    24543423.580   100501213.849 5      -601.546
R17  21051403.820   112650315.969 7      5063.348    21051401.580   112650315.971 7      5063.348    21051415.720    87616962.073 8      3938.160    21051415.280    87616960.072 8      3938.160
G09  23304883.360   122467997.064 6      6121.000    23304881.640   122467997.066 6      6121.000    23304895.980    95429666.344 6      4769.611    23304896.440    95429665.345 7      4769.611
G19  23361210.780   122764012.718 7      6093.962    23361210.100   122764012.728 5      6093.962    23361217.160    95660228.147 5      4748.542
R24  20486195.080   109548887.476 8      2309.666    20486195.420   109548887.488 8      2309.666    20486205.220    85204735.940 8      1796.407    20486205.680    85204735.949 8      1796.407
G02  22373152.240   117571720.397 7      1806.972    22373150.400   117571720.404 6      1806.972    22373154.780    91614318.876 6      1408.030
> 2024 06 03 15 10 54.0000000  0 16
G03  20583144.380   108165168.031 8      1215.817    20583141.620   108165168.036 8      1215.817    20583148.640    84284550.789 8       947.390    20583150.880    84284567.789 8       947.390
R23  24003763.960   128403954.563 6       168.049    24003762.720   128403954.564 6       168.049
G14  22856550.200   120111988.012 7       897.699    22856549.360   120111988.025 5       897.699    22856559.080    93593789.977 5       699.505    22856559.340    93593796.967 7       699.505
R02  19467600.380   103882847.248 8      3719.618    19467600.220   103882847.249 8      3719.618    19467608.640    80797804.670 8      2893.036    19467609.020    80797805.678 8      2893.036
R03  22305711.340   119404231.932 7      6721.946    22305709.760   119404231.941 6      6721.946    22305730.000    92870033.247 7      5228.180    22305729.920    92870037.257 7      5228.180
G17  21682475.620   113942176.532 7      4845.911    21682475.680   113942176.537 6      4845.911    21682479.620    88786126.186 6      3776.035    21682480.240    88786132.187 8      3776.035
G22  23387988.800   122904720.641 7      2210.679    23387987.820   122904720.648 5      2210.679    23387995.960    95769930.879 5      1722.607
G04  21514037.040   113057029.998 7      4683.291    21514036.080   113057030.011 6      4683.291    21514042.780    88096413.530 6      3649.318    21514043.040    88096411.527 8      3649.318
G21  23406154.640   123000172.319 7      1217.699    23406153.040   123000172.319 5      1217.699    23406159.700    95844308.159 5       948.856
R01  20805603.560   111217866.132 7      -219.083    20805603.540   111217866.144 7      -219.083    20805615.960    86502838.638 7      -170.398    20805615.060    86502835.626 7      -170.398
G08  24543551.520   128977223.123 5      -772.509    24543549.200   128977223.136 2      -772.509    24543570.180   100501807.696 2      -601.955    24543571.060   100501815.603 5      -601.955
R17  21050457.200   112645252.531 7      5063.332    21050455.620   112645252.548 7      5063.332    21050469.620    87613023.856 8      3938.147    21050469.200    87613021.854 8      3938.147
G09  23303718.540   122461876.001 6      6120.863    23303716.840   122461876.003 6      6120.863    23303731.080    95424896.697 6      4769.503    23303731.560    95424895.705 7      4769.503
G19  23360051.100   122757918.637 7      6093.933    23360050.580   122757918.644 5      6093.933    23360057.360    95655479.515 5      4748.520
R24  20485763.220   109546577.942 8      2309.254    20485763.320   109546577.959 8      2309.254    20485773.260    85202939.636 8      1796.087    20485773.480    85202939.647 8      1796.087
G02  22372808.300   117569913.455 7      1806.892    22372806.640   117569913.460 6      1806.892    22372810.920    91612910.872 6      1407.968
> 2024 06 03 15 10 55.0000000  0 16
G03  20582913.000   108163952.518 8      1215.322    20582910.340   108163952.523 8      1215.322    20582917.340    84283603.633 8       947.005    20582919.600    84283620.633 8       947.005
R23  24003732.340   128403786.551 6       167.847    24003729.440   128403786.572 6       167.847
G14  22856379.340   120111090.502 7       897.226    22856378.480   120111090.518 5       897.226    22856388.100    93593090.612 5       699.137    22856388.620    93593097.611 7       699.137
R02  19466903.420   103879128.243 8      3718.521    19466903.400   103879128.252 8      3718.521    19466911.780    80794912.117 8      2892.183    19466912.060    80794913.122 8      2892.183
R03  22304455.260   119397510.149 7      6721.530    22304454.120   119397510.164 6      6721.530    22304474.240    92864805.215 7      5227.857    22304474.180    92864809.220 7      5227.857
G17  21681553.580   113937330.841 7      4845.523    21681553.580   113937330.840 6      4845.523    21681557.360    88782350.322 6      3775.732    21681558.180    88782356.329 8      3775.732
G22  23387568.180   122902510.263 7      2210.175    23387567.260   122902510.270 5      2210.175    23387575.160    95768208.504 5      1722.214
G04  21513145.560   113052347.068 7      4682.658    21513144.960   113052347.078 6      4682.658    21513151.680    88092764.493 6      3648.824    21513151.920    88092762.493 8      3648.824
G21  23405922.840   122998954.720 7      1217.539    23405921.580   122998954.735 5      1217.539    23405927.960    95843359.366 5       948.732
R01  20805644.640   111218085.624 7      -219.784    20805644.380   111218085.634 7      -219.784    20805657.320    86503009.350 7      -170.943    20805656.120    86503006.336 7      -170.943
G08  24543698.660   128977995.598 5      -772.703    24543696.060   128977995.613 2      -772.703    24543717.220   100502409.610 2      -602.106    24543717.340   100502417.521 5      -602.106
R17  21049511.220   112640189.304 7      5063.169    21049509.440   112640189.324 7      5063.169    21049523.720    87609085.795 8      3938.021    21049522.840    87609083.793 8      3938.021
G09  23302553.880   122455755.222 6      6120.550    23302552.200   122455755.230 6      6120.550    23302566.420    95420127.278 6      4769.260    23302566.940    95420126.285 7      4769.260
G19  23358891.500   122751824.824 7      6093.780    23358891.020   122751824.832 5      6093.780    23358897.800    95650731.095 5      4748.400
R24  20485331.120   109544268.940 8      2308.746    20485331.420   109544268.952 8      2308.746    20485341.620    85201143.744 8      1795.691    20485341.880    85201143.753 8      1795.691
G02  22372464.620   117568106.772 8      1806.585    22372462.980   117568106.779 6      1806.585    22372467.260    91611503.064 6      1407.729
> 2024 06 03 15 10 56.0000000  0 16
G03  20582681.640   108162737.438 8      1214.607    20582679.160   108162737.445 8      1214.607    20582686.100    84282656.820 8       946.447    20582688.420    84282673.820 8       946.447
R23  24003701.300   128403619.056 6       167.242    24003699.060   128403619.052 6       167.242
G14  22856208.420   120110193.297 7       896.920    22856207.620   120110193.312 5       896.920    22856217.460    93592391.487 5       698.899    22856217.980    93592398.485 7       698.899
R02  19466206.660   103875410.169 8      3717.445    19466206.620   103875410.172 8      3717.445    19466214.900    80792020.279 8      2891.346    19466215.360    80792021.283 8      2891.346
R03  22303199.780   119390788.666 7      6721.310    22303199.400   119390788.665 7      6721.310    22303218.420    92859577.401 7      5227.686    22303218.620    92859581.411 7      5227.686
G17  21680631.440   113932485.527 7      4844.842    21680631.560   113932485.524 6      4844.842    21680635.360    88778574.755 6      3775.202    21680636.000    88778580.756 8      3775.202
G22  23387147.640   122900300.310 7      2209.576    23387146.840   122900300.320 5      2209.576    23387154.720    95766486.461 5      1721.748
G04  21512254.540   113047664.684 7      4682.019    21512253.880   113047664.694 6      4682.019    21512260.800    88089115.884 6      3648.326    21512260.980    88089113.882 8      3648.326
G21  23405691.280   122997737.367 7      1217.062    23405689.920   122997737.369 5      1217.062    23405696.560    95842410.789 5       948.360
R01  20805686.200   111218305.819 7      -220.783    20805685.540   111218305.829 7      -220.783    20805698.020    86503180.615 7      -171.720    20805697.420    86503177.607 7      -171.720
G08  24543846.680   128978768.198 5      -772.584    24543843.060   128978768.216 2      -772.584    24543864.180   100503011.626 2      -602.013    24543862.980   100503019.558 5      -602.013
R17  21048565.180   112635126.256 7      5062.652    21048563.080   112635126.268 7      5062.652    21048577.180    87605147.879 8      3937.618    21048576.780    87605145.879 8      3937.618
G09  23301388.860   122449634.551 6      6120.598    23301387.380   122449634.553 6      6120.598    23301401.400    95415357.934 6      4769.297    23301402.260    95415356.941 7      4769.297
G19  23357732.160   122745731.195 7      6093.234    23357731.360   122745731.206 5      6093.234    23357738.200    95645982.819 5      4747.975
R24  20484899.360   109541960.468 8      2307.983    20484899.900   109541960.482 8      2307.983    20484910.120    85199348.267 8      1795.098    20484910.220    85199348.274 8      1795.098
G02  22372120.860   117566300.379 7      1806.054    22372118.900   117566300.389 6      1806.054    22372123.640    91610095.486 6      1407.315
> 2024 06 03 15 10 57.0000000  0 16
G03  20582450.440   108161522.739 8      1214.790    20582447.960   108161522.739 8      1214.790    20582454.800    84281710.293 8       946.590    20582457.220    84281727.293 8       946.590
R23  24003669.080   128403451.536 6       167.344    24003668.100   128403451.546 6       167.344
G14  22856037.800   120109296.712 7       896.249    22856036.740   120109296.727 5       896.249    22856046.900    93591692.851 5       698.376    22856047.360    93591699.844 7       698.376
R02  19465509.920   103871692.940 8      3716.885    19465509.820   103871692.936 8      3716.885    19465518.260    80789129.104 8      2890.910    19465518.580    80789130.109 8      2890.910
R03  22301944.580   119384067.568 7      6720.753    22301946.280   119384067.581 7      6720.753    22301963.080    92854349.906 7      5227.252    22301963.020    92854353.915 7      5227.252
G17  21679709.660   113927640.684 7      4844.846    21679709.400   113927640.686 6      4844.846    21679713.280    88774799.563 6      3775.204    21679714.080    88774805.576 8      3775.204
G22  23386727.320   122898091.117 7      2208.968    23386726.200   122898091.127 5      2208.968    23386734.360    95764765.009 5      1721.273
G04  21511363.580   113042982.660 7      4681.758    21511362.660   113042982.670 6      4681.758    21511369.500    88085467.560 6      3648.123    21511369.820    88085465.558 8      3648.123
G21  23405459.680   122996519.904 7      1217.607    23405458.300   122996519.914 5      1217.607    23405465.000    95841462.107 5       948.785
R01  20805727.040   111218526.551 7      -220.794    20805726.740   111218526.558 7      -220.794    20805739.220    86503352.297 7      -171.729    20805738.640    86503349.285 7      -171.729
G08  24543993.040   128979540.920 5      -773.033    24543990.080   128979540.938 2      -773.033    24544011.160   100503613.736 2      -602.363    24544009.720   100503621.666 5      -602.363
R17  21047619.460   112630063.465 7      5063.019    21047618.220   112630063.482 7      5063.019    21047631.620    87601210.132 8      3937.904    21047630.680    87601208.128 8      3937.904
G09  23300224.300   122443514.008 6      6120.364    23300222.800   122443514.008 6      6120.364    23300236.280    95410588.698 6      4769.115    23300237.280    95410587.704 7      4769.115
G19  23356572.520   122739637.927 7      6093.412    23356571.800   122739637.934 5      6093.412    23356578.560    95641234.822 5      4748.113
R24  20484467.960   109539652.265 7      2308.203    20484468.120   109539652.280 7      2308.203    20484478.620    85197553.001 8      1795.269    20484478.980    85197553.012 8      1795.269
G02  22371777.140   117564493.990 7      1806.520    22371775.220   117564493.997 6      1806.520    22371779.880    91608687.910 6      1407.678
> 2024 06 03 15 10 58.0000000  0 16
G03  20582219.540   108160308.463 7      1213.955    20582216.960   108160308.471 8      1213.955    20582223.920    84280764.110 8       945.939    20582226.220    84280781.112 8       945.939
R23  24003638.120   128403284.589 6       166.875    24003637.460   128403284.593 6       166.875
G14  22855867.220   120108400.626 7       896.068    22855866.360   120108400.644 5       896.068    22855876.340    93590994.594 5       698.235    22855877.120    93591001.591 7       698.235
R02  19464813.700   103867976.779 8      3715.854    19464813.540   103867976.777 8      3715.854    19464821.880    80786238.756 8      2890.109    19464822.260    80786239.761 8      2890.109
R03  22300688.520   119377347.049 7      6720.730    22300688.100   119377347.067 7      6720.730    22300707.640    92849122.872 7      5227.235    22300707.760    92849126.878 7      5227.235
G17  21678787.860   113922796.256 7      4844.196    21678787.380   113922796.258 6      4844.196    21678791.600    88771024.686 6      3774.698    21678792.440    88771030.691 8      3774.698
G22  23386307.020   122895882.470 7      2208.507    23386305.980   122895882.475 5      2208.507    23386314.120    95763043.990 5      1720.915
G04  21510472.620   113038301.333 7      4681.184    21510471.960   113038301.343 6      4681.184    21510478.660    88081819.779 6      3647.676    21510478.980    88081817.781 8      3647.676
G21  23405228.080   122995302.688 7      1217.056    23405226.400   122995302.701 5      1217.056    23405233.140    95840513.627 5       948.355
R01  20805768.880   111218747.893 7      -221.844    20805768.340   111218747.902 7      -221.844    20805780.960    86503524.443 7      -172.546    20805780.160    86503521.436 7      -172.546
G08  24544138.820   128980314.001 5      -772.974    24544137.280   128980314.019 2      -772.974    24544158.260   100504216.125 2      -602.318    24544156.780   100504224.016 5      -602.318
R17  21046673.260   112625000.784 7      5062.367    21046672.640   112625000.817 7      5062.367    21046685.320    87597272.505 8      3937.397    21046684.520    87597270.502 8      3937.397
G09  23299059.580   122437393.860 7      6120.537    23299058.200   122437393.868 6      6120.537    23299071.920    95405819.772 6      4769.250    23299072.780    95405818.779 7      4769.250
G19  23355413.100   122733544.829 7      6092.879    23355412.120   122733544.841 5      6092.879    23355418.940    95636486.961 5      4747.698
R24  20484036.560   109537344.608 8      2307.225    20484036.220   109537344.615 8      2307.225    20484046.600    85195758.154 8      1794.508    20484046.920    85195758.159 8      1794.508
G02  22371433.600   117562687.874 8      1805.791    22371431.720   117562687.881 6      1805.791    22371436.180    91607280.546 6      1407.110
> 2024 06 03 15 10 59.0000000  0 16
G03  20581988.460   108159094.340 7      1214.057    20581985.840   108159094.347 8      1214.057    20581992.840    84279818.040 8       946.019    20581995.040    84279835.044 8       946.019
R23  24003607.260   128403117.824 6       166.742    24003605.640   128403117.828 6       166.742
G14  22855696.980   120107504.576 7       895.938    22855695.900   120107504.589 5       895.938    22855705.700    93590296.364 5       698.133    22855706.280    93590303.362 7       698.133
R02  19464117.480   103864261.234 8      3715.211    19464117.380   103864261.238 8      3715.211    19464125.740    80783348.892 8      2889.609    19464126.120    80783349.897 8      2889.609
R03  22299433.020   119370626.604 7      6720.400    22299432.080   119370626.619 7      6720.400    22299451.940    92843895.877 7      5226.977    22299452.180    92843899.886 7      5226.977
G17  21677865.880   113917951.907 7      4844.310    21677865.600   113917951.906 6      4844.310    21677869.860    88767249.871 6      3774.787    21677870.280    88767255.876 8      3774.787
G22  23385886.920   122893673.970 7      2208.381    23385885.600   122893673.978 5      2208.381    23385893.820    95761323.079 5      1720.816
G04  21509582.040   113033620.313 7      4680.813    21509581.100   113033620.325 6      4680.813    21509587.840    88078172.241 6      3647.387    21509588.400    88078170.235 8      3647.387
G21  23404996.620   122994085.441 7      1217.399    23404995.000   122994085.446 5      1217.399    23405001.520    95839565.126 5       948.623
R01  20805810.300   111218969.659 7      -221.948    20805809.740   111218969.671 7      -221.948    20805822.560    86503696.930 7      -172.626    20805821.700    86503693.919 7      -172.626
G08  24544286.780   128981087.028 5      -772.935    24544284.440   128981087.046 2      -772.935    24544305.200   100504818.471 2      -602.287    24544303.060   100504826.352 5      -602.287
R17  21045727.220   112619938.017 7      5062.767    21045727.060   112619938.053 7      5062.767    21045739.320    87593334.802 8      3937.708    21045738.340    87593332.798 8      3937.708
G09  23297894.900   122431273.609 7      6120.305    23297893.700   122431273.614 6      6120.305    23297907.180    95401050.760 6      4769.069    23297908.140    95401049.771 7      4769.069
G19  23354253.540   122727451.604 7      6093.269    23354252.580   122727451.612 5      6093.269    23354259.560    95631738.997 5      4748.002
R24  20483604.940   109535037.202 8      2307.259    20483604.400   109535037.206 7      2307.259    20483615.120    85193963.503 8      1794.535    20483615.420    85193963.508 8      1794.535
G02  22371089.620   117560881.755 7      1806.133    22371087.980   117560881.762 6      1806.133    22371092.360    91605873.183 6      1407.376
> 2024 06 03 15 11  0.0000000  0 16
G03  20581757.420   108157880.603 7      1213.738    20581754.860   108157880.610 8      1213.738    20581761.840    84278872.273 8       945.770    20581763.960    84278889.271 8       945.770
R23  24003575.960   128402951.318 6       166.510    24003574.820   128402951.328 6       166.510
G14  22855526.480   120106608.961 7       895.577    22855525.540   120106608.976 5       895.577    22855535.340    93589598.480 5       697.853    22855535.820    93589605.482 7       697.853
R02  19463421.420   103860546.511 8      3714.481    19463421.160   103860546.517 8      3714.481    19463429.680    80780459.667 8      2889.041    19463430.000    80780460.674 8      2889.041
R03  22298177.780   119363906.524 7      6720.167    22298176.240   119363906.523 7      6720.167    22298196.700    92838669.152 7      5226.796    22298196.840    92838673.157 7      5226.796
G17  21676944.120   113913107.962 7      4843.876    21676943.980   113913107.959 6      4843.876    21676948.000    88763475.370 6      3774.449    21676948.420    88763481.374 8      3774.449
G22  23385466.700   122891466.036 7      2207.941    23385465.580   122891466.043 5      2207.941    23385473.680    95759602.609 5      1720.473
G04  21508691.240   113028939.747 7      4680.435    21508690.500   113028939.757 6      4680.435    21508697.260    88074525.045 6      3647.092    21508697.440    88074523.041 8      3647.092
G21  23404765.100   122992868.293 7      1217.182    23404763.400   122992868.303 5      1217.182    23404770.040    95838616.691 5       948.454
R01  20805851.600   111219192.016 7      -222.436    20805851.700   111219192.020 7      -222.436    20805864.020    86503869.866 7      -173.006    20805863.400    86503866.851 7      -173.006
G08  24544434.200   128981860.180 5      -773.158    24544431.780   128981860.198 2      -773.158    24544452.640   100505420.911 2      -602.461    24544450.740   100505428.820 5      -602.461
R17  21044781.100   112614875.416 7      5062.580    21044780.560   112614875.452 7      5062.580    21044793.240    87589397.230 8      3937.562    21044792.260    87589395.226 8      3937.562
G09  23296730.220   122425153.508 7      6120.151    23296728.940   122425153.511 6      6120.151    23296742.820    95396281.858 6      4768.949    23296743.600    95396280.865 7      4768.949
G19  23353094.200   122721358.614 7      6093.065    23353093.200   122721358.624 5      6093.065    23353100.180    95626991.216 5      4747.843
R24  20483173.320   109532730.233 7      2306.872    20483172.980   109532730.245 8      2306.872    20483183.580    85192169.196 8      1794.234    20483183.840    85192169.202 8      1794.234
G02  22370746.080   117559075.764 7      1806.074    22370744.240   117559075.775 6      1806.074    22370748.660    91604465.916 6      1407.330
> 2024 06 03 15 11  1.0000000  0 16
G03  20581526.640   108156667.110 8      1213.135    20581524.020   108156667.120 8      1213.135    20581530.920    84277926.696 8       945.300    20581533.020    84277943.696 8       945.300
R23  24003544.340   128402785.008 6       165.768    24003543.460   128402785.020 6       165.768
G14  22855356.220   120105713.589 7       894.975    22855355.200   120105713.605 5       894.975    22855365.080    93588900.779 5       697.383    22855365.500    93588907.778 7       697.383
R02  19462725.520   103856832.522 8      3713.299    19462725.060   103856832.520 8      3713.299    19462733.640    80777571.004 8      2888.121    19462734.000    80777572.010 8      2888.121
R03  22296922.640   119357186.647 7      6719.368    22296920.300   119357186.648 6      6719.368    22296941.400    92833442.603 7      5226.175    22296941.300    92833446.609 7      5226.175
G17  21676022.320   113908264.225 7      4843.382    21676022.200   113908264.222 6      4843.382    21676026.280    88759701.030 6      3774.064    21676026.480    88759707.037 8      3774.064
G22  23385046.720   122889258.469 7      2207.156    23385045.400   122889258.476 5      2207.156    23385053.580    95757882.423 5      1719.862
G04  21507800.820   113024259.529 7      4679.711    21507799.840   113024259.536 6      4679.711    21507806.880    88070878.123 6      3646.528    21507806.920    88070876.121 8      3646.528
G21  23404533.120   122991651.093 7      1216.848    23404531.600   122991651.108 5      1216.848    23404538.140    95837668.213 5       948.193
R01  20805893.280   111219414.857 7      -223.460    20805893.100   111219414.872 7      -223.460    20805905.860    86504043.189 7      -173.802    20805905.020    86504040.178 7      -173.802
G08  24544580.600   128982633.280 5      -773.560    24544578.980   128982633.298 2      -773.560    24544599.820   100506023.314 2      -602.774    24544600.800   100506031.211 5      -602.774
R17  21043834.720   112609812.759 7      5062.387    21043834.540   112609812.776 7      5062.387    21043847.020    87585459.593 8      3937.412    21043846.500    87585457.589 8      3937.412
G09  23295565.280   122419033.363 6      6119.812    23295564.140   122419033.362 6      6119.812    23295578.360    95391512.924 6      4768.685    23295578.820    95391511.929 7      4768.685
G19  23351934.760   122715265.658 7      6092.700    23351933.660   122715265.668 5      6092.700    23351940.720    95622243.464 5      4747.558
R24  20482742.140   109530423.592 8      2306.198    20482741.560   109530423.604 8      2306.198    20482752.280    85190375.143 8      1793.710    20482752.700    85190375.146 8      1793.710
G02  22370402.380   117557269.824 7      1805.604    22370400.680   117557269.832 6      1805.604    22370405.040    91603058.686 6      1406.964
> 2024 06 03 15 11  2.0000000  0 16
G03  20581295.980   108155454.277 8      1212.684    20581293.240   108155454.282 8      1212.684    20581300.180    84276981.625 8       944.948    20581302.400    84276998.625 8       944.948
R23  24003514.080   128402619.363 6       165.432    24003512.520   128402619.370 6       165.432
G14  22855185.900   120104818.822 7       894.423    22855185.020   120104818.838 5       894.423    22855194.800    93588203.550 5       696.953    22855195.280    93588210.546 7       696.953
R02  19462029.580   103853119.714 8      3712.214    19462029.380   103853119.715 8      3712.214    19462037.820    80774683.267 8      2887.278    19462038.100    80774684.271 8      2887.278
R03  22295667.140   119350467.383 7      6718.898    22295665.640   119350467.387 6      6718.898    22295685.760    92828216.524 7      5225.810    22295686.240    92828220.529 7      5225.810
G17  21675100.940   113903421.119 7      4842.796    21675100.580   113903421.113 6      4842.796    21675104.700    88755927.183 6      3773.607    21675105.100    88755933.186 8      3773.607
G22  23384626.420   122887051.606 7      2206.341    23384625.400   122887051.611 5      2206.341    23384633.640    95756162.787 5      1719.227
G04  21506910.420   113019580.122 7      4679.079    21506909.440   113019580.135 6      4679.079    21506916.340    88067231.839 6      3646.036    21506916.520    88067229.836 8      3646.036
G21  23404301.660   122990434.347 7      1216.756    23404300.100   122990434.357 5      1216.756    23404306.680    95836720.102 5       948.121
R01  20805935.520   111219638.604 7      -224.117    20805935.160   111219638.622 7      -224.117    20805947.980    86504217.215 7      -174.313    20805946.800    86504214.207 7      -174.313
G08  24544728.080   128983406.897 5      -773.933    24544726.200   128983406.915 2      -773.933    24544747.020   100506626.121 2      -603.065    24544748.040   100506634.022 5      -603.065
R17  21042888.620   112604750.476 7      5062.134    21042888.140   112604750.507 7      5062.134    21042901.060    87581522.281 8      3937.215    21042900.320    87581520.279 8      3937.215
G09  23294400.720   122412913.687 7      6119.318    23294399.620   122412913.692 6      6119.318    23294413.840    95386744.362 6      4768.300    23294414.520    95386743.365 7      4768.300
G19  23350775.000   122709173.101 7      6092.389    23350774.120   122709173.111 5      6092.389    23350781.340    95617496.021 5      4747.316
R24  20482310.880   109528117.696 8      2305.646    20482310.520   109528117.709 8      2305.646    20482321.360    85188581.670 8      1793.280    20482321.400    85188581.674 8      1793.280
G02  22370058.600   117555464.386 7      1805.287    22370057.060   117555464.393 6      1805.287    22370061.480    91601651.849 6      1406.717
> 2024 06 03 15 11  3.0000000  0 16
G03  20581064.980   108154241.906 8      1212.120    20581062.780   108154241.911 8      1212.120    20581069.420    84276036.921 8       944.509    20581071.480    84276053.923 8       944.509
R23  24003482.600   128402454.040 6       165.095    24003481.380   128402454.060 6       165.095
G14  22855015.520   120103924.662 7       893.971    22855014.900   120103924.678 5       893.971    22855024.720    93587506.802 5       696.601    22855024.760    93587513.796 7       696.601
R02  19461334.000   103849407.910 8      3711.288    19461333.800   103849407.914 8      3711.288    19461342.360    80771796.313 8      2886.558    19461342.520    80771797.318 8      2886.558
R03  22294411.900   119343748.686 7      6718.565    22294410.260   119343748.693 6      6718.565    22294431.120    92822990.879 7      5225.551    22294431.100    92822994.884 7      5225.551
G17  21674179.380   113898578.488 7      4842.428    21674179.080   113898578.485 6      4842.428    21674183.120    88752153.706 6      3773.320    21674183.660    88752159.714 8      3773.320
G22  23384206.660   122884845.421 7      2205.960    23384205.520   122884845.421 5      2205.960    23384213.880    95754443.678 5      1718.930
G04  21506019.960   113014901.280 7      4678.577    21506019.180   113014901.295 6      4678.577    21506026.040    88063585.990 6      3645.645    21506026.240    88063583.990 8      3645.645
G21  23404069.940   122989217.720 7      1216.478    23404068.600   122989217.733 5      1216.478    23404075.100    95835772.085 5       947.905
R01  20805977.320   111219863.009 7      -224.852    20805976.860   111219863.026 7      -224.852    20805989.820    86504391.745 7      -174.885    20805988.760    86504388.736 7      -174.885
G08  24544875.040   128984180.722 5      -773.844    24544873.600   128984180.740 2      -773.844    24544894.180   100507229.087 2      -602.996    24544894.820   100507236.978 5      -602.996
R17  21041942.740   112599688.448 7      5061.802    21041941.380   112599688.473 7      5061.802    21041955.020    87577585.156 8      3936.957    21041954.280    87577583.152 8      3936.957
G09  23293236.560   122406794.243 7      6119.530    23293235.100   122406794.248 6      6119.530    23293249.460    95381975.972 6      4768.465    23293249.880    95381974.977 7      4768.465
G19  23349615.760   122703080.873 7      6092.070    23349614.740   122703080.886 5      6092.070    23349621.840    95612748.839 5      4747.067
R24  20481879.840   109525812.229 8      2305.126    20481879.640   109525812.241 8      2305.126    20481889.980    85186788.524 8      1792.876    20481890.460    85186788.529 8      1792.876
G02  22369715.180   117553659.100 7      1805.077    22369713.680   117553659.105 6      1805.077    22369717.900    91600245.130 6      1406.553
> 2024 06 03 15 11  4.0000000  0 16
G03  20580834.640   108153030.037 8      1211.550    20580832.020   108153030.039 7      1211.550    20580838.880    84275092.601 7       944.065    20580841.020    84275109.599 7       944.065
R23  24003452.300   128402289.112 6       164.688    24003451.100   128402289.113 6       164.688
G14  22854845.440   120103030.865 7       893.289    22854844.860   120103030.880 5       893.289    22854854.580    93586810.328 5       696.070    22854854.720    93586817.322 7       696.070
R02  19460638.540   103845697.061 8      3710.215    19460638.400   103845697.062 8      3710.215    19460646.800    80768910.097 7      2885.722    19460646.940    80768911.098 8      2885.722
R03  22293157.420   119337030.246 7      6717.927    22293154.920   119337030.250 6      6717.927    22293175.820    92817765.451 7      5225.055    22293176.000    92817769.450 7      5225.055
G17  21673258.380   113893736.346 7      4841.796    21673257.640   113893736.346 6      4841.796    21673261.720    88748380.615 6      3772.828    21673262.440    88748386.610 7      3772.828
G22  23383787.120   122882639.767 7      2205.241    23383785.760   122882639.772 5      2205.241    23383794.200    95752724.987 5      1718.370
G04  21505129.860   113010222.971 7      4677.844    21505128.920   113010222.984 6      4677.844    21505135.920    88059940.557 6      3645.073    21505136.100    88059938.557 8      3645.073
G21  23403838.460   122988001.345 7      1216.211    23403836.800   122988001.352 5      1216.211    23403843.800    95834824.252 5       947.697
R01  20806019.320   111220088.194 7      -225.557    20806019.240   111220088.203 7      -225.557    20806031.900    86504566.881 7      -175.433    20806031.100    86504563.869 7      -175.433
G08  24545022.200   128984954.736 5      -774.568    24545020.820   128984954.752 2      -774.568    24545041.560   100507832.198 2      -603.559    24545043.040   100507840.112 5      -603.559
R17  21040996.900   112594626.700 7      5061.656    21040995.900   112594626.729 7      5061.656    21041009.320    87573648.235 7      3936.843    21041008.460    87573646.235 7      3936.843
G09  23292071.860   122400674.922 6      6119.069    23292070.660   122400674.927 6      6119.069    23292084.920    95377207.689 6      4768.105    23292085.200    95377206.688 7      4768.105
G19  23348456.640   122696988.949 7      6091.714    23348455.480   122696988.957 5      6091.714    23348462.660    95608001.891 5      4746.790
R24  20481448.720   109523507.364 8      2304.509    20481448.360   109523507.368 8      2304.509    20481458.920    85184995.847 7      1792.396    20481459.120    85184995.849 8      1792.396
G02  22369371.680   117551854.119 8      1804.837    22369370.100   117551854.126 6      1804.837    22369374.440    91598838.653 6      1406.366
> 2024 06 03 15 11  5.0000000  0 16
G03  20580603.880   108151818.557 8      1211.083    20580601.380   108151818.562 8      1211.083    20580608.240    84274148.591 8       943.701    20580610.180    84274165.589 8       943.701
R23  24003421.920   128402124.524 6       164.280    24003419.980   128402124.528 6       164.280
G14  22854675.620   120102137.451 7       893.109    22854674.840   120102137.466 5       893.109    22854684.440    93586114.158 5       695.929    22854684.820    93586121.160 7       695.929
R02  19459943.180   103841987.114 8      3709.365    19459943.140   103841987.120 8      3709.365    19459951.700    80766024.585 8      2885.061    19459951.820    80766025.590 8      2885.061
R03  22291902.600   119330312.160 7      6717.888    22291900.380   119330312.167 7      6717.888    22291920.580    92812540.295 7      5225.024    22291921.240    92812544.297 7      5225.024
G17  21672336.920   113888894.577 7      4841.421    21672336.200   113888894.571 6      4841.421    21672340.200    88744607.806 6      3772.536    21672341.140    88744613.809 8      3772.536
G22  23383367.680   122880434.647 7      2204.790    23383366.000   122880434.654 5      2204.790    23383374.580    95751006.711 5      1718.018
G04  21504239.700   113005545.170 7      4677.385    21504238.640   113005545.180 6      4677.385    21504245.700    88056295.519 6      3644.716    21504245.980    88056293.519 8      3644.716
G21  23403606.860   122986785.082 7      1215.946    23403605.540   122986785.090 5      1215.946    23403612.480    95833876.511 5       947.490
R01  20806061.420   111220314.001 7      -226.349    20806061.520   111220314.005 7      -226.349    20806074.380    86504742.505 7      -176.049    20806073.180    86504739.495 7      -176.049
G08  24545169.460   128985728.808 5      -774.141    24545168.240   128985728.824 2      -774.141    24545188.940   100508435.361 2      -603.227    24545189.420   100508443.273 5      -603.227
R17  21040050.780   112589565.143 7      5061.343    21040050.760   112589565.174 7      5061.343    21040063.440    87569711.470 8      3936.600    21040062.560    87569709.469 8      3936.600
G09  23290907.560   122394555.788 7      6118.873    23290906.340   122394555.793 6      6118.873    23290920.340    95372439.547 6      4767.953    23290920.320    95372438.550 7      4767.953
G19  23347297.440   122690897.213 7      6091.534    23347296.180   122690897.220 5      6091.534    23347303.560    95603255.083 5      4746.650
R24  20481017.740   109521202.971 8      2303.978    20481017.440   109521202.981 8      2303.978    20481028.000    85183203.546 8      1791.983    20481028.260    85183203.548 8      1791.983
G02  22369028.260   117550049.324 7      1804.530    22369026.700   117550049.334 6      1804.530    22369031.080    91597432.322 6      1406.127
> 2024 06 03 15 11  6.0000000  0 16
G03  20580373.200   108150607.416 8      1210.919    20580370.900   108150607.418 8      1210.919    20580377.840    84273204.842 8       943.573    20580380.000    84273221.842 8       943.573
R23  24003391.240   128401960.262 6       164.123    24003389.560   128401960.264 6       164.123
G14  22854505.780   120101244.489 7       892.892    22854504.900   120101244.505 5       892.892    22854514.400    93585418.333 5       695.760    22854514.620    93585425.333 7       695.760
R02  19459248.160   103838278.058 8      3708.627    19459248.020   103838278.064 8      3708.627    19459256.640    80763139.765 8      2884.488    19459256.840    80763140.766 8      2884.488
R03  22290647.640   119323594.539 7      6717.673    22290645.700   119323594.543 7      6717.673    22290665.720    92807315.492 7      5224.857    22290666.180    92807319.495 7      5224.857
G17  21671415.480   113884053.136 7      4841.238    21671414.900   113884053.136 6      4841.238    21671418.920    88740835.263 6      3772.393    21671419.540    88740841.266 8      3772.393
G22  23382947.840   122878230.049 7      2204.387    23382946.620   122878230.057 5      2204.387    23382954.920    95749288.836 5      1717.704
G04  21503349.500   113000867.889 7      4677.080    21503348.520   113000867.896 6      4677.080    21503355.560    88052650.886 6      3644.478    21503355.720    88052648.886 8      3644.478
G21  23403375.720   122985568.912 7      1216.049    23403374.120   122985568.922 5      1216.049    23403380.860    95832928.842 5       947.570
R01  20806103.840   111220540.346 7      -226.675    20806104.000   111220540.356 7      -226.675    20806116.560    86504918.551 7      -176.303    20806115.260    86504915.537 7      -176.303
G08  24545317.240   128986503.132 5      -774.200    24545315.700   128986503.148 2      -774.200    24545336.180   100509038.718 2      -603.273    24545335.980   100509046.646 5      -603.273
R17  21039105.020   112584503.631 7      5061.485    21039105.080   112584503.662 7      5061.485    21039117.520    87565774.739 8      3936.710    21039116.720    87565772.735 8      3936.710
G09  23289743.300   122388436.838 7      6118.915    23289741.920   122388436.851 6      6118.915    23289755.780    95367671.550 6      4767.986    23289756.060    95367670.555 7      4767.986
G19  23346138.060   122684805.623 7      6091.422    23346136.960   122684805.635 5      6091.422    23346144.380    95598508.394 5      4746.562
R24  20480587.040   109518899.009 8      2303.712    20480586.360   109518899.016 8      2303.712    20480596.980    85181411.575 8      1791.776    20480597.520    85181411.578 8      1791.776
G02  22368685.020   117548244.674 8      1804.502    22368683.300   117548244.689 6      1804.502    22368687.540    91596026.101 6      1406.106
> 2024 06 03 15 11  7.0000000  0 16
G03  20580142.980   108149396.684 8      1210.486    20580140.500   108149396.692 8      1210.486    20580147.420    84272261.417 8       943.236    20580149.600    84272278.415 8       943.236
R23  24003360.060   128401796.343 6       163.534    24003358.380   128401796.374 6       163.534
G14  22854336.020   120100351.903 7       892.262    22854334.960   120100351.918 5       892.262    22854344.540    93584722.807 5       695.269    22854344.880    93584729.803 7       695.269
R02  19458553.140   103834569.893 8      3707.595    19458552.980   103834569.899 8      3707.595    19458561.660    80760255.637 8      2883.685    19458561.840    80760256.638 8      2883.685
R03  22289392.640   119316877.266 7      6716.888    22289391.460   119316877.268 7      6716.888    22289410.800    92802090.963 7      5224.246    22289411.260    92802094.964 7      5224.246
G17  21670494.020   113879212.090 7      4840.727    21670493.760   113879212.092 6      4840.727    21670497.660    88737063.019 6      3771.995    21670498.220    88737069.022 8      3771.995
G22  23382528.420   122876025.919 7      2203.770    23382527.180   122876025.929 5      2203.770    23382535.560    95747571.333 5      1717.224
G04  21502459.500   112996191.133 7      4676.418    21502458.600   112996191.146 6      4676.418    21502465.480    88049006.667 6      3643.962    21502465.700    88049004.673 8      3643.962
G21  23403144.400   122984352.908 7      1215.811    23403142.820   122984352.920 5      1215.811    23403149.440    95831981.307 5       947.385
R01  20806146.600   111220767.330 7      -227.345    20806146.460   111220767.355 7      -227.345    20806158.920    86505095.104 7      -176.824    20806157.820    86505092.093 7      -176.824
G08  24545464.560   128987277.727 5      -775.118    24545463.280   128987277.743 2      -775.118    24545483.460   100509642.286 2      -603.988    24545483.020   100509650.198 5      -603.988
R17  21038159.260   112579442.282 7      5061.184    21038159.160   112579442.313 7      5061.184    21038171.700    87561838.142 8      3936.476    21038170.980    87561836.137 8      3936.476
G09  23288579.080   122382318.069 6      6118.580    23288577.580   122382318.074 6      6118.580    23288591.480    95362903.686 6      4767.725    23288592.080    95362902.687 7      4767.725
G19  23344979.160   122678714.209 7      6091.225    23344977.740   122678714.216 5      6091.225    23344985.260    95593761.842 5      4746.409
R24  20480156.400   109516595.512 8      2303.169    20480155.760   109516595.516 8      2303.169    20480166.640    85179619.963 8      1791.354    20480166.900    85179619.961 8      1791.354
G02  22368341.420   117546440.250 8      1804.253    22368339.920   117546440.257 6      1804.253    22368344.340    91594620.050 6      1405.911
> 2024 06 03 15 11  8.0000000  0 16
G03  20579912.740   108148186.347 7      1210.316    20579910.380   108148186.349 8      1210.316    20579917.160    84271318.300 8       943.104    20579919.340    84271335.297 8       943.104
R23  24003328.960   128401632.768 6       163.510    24003327.500   128401632.789 6       163.510
G14  22854166.120   120099459.758 7       892.095    22854165.260   120099459.774 5       892.095    22854174.960    93584027.623 5       695.139    22854175.360    93584034.622 7       695.139
R02  19457858.420   103830862.622 8      3706.947    19457858.340   103830862.631 8      3706.947    19457866.980    80757372.212 8      2883.181    19457867.160    80757373.213 8      2883.181
R03  22288138.160   119310160.392 7      6716.819    22288136.160   119310160.402 7      6716.819    22288155.900    92796866.752 7      5224.193    22288156.460    92796870.754 7      5224.193
G17  21669572.920   113874371.406 7      4840.716    21669572.420   113874371.406 6      4840.716    21669576.480    88733291.059 6      3771.987    21669576.860    88733297.067 8      3771.987
G22  23382109.220   122873822.354 7      2203.400    23382107.660   122873822.364 5      2203.400    23382116.260    95745854.267 5      1716.935
G04  21501569.880   112991514.932 7      4676.032    21501568.820   112991514.945 6      4676.032    21501575.720    88045362.880 6      3643.661    21501576.160    88045360.880 8      3643.661
G21  23402912.900   122983137.016 7      1215.961    23402911.400   122983137.026 5      1215.961    23402918.020    95831033.861 5       947.502
R01  20806189.200   111220994.953 7      -227.829    20806189.200   111220994.967 7      -227.829    20806201.640    86505272.134 7      -177.200    20806200.440    86505269.122 7      -177.200
G08  24545612.100   128988052.419 5      -774.769    24545610.580   128988052.432 2      -774.769    24545630.820   100510245.926 2      -603.716    24545632.040   100510253.834 5      -603.716
R17  21037213.420   112574381.094 7      5061.174    21037212.920   112574381.127 7      5061.174    21037225.900    87557901.671 8      3936.469    21037225.180    87557899.665 8      3936.469
G09  23287414.820   122376199.495 7      6118.690    23287413.220   122376199.500 6      6118.690    23287427.220    95358135.982 6      4767.811    23287427.700    95358134.985 7      4767.811
G19  23343819.920   122672622.976 7      6091.393    23343818.360   122672622.984 5      6091.393    23343826.140    95589015.439 5      4746.540
R24  20479725.440   109514292.441 7      2302.911    20479725.020   109514292.453 7      2302.911    20479735.980    85177828.689 8      1791.153    20479735.900    85177828.691 8      1791.153
G02  22367998.120   117544635.994 7      1804.251    22367996.600   117544635.999 6      1804.251    22368001.000    91593214.130 6      1405.910
> 2024 06 03 15 11  9.0000000  0 16
G03  20579682.620   108146976.515 8      1209.434    20579680.120   108146976.519 8      1209.434    20579686.900    84270375.573 8       942.416    20579689.140    84270392.569 8       942.416
R23  24003298.780   128401469.542 6       163.007    24003297.520   128401469.557 6       163.007
G14  22853996.520   120098568.184 7       891.375    22853995.500   120098568.194 5       891.375    22854005.420    93583332.880 5       694.578    22854005.460    93583339.880 7       694.578
R02  19457164.100   103827156.330 8      3705.699    19457163.860   103827156.339 8      3705.699    19457172.420    80754489.543 8      2882.210    19457172.680    80754490.544 8      2882.210
R03  22286883.100   119303444.032 7      6716.206    22286880.620   119303444.041 6      6716.206    22286901.480    92791642.925 7      5223.716    22286901.740    92791646.930 7      5223.716
G17  21668651.960   113869531.269 7      4839.902    21668651.440   113869531.269 6      4839.902    21668655.420    88729519.528 6      3771.352    21668656.060    88729525.527 8      3771.352
G22  23381690.060   122871619.461 7      2202.649    23381688.480   122871619.472 5      2202.649    23381697.100    95744137.729 5      1716.350
G04  21500680.180   112986839.267 7      4675.261    21500679.060   112986839.277 6      4675.261    21500685.920    88041719.509 6      3643.060    21500686.240    88041717.509 8      3643.060
G21  23402681.620   122981921.290 7      1215.378    23402680.120   122981921.300 5      1215.378    23402686.600    95830086.538 5       947.048
R01  20806232.080   111221223.235 7      -228.773    20806231.640   111221223.242 7      -228.773    20806244.340    86505449.683 7      -177.935    20806243.220    86505446.667 7      -177.935
G08  24545758.660   128988827.343 5      -775.058    24545758.140   128988827.355 2      -775.058    24545778.160   100510849.746 2      -603.941    24545778.440   100510857.656 5      -603.941
R17  21036267.740   112569320.192 7      5060.612    21036267.300   112569320.220 7      5060.612    21036280.000    87553965.412 8      3936.031    21036279.400    87553963.408 8      3936.031
G09  23286250.560   122370081.168 7      6118.278    23286248.960   122370081.172 6      6118.278    23286263.020    95353368.471 6      4767.489    23286263.420    95353367.472 7      4767.489
G19  23342660.320   122666532.133 7      6090.677    23342659.200   122666532.146 5      6090.677    23342667.060    95584269.338 5      4745.982
R24  20479295.260   109511989.885 8      2302.090    20479294.540   109511989.889 7      2302.090    20479305.100    85176037.808 8      1790.515    20479305.120    85176037.806 8      1790.515
G02  22367654.880   117542831.940 8      1803.708    22367653.320   117542831.950 6      1803.708    22367657.720    91591808.380 6      1405.486
> 2024 06 03 15 11 10.0000000  0 16
G03  20579452.500   108145766.971 8      1209.247    20579449.960   108145766.973 8      1209.247    20579456.780    84269433.069 8       942.270    20579459.100    84269450.067 8       942.270
R23  24003268.860   128401306.652 6       162.604    24003267.160   128401306.672 6       162.604
G14  22853826.800   120097676.864 7       890.976    22853825.860   120097676.879 5       890.976    22853835.840    93582638.337 5       694.267    22853836.140    93582645.337 7       694.267
R02  19456469.680   103823450.868 8      3704.947    19456469.420   103823450.874 8      3704.947    19456478.080    80751607.517 8      2881.625    19456478.380    80751608.518 8      2881.625
R03  22285628.900   119296727.937 7      6715.900    22285626.320   119296727.928 6      6715.900    22285646.620    92786419.298 7      5223.478    22285646.960    92786423.297 7      5223.478
G17  21667731.100   113864691.402 8      4839.528    21667730.500   113864691.405 6      4839.528    21667734.500    88725748.210 6      3771.061    21667735.060    88725754.211 8      3771.061
G22  23381270.860   122869416.968 7      2202.093    23381269.380   122869416.976 5      2202.093    23381277.960    95742421.495 5      1715.917
G04  21499790.580   112982164.043 7      4674.972    21499789.520   112982164.053 6      4674.972    21499796.300    88038076.479 6      3642.835    21499796.540    88038074.479 8      3642.835
G21  23402450.320   122980705.624 7      1215.629    23402448.760   122980705.637 5      1215.629    23402455.140    95829139.260 5       947.244
R01  20806274.780   111221452.074 7      -229.205    20806274.440   111221452.089 7      -229.205    20806287.300    86505627.668 7      -178.271    20806286.020    86505624.663 7      -178.271
G08  24545907.160   128989602.358 5      -775.033    24545905.760   128989602.368 2      -775.033    24545925.380   100511453.642 2      -603.922    24545926.880   100511461.547 5      -603.922
R17  21035322.060   112564259.314 7      5060.777    21035321.560   112564259.342 7      5060.777    21035334.280    87550029.175 8      3936.160    21035333.580    87550027.172 8      3936.160
G09  23285085.980   122363962.929 7      6118.050    23285084.720   122363962.932 6      6118.050    23285098.820    95348601.019 6      4767.311    23285099.180    95348600.022 7      4767.311
G19  23341501.780   122660441.371 7      6090.442    23341499.980   122660441.383 5      6090.442    23341508.220    95579523.295 5      4745.799
R24  20478864.520   109509687.752 8      2301.882    20478863.880   109509687.756 7      2301.882    20478874.640    85174247.258 8      1790.352    20478874.720    85174247.261 8      1790.352
G02  22367311.660   117541028.023 7      1803.832    22367310.120   117541028.031 6      1803.832    22367314.420    91590402.727 6      1405.583
> 2024 06 03 15 11 11.0000000  0 16
G03  20579222.440   108144557.832 8      1208.806    20579219.760   108144557.832 8      1208.806    20579226.640    84268490.879 8       941.927    20579228.800    84268507.877 8       941.927
R23  24003238.660   128401144.014 6       162.206    24003236.620   128401144.026 6       162.206
G14  22853657.440   120096785.904 7       890.651    22853656.660   120096785.920 5       890.651    22853666.280    93581944.076 5       694.014    22853666.460    93581951.085 7       694.014
R02  19455775.180   103819746.294 8      3703.887    19455775.120   103819746.303 8      3703.887    19455783.820    80748726.184 8      2880.801    19455784.100    80748727.187 8      2880.801
R03  22284373.940   119290012.080 7      6715.499    22284371.200   119290012.084 6      6715.499    22284391.920    92781195.884 7      5223.166    22284392.380    92781199.886 7      5223.166
G17  21666810.100   113859851.914 7      4839.194    21666809.420   113859851.919 6      4839.194    21666813.700    88721977.184 6      3770.800    21666814.300    88721983.193 8      3770.800
G22  23380851.880   122867214.964 7      2201.656    23380850.400   122867214.969 5      2201.656    23380858.900    95740705.643 5      1715.576
G04  21498900.920   112977489.264 7      4674.367    21498899.900   112977489.276 6      4674.367    21498906.760    88034433.796 6      3642.364    21498906.920    88034431.796 8      3642.364
G21  23402219.080   122979490.074 7      1215.332    23402217.520   122979490.081 5      1215.332    23402223.680    95828192.080 5       947.012
R01  20806317.860   111221681.565 7      -229.969    20806317.300   111221681.585 7      -229.969    20806330.260    86505806.159 7      -178.865    20806328.860    86505803.147 7      -178.865
G08  24546055.240   128990377.436 5      -775.375    24546053.280   128990377.449 2      -775.375    24546072.980   100512057.589 2      -604.188    24546074.200   100512065.517 5      -604.188
R17  21034376.200   112559198.637 7      5060.512    21034376.600   112559198.668 7      5060.512    21034388.440    87546093.091 8      3935.954    21034387.980    87546091.087 8      3935.954
G09  23283921.880   122357844.723 7      6117.916    23283920.440   122357844.728 6      6117.916    23283934.460    95343833.601 6      4767.208    23283934.920    95343832.607 7      4767.208
G19  23340342.660   122654350.813 7      6090.409    23340340.900   122654350.826 5      6090.409    23340349.160    95574777.409 5      4745.773
R24  20478433.860   109507386.063 8      2301.267    20478433.380   109507386.070 7      2301.267    20478444.100    85172457.055 8      1789.874    20478444.460    85172457.058 8      1789.874
G02  22366968.340   117539224.272 7      1803.486    22366966.960   117539224.276 6      1803.486    22366971.220    91588997.206 6      1405.314
> 2024 06 03 15 11 12.0000000  0 16
G03  20578992.280   108143349.098 8      1208.474    20578989.780   108143349.102 8      1208.474    20578996.600    84267549.012 8       941.668    20578998.660    84267566.010 8       941.668
R23  24003208.340   128400981.838 6       162.044    24003206.700   128400981.829 6       162.044
G14  22853487.840   120095895.407 7       890.270    22853487.280   120095895.425 5       890.270    22853496.840    93581250.178 5       693.717    22853496.760    93581257.182 7       693.717
R02  19455081.020   103816042.665 8      3703.140    19455081.060   103816042.671 8      3703.140    19455089.820    80745845.583 8      2880.220    19455089.940    80745846.587 8      2880.220
R03  22283119.300   119283296.707 7      6715.278    22283117.020   119283296.709 6      6715.278    22283137.460    92775972.838 7      5222.994    22283137.920    92775976.839 7      5222.994
G17  21665889.160   113855012.833 7      4838.784    21665888.460   113855012.838 6      4838.784    21665892.920    88718206.477 6      3770.481    21665893.400    88718212.481 8      3770.481
G22  23380432.920   122865013.472 7      2201.357    23380431.520   122865013.479 5      2201.357    23380440.000    95738990.197 5      1715.343
G04  21498011.500   112972815.093 7      4673.910    21498010.380   112972815.106 6      4673.910    21498017.380    88030791.592 6      3642.008    21498017.420    88030789.591 8      3642.008
G21  23401987.620   122978274.734 7      1215.105    23401986.320   122978274.744 5      1215.105    23401992.460    95827245.054 5       946.835
R01  20806360.680   111221911.697 7      -230.561    20806360.360   111221911.712 7      -230.561    20806373.320    86505985.153 7      -179.326    20806371.980    86505982.139 7      -179.326
G08  24546202.240   128991152.812 5      -775.517    24546200.820   128991152.822 2      -775.517    24546220.480   100512661.763 2      -604.299    24546222.660   100512669.695 5      -604.299
R17  21033430.540   112554138.072 7      5060.357    21033431.200   112554138.105 7      5060.357    21033442.640    87542157.107 8      3935.833    21033442.100    87542155.103 8      3935.833
G09  23282757.240   122351726.813 7      6117.799    23282756.140   122351726.815 6      6117.799    23282770.340    95339066.407 6      4767.116    23282771.020    95339065.410 7      4767.116
G19  23339184.100   122648260.445 7      6090.160    23339181.780   122648260.461 5      6090.160    23339190.320    95570031.676 5      4745.579
R24  20478003.540   109505084.850 7      2300.868    20478003.220   109505084.859 7      2300.868    20478013.840    85170667.227 8      1789.564    20478014.080    85170667.229 8      1789.564
G02  22366625.180   117537420.751 7      1803.380    22366623.960   117537420.759 6      1803.380    22366627.880    91587591.863 6      1405.231
> 2024 06 03 15 11 13.0000000  0 16
G03  20578762.320   108142140.723 8      1208.065    20578759.880   108142140.728 8      1208.065    20578766.600    84266607.424 8       941.349    20578768.840    84266624.419 8       941.349
R23  24003177.380   128400819.901 6       161.850    24003175.760   128400819.913 6       161.850
G14  22853318.560   120095005.278 7       889.645    22853318.020   120095005.293 5       889.645    22853327.420    93580556.564 5       693.230    22853327.480    93580563.565 7       693.230
R02  19454387.160   103812339.890 8      3702.226    19454387.200   103812339.891 8      3702.226    19454395.880    80742965.645 8      2879.509    19454396.100    80742966.650 8      2879.509
R03  22281865.120   119276581.691 7      6714.636    22281862.580   119276581.700 6      6714.636    22281882.860    92770750.066 7      5222.495    22281883.420    92770754.067 7      5222.495
G17  21664968.300   113850174.088 7      4838.360    21664967.740   113850174.091 6      4838.360    21664972.000    88714436.029 6      3770.150    21664972.500    88714442.032 8      3770.150
G22  23380014.400   122862812.484 7      2200.595    23380012.720   122862812.492 5      2200.595    23380021.160    95737275.142 5      1714.749
G04  21497121.980   112968141.412 7      4673.348    21497121.080   112968141.425 6      4673.348    21497127.920    88027149.768 6      3641.570    21497128.240    88027147.764 8      3641.570
G21  23401756.580   122977059.439 7      1215.407    23401755.080   122977059.441 5      1215.407    23401761.360    95826298.073 5       947.070
R01  20806403.760   111222142.407 7      -231.039    20806403.440   111222142.418 7      -231.039    20806416.560    86506164.583 7      -179.697    20806415.020    86506161.572 7      -179.697
G08  24546350.840   128991928.310 5      -775.528    24546348.340   128991928.323 2      -775.528    24546368.140   100513266.035 2      -604.308    24546370.400   100513273.949 5      -604.308
R17  21032484.840   112549077.617 7      5060.308    21032485.260   112549077.650 7      5060.308    21032496.940    87538221.199 8      3935.795    21032496.580    87538219.195 8      3935.795
G09  23281593.040   122345609.022 7      6117.572    23281592.060   122345609.019 6      6117.572    23281606.000    95334299.309 6      4766.939    23281606.580    95334298.314 7      4766.939
G19  23338025.120   122642170.227 7      6089.935    23338023.000   122642170.237 5      6089.935    23338031.380    95565286.057 5      4745.404
R24  20477573.560   109502784.043 8      2300.547    20477572.880   109502784.049 7      2300.547    20477583.500    85168877.704 8      1789.314    20477583.680    85168877.707 8      1789.314
G02  22366282.120   117535617.389 7      1803.232    22366280.700   117535617.399 6      1803.232    22366284.580    91586186.648 6      1405.116
> 2024 06 03 15 11 14.0000000  0 16
G03  20578532.380   108140932.732 8      1207.704    20578529.940   108140932.735 8      1207.704    20578536.760    84265666.126 8       941.068    20578538.900    84265683.122 8       941.068
R23  24003146.520   128400658.250 6       161.045    24003146.360   128400658.256 6       161.045
G14  22853149.120   120094115.568 7       889.533    22853148.780   120094115.587 5       889.533    22853158.120    93579863.283 5       693.143    22853158.340    93579870.281 7       693.143
R02  19453693.620   103808637.912 8      3701.523    19453693.540   103808637.913 8      3701.523    19453702.240    80740086.329 8      2878.962    19453702.580    80740087.332 8      2878.962
R03  22280610.800   119269866.979 7      6714.557    22280607.760   119269866.978 6      6714.557    22280628.540    92765527.519 7      5222.433    22280629.080    92765531.520 7      5222.433
G17  21664047.520   113845335.735 7      4838.217    21664046.820   113845335.735 6      4838.217    21664051.320    88710665.884 6      3770.039    21664051.980    88710671.885 8      3770.039
G22  23379595.580   122860612.072 7      2200.153    23379594.060   122860612.082 5      2200.153    23379602.300    95735560.535 5      1714.405
G04  21496232.680   112963468.141 7      4672.933    21496231.700   112963468.153 6      4672.933    21496238.540    88023508.260 6      3641.247    21496238.800    88023506.258 8      3641.247
G21  23401525.100   122975844.233 7      1214.999    23401523.840   122975844.237 5      1214.999    23401530.040    95825351.149 5       946.752
R01  20806446.940   111222373.672 7      -231.629    20806446.880   111222373.689 7      -231.629    20806459.520    86506344.454 7      -180.156    20806458.360    86506341.447 7      -180.156
G08  24546498.400   128992703.877 5      -775.557    24546496.080   128992703.885 2      -775.557    24546515.760   100513870.359 2      -604.330    24546517.880   100513878.270 5      -604.330
R17  21031539.120   112544017.357 7      5060.156    21031539.720   112544017.385 7      5060.156    21031551.000    87534285.444 8      3935.677    21031550.640    87534283.438 8      3935.677
G09  23280428.760   122339491.354 7      6117.449    23280427.720   122339491.348 6      6117.449    23280441.860    95329532.306 6      4766.843    23280442.440    95329531.313 7      4766.843
G19  23336865.800   122636080.248 7      6089.913    23336864.000   122636080.258 5      6089.913    23336872.500    95560540.623 5      4745.387
R24  20477143.380   109500483.618 8      2300.120    20477142.940   109500483.627 7      2300.120    20477153.320    85167088.485 8      1788.982    20477153.740    85167088.490 8      1788.982
G02  22365938.900   117533814.123 8      1803.051    22365937.640   117533814.128 6      1803.051    22365941.420    91584781.504 6      1404.975
> 2024 06 03 15 11 15.0000000  0 16
G03  20578302.420   108139725.078 8      1207.446    20578300.160   108139725.083 8      1207.446    20578306.860    84264725.099 8       940.867    20578309.220    84264742.097 8       940.867
R23  24003116.260   128400497.013 6       160.910    24003115.880   128400497.022 6       160.910
G14  22852980.280   120093226.188 7       889.199    22852979.460   120093226.203 5       889.199    22852988.880    93579170.251 5       692.882    22852989.160    93579177.247 7       692.882
R02  19452999.960   103804936.858 8      3700.649    19453000.140   103804936.859 8      3700.649    19453008.520    80737207.735 8      2878.282    19453008.760    80737208.738 8      2878.282
R03  22279356.680   119263152.686 7      6714.105    22279353.800   119263152.695 6      6714.105    22279374.340    92760305.309 7      5222.081    22279374.820    92760309.312 7      5222.081
G17  21663126.840   113840497.684 7      4837.867    21663126.080   113840497.686 6      4837.867    21663130.680    88706895.976 6      3769.766    21663131.360    88706901.977 8      3769.766
G22  23379176.660   122858412.046 7      2199.713    23379175.560   122858412.057 5      2199.713    23379183.720    95733846.227 5      1714.062
G04  21495343.500   112958795.484 7      4672.437    21495342.540   112958795.497 6      4672.437    21495349.460    88019867.231 6      3640.860    21495349.780    88019865.228 8      3640.860
G21  23401293.760   122974629.216 7      1214.928    23401292.640   122974629.215 5      1214.928    23401298.880    95824404.384 5       946.697
R01  20806490.320   111222605.563 7      -232.146    20806489.860   111222605.580 7      -232.146    20806502.820    86506524.814 7      -180.558    20806501.900    86506521.806 7      -180.558
G08  24546645.460   128993479.723 5      -776.087    24546643.760   128993479.736 2      -776.087    24546663.440   100514474.904 2      -604.743    24546664.920   100514482.840 5      -604.743
R17  21030593.200   112538957.151 7      5060.154    21030594.400   112538957.179 7      5060.154    21030605.460    87530349.728 8      3935.675    21030605.080    87530347.722 8      3935.675
G09  23279264.720   122333373.880 7      6117.360    23279263.600   122333373.888 6      6117.360    23279277.760    95324765.464 6      4766.774    23279278.320    95324764.471 7      4766.774
G19  23335706.700   122629990.342 7      6089.826    23335704.920   122629990.353 5      6089.826    23335713.660    95555795.246 5      4745.319
R24  20476713.260   109498183.734 8      2299.666    20476712.760   109498183.740 7      2299.666    20476723.120    85165299.686 7      1788.629    20476723.440    85165299.688 8      1788.629
G02  22365595.880   117532011.102 8      1802.953    22365594.480   117532011.104 6      1802.953    22365598.320    91583376.550 6      1404.898
> 2024 06 03 15 11 16.0000000  0 16
G03  20578072.680   108138517.802 8      1207.141    20578070.580   108138517.807 8      1207.141    20578077.200    84263784.364 8       940.629    20578079.500    84263801.360 8       940.629
R23  24003086.240   128400336.014 6       160.791    24003085.760   128400336.026 6       160.791
G14  22852811.040   120092337.215 7       888.968    22852810.380   120092337.227 5       888.968    22852819.840    93578477.538 5       692.702    22852819.760    93578484.532 7       692.702
R02  19452306.740   103801236.668 8      3699.829    19452306.700   103801236.666 8      3699.829    19452315.200    80734329.812 8      2877.644    19452315.720    80734330.815 8      2877.644
R03  22278102.420   119256438.724 7      6713.936    22278099.960   119256438.739 6      6713.936    22278119.920    92755083.351 7      5221.950    22278120.460    92755087.359 7      5221.950
G17  21662206.340   113835660.006 7      4837.636    21662205.600   113835660.008 6      4837.636    21662210.080    88703126.357 6      3769.587    21662210.700    88703132.356 8      3769.587
G22  23378758.280   122856212.522 7      2199.437    23378756.820   122856212.530 5      2199.437    23378765.080    95732132.308 5      1713.847
G04  21494454.520   112954123.269 7      4671.963    21494453.440   112954123.281 6      4671.963    21494460.320    88016226.545 6      3640.490    21494460.720    88016224.547 8      3640.490
G21  23401062.880   122973414.246 7      1214.944    23401061.420   122973414.249 5      1214.944    23401067.660    95823457.649 5       946.709
R01  20806533.800   111222838.029 7      -232.698    20806533.580   111222838.041 7      -232.698    20806546.480    86506705.618 7      -180.987    20806545.300    86506702.609 7      -180.987
G08  24546792.660   128994255.687 5      -776.179    24546791.400   128994255.702 2      -776.179    24546810.980   100515079.537 2      -604.815    24546812.180   100515087.444 5      -604.815
R17  21029647.640   112533897.083 7      5060.081    21029649.180   112533897.106 7      5060.081    21029660.000    87526414.120 8      3935.618    21029659.500    87526412.116 8      3935.618
G09  23278101.060   122327256.541 6      6117.424    23278099.500   122327256.546 6      6117.424    23278113.860    95319998.710 6      4766.824    23278113.920    95319997.715 7      4766.824
G19  23334547.840   122623900.626 7      6089.800    23334546.240   122623900.628 5      6089.800    23334554.860    95551050.013 5      4745.298
R24  20476283.080   109495884.231 8      2299.269    20476282.940   109495884.235 8      2299.269    20476293.220    85163511.180 7      1788.320    20476293.700    85163511.183 7      1788.320
G02  22365252.880   117530208.197 7      1802.768    22365251.420   117530208.207 6      1802.768    22365255.160    91581971.691 6      1404.754
> 2024 06 03 15 11 17.0000000  0 16
G03  20577843.200   108137311.086 8      1206.535    20577840.960   108137311.085 8      1206.535    20577847.480    84262844.057 8       940.157    20577849.900    84262861.055 8       940.157
R23  24003056.440   128400175.497 6       160.090    24003055.740   128400175.507 6       160.090
G14  22852642.040   120091448.885 7       888.002    22852641.440   120091448.898 5       888.002    22852650.800    93577785.325 5       691.949    22852650.780    93577792.323 7       691.949
R02  19451613.380   103797537.558 8      3698.612    19451613.500   103797537.557 8      3698.612    19451622.000    80731452.724 8      2876.698    19451622.340    80731453.732 8      2876.698
R03  22276848.440   119249725.337 7      6713.092    22276846.520   119249725.355 6      6713.092    22276866.040    92749861.843 7      5221.294    22276866.260    92749865.844 7      5221.294
G17  21661285.860   113830822.935 7      4836.806    21661285.180   113830822.937 6      4836.806    21661289.560    88699357.215 6      3768.940    21661290.220    88699363.212 8      3768.940
G22  23378339.700   122854013.797 7      2198.401    23378338.500   122854013.807 5      2198.401    23378346.740    95730419.011 5      1713.040
G04  21493565.560   112949451.673 7      4671.311    21493564.480   112949451.684 6      4671.311    21493571.460    88012586.346 6      3639.983    21493571.620    88012584.341 8      3639.983
G21  23400831.980   122972199.508 7      1214.625    23400830.240   122972199.513 5      1214.625    23400836.640    95822511.095 5       946.461
R01  20806577.160   111223071.245 7      -233.500    20806577.020   111223071.263 7      -233.500    20806590.100    86506887.005 7      -181.611    20806588.920    86506883.995 7      -181.611
G08  24546941.860   128995031.882 5      -776.283    24546939.320   128995031.900 2      -776.283    24546958.740   100515684.352 2      -604.896    24546958.640   100515692.255 5      -604.896
R17  21028702.080   112528837.351 7      5059.638    21028703.820   112528837.374 7      5059.638    21028714.560    87522478.776 8      3935.274    21028713.920    87522476.768 8      3935.274
G09  23276936.880   122321139.532 7      6116.817    23276935.440   122321139.529 6      6116.817    23276949.980    95315232.216 6      4766.351    23276949.980    95315231.221 7      4766.351
G19  23333389.240   122617811.356 7      6089.074    23333387.520   122617811.361 5      6089.074    23333395.940    95546305.135 5      4744.733
R24  20475853.260   109493585.291 8      2298.628    20475853.000   109493585.297 8      2298.628    20475863.160    85161723.115 8      1787.822    20475863.700    85161723.120 8      1787.822
G02  22364909.700   117528405.575 8      1802.496    22364908.400   117528405.588 6      1802.496    22364912.260    91580567.051 6      1404.542
> 2024 06 03 15 11 18.0000000  0 16
G03  20577613.620   108136104.871 8      1205.998    20577611.460   108136104.873 8      1205.998    20577617.920    84261904.152 8       939.738    20577620.080    84261921.148 8       939.738
R23  24003026.560   128400015.400 6       159.882    24003025.740   128400015.407 6       159.882
G14  22852472.920   120090560.931 7       887.926    22852472.500   120090560.944 5       887.926    22852481.800    93577093.409 5       691.890    22852482.160    93577100.407 7       691.890
R02  19450920.320   103793839.444 8      3697.712    19450920.480   103793839.440 8      3697.712    19450929.060    80728576.416 8      2875.998    19450929.320    80728577.421 8      2875.998
R03  22275594.720   119243012.315 7      6712.918    22275593.160   119243012.359 6      6712.918    22275612.160    92744640.634 7      5221.159    22275611.980    92744644.640 7      5221.159
G17  21660365.440   113825986.293 7      4836.547    21660364.560   113825986.292 6      4836.547    21660369.240    88695588.400 6      3768.738    21660369.620    88695594.397 8      3768.738
G22  23377921.260   122851815.569 7      2198.140    23377920.220   122851815.576 5      2198.140    23377928.280    95728706.100 5      1712.837
G04  21492676.780   112944780.693 7      4670.718    21492675.660   112944780.706 6      4670.718    21492682.660    88008946.627 6      3639.521    21492682.700    88008944.625 8      3639.521
G21  23400600.920   122970985.067 7      1214.188    23400599.020   122970985.077 5      1214.188    23400605.640    95821564.773 5       946.121
R01  20806621.120   111223305.232 7      -234.418    20806620.620   111223305.252 7      -234.418    20806633.820    86507068.992 7      -182.325    20806632.800    86507065.987 7      -182.325
G08  24547088.900   128995808.371 5      -776.611    24547087.100   128995808.386 2      -776.611    24547106.400   100516289.392 2      -605.151    24547108.000   100516297.285 5      -605.151
R17  21027756.620   112523777.875 8      5059.369    21027758.700   112523777.892 7      5059.369    21027768.660    87518543.624 8      3935.065    21027768.380    87518541.623 8      3935.065
G09  23275773.240   122315022.697 7      6116.827    23275771.220   122315022.697 6      6116.827    23275785.980    95310465.861 6      4766.358    23275785.740    95310464.870 7      4766.358
G19  23332230.680   122611722.326 7      6088.897    23332228.940   122611722.331 5      6088.897    23332237.140    95541560.442 5      4744.595
R24  20475423.520   109491286.973 8      2297.954    20475423.140   109491286.985 7      2297.954    20475433.220    85159935.535 8      1787.297    20475434.020    85159935.541 8      1787.297
G02  22364566.840   117526603.303 8      1802.077    22364565.420   117526603.313 6      1802.077    22364569.320    91579162.677 6      1404.215
> 2024 06 03 15 11 19.0000000  0 16
G03  20577384.200   108134899.022 8      1205.767    20577381.840   108134899.026 8      1205.767    20577388.520    84260964.533 8       939.559    20577390.640    84260981.529 8       939.559
R23  24002996.600   128399855.618 6       160.124    24002995.860   128399855.633 6       160.124
G14  22852303.960   120089673.161 7       887.560    22852303.440   120089673.169 5       887.560    22852312.780    93576401.628 5       691.605    22852313.140    93576408.622 7       691.605
R02  19450227.260   103790142.117 8      3697.000    19450227.600   103790142.118 8      3697.000    19450236.040    80725700.719 8      2875.444    19450236.280    80725701.724 8      2875.444
R03  22274339.880   119236299.407 7      6712.794    22274338.060   119236299.441 6      6712.794    22274357.760    92739419.524 7      5221.062    22274358.120    92739423.525 7      5221.062
G17  21659445.140   113821149.963 7      4836.193    21659444.260   113821149.959 6      4836.193    21659449.020    88691819.833 6      3768.462    21659449.420    88691825.839 8      3768.462
G22  23377502.920   122849617.653 7      2197.819    23377501.900   122849617.660 5      2197.819    23377510.140    95726993.436 5      1712.586
G04  21491787.840   112940110.133 7      4670.513    21491786.960   112940110.143 6      4670.513    21491793.900    88005307.229 6      3639.360    21491794.060    88005305.229 8      3639.360
G21  23400369.660   122969770.767 7      1214.351    23400367.880   122969770.778 5      1214.351    23400374.500    95820618.570 5       946.248
R01  20806665.120   111223539.902 7      -234.918    20806664.480   111223539.909 7      -234.918    20806678.000    86507251.504 7      -182.714    20806676.880    86507248.494 7      -182.714
G08  24547236.300   128996584.831 5      -776.320    24547234.880   128996584.844 2      -776.320    24547254.260   100516894.411 2      -604.924    24547255.720   100516902.313 5      -604.924
R17  21026811.520   112518718.549 7      5059.257    21026812.400   112518718.566 7      5059.257    21026823.280    87514608.601 8      3934.977    21026822.720    87514606.593 8      3934.977
G09  23274608.880   122308905.815 7      6116.905    23274607.460   122308905.823 6      6116.905    23274621.700    95305699.486 6      4766.419    23274621.740    95305698.495 7      4766.419
G19  23331072.140   122605633.416 7      6088.786    23331070.260   122605633.421 5      6088.786    23331078.600    95536815.843 5      4744.509
R24  20474993.740   109488989.131 8      2297.720    20474993.420   109488989.141 8      2297.720    20475003.700    85158148.329 8      1787.116    20475004.180    85158148.335 8      1787.116
G02  22364223.880   117524801.249 7      1802.024    22364222.600   117524801.259 6      1802.024    22364226.220    91577758.481 6      1404.174
> 2024 06 03 15 11 20.0000000  0 16
G03  20577154.840   108133693.514 8      1205.204    20577152.420   108133693.516 8      1205.204    20577159.200    84260025.172 8       939.120    20577161.180    84260042.168 8       939.120
R23  24002967.120   128399696.227 6       159.219    24002967.000   128399696.239 6       159.219
G14  22852135.160   120088786.011 7       886.927    22852134.380   120088786.021 5       886.927    22852143.920    93575710.340 5       691.112    22852144.460    93575717.336 7       691.112
R02  19449534.880   103786445.724 8      3695.946    19449534.720   103786445.727 8      3695.946    19449543.340    80722825.752 8      2874.625    19449543.760    80722826.758 8      2874.625
R03  22273086.160   119229587.222 7      6711.962    22273083.440   119229587.227 7      6711.962    22273103.740    92734198.929 7      5220.415    22273104.080    92734202.933 7      5220.415
G17  21658524.920   113816314.024 7      4835.732    21658524.080   113816314.021 6      4835.732    21658528.780    88688051.572 6      3768.103    21658529.240    88688057.575 8      3768.103
G22  23377085.000   122847420.454 7      2197.029    23377083.840   122847420.464 5      2197.029    23377092.180    95725281.331 5      1711.970
G04  21490898.860   112935440.143 7      4669.696    21490898.140   112935440.154 6      4669.696    21490905.180    88001668.276 6      3638.724    21490905.420    88001666.280 8      3638.724
G21  23400138.680   122968556.455 7      1214.272    23400136.760   122968556.462 5      1214.272    23400143.320    95819672.351 5       946.186
R01  20806709.100   111223774.987 7      -235.314    20806708.640   111223774.999 7      -235.314    20806721.920    86507434.350 7      -183.022    20806720.740    86507431.340 7      -183.022
G08  24547383.800   128997361.602 5      -776.740    24547382.840   128997361.612 2      -776.740    24547402.040   100517499.677 2      -605.252    24547403.240   100517507.584 5      -605.252
R17  21025865.880   112513659.268 7      5059.199    21025866.380   112513659.280 7      5059.199    21025877.720    87510673.607 8      3934.933    21025877.180    87510671.599 8      3934.933
G09  23273444.800   122302789.330 7      6116.409    23273443.660   122302789.332 6      6116.409    23273457.540    95300933.410 6      4766.033    23273457.620    95300932.413 7      4766.033
G19  23329913.420   122599544.701 7      6088.598    23329911.680   122599544.708 5      6088.598    23329919.940    95532071.396 5      4744.362
R24  20474564.000   109486691.605 8      2297.240    20474563.800   109486691.614 7      2297.240    20474574.160    85156361.364 8      1786.742    20474574.240    85156361.366 8      1786.742
G02  22363880.920   117522999.229 8      1801.864    22363879.700   117522999.236 6      1801.864    22363883.360    91576354.307 6      1404.050
> 2024 06 03 15 11 21.0000000  0 16
G03  20576925.680   108132488.524 8      1204.897    20576923.100   108132488.526 8      1204.897    20576929.920    84259086.217 8       938.881    20576931.880    84259103.213 8       938.881
R23  24002938.600   128399537.181 6       158.957    24002936.480   128399537.201 6       158.957
G14  22851966.440   120087899.353 7       886.382    22851965.540   120087899.366 5       886.382    22851975.300    93575019.429 5       690.687    22851975.760    93575026.415 7       690.687
R02  19448842.140   103782750.355 8      3694.952    19448842.420   103782750.351 8      3694.952    19448850.840    80719951.571 8      2873.851    19448851.160    80719952.578 8      2873.851
R03  22271832.240   119222875.407 7      6711.466    22271829.420   119222875.403 7      6711.466    22271849.800    92728978.641 7      5220.029    22271850.080    92728982.642 7      5220.029
G17  21657604.780   113811478.611 7      4835.218    21657603.940   113811478.611 6      4835.218    21657608.480    88684283.723 6      3767.702    21657608.960    88684289.729 8      3767.702
G22  23376666.780   122845223.857 7      2196.320    23376665.680   122845223.867 5      2196.320    23376674.080    95723569.695 5      1711.419
G04  21490010.360   112930770.742 7      4669.184    21490009.520   112930770.755 6      4669.184    21490016.520    87998029.788 6      3638.326    21490016.720    87998027.788 8      3638.326
G21  23399907.620   122967342.444 7      1214.042    23399905.760   122967342.449 5      1214.042    23399912.300    95818726.368 5       946.007
R01  20806753.400   111224010.914 7      -236.075    20806752.740   111224010.934 7      -236.075    20806766.000    86507617.848 7      -183.614    20806764.540    86507614.839 7      -183.614
G08  24547531.600   128998138.585 5      -776.915    24547530.720   128998138.593 2      -776.915    24547549.880   100518105.108 2      -605.388    24547550.320   100518113.011 5      -605.388
R17  21024920.480   112508600.303 7      5058.966    21024920.960   112508600.316 7      5058.966    21024932.000    87506738.863 8      3934.751    21024931.840    87506736.855 8      3934.751
G09  23272280.800   122296673.065 7      6116.090    23272279.680   122296673.064 6      6116.090    23272293.740    95296167.497 6      4765.784    23272293.840    95296166.490 7      4765.784
G19  23328755.180   122593456.366 7      6088.191    23328753.160   122593456.374 5      6088.191    23328761.360    95527327.241 5      4744.045
R24  20474134.760   109484394.699 8      2296.717    20474134.300   109484394.706 7      2296.717    20474144.500    85154574.879 8      1786.336    20474144.940    85154574.875 8      1786.336
G02  22363538.120   117521197.548 8      1801.679    22363536.960   117521197.552 6      1801.679    22363540.480    91574950.400 6      1403.906
> 2024 06 03 15 11 22.0000000  0 16
G03  20576696.360   108131283.731 8      1204.545    20576693.960   108131283.733 8      1204.545    20576700.620    84258147.415 8       938.606    20576702.500    84258164.411 8       938.606
R23  24002908.140   128399378.365 6       158.534    24002907.900   128399378.385 6       158.534
G14  22851797.600   120087012.931 7       886.254    22851796.760   120087012.944 5       886.254    22851806.680    93574328.709 5       690.587    22851806.760    93574335.699 7       690.587
R02  19448149.780   103779055.736 8      3694.187    19448149.900   103779055.734 8      3694.187    19448158.400    80717077.982 8      2873.257    19448158.880    80717078.988 8      2873.257
R03  22270578.680   119216163.830 7      6711.543    22270575.380   119216163.832 6      6711.543    22270596.060    92723758.540 7      5220.089    22270596.420    92723762.541 7      5220.089
G17  21656684.760   113806643.366 7      4834.991    21656683.920   113806643.368 6      4834.991    21656688.420    88680516.004 6      3767.525    21656688.840    88680522.005 8      3767.525
G22  23376248.760   122843027.575 7      2196.121    23376247.780   122843027.586 5      2196.121    23376256.220    95721858.309 5      1711.263
G04  21489122.060   112926101.714 7      4668.892    21489121.080   112926101.724 6      4668.892    21489128.020    87994391.584 6      3638.098    21489128.420    87994389.588 8      3638.098
G21  23399676.680   122966128.379 7      1213.890    23399674.760   122966128.389 5      1213.890    23399681.200    95817780.341 5       945.888
R01  20806797.780   111224247.247 7      -236.763    20806796.760   111224247.257 7      -236.763    20806810.120    86507801.655 7      -184.149    20806808.820    86507798.643 7      -184.149
G08  24547679.080   128998915.666 5      -777.069    24547678.580   128998915.668 2      -777.069    24547697.720   100518710.611 2      -605.508    24547698.320   100518718.535 5      -605.508
R17  21023975.300   112503541.253 7      5058.899    21023975.940   112503541.262 7      5058.899    21023986.820    87502804.042 8      3934.699    21023986.320    87502802.038 8      3934.699
G09  23271117.340   122290556.818 7      6116.295    23271115.800   122290556.820 6      6116.295    23271130.020    95291401.603 6      4765.944    23271130.300    95291400.610 7      4765.944
G19  23327596.760   122587367.945 7      6088.276    23327594.580   122587367.950 5      6088.276    23327602.680    95522583.025 5      4744.111
R24  20473705.360   109482098.047 7      2296.314    20473704.940   109482098.056 7      2296.314    20473714.940    85152788.592 8      1786.022    20473715.520    85152788.595 8      1786.022
G02  22363195.140   117519395.856 8      1801.548    22363194.120   117519395.864 6      1801.548    22363197.720    91573546.484 6      1403.804
> 2024 06 03 15 11 23.0000000  0 16
G03  20576467.100   108130079.382 8      1204.163    20576464.700   108130079.384 8      1204.163    20576471.460    84257208.963 8       938.309    20576473.520    84257225.959 8       938.309
R23  24002878.560   128399219.829 6       158.350    24002877.380   128399219.858 6       158.350
G14  22851628.900   120086126.921 7       885.861    22851628.100   120086126.937 5       885.861    22851638.160    93573638.308 5       690.281    22851638.000    93573645.298 7       690.281
R02  19447457.660   103775362.027 8      3693.299    19447457.640   103775362.030 8      3693.299    19447466.260    80714205.106 8      2872.566    19447466.540    80714206.109 8      2872.566
R03  22269325.100   119209452.614 7      6711.082    22269322.020   119209452.624 6      6711.082    22269342.360    92718538.735 7      5219.730    22269342.440    92718542.734 7      5219.730
G17  21655764.800   113801808.557 7      4834.614    21655763.780   113801808.557 6      4834.614    21655768.480    88676748.623 6      3767.231    21655768.600    88676754.622 8      3767.231
G22  23375831.160   122840831.832 7      2195.641    23375829.980   122840831.848 5      2195.641    23375838.520    95720147.342 5      1710.889
G04  21488233.440   112921433.230 7      4668.285    21488232.720   112921433.240 6      4668.285    21488239.640    87990753.811 6      3637.624    21488239.840    87990751.811 8      3637.624
G21  23399445.660   122964914.474 7      1213.864    23399443.660   122964914.481 5      1213.864    23399450.220    95816834.437 5       945.868
R01  20806841.820   111224484.230 7      -237.227    20806840.860   111224484.245 7      -237.227    20806854.620    86507985.979 7      -184.510    20806853.500    86507982.969 7      -184.510
G08  24547828.240   128999692.843 5      -777.167    24547826.460   128999692.845 2      -777.167    24547845.720   100519316.192 2      -605.585    24547846.360   100519324.122 5      -605.585
R17  21023029.900   112498482.422 7      5058.689    21023030.440   112498482.439 7      5058.689    21023041.440    87498869.408 8      3934.536    21023041.120    87498867.404 8      3934.536
G09  23269953.180   122284440.761 7      6116.033    23269951.920   122284440.761 6      6116.033    23269966.040    95286635.854 6      4765.740    23269966.720    95286634.862 7      4765.740
G19  23326438.140   122581279.808 7      6088.084    23326436.020   122581279.810 5      6088.084    23326444.080    95517839.028 5      4743.961
R24  20473275.960   109479801.874 8      2295.998    20473275.720   109479801.878 7      2295.998    20473285.600    85151002.675 8      1785.776    20473286.000    85151002.674 8      1785.776
G02  22362852.300   117517594.396 8      1801.437    22362851.340   117517594.403 6      1801.437    22362854.860    91572142.749 6      1403.717
> 2024 06 03 15 11 24.0000000  0 16
G03  20576237.920   108128875.427 8      1203.789    20576235.580   108128875.426 8      1203.789    20576242.300    84256270.813 8       938.018    20576244.320    84256287.810 8       938.018
R23  24002848.900   128399061.596 6       158.170    24002847.960   128399061.595 6       158.170
G14  22851460.480   120085241.319 7       885.398    22851459.720   120085241.332 5       885.398    22851469.660    93572948.220 5       689.920    22851469.600    93572955.212 7       689.920
R02  19446765.440   103771669.182 8      3692.304    19446765.720   103771669.183 8      3692.304    19446774.180    80711332.889 8      2871.792    19446774.460    80711333.894 8      2871.792
R03  22268071.600   119202741.754 7      6710.574    22268068.180   119202741.753 6      6710.574    22268088.700    92713319.185 7      5219.336    22268088.740    92713323.187 7      5219.336
G17  21654844.960   113796974.148 7      4834.177    21654843.820   113796974.145 6      4834.177    21654848.460    88672981.551 6      3766.891    21654849.000    88672987.550 8      3766.891
G22  23375413.400   122838636.644 7      2194.927    23375412.320   122838636.662 5      2194.927    23375420.840    95718436.802 5      1710.333
G04  21487345.100   112916765.214 7      4667.637    21487344.480   112916765.226 6      4667.637    21487351.200    87987116.395 6      3637.120    21487351.560    87987114.401 8      3637.120
G21  23399214.460   122963700.686 7      1213.627    23399212.820   122963700.697 5      1213.627    23399219.340    95815888.623 5       945.684
R01  20806886.360   111224721.867 7      -237.991    20806885.460   111224721.882 7      -237.991    20806899.180    86508170.804 7      -185.104    20806897.600    86508167.794 7      -185.104
G08  24547975.320   129000470.137 5      -777.005    24547974.400   129000470.141 2      -777.005    24547993.700   100519921.867 2      -605.459    24547995.080   100519929.799 5      -605.459
R17  21022084.460   112493423.757 7      5058.574    21022084.820   112493423.772 7      5058.574    21022095.940    87494934.893 8      3934.446    21022095.840    87494932.885 8      3934.446
G09  23268789.660   122278324.830 7      6115.706    23268788.180   122278324.832 6      6115.706    23268802.200    95281870.210 6      4765.486    23268802.740    95281869.213 7      4765.486
G19  23325279.580   122575191.902 7      6087.816    23325277.500   122575191.907 5      6087.816    23325285.740    95513095.210 5      4743.753
R24  20472846.700   109477506.171 7      2295.329    20472846.220   109477506.172 7      2295.329    20472856.160    85149217.127 7      1785.256    20472856.820    85149217.125 8      1785.256
G02  22362509.740   117515793.119 8      1801.122    22362508.620   117515793.127 6      1801.122    22362511.960    91570739.159 6      1403.472
> 2024 06 03 15 11 25.0000000  0 16
G03  20576009.000   108127671.819 8      1203.341    20576006.580   108127671.823 8      1203.341    20576013.320    84255332.938 8       937.669    20576015.220    84255349.936 8       937.669
R23  24002819.780   128398903.649 6       157.623    24002817.920   128398903.670 6       157.623
G14  22851292.240   120084356.035 7       884.947    22851291.160   120084356.045 5       884.947    22851301.140    93572258.380 5       689.569    22851301.580    93572265.384 7       689.569
R02  19446073.580   103767977.122 8      3691.559    19446073.860   103767977.123 8      3691.559    19446082.340    80708461.286 8      2871.213    19446082.540    80708462.290 8      2871.213
R03  22266817.940   119196031.175 7      6710.275    22266814.840   119196031.174 6      6710.275    22266834.960    92708099.863 7      5219.103    22266835.260    92708103.864 7      5219.103
G17  21653925.120   113792140.062 7      4833.767    21653923.920   113792140.062 6      4833.767    21653928.480    88669214.734 6      3766.572    21653929.100    88669220.736 8      3766.572
G22  23374995.660   122836441.899 7      2194.360    23374994.720   122836441.915 5      2194.360    23375003.080    95716726.613 5      1709.891
G04  21486457.020   112912097.617 7      4667.310    21486456.200   112912097.633 6      4667.310    21486462.920    87983479.318 6      3636.865    21486463.360    87983477.322 8      3636.865
G21  23398983.540   122962486.952 7      1213.659    23398981.980   122962486.957 5      1213.659    23398988.400    95814942.851 5       945.708
R01  20806930.980   111224960.061 7      -238.617    20806930.300   111224960.073 7      -238.617    20806943.600    86508356.057 7      -185.591    20806942.260    86508353.049 7      -185.591
G08  24548124.220   129001247.519 5      -777.146    24548122.360   129001247.524 2      -777.146    24548141.700   100520527.611 2      -605.568    24548141.760   100520535.560 5      -605.568
R17  21021139.260   112488365.172 7      5058.387    21021138.980   112488365.187 7      5058.387    21021150.320    87491000.444 8      3934.301    21021150.100    87490998.438 8      3934.301
G09  23267625.960   122272208.959 7      6115.707    23267624.420   122272208.956 6      6115.707    23267638.280    95277104.609 6      4765.486    23267638.960    95277103.610 7      4765.486
G19  23324120.940   122569104.125 7      6087.632    23324118.980   122569104.132 5      6087.632    23324127.260    95508351.493 5      4743.609
R24  20472417.380   109475210.845 7      2295.058    20472416.720   109475210.844 7      2295.058    20472427.100    85147431.871 8      1785.045    20472427.400    85147431.872 8      1785.045
G02  22362166.880   117513991.943 8      1801.056    22362165.960   117513991.950 6      1801.056    22362169.220    91569335.647 6      1403.420
> 2024 06 03 15 11 26.0000000  0 16
G03  20575779.960   108126468.610 8      1202.878    20575777.620   108126468.612 8      1202.878    20575784.320    84254395.373 8       937.308    20575786.260    84254412.371 8       937.308
R23  24002790.220   128398746.122 6       157.117    24002789.680   128398746.143 6       157.117
G14  22851123.660   120083471.224 7       884.606    22851122.580   120083471.239 5       884.606    22851132.840    93571568.912 5       689.304    22851133.400    93571575.908 7       689.304
R02  19445382.080   103764286.073 8      3690.439    19445382.220   103764286.071 8      3690.439    19445390.640    80705590.470 8      2870.341    19445390.940    80705591.476 8      2870.341
R03  22265564.680   119189321.103 7      6709.775    22265561.160   119189321.101 6      6709.775    22265581.260    92702880.938 7      5218.714    22265581.520    92702884.944 7      5218.714
G17  21653005.080   113787306.346 7      4833.462    21653004.140   113787306.346 6      4833.462    21653008.800    88665448.207 6      3766.334    21653009.440    88665454.208 8      3766.334
G22  23374578.200   122834247.672 7      2194.041    23374577.160   122834247.685 5      2194.041    23374585.480    95715016.824 5      1709.642
G04  21485568.920   112907430.665 7      4666.481    21485568.160   112907430.678 6      4666.481    21485574.880    87979842.740 6      3636.219    21485575.140    87979840.739 8      3636.219
G21  23398752.500   122961273.396 7      1213.338    23398750.860   122961273.398 5      1213.338    23398757.360    95813997.223 5       945.458
R01  20806975.540   111225198.842 7      -239.227    20806974.740   111225198.859 7      -239.227    20806988.160    86508541.778 7      -186.066    20806987.100    86508538.766 7      -186.066
G08  24548271.780   129002025.372 5      -778.488    24548270.360   129002025.380 3      -778.488    24548289.800   100521133.720 2      -606.614    24548291.320   100521141.626 5      -606.614
R17  21020193.840   112483306.731 7      5058.277    21020193.620   112483306.741 7      5058.277    21020204.900    87487066.106 8      3934.216    21020204.860    87487064.098 8      3934.216
G09  23266462.420   122266093.388 7      6115.328    23266460.660   122266093.390 6      6115.328    23266474.500    95272339.243 6      4765.191    23266475.320    95272338.252 7      4765.191
G19  23322962.540   122563016.550 7      6087.362    23322960.540   122563016.557 5      6087.362    23322968.680    95503607.932 5      4743.399
R24  20471988.080   109472916.022 7      2294.490    20471987.620   109472916.028 7      2294.490    20471997.900    85145647.015 8      1784.603    20471998.160    85145647.020 8      1784.603
G02  22361824.240   117512191.000 8      1800.674    22361823.260   117512191.005 6      1800.674    22361826.560    91567932.317 6      1403.123
> 2024 06 03 15 11 27.0000000  0 16
G03  20575551.060   108125265.830 8      1202.675    20575548.680   108125265.832 8      1202.675    20575555.440    84253458.142 8       937.150    20575557.580    84253475.139 8       937.150
R23  24002760.100   128398588.949 6       156.770    24002760.260   128398588.993 6       156.770
G14  22850955.240   120082586.793 6       884.201    22850954.180   120082586.809 5       884.201    22850964.640    93570879.744 5       688.987    22850964.740    93570886.736 7       688.987
R02  19444690.660   103760595.931 8      3689.696    19444690.640   103760595.926 8      3689.696    19444698.940    80702720.360 8      2869.764    19444699.540    80702721.365 8      2869.764
R03  22264311.280   119182611.316 7      6709.524    22264308.040   119182611.320 6      6709.524    22264327.800    92697662.240 7      5218.519    22264328.220    92697666.239 7      5218.519
G17  21652085.300   113782473.080 7      4833.077    21652084.400   113782473.082 6      4833.077    21652089.160    88661682.029 6      3766.034    21652089.700    88661688.037 8      3766.034
G22  23374160.800   122832054.002 7      2193.319    23374159.680   122832054.020 5      2193.319    23374168.080    95713307.467 5      1709.080
G04  21484680.920   112902764.194 7      4666.158    21484680.120   112902764.204 6      4666.158    21484686.960    87976206.530 6      3635.967    21484687.300    87976204.524 8      3635.967
G21  23398521.420   122960060.014 7      1213.445    23398520.020   122960060.018 5      1213.445    23398526.580    95813051.731 5       945.541
R01  20807020.280   111225438.313 7      -239.672    20807019.580   111225438.333 7      -239.672    20807032.980    86508728.035 7      -186.411    20807031.940    86508725.025 7      -186.411
G08  24548420.000   129002803.141 5      -778.244    24548418.260   129002803.149 3      -778.244    24548437.760   100521739.764 2      -606.424    24548439.260   100521747.700 5      -606.424
R17  21019248.400   112478248.545 7      5058.199    21019248.160   112478248.552 7      5058.199    21019259.680    87483131.959 8      3934.155    21019259.620    87483129.951 8      3934.155
G09  23265298.680   122259977.919 7      6115.285    23265297.040   122259977.927 6      6115.285    23265310.720    95267573.961 6      4765.157    23265311.820    95267572.964 7      4765.157
G19  23321804.280   122556929.203 7      6087.270    23321802.060   122556929.214 5      6087.270    23321810.480    95498864.552 5      4743.328
R24  20471559.200   109470621.707 8      2294.149    20471558.480   109470621.713 7      2294.149    20471568.860    85143862.548 8      1784.338    20471569.440    85143862.550 8      1784.338
G02  22361481.400   117510390.270 8      1800.728    22361480.520   117510390.275 6      1800.728    22361483.960    91566529.147 6      1403.165
> 2024 06 03 15 11 28.0000000  0 16
G03  20575322.440   108124063.525 8      1202.114    20575320.020   108124063.530 8      1202.114    20575326.700    84252521.281 7       936.712    20575328.780    84252538.281 8       936.712
R23  24002730.400   128398432.216 6       156.573    24002731.420   128398432.247 6       156.573
G14  22850787.320   120081702.959 6       883.619    22850785.860   120081702.975 5       883.619    22850796.420    93570191.032 5       688.534    22850796.400    93570198.026 7       688.534
R02  19443999.200   103756906.843 8      3688.638    19443999.160   103756906.846 8      3688.638    19444007.760    80699851.078 7      2868.941    19444008.040    80699852.081 8      2868.941
R03  22263057.300   119175902.161 7      6708.939    22263054.680   119175902.157 6      6708.939    22263074.360    92692444.015 7      5218.063    22263074.860    92692448.020 7      5218.063
G17  21651165.660   113777640.271 7      4832.653    21651164.700   113777640.271 6      4832.653    21651169.380    88657916.204 6      3765.704    21651169.880    88657922.205 7      3765.704
G22  23373743.200   122829860.976 7      2192.778    23373742.400   122829860.989 5      2192.778    23373750.800    95711598.609 5      1708.659
G04  21483793.260   112898098.387 7      4665.498    21483792.320   112898098.400 6      4665.498    21483799.020    87972570.834 6      3635.453    21483799.420    87972568.836 8      3635.453
G21  23398290.740   122958846.855 7      1212.934    23398289.320   122958846.862 5      1212.934    23398295.720    95812106.412 5       945.144
R01  20807065.380   111225678.455 7      -240.569    20807064.520   111225678.472 7      -240.569    20807077.920    86508914.804 7      -187.109    20807076.860    86508911.796 7      -187.109
G08  24548568.140   129003581.312 5      -778.381    24548566.360   129003581.319 3      -778.381    24548585.860   100522346.116 2      -606.530    24548588.780   100522354.030 5      -606.530
R17  21018302.960   112473190.578 7      5057.745    21018303.060   112473190.580 7      5057.745    21018314.560    87479197.985 8      3933.802    21018314.400    87479195.981 7      3933.802
G09  23264134.840   122253862.842 7      6114.968    23264133.320   122253862.844 6      6114.968    23264147.140    95262808.970 6      4764.910    23264148.440    95262807.971 7      4764.910
G19  23320645.720   122550842.149 7      6086.910    23320643.620   122550842.156 5      6086.910    23320652.000    95494121.403 5      4743.047
R24  20471130.300   109468327.926 7      2293.463    20471129.660   109468327.928 7      2293.463    20471139.980    85142078.494 7      1783.805    20471140.620    85142078.497 7      1783.805
G02  22361138.900   117508589.808 7      1800.301    22361137.940   117508589.813 6      1800.301    22361141.300    91565126.188 6      1402.832
> 2024 06 03 15 11 29.0000000  0 16
G03  20575093.660   108122861.722 8      1201.779    20575091.340   108122861.729 8      1201.779    20575097.940    84251584.811 8       936.451    20575100.040    84251601.811 8       936.451
R23  24002701.160   128398275.895 6       156.419    24002701.780   128398275.913 6       156.419
G14  22850618.800   120080819.562 7       883.354    22850618.080   120080819.577 5       883.354    22850628.280    93569502.662 5       688.327    22850628.520    93569509.662 7       688.327
R02  19443308.080   103753218.702 8      3687.890    19443308.080   103753218.703 8      3687.890    19443316.640    80696982.522 8      2868.359    19443316.840    80696983.527 8      2868.359
R03  22261804.520   119169193.378 7      6708.638    22261801.320   119169193.377 6      6708.638    22261821.140    92687226.091 7      5217.829    22261821.500    92687230.095 7      5217.829
G17  21650246.020   113772807.974 7      4832.235    21650245.200   113772807.976 6      4832.235    21650249.900    88654150.784 6      3765.378    21650250.400    88654156.788 8      3765.378
G22  23373326.000   122827668.555 7      2192.253    23373325.160   122827668.573 5      2192.253    23373333.520    95709890.232 5      1708.249
G04  21482905.580   112893433.121 7      4665.189    21482904.560   112893433.132 6      4665.189    21482911.300    87968935.569 6      3635.212    21482911.520    87968933.571 8      3635.212
G21  23398060.060   122957633.866 7      1213.145    23398058.440   122957633.868 5      1213.145    23398064.780    95811161.228 5       945.308
R01  20807110.380   111225919.300 7      -240.927    20807109.680   111225919.312 7      -240.927    20807123.180    86509102.119 7      -187.388    20807122.080    86509099.109 7      -187.388
G08  24548715.980   129004359.662 5      -778.398    24548714.480   129004359.669 3      -778.398    24548733.980   100522952.610 2      -606.544    24548736.860   100522960.520 5      -606.544
R17  21017357.660   112468132.839 7      5057.833    21017357.840   112468132.846 7      5057.833    21017369.380    87475264.198 8      3933.870    21017369.540    87475262.192 8      3933.870
G09  23262971.100   122247747.936 7      6114.928    23262969.560   122247747.935 6      6114.928    23262983.560    95258044.118 6      4764.879    23262984.400    95258043.119 7      4764.879
G19  23319487.320   122544755.404 7      6086.821    23319485.320   122544755.406 5      6086.821    23319493.720    95489378.487 5      4742.977
R24  20470701.460   109466034.702 7      2293.182    20470700.740   109466034.703 7      2293.182    20470711.300    85140294.875 8      1783.586    20470711.540    85140294.880 8      1783.586
G02  22360796.460   117506789.604 7      1800.284    22360795.380   117506789.609 6      1800.284    22360798.720    91563723.429 6      1402.819
> 2024 06 03 15 11 30.0000000  0 16
G03  20574865.080   108121660.161 8      1201.437    20574862.640   108121660.163 8      1201.437    20574869.280    84250648.523 8       936.185    20574871.500    84250665.521 8       936.185
R23  24002671.840   128398119.783 6       156.053    24002672.760   128398119.801 6       156.053
G14  22850450.900   120079936.416 6       883.046    22850449.880   120079936.434 5       883.046    22850460.180    93568814.490 5       688.088    22850460.580    93568821.494 7       688.088
R02  19442617.220   103749531.300 8      3687.081    19442617.120   103749531.296 8      3687.081    19442625.480    80694114.542 8      2867.729    19442626.080    80694115.546 8      2867.729
R03  22260551.560   119162484.842 7      6708.457    22260548.240   119162484.833 6      6708.457    22260568.020    92682008.349 7      5217.689    22260568.340    92682012.348 7      5217.689
G17  21649326.620   113767975.890 7      4831.953    21649325.740   113767975.893 6      4831.953    21649330.280    88650385.526 6      3765.159    21649330.680    88650391.529 8      3765.159
G22  23372909.120   122825476.472 7      2191.821    23372908.040   122825476.487 5      2191.821    23372916.400    95708182.112 5      1707.912
G04  21482017.800   112888768.258 7      4664.711    21482016.780   112888768.268 6      4664.711    21482023.620    87965300.610 6      3634.840    21482023.680    87965298.614 8      3634.840
G21  23397829.100   122956420.912 7      1213.008    23397827.560   122956420.914 5      1213.008    23397833.840    95810216.061 5       945.201
R01  20807155.740   111226160.634 7      -241.564    20807154.280   111226160.651 7      -241.564    20807168.460    86509289.827 7      -187.883    20807167.360    86509286.818 7      -187.883
G08  24548863.160   129005138.077 5      -778.786    24548862.600   129005138.084 3      -778.786    24548882.340   100523559.157 3      -606.846    24548884.260   100523567.067 5      -606.846
R17  21016412.840   112463075.083 7      5057.830    21016412.700   112463075.088 7      5057.830    21016424.320    87471330.388 8      3933.868    21016424.160    87471328.382 8      3933.868
G09  23261807.560   122241633.058 7      6114.891    23261806.080   122241633.058 6      6114.891    23261819.840    95253279.291 6      4764.850    23261820.660    95253278.294 7      4764.850
G19  23318329.360   122538668.688 7      6086.696    23318327.020   122538668.690 5      6086.696    23318335.380    95484635.597 5      4742.880
R24  20470272.440   109463741.807 8      2292.819    20470272.280   109463741.808 7      2292.819    20470282.440    85138511.510 8      1783.303    20470282.920    85138511.515 8      1783.303
G02  22360453.740   117504989.460 7      1800.151    22360452.760   117504989.462 6      1800.151    22360456.140    91562320.719 6      1402.715
> 2024 06 03 15 11 31.0000000  0 16
G03  20574636.320   108120459.070 8      1200.791    20574634.180   108120459.067 8      1200.791    20574640.620    84249712.606 8       935.681    20574642.840    84249729.602 8       935.681
R23  24002642.160   128397964.022 6       155.643    24002643.340   128397964.052 6       155.643
G14  22850283.460   120079053.809 7       882.366    22850281.940   120079053.827 5       882.366    22850292.280    93568126.738 5       687.558    22850292.500    93568133.737 7       687.558
R02  19441926.180   103745844.878 8      3685.862    19441926.220   103745844.876 8      3685.862    19441934.720    80691247.327 8      2866.782    19441934.980    80691248.330 8      2866.782
R03  22259298.200   119155776.792 7      6707.891    22259295.400   119155776.799 6      6707.891    22259314.740    92676791.002 7      5217.248    22259314.880    92676795.008 7      5217.248
G17  21648407.180   113763144.300 7      4831.348    21648406.280   113763144.300 6      4831.348    21648410.840    88646620.651 6      3764.687    21648411.460    88646626.654 8      3764.687
G22  23372492.220   122823285.030 7      2191.169    23372491.100   122823285.043 5      2191.169    23372499.340    95706474.493 5      1707.405
G04  21481130.240   112884103.973 7      4663.991    21481129.240   112884103.980 6      4663.991    21481136.000    87961666.102 6      3634.279    21481136.300    87961664.106 8      3634.279
G21  23397598.500   122955208.118 7      1212.630    23397596.820   122955208.120 5      1212.630    23397603.100    95809271.027 5       944.906
R01  20807201.060   111226402.657 7      -242.418    20807199.560   111226402.669 7      -242.418    20807213.380    86509478.064 7      -188.547    20807212.100    86509475.052 7      -188.547
G08  24549011.800   129005916.663 5      -778.796    24549010.740   129005916.673 3      -778.796    24549030.500   100524165.837 3      -606.854    24549032.580   100524173.761 5      -606.854
R17  21015467.560   112458017.585 7      5057.321    21015467.640   112458017.592 7      5057.321    21015479.080    87467396.784 8      3933.472    21015478.940    87467394.782 8      3933.472
G09  23260643.900   122235518.446 7      6114.444    23260642.460   122235518.446 6      6114.444    23260656.420    95248514.668 6      4764.502    23260656.840    95248513.673 7      4764.502
G19  23317171.120   122532582.272 7      6086.325    23317168.800   122532582.277 5      6086.325    23317177.160    95479892.944 5      4742.591
R24  20469844.000   109461449.422 8      2292.060    20469843.620   109461449.429 7      2292.060    20469853.780    85136728.546 8      1782.713    20469854.300    85136728.551 8      1782.713
G02  22360111.380   117503189.542 8      1799.735    22360110.260   117503189.547 6      1799.735    22360113.660    91560918.186 6      1402.391
> 2024 06 03 15 11 32.0000000  0 16
G03  20574407.960   108119258.486 8      1200.325    20574405.700   108119258.491 8      1200.325    20574412.320    84248777.088 8       935.318    20574414.380    84248794.090 8       935.318
R23  24002613.080   128397808.808 6       154.998    24002614.560   128397808.826 6       154.998
G14  22850115.200   120078171.636 7       881.756    22850114.060   120078171.654 5       881.756    22850124.480    93567439.326 5       687.082    22850124.920    93567446.327 7       687.082
R02  19441235.520   103742159.469 8      3684.795    19441235.640   103742159.470 8      3684.795    19441244.000    80688380.904 8      2865.952    19441244.300    80688381.907 8      2865.952
R03  22258045.000   119149069.230 7      6707.026    22258042.440   119149069.229 6      6707.026    22258061.580    92671574.028 7      5216.575    22258062.140    92671578.027 7      5216.575
G17  21647487.880   113758313.194 7      4830.746    21647486.940   113758313.193 6      4830.746    21647491.600    88642856.156 6      3764.218    21647492.000    88642862.158 8      3764.218
G22  23372075.400   122821094.150 7      2190.482    23372074.000   122821094.166 5      2190.482    23372082.520    95704767.312 5      1706.869
G04  21480242.980   112879440.331 7      4663.215    21480241.860   112879440.341 6      4663.215    21480248.440    87958032.104 6      3633.674    21480248.980    87958030.104 8      3633.674
G21  23397367.720   122953995.637 7      1212.262    23397366.080   122953995.639 5      1212.262    23397372.460    95808326.234 5       944.620
R01  20807246.420   111226645.467 7      -243.186    20807244.720   111226645.481 7      -243.186    20807259.020    86509666.913 7      -189.145    20807258.100    86509663.902 7      -189.145
G08  24549158.960   129006695.543 5      -779.221    24549158.920   129006695.559 3      -779.221    24549178.780   100524772.745 3      -607.186    24549180.180   100524780.691 5      -607.186
R17  21014522.660   112452960.383 7      5057.067    21014522.440   112452960.385 7      5057.067    21014534.100    87463463.405 8      3933.274    21014533.880    87463461.401 8      3933.274
G09  23259480.580   122229404.094 7      6113.945    23259478.880   122229404.091 6      6113.945    23259492.820    95243750.254 6      4764.113    23259493.440    95243749.256 7      4764.113
G19  23316012.800   122526496.161 7      6085.984    23316010.620   122526496.168 5      6085.984    23316019.160    95475150.523 5      4742.325
R24  20469414.720   109459157.639 7      2291.369    20469414.540   109459157.648 7      2291.369    20469425.260    85134946.052 8      1782.176    20469425.240    85134946.057 8      1782.176
G02  22359768.880   117501389.982 8      1799.371    22359767.820   117501389.984 6      1799.371    22359771.080    91559515.931 6      1402.108
> 2024 06 03 15 11 33.0000000  0 16
G03  20574179.540   108118058.535 8      1199.668    20574177.300   108118058.535 8      1199.668    20574183.900    84247842.060 8       934.806    20574185.820    84247859.058 8       934.806
R23  24002584.420   128397654.095 6       154.598    24002585.620   128397654.126 6       154.598
G14  22849947.680   120077290.114 7       881.335    22849946.220   120077290.135 5       881.335    22849956.700    93566752.422 5       686.755    22849957.220    93566759.421 7       686.755
R02  19440545.380   103738475.184 8      3683.839    19440545.180   103738475.182 8      3683.839    19440553.520    80685515.345 8      2865.208    19440554.140    80685516.348 8      2865.208
R03  22256791.880   119142362.240 7      6706.735    22256789.160   119142362.250 7      6706.735    22256808.640    92666357.506 7      5216.349    22256809.240    92666361.503 7      5216.349
G17  21646568.600   113753482.700 7      4830.306    21646567.800   113753482.697 6      4830.306    21646572.380    88639092.135 6      3763.875    21646572.800    88639098.136 8      3763.875
G22  23371658.600   122818904.059 7      2189.755    23371657.380   122818904.077 5      2189.755    23371665.640    95703060.745 5      1706.303
G04  21479355.340   112874777.425 7      4662.584    21479354.540   112874777.432 6      4662.584    21479361.160    87954398.673 6      3633.182    21479361.540    87954396.673 8      3633.182
G21  23397137.240   122952783.461 7      1212.139    23397135.420   122952783.468 5      1212.139    23397141.820    95807381.679 5       944.524
R01  20807292.260   111226889.094 7      -243.938    20807290.620   111226889.100 7      -243.938    20807304.660    86509856.395 7      -189.729    20807303.580    86509853.385 7      -189.729
G08  24549308.320   129007474.873 5      -779.408    24549307.380   129007474.886 3      -779.408    24549326.920   100525379.998 3      -607.331    24549327.980   100525387.916 5      -607.331
R17  21013577.940   112447903.575 7      5056.736    21013577.320   112447903.579 7      5056.736    21013589.000    87459530.338 8      3933.017    21013588.940    87459528.337 8      3933.017
G09  23258317.300   122223290.118 7      6113.836    23258315.380   122223290.115 6      6113.836    23258329.380    95238986.131 6      4764.028    23258329.600    95238985.133 7      4764.028
G19  23314854.880   122520410.488 7      6085.542    23314852.440   122520410.493 5      6085.542    23314861.020    95470408.447 5      4741.981
R24  20468986.780   109456866.505 7      2290.905    20468986.240   109456866.509 7      2290.905    20468996.820    85133164.056 8      1781.815    20468996.900    85133164.062 8      1781.815
G02  22359426.780   117499590.791 8      1799.106    22359425.520   117499590.799 6      1799.106    22359428.680    91558113.969 6      1401.901
> 2024 06 03 15 11 34.0000000  0 16
G03  20573951.440   108116858.992 8      1199.214    20573949.140   108116858.994 8      1199.214    20573955.640    84246907.351 8       934.453    20573957.880    84246924.353 8       934.453
R23  24002555.580   128397499.786 6       153.998    24002556.040   128397499.806 6       153.998
G14  22849779.940   120076409.123 7       880.722    22849778.600   120076409.139 5       880.722    22849788.900    93566065.928 5       686.277    22849789.540    93566072.920 7       686.277
R02  19439854.600   103734791.864 8      3682.785    19439854.680   103734791.862 8      3682.785    19439863.340    80682650.545 8      2864.388    19439863.440    80682651.546 8      2864.388
R03  22255539.240   119135655.773 7      6706.165    22255536.740   119135655.790 7      6706.165    22255556.220    92661141.381 7      5215.906    22255555.980    92661145.386 7      5215.906
G17  21645649.420   113748652.628 7      4829.842    21645648.660   113748652.628 6      4829.842    21645653.260    88635328.449 6      3763.513    21645653.800    88635334.454 8      3763.513
G22  23371242.120   122816714.554 7      2189.249    23371240.780   122816714.567 5      2189.249    23371249.000    95701354.635 5      1705.908
G04  21478468.000   112870115.089 7      4661.908    21478467.180   112870115.097 6      4661.908    21478473.920    87950765.688 6      3632.655    21478474.420    87950763.690 8      3632.655
G21  23396906.540   122951571.455 7      1211.834    23396904.880   122951571.462 5      1211.834    23396911.100    95806437.255 5       944.286
R01  20807337.920   111227133.341 7      -244.570    20807335.780   111227133.345 7      -244.570    20807350.720    86510046.363 7      -190.221    20807349.120    86510043.351 7      -190.221
G08  24549457.260   129008254.400 5      -779.423    24549455.660   129008254.412 3      -779.423    24549475.360   100525987.412 3      -607.343    24549476.900   100525995.327 5      -607.343
R17  21012632.840   112442846.919 7      5056.472    21012632.620   112442846.926 7      5056.472    21012643.860    87455597.390 8      3932.812    21012643.940    87455595.388 8      3932.812
G09  23257153.720   122217176.412 7      6113.577    23257151.960   122217176.414 6      6113.577    23257166.120    95234222.215 6      4763.827    23257166.320    95234221.220 7      4763.827
G19  23313696.800   122514325.028 7      6085.351    23313694.700   122514325.028 5      6085.351    23313703.020    95465666.536 5      4741.832
R24  20468558.300   109454575.888 7      2290.227    20468558.000   109454575.900 7      2290.227    20468568.400    85131382.464 8      1781.287    20468568.840    85131382.471 8      1781.287
G02  22359084.280   117497791.822 8      1798.726    22359083.180   117497791.829 6      1798.726    22359086.360    91556712.170 6      1401.605
> 2024 06 03 15 11 35.0000000  0 16
G03  20573723.140   108115659.759 8      1199.214    20573720.940   108115659.761 8      1199.214    20573727.460    84245972.879 8       934.452    20573729.540    84245989.879 8       934.452
R23  24002527.400   128397345.693 6       154.116    24002528.180   128397345.735 6       154.116
G14  22849612.480   120075528.287 6       880.915    22849611.020   120075528.305 5       880.915    22849621.240    93565379.558 5       686.427    22849622.000    93565386.542 7       686.427
R02  19439164.640   103731109.321 8      3682.366    19439164.360   103731109.314 8      3682.366    19439173.280    80679786.342 8      2864.063    19439173.380    80679787.341 8      2864.063
R03  22254286.700   119128949.417 7      6706.508    22254284.500   119128949.432 6      6706.508    22254303.320    92655925.341 7      5216.173    22254303.260    92655929.349 7      5216.173
G17  21644730.280   113743822.830 7      4829.871    21644729.500   113743822.830 6      4829.871    21644734.160    88631564.970 6      3763.536    21644734.640    88631570.973 8      3763.536
G22  23370825.500   122814525.369 7      2189.224    23370824.180   122814525.385 5      2189.224    23370832.520    95699648.773 5      1705.889
G04  21477580.920   112865453.127 7      4662.013    21477580.140   112865453.139 6      4662.013    21477586.880    87947132.994 6      3632.737    21477587.280    87947130.992 8      3632.737
G21  23396675.900   122950359.520 7      1212.194    23396674.300   122950359.525 5      1212.194    23396680.540    95805492.886 5       944.567
R01  20807383.540   111227378.168 7      -244.885    20807381.560   111227378.172 7      -244.885    20807396.200    86510236.780 7      -190.466    20807395.260    86510233.772 7      -190.466
G08  24549605.940   129009033.932 5      -779.128    24549604.020   129009033.939 3      -779.128    24549623.660   100526594.827 3      -607.113    24549624.720   100526602.751 5      -607.113
R17  21011687.900   112437790.360 8      5056.643    21011687.980   112437790.356 7      5056.643    21011699.180    87451664.504 8      3932.945    21011699.120    87451662.498 8      3932.945
G09  23255990.080   122211062.691 7      6113.953    23255988.640   122211062.688 6      6113.953    23256002.680    95229458.285 6      4764.120    23256003.100    95229457.288 7      4764.120
G19  23312538.880   122508239.660 7      6085.442    23312536.640   122508239.665 5      6085.442    23312545.040    95460924.701 5      4741.903
R24  20468129.660   109452285.661 7      2290.216    20468129.500   109452285.668 7      2290.216    20468140.160    85129601.175 8      1781.279    20468140.460    85129601.179 8      1781.279
G02  22358742.040   117495992.994 8      1798.838    22358740.880   117495992.999 6      1798.838    22358744.020    91555310.482 6      1401.692
> 2024 06 03 15 11 36.0000000  0 16
G03  20573494.940   108114460.717 8      1198.797    20573492.740   108114460.719 8      1198.797    20573499.340    84245038.563 8       934.127    20573501.380    84245055.563 8       934.127
R23  24002498.180   128397191.678 6       153.888    24002499.120   128397191.714 6       153.888
G14  22849444.960   120074647.701 6       880.303    22849443.280   120074647.719 5       880.303    22849453.720    93564693.381 5       685.950    22849454.620    93564700.371 7       685.950
R02  19438474.780   103727427.442 8      3681.472    19438474.280   103727427.435 8      3681.472    19438483.380    80676922.657 8      2863.367    19438483.520    80676923.658 8      2863.367
R03  22253034.020   119122243.252 7      6705.873    22253031.100   119122243.259 6      6705.873    22253050.300    92650709.452 7      5215.679    22253050.520    92650713.459 7      5215.679
G17  21643811.240   113738993.240 7      4829.391    21643810.400   113738993.239 6      4829.391    21643815.200    88627801.655 6      3763.162    21643815.440    88627807.660 8      3763.162
G22  23370408.800   122812336.573 7      2188.423    23370407.480   122812336.586 5      2188.423    23370416.020    95697943.218 5      1705.265
G04  21476693.840   112860791.479 7      4661.300    21476693.000   112860791.489 6      4661.300    21476700.020    87943500.543 6      3632.182    21476700.020    87943498.549 8      3632.182
G21  23396445.120   122949147.494 7      1211.912    23396443.620   122949147.496 5      1211.912    23396450.000    95804548.450 5       944.347
R01  20807429.340   111227623.375 7      -245.453    20807427.540   111227623.379 7      -245.453    20807441.980    86510427.494 7      -190.908    20807441.040    86510424.485 7      -190.908
G08  24549754.300   129009813.448 5      -779.765    24549752.300   129009813.458 3      -779.765    24549772.100   100527202.228 3      -607.609    24549773.280   100527210.162 5      -607.609
R17  21010742.880   112432733.741 7      5056.510    21010742.620   112432733.743 7      5056.510    21010754.300    87447731.589 8      3932.841    21010754.220    87447729.585 8      3932.841
G09  23254826.800   122204948.938 7      6113.531    23254825.340   122204948.937 6      6113.531    23254839.260    95224694.338 6      4763.790    23254839.760    95224693.343 7      4763.790
G19  23311380.680   122502154.353 7      6085.014    23311378.560   122502154.360 5      6085.014    23311386.900    95456182.911 5      4741.569
R24  20467701.700   109449995.640 7      2289.790    20467700.900   109449995.641 7      2289.790    20467712.020    85127820.043 8      1780.948    20467712.300    85127820.050 8      1780.948
G02  22358399.500   117494194.091 7      1798.864    22358398.460   117494194.093 6      1798.864    22358401.780    91553908.739 6      1401.713
> 2024 06 03 15 11 37.0000000  0 16
G03  20573266.760   108113261.891 8      1198.825    20573264.480   108113261.886 8      1198.825    20573271.280    84244104.407 8       934.149    20573273.200    84244121.409 8       934.149
R23  24002469.060   128397037.815 6       153.829    24002470.140   128397037.862 6       153.829
G14  22849277.220   120073767.417 7       880.177    22849275.840   120073767.430 5       880.177    22849286.260    93564007.437 5       685.852    22849287.000    93564014.419 7       685.852
R02  19437784.840   103723746.292 8      3680.837    19437784.540   103723746.284 8      3680.837    19437793.480    80674059.542 8      2862.873    19437793.720    80674060.543 8      2862.873
R03  22251781.000   119115537.349 7      6705.610    22251778.200   119115537.362 7      6705.610    22251797.540    92645493.772 7      5215.474    22251797.740    92645497.776 7      5215.474
G17  21642892.200   113734163.891 7      4829.284    21642891.320   113734163.888 6      4829.284    21642896.180    88624038.528 6      3763.078    21642896.300    88624044.529 8      3763.078
G22  23369992.200   122810148.132 7      2188.345    23369990.920   122810148.145 5      2188.345    23369999.700    95696237.935 5      1705.204
G04  21475806.780   112856130.173 7      4661.103    21475805.920   112856130.186 6      4661.103    21475812.740    87939868.361 6      3632.028    21475812.880    87939866.361 8      3632.028
G21  23396214.400   122947935.378 7      1212.166    23396212.720   122947935.380 5      1212.166    23396219.360    95803603.942 5       944.545
R01  20807475.540   111227869.028 7      -245.786    20807473.760   111227869.029 7      -245.786    20807488.180    86510618.549 7      -191.167    20807487.060    86510615.540 7      -191.167
G08  24549902.120   129010592.898 5      -779.509    24549900.560   129010592.908 3      -779.509    24549920.580   100527809.579 3      -607.409    24549923.320   100527817.546 5      -607.409
R17  21009797.960   112427677.131 7      5056.720    21009797.300   112427677.135 7      5056.720    21009809.220    87443798.676 8      3933.004    21009809.220    87443796.675 8      3933.004
G09  23253663.120   122198835.198 6      6113.698    23253661.920   122198835.200 6      6113.698    23253675.820    95219930.403 6      4763.920    23253676.340    95219929.406 7      4763.920
G19  23310222.620   122496069.051 7      6085.315    23310220.560   122496069.055 5      6085.315    23310228.920    95451441.124 5      4741.804
R24  20467273.600   109447705.889 7      2289.604    20467272.860   109447705.890 7      2289.604    20467283.980    85126039.123 8      1780.803    20467284.160    85126039.128 8      1780.803
G02  22358057.300   117492395.197 8      1798.963    22358056.280   117492395.200 6      1798.963    22358059.420    91552507.006 6      1401.789
> 2024 06 03 15 11 38.0000000  0 16
G03  20573038.800   108112063.457 8      1198.213    20573036.520   108112063.454 8      1198.213    20573043.160    84243170.564 8       933.673    20573045.280    84243187.564 8       933.673
R23  24002440.140   128396884.335 6       153.316    24002441.540   128396884.353 6       153.316
G14  22849110.060   120072887.482 7       879.783    22849108.460   120072887.492 5       879.783    22849118.820    93563321.765 5       685.545    22849119.420    93563328.757 7       685.545
R02  19437095.080   103720066.027 8      3679.767    19437095.020   103720066.025 8      3679.767    19437103.840    80671197.120 8      2862.041    19437103.800    80671198.121 8      2862.041
R03  22250528.220   119108831.800 7      6705.338    22250525.760   119108831.804 7      6705.338    22250544.760    92640278.355 7      5215.263    22250545.180    92640282.359 7      5215.263
G17  21641973.120   113729334.897 7      4828.772    21641972.500   113729334.894 6      4828.772    21641977.140    88620275.678 6      3762.679    21641977.940    88620281.683 8      3762.679
G22  23369575.900   122807960.201 7      2187.631    23369574.480   122807960.214 5      2187.631    23369583.280    95694533.053 5      1704.648
G04  21474919.740   112851469.375 7      4660.402    21474919.140   112851469.390 6      4660.402    21474925.940    87936236.576 6      3631.482    21474925.980    87936234.578 8      3631.482
G21  23395984.240   122946723.393 7      1211.874    23395982.080   122946723.393 5      1211.874    23395988.640    95802659.538 5       944.318
R01  20807521.480   111228115.291 7      -246.716    20807519.920   111228115.297 7      -246.716    20807533.740    86510810.093 7      -191.890    20807532.980    86510807.084 7      -191.890
G08  24550049.780   129011372.643 5      -780.091    24550048.880   129011372.651 3      -780.091    24550069.020   100528417.163 3      -607.863    24550070.160   100528425.094 5      -607.863
R17  21008852.800   112422620.684 7      5056.343    21008852.080   112422620.688 7      5056.343    21008864.160    87439865.892 8      3932.711    21008864.160    87439863.891 8      3932.711
G09  23252499.540   122192721.634 7      6113.407    23252498.460   122192721.634 6      6113.407    23252512.380    95215166.597 6      4763.694    23252513.060    95215165.598 7      4763.694
G19  23309064.800   122489983.948 7      6084.948    23309062.660   122489983.958 5      6084.948    23309071.020    95446699.489 5      4741.518
R24  20466845.400   109445416.635 7      2288.909    20466844.720   109445416.636 7      2288.909    20466855.860    85124258.597 8      1780.263    20466855.880    85124258.599 8      1780.263
G02  22357715.100   117490596.483 8      1798.577    22357714.080   117490596.488 6      1798.577    22357717.240    91551105.410 6      1401.489
> 2024 06 03 15 11 39.0000000  0 16
G03  20572810.880   108110865.474 7      1197.723    20572808.400   108110865.474 8      1197.723    20572815.140    84242237.069 8       933.291    20572817.300    84242254.071 8       933.291
R23  24002411.940   128396731.280 6       152.638    24002413.780   128396731.298 5       152.638
G14  22848942.640   120072007.965 7       879.192    22848941.040   120072007.978 5       879.192    22848951.340    93562636.421 5       685.085    22848951.860    93562643.409 7       685.085
R02  19436405.660   103716386.757 8      3678.762    19436405.380   103716386.756 8      3678.762    19436414.220    80668335.464 8      2861.259    19436414.360    80668336.465 8      2861.259
R03  22249276.040   119102126.660 7      6704.888    22249273.000   119102126.648 6      6704.888    22249291.900    92635063.255 7      5214.913    22249292.300    92635067.258 7      5214.913
G17  21641054.440   113724506.345 7      4828.187    21641053.640   113724506.342 6      4828.187    21641058.300    88616513.171 6      3762.224    21641059.040    88616519.172 8      3762.224
G22  23369159.600   122805772.795 7      2186.961    23369158.460   122805772.810 5      2186.961    23369166.920    95692828.581 5      1704.125
G04  21474033.120   112846809.125 7      4659.967    21474032.100   112846809.135 6      4659.967    21474039.060    87932605.215 6      3631.143    21474039.580    87932603.217 8      3631.143
G21  23395753.400   122945511.648 7      1211.544    23395751.480   122945511.647 5      1211.544    23395758.080    95801715.315 5       944.060
R01  20807567.740   111228362.262 7      -247.429    20807566.340   111228362.268 7      -247.429    20807580.020    86511002.171 7      -192.445    20807579.140    86510999.162 7      -192.445
G08  24550198.460   129012152.375 5      -779.525    24550197.380   129012152.380 3      -779.525    24550217.480   100529024.733 3      -607.422    24550218.920   100529032.680 5      -607.422
R17  21007908.040   112417564.427 7      5056.179    21007907.100   112417564.420 7      5056.179    21007919.300    87435933.236 8      3932.584    21007919.500    87435931.236 8      3932.584
G09  23251336.580   122186608.228 7      6113.187    23251335.320   122186608.230 6      6113.187    23251348.920    95210402.915 6      4763.522    23251349.520    95210401.916 7      4763.522
G19  23307906.620   122483899.093 7      6084.635    23307904.600   122483899.103 5      6084.635    23307913.240    95441958.048 5      4741.274
R24  20466417.460   109443127.953 7      2288.410    20466416.700   109443127.952 7      2288.410    20466427.720    85122478.501 8      1779.874    20466428.240    85122478.505 8      1779.874
G02  22357372.660   117488798.047 8      1798.303    22357371.640   117488798.052 6      1798.303    22357374.980    91549704.034 6      1401.275
> 2024 06 03 15 11 40.0000000  0 16
G03  20572582.880   108109667.836 8      1197.372    20572580.620   108109667.838 8      1197.372    20572587.280    84241303.848 7       933.017    20572589.480    84241320.848 8       933.017
R23  24002383.780   128396578.509 6       152.530    24002385.440   128396578.524 5       152.530
G14  22848775.160   120071128.893 7       878.714    22848773.620   120071128.905 5       878.714    22848784.260    93561951.423 5       684.712    22848784.680    93561958.413 7       684.712
R02  19435716.180   103712708.446 8      3677.797    19435716.120   103712708.441 8      3677.797    19435724.760    80665474.555 8      2860.509    19435725.100    80665475.558 8      2860.509
R03  22248023.200   119095421.991 7      6704.323    22248020.280   119095421.995 6      6704.323    22248039.580    92629848.537 7      5214.473    22248040.100    92629852.545 7      5214.473
G17  21640135.660   113719678.110 7      4828.009    21640134.800   113719678.112 6      4828.009    21640139.700    88612750.915 6      3762.085    21640140.080    88612756.922 7      3762.085
G22  23368743.460   122803585.904 7      2186.491    23368742.160   122803585.919 5      2186.491    23368750.760    95691124.508 5      1703.759
G04  21473146.440   112842149.409 7      4659.525    21473145.460   112842149.422 6      4659.525    21473152.340    87928974.271 6      3630.799    21473152.560    87928972.267 8      3630.799
G21  23395522.820   122944299.949 7      1211.575    23395520.740   122944299.949 5      1211.575    23395527.600    95800771.135 5       944.084
R01  20807613.640   111228609.767 7      -247.911    20807612.360   111228609.779 7      -247.911    20807626.460    86511194.680 7      -192.819    20807625.460    86511191.674 7      -192.819
G08  24550347.300   129012932.506 5      -780.239    24550345.720   129012932.511 3      -780.239    24550366.000   100529632.615 3      -607.979    24550367.520   100529640.541 5      -607.979
R17  21006963.060   112412508.223 7      5056.091    21006962.420   112412508.222 7      5056.091    21006974.420    87432000.643 7      3932.515    21006974.620    87431998.644 8      3932.515
G09  23250173.520   122180495.056 7      6113.022    23250172.100   122180495.053 6      6113.022    23250185.600    95205639.420 6      4763.394    23250186.060    95205638.425 7      4763.394
G19  23306748.720   122477814.379 7      6084.547    23306746.700   122477814.387 5      6084.547    23306755.400    95437216.715 5      4741.205
R24  20465989.620   109440839.633 7      2288.064    20465988.800   109440839.637 7      2288.064    20465999.960    85120698.704 7      1779.605    20466000.160    85120698.709 7      1779.605
G02  22357030.720   117486999.745 8      1798.151    22357029.320   117486999.750 6      1798.151    22357032.760    91548302.759 6      1401.157
> 2024 06 03 15 11 41.0000000  0 16
G03  20572355.020   108108470.723 8      1197.147    20572352.840   108108470.723 8      1197.147    20572359.420    84240371.025 8       932.842    20572361.600    84240388.027 8       932.842
R23  24002355.600   128396426.219 6       152.250    24002356.240   128396426.252 5       152.250
G14  22848608.040   120070250.335 6       878.478    22848606.380   120070250.347 5       878.478    22848617.140    93561266.827 5       684.528    22848617.520    93561273.815 7       684.528
R02  19435027.120   103709031.148 8      3677.072    19435026.660   103709031.146 8      3677.072    19435035.780    80662614.439 8      2859.945    19435036.140    80662615.442 8      2859.945
R03  22246770.880   119088717.801 7      6704.219    22246768.220   119088717.808 7      6704.219    22246787.140    92624634.186 7      5214.392    22246787.600    92624638.191 7      5214.392
G17  21639217.100   113714850.443 7      4827.540    21639216.140   113714850.445 6      4827.540    21639221.000    88608989.096 6      3761.720    21639221.440    88608995.099 8      3761.720
G22  23368327.640   122801399.678 7      2186.079    23368326.220   122801399.685 5      2186.079    23368334.860    95689420.945 5      1703.439
G04  21472259.860   112837490.360 7      4659.066    21472258.860   112837490.370 6      4659.066    21472265.760    87925343.842 6      3630.441    21472266.140    87925341.846 8      3630.441
G21  23395291.980   122943088.532 7      1211.656    23395290.220   122943088.535 5      1211.656    23395297.120    95799827.173 5       944.147
R01  20807660.380   111228858.042 7      -248.322    20807658.780   111228858.051 7      -248.322    20807672.860    86511387.778 7      -193.139    20807671.960    86511384.769 7      -193.139
G08  24550495.480   129013712.792 5      -780.062    24550494.100   129013712.797 3      -780.062    24550514.680   100530240.622 3      -607.841    24550516.760   100530248.567 5      -607.841
R17  21006018.540   112407452.330 7      5055.874    21006017.540   112407452.337 7      5055.874    21006029.700    87428068.288 8      3932.346    21006029.580    87428066.288 8      3932.346
G09  23249009.960   122174382.186 7      6112.901    23249008.800   122174382.180 7      6112.901    23249022.460    95200876.153 6      4763.299    23249022.540    95200875.154 7      4763.299
G19  23305591.040   122471730.025 7      6084.354    23305588.880   122471730.033 5      6084.354    23305597.440    95432475.668 5      4741.055
R24  20465561.800   109438551.871 7      2287.809    20465561.020   109438551.875 7      2287.809    20465572.260    85118919.332 8      1779.407    20465572.160    85118919.336 8      1779.407
G02  22356688.420   117485201.753 8      1798.177    22356687.240   117485201.755 6      1798.177    22356690.640    91546901.722 6      1401.177
> 2024 06 03 15 11 42.0000000  0 16
G03  20572127.240   108107274.041 8      1196.376    20572125.040   108107274.041 8      1196.376    20572131.680    84239438.546 8       932.241    20572133.920    84239455.546 8       932.241
R23  24002327.280   128396274.237 6       151.582    24002328.760   128396274.270 5       151.582
G14  22848441.020   120069372.245 7       877.949    22848439.440   120069372.255 5       877.949    22848449.960    93560582.590 5       684.116    22848450.380    93560589.578 7       684.116
R02  19434337.880   103705354.744 8      3675.798    19434337.960   103705354.742 8      3675.798    19434346.840    80659755.013 8      2858.954    19434346.820    80659756.012 8      2858.954
R03  22245518.020   119082014.042 7      6703.340    22245515.360   119082014.062 7      6703.340    22245534.680    92619420.174 7      5213.709    22245535.500    92619424.179 7      5213.709
G17  21638298.680   113710023.188 7      4826.990    21638297.640   113710023.185 6      4826.990    21638302.360    88605227.601 6      3761.291    21638302.900    88605233.604 8      3761.291
G22  23367912.020   122799214.014 7      2185.355    23367910.440   122799214.024 5      2185.355    23367918.800    95687717.831 5      1702.874
G04  21471373.360   112832831.800 7      4658.195    21471372.440   112832831.810 6      4658.195    21471379.220    87921713.799 6      3629.762    21471379.600    87921711.799 8      3629.762
G21  23395061.580   122941877.255 7      1210.876    23395059.620   122941877.254 5      1210.876    23395066.740    95798883.314 5       943.540
R01  20807707.060   111229106.980 7      -249.472    20807705.120   111229106.995 7      -249.472    20807719.720    86511581.395 7      -194.034    20807718.440    86511578.389 7      -194.034
G08  24550643.620   129014493.327 5      -780.911    24550642.580   129014493.330 3      -780.911    24550663.300   100530848.822 3      -608.502    24550664.760   100530856.770 5      -608.502
R17  21005073.880   112402396.646 7      5055.449    21005072.920   112402396.652 7      5055.449    21005084.740    87424136.091 8      3932.016    21005084.880    87424134.091 8      3932.016
G09  23247846.520   122168269.481 7      6112.407    23247845.420   122168269.481 6      6112.407    23247859.200    95196113.017 6      4762.915    23247859.720    95196112.024 7      4762.915
G19  23304433.360   122465645.937 7      6083.928    23304431.140   122465645.939 5      6083.928    23304439.600    95427734.824 5      4740.723
R24  20465134.020   109436264.588 7      2286.778    20465133.540   109436264.589 7      2286.778    20465144.460    85117140.329 8      1778.605    20465144.800    85117140.332 8      1778.605
G02  22356346.380   117483403.958 8      1797.475    22356345.160   117483403.960 6      1797.475    22356348.460    91545500.839 6      1400.630
> 2024 06 03 15 11 43.0000000  0 16
G03  20571899.700   108106077.832 8      1196.031    20571897.400   108106077.834 8      1196.031    20571904.080    84238506.433 8       931.972    20571905.940    84238523.437 8       931.972
R23  24002299.100   128396122.717 6       151.466    24002300.620   128396122.740 5       151.466
G14  22848273.740   120068494.601 7       877.409    22848272.500   120068494.614 5       877.409    22848282.960    93559898.708 5       683.695    22848283.460    93559905.704 7       683.695
R02  19433649.340   103701679.264 8      3675.090    19433649.100   103701679.256 8      3675.090    19433658.120    80656896.302 8      2858.403    19433658.140    80656897.303 8      2858.403
R03  22244266.020   119075310.655 7      6703.212    22244263.000   119075310.673 6      6703.212    22244282.620    92614206.447 7      5213.609    22244283.320    92614210.453 7      5213.609
G17  21637380.260   113705196.399 7      4826.637    21637379.140   113705196.393 6      4826.637    21637383.820    88601466.468 6      3761.016    21637384.500    88601472.472 8      3761.016
G22  23367496.080   122797028.934 7      2184.736    23367494.660   122797028.946 5      2184.736    23367502.960    95686015.160 5      1702.391
G04  21470487.000   112828173.842 7      4657.807    21470485.900   112828173.849 6      4657.807    21470492.740    87918084.225 6      3629.460    21470493.240    87918082.229 8      3629.460
G21  23394831.220   122940666.171 7      1211.067    23394829.140   122940666.176 5      1211.067    23394836.120    95797939.609 5       943.689
R01  20807753.780   111229356.656 7      -250.162    20807752.040   111229356.665 7      -250.162    20807766.400    86511775.585 7      -194.571    20807765.400    86511772.573 7      -194.571
G08  24550792.780   129015274.050 5      -781.048    24550791.180   129015274.052 3      -781.048    24550811.800   100531457.162 3      -608.609    24550813.400   100531465.125 5      -608.609
R17  21004128.840   112397341.229 7      5055.292    21004128.240   112397341.230 7      5055.292    21004140.100    87420204.102 8      3931.894    21004140.320    87420202.102 8      3931.894
G09  23246683.340   122162156.987 7      6112.481    23246682.220   122162156.986 6      6112.481    23246696.000    95191350.050 6      4762.972    23246696.380    95191349.058 7      4762.972
G19  23303275.740   122459562.101 7      6083.773    23303273.560   122459562.103 5      6083.773    23303281.940    95422994.179 5      4740.603
R24  20464706.200   109433977.890 7      2286.475    20464705.840   109433977.897 7      2286.475    20464716.700    85115361.789 8      1778.369    20464717.040    85115361.793 8      1778.369
G02  22356004.260   117481606.452 8      1797.366    22356003.120   117481606.454 6      1797.366    22356006.440    91544100.189 6      1400.545
> 2024 06 03 15 11 44.0000000  0 16
G03  20571672.260   108104881.928 8      1195.545    20571669.880   108104881.928 8      1195.545    20571676.540    84237574.557 8       931.593    20571678.540    84237591.561 8       931.593
R23  24002271.100   128395971.483 6       151.143    24002272.860   128395971.482 5       151.143
G14  22848106.660   120067617.254 6       877.118    22848105.460   120067617.265 5       877.118    22848116.060    93559215.053 5       683.469    22848116.660    93559222.047 7       683.469
R02  19432960.620   103698004.594 8      3674.048    19432960.440   103698004.595 8      3674.048    19432969.500    80654038.232 8      2857.593    19432969.500    80654039.233 8      2857.593
R03  22243013.600   119068607.629 7      6702.643    22243011.280   119068607.647 6      6702.643    22243030.320    92608993.000 7      5213.167    22243031.000    92608997.009 7      5213.167
G17  21636461.860   113700369.885 7      4826.190    21636460.740   113700369.882 6      4826.190    21636465.360    88597705.553 6      3760.667    21636466.040    88597711.554 8      3760.667
G22  23367080.400   122794844.242 7      2184.289    23367078.840   122794844.255 5      2184.289    23367087.340    95684312.807 5      1702.044
G04  21469600.580   112823516.356 7      4657.104    21469599.700   112823516.372 6      4657.104    21469606.500    87914455.020 6      3628.912    21469606.940    87914453.024 8      3628.912
G21  23394600.480   122939455.182 7      1210.758    23394598.780   122939455.182 5      1210.758    23394605.700    95796995.981 5       943.448
R01  20807800.520   111229606.802 7      -250.670    20807798.960   111229606.811 7      -250.670    20807813.160    86511970.141 7      -194.966    20807812.240    86511967.133 7      -194.966
G08  24550941.660   129016054.898 5      -781.063    24550939.580   129016054.906 3      -781.063    24550960.400   100532065.607 3      -608.620    24550961.720   100532073.548 5      -608.620
R17  21003184.280   112392285.828 7      5055.201    21003183.500   112392285.840 7      5055.201    21003195.540    87416272.132 8      3931.823    21003195.620    87416270.132 8      3931.823
G09  23245519.840   122156044.637 6      6112.254    23245519.100   122156044.631 6      6112.254    23245532.800    95186587.189 6      4762.796    23245533.340    95186586.194 7      4762.796
G19  23302117.800   122453478.352 7      6083.503    23302115.820   122453478.357 5      6083.503    23302124.180    95418253.603 5      4740.392
R24  20464278.760   109431691.607 7      2285.865    20464278.440   109431691.613 7      2285.865    20464289.320    85113583.566 8      1777.895    20464289.360    85113583.571 7      1777.895
G02  22355662.340   117479809.038 8      1797.130    22355661.060   117479809.040 6      1797.130    22355664.380    91542699.607 6      1400.361
> 2024 06 03 15 11 45.0000000  0 16
G03  20571444.500   108103686.470 8      1194.995    20571442.460   108103686.470 8      1194.995    20571449.100    84236643.032 8       931.165    20571450.920    84236660.034 8       931.165
R23  24002243.340   128395820.582 6       150.516    24002244.720   128395820.615 5       150.516
G14  22847939.840   120066740.433 7       876.239    22847938.580   120066740.446 5       876.239    22847949.180    93558531.812 5       682.783    22847949.580    93558538.806 7       682.783
R02  19432272.360   103694330.847 8      3673.132    19432271.820   103694330.846 8      3673.132    19432281.060    80651180.878 8      2856.880    19432281.140    80651181.877 8      2856.880
R03  22241761.580   119061904.997 7      6702.276    22241759.480   119061905.007 6      6702.276    22241778.580    92603779.848 7      5212.881    22241779.040    92603783.855 7      5212.881
G17  21635543.560   113695543.824 7      4825.640    21635542.260   113695543.826 6      4825.640    21635547.020    88593944.989 6      3760.239    21635547.820    88593950.995 8      3760.239
G22  23366664.960   122792660.165 7      2183.503    23366663.200   122792660.175 5      2183.503    23366671.600    95682610.929 5      1701.431
G04  21468714.620   112818859.410 7      4656.548    21468713.600   112818859.422 6      4656.548    21468720.320    87910826.236 6      3628.479    21468720.680    87910824.238 8      3628.479
G21  23394370.240   122938244.338 7      1210.619    23394368.340   122938244.340 5      1210.619    23394375.220    95796052.462 5       943.339
R01  20807847.000   111229857.592 7      -251.241    20807845.040   111229857.604 7      -251.241    20807859.960    86512165.208 7      -195.409    20807859.260    86512162.201 7      -195.409
G08  24551089.940   129016835.975 5      -781.520    24551088.220   129016835.977 3      -781.520    24551109.160   100532674.227 3      -608.977    24551111.320   100532682.165 5      -608.977
R17  21002239.560   112387230.646 7      5054.897    21002238.780   112387230.661 7      5054.897    21002250.660    87412340.330 8      3931.586    21002251.000    87412338.331 8      3931.586
G09  23244356.720   122149932.495 7      6111.915    23244355.920   122149932.492 6      6111.915    23244369.760    95181824.495 6      4762.531    23244370.060    95181823.500 7      4762.531
G19  23300960.260   122447394.876 7      6083.146    23300958.280   122447394.881 5      6083.146    23300966.540    95413513.238 5      4740.114
R24  20463851.220   109429405.772 7      2285.572    20463850.780   109429405.774 7      2285.572    20463861.780    85111805.695 8      1777.667    20463861.960    85111805.700 8      1777.667
G02  22355320.220   117478011.840 8      1797.011    22355319.040   117478011.844 6      1797.011    22355322.380    91541299.191 6      1400.268
> 2024 06 03 15 11 46.0000000  0 16
G03  20571217.340   108102491.478 8      1194.560    20571215.120   108102491.483 8      1194.560    20571221.580    84235711.873 8       930.826    20571223.700    84235728.877 8       930.826
R23  24002215.540   128395670.009 6       150.361    24002214.820   128395670.037 5       150.361
G14  22847773.100   120065864.080 7       876.062    22847772.060   120065864.090 5       876.062    22847782.200    93557848.931 5       682.645    22847782.960    93557855.933 7       682.645
R02  19431583.960   103690658.117 8      3672.107    19431583.560   103690658.113 8      3672.107    19431592.640    80648324.310 8      2856.083    19431592.760    80648325.311 8      2856.083
R03  22240509.880   119055202.823 7      6701.957    22240507.960   119055202.838 6      6701.957    22240526.720    92598567.064 7      5212.633    22240526.780    92598571.071 7      5212.633
G17  21634625.180   113690718.285 7      4825.188    21634624.120   113690718.287 6      4825.188    21634628.920    88590184.833 6      3759.887    21634629.300    88590190.845 8      3759.887
G22  23366249.300   122790476.735 7      2183.040    23366247.640   122790476.745 5      2183.040    23366256.240    95680909.553 5      1701.070
G04  21467828.620   112814203.023 7      4655.969    21467827.440   112814203.033 6      4655.969    21467834.160    87907197.883 6      3628.028    21467834.640    87907195.891 8      3628.028
G21  23394139.860   122937033.649 7      1210.468    23394138.200   122937033.651 5      1210.468    23394144.900    95795109.068 5       943.222
R01  20807894.480   111230109.117 7      -252.066    20807892.420   111230109.119 7      -252.066    20807907.180    86512360.820 7      -196.052    20807906.220    86512357.813 7      -196.052
G08  24551238.880   129017617.236 5      -781.732    24551236.920   129017617.241 3      -781.732    24551257.860   100533282.989 3      -609.142    24551260.300   100533290.917 5      -609.142
R17  21001295.020   112382175.708 7      5054.730    21001294.280   112382175.720 7      5054.730    21001306.120    87408408.712 8      3931.456    21001306.320    87408406.714 8      3931.456
G09  23243194.000   122143820.578 7      6111.748    23243192.780   122143820.581 6      6111.748    23243206.720    95177061.975 6      4762.401    23243207.240    95177060.980 7      4762.401
G19  23299802.840   122441311.744 7      6082.869    23299800.800   122441311.749 5      6082.869    23299808.900    95408773.144 5      4739.898
R24  20463423.800   109427120.436 8      2284.959    20463423.800   109427120.442 7      2284.959    20463434.500    85110028.213 8      1777.191    20463434.760    85110028.218 8      1777.191
G02  22354978.200   117476214.885 8      1796.638    22354977.060   117476214.885 6      1796.638    22354980.380    91539898.965 6      1399.978
> 2024 06 03 15 11 47.0000000  0 16
G03  20570989.960   108101297.011 8      1194.215    20570987.860   108101297.011 8      1194.215    20570994.300    84234781.114 8       930.557    20570996.440    84234798.115 8       930.557
R23  24002185.680   128395520.027 6       149.545    24002187.340   128395520.050 5       149.545
G14  22847606.500   120064988.152 7       875.732    22847605.660   120064988.162 5       875.732    22847615.380    93557166.382 5       682.388    22847616.040    93557173.374 7       682.388
R02  19430896.080   103686986.439 8      3671.058    19430895.680   103686986.434 8      3671.058    19430904.540    80645468.558 8      2855.267    19430904.860    80645469.557 8      2855.267
R03  22239257.660   119048501.034 7      6701.480    22239255.140   119048501.067 7      6701.480    22239274.220    92593354.597 7      5212.262    22239275.000    92593358.608 7      5212.262
G17  21633706.860   113685893.201 7      4824.855    21633705.980   113685893.200 6      4824.855    21633710.680    88586425.030 6      3759.627    21633711.320    88586431.033 8      3759.627
G22  23365833.560   122788293.819 7      2182.676    23365832.340   122788293.829 5      2182.676    23365840.800    95679208.580 5      1700.787
G04  21466942.460   112809547.308 7      4655.241    21466941.480   112809547.318 6      4655.241    21466948.120    87903570.059 6      3627.461    21466948.500    87903568.061 8      3627.461
G21  23393909.620   122935823.335 7      1210.073    23393907.840   122935823.338 5      1210.073    23393914.540    95794165.960 5       942.914
R01  20807941.520   111230361.412 7      -252.794    20807940.080   111230361.424 7      -252.794    20807954.580    86512557.050 7      -196.618    20807953.300    86512554.042 7      -196.618
G08  24551387.420   129018398.752 5      -781.797    24551385.620   129018398.754 3      -781.797    24551406.660   100533891.948 3      -609.192    24551407.560   100533899.882 5      -609.192
R17  21000350.740   112377121.019 7      5054.529    21000349.980   112377121.028 7      5054.529    21000361.760    87404477.285 8      3931.300    21000361.640    87404475.289 8      3931.300
G09  23242031.100   122137708.914 7      6111.416    23242029.680   122137708.922 6      6111.416    23242043.620    95172299.660 6      4762.142    23242044.140    95172298.665 7      4762.142
G19  23298645.120   122435228.870 7      6082.759    23298643.200   122435228.877 5      6082.759    23298651.440    95404033.246 5      4739.812
R24  20462996.540   109424835.751 8      2284.238    20462996.580   109424835.758 7      2284.238    20463007.080    85108251.232 8      1776.629    20463007.640    85108251.239 8      1776.629
G02  22354636.500   117474418.323 7      1796.225    22354635.060   117474418.325 6      1796.225    22354638.440    91538499.048 6      1399.656
> 2024 06 03 15 11 48.0000000  0 16
G03  20570762.820   108100102.904 8      1193.724    20570760.420   108100102.906 8      1193.724    20570767.100    84233850.641 8       930.175    20570769.120    84233867.645 8       930.175
R23  24002157.340   128395370.342 6       149.413    24002159.040   128395370.349 5       149.413
G14  22847440.080   120064112.590 7       875.141    22847438.880   120064112.600 5       875.141    22847448.920    93556484.119 5       681.928    22847449.380    93556491.113 7       681.928
R02  19430208.020   103683315.665 8      3670.132    19430207.700   103683315.663 8      3670.132    19430216.620    80642613.515 8      2854.547    19430216.900    80642614.514 8      2854.547
R03  22238005.580   119041799.665 7      6701.034    22238003.280   119041799.677 7      6701.034    22238022.280    92588142.427 7      5211.915    22238023.060    92588146.437 7      5211.915
G17  21632788.640   113681068.434 7      4824.379    21632787.800   113681068.439 6      4824.379    21632792.580    88582665.476 6      3759.256    21632793.020    88582671.485 8      3759.256
G22  23365418.380   122786111.364 7      2182.089    23365416.940   122786111.376 5      2182.089    23365425.440    95677507.963 5      1700.329
G04  21466056.540   112804892.088 7      4654.792    21466055.560   112804892.098 6      4654.792    21466062.340    87899942.617 6      3627.111    21466062.860    87899940.617 8      3627.111
G21  23393679.420   122934613.132 7      1209.922    23393677.560   122934613.135 5      1209.922    23393684.260    95793222.945 5       942.797
R01  20807989.040   111230614.245 7      -253.257    20807987.180   111230614.264 7      -253.257    20808001.800    86512753.705 7      -196.978    20808000.580    86512750.694 7      -196.978
G08  24551536.480   129019180.478 5      -782.128    24551534.260   129019180.477 3      -782.128    24551555.380   100534501.075 3      -609.451    24551558.020   100534508.996 5      -609.451
R17  20999406.000   112372066.442 7      5054.278    20999405.200   112372066.454 7      5054.278    20999417.300    87400545.947 8      3931.105    20999417.040    87400543.952 8      3931.105
G09  23240868.100   122131597.395 7      6111.335    23240866.980   122131597.400 6      6111.335    23240880.520    95167537.449 6      4762.079    23240881.200    95167536.452 7      4762.079
G19  23297487.740   122429146.127 7      6082.348    23297485.680   122429146.137 5      6082.348    23297493.880    95399293.452 5      4739.492
R24  20462569.040   109422551.521 8      2283.717    20462569.280   109422551.531 7      2283.717    20462580.220    85106474.611 8      1776.224    20462580.200    85106474.618 8      1776.224
G02  22354294.580   117472621.892 8      1796.197    22354293.200   117472621.896 6      1796.197    22354296.720    91537099.229 6      1399.634
> 2024 06 03 15 11 49.0000000  0 16
G03  20570535.540   108098909.139 7      1193.598    20570533.260   108098909.144 8      1193.598    20570540.020    84232920.436 8       930.076    20570542.080    84232937.438 8       930.076
R23  24002129.200   128395220.949 6       149.096    24002131.140   128395220.988 5       149.096
G14  22847273.580   120063237.411 7       874.956    22847272.260   120063237.421 5       874.956    22847282.440    93555802.155 5       681.784    22847282.880    93555809.152 7       681.784
R02  19429520.260   103679645.771 8      3669.417    19429519.660   103679645.772 8      3669.417    19429528.920    80639759.153 8      2853.991    19429529.060    80639760.155 8      2853.991
R03  22236754.060   119035098.633 7      6700.757    22236751.260   119035098.643 6      6700.757    22236770.560    92582930.539 7      5211.700    22236770.980    92582934.548 7      5211.700
G17  21631870.640   113676244.038 7      4824.293    21631869.760   113676244.041 6      4824.293    21631874.380    88578906.208 6      3759.189    21631874.860    88578912.211 8      3759.189
G22  23365003.340   122783929.447 7      2181.676    23365001.680   122783929.457 5      2181.676    23365010.200    95675807.766 5      1700.007
G04  21465170.940   112800237.353 7      4654.398    21465169.640   112800237.361 6      4654.398    21465176.600    87896315.551 6      3626.804    21465176.860    87896313.553 8      3626.804
G21  23393449.120   122933402.977 7      1210.191    23393447.240   122933402.979 5      1210.191    23393454.200    95792279.962 5       943.006
R01  20808036.460   111230867.702 7      -253.692    20808034.760   111230867.711 7      -253.692    20808049.220    86512950.831 7      -197.316    20808047.880    86512947.823 7      -197.316
G08  24551684.520   129019962.238 5      -781.670    24551682.960   129019962.240 3      -781.670    24551704.220   100535110.228 3      -609.093    24551707.220   100535118.181 5      -609.093
R17  20998461.520   112367012.020 7      5054.390    20998460.320   112367012.030 7      5054.390    20998472.800    87396614.739 8      3931.192    20998472.560    87396612.737 8      3931.192
G09  23239704.960   122125486.038 7      6111.198    23239703.960   122125486.046 6      6111.198    23239717.620    95162775.365 6      4761.973    23239718.520    95162774.372 7      4761.973
G19  23296330.260   122423063.544 7      6082.472    23296328.140   122423063.554 5      6082.472    23296336.480    95394553.786 5      4739.588
R24  20462142.500   109420267.741 8      2283.579    20462142.060   109420267.742 7      2283.579    20462153.140    85104698.333 8      1776.117    20462153.340    85104698.340 8      1776.117
G02  22353952.760   117470825.605 7      1796.308    22353951.300   117470825.607 6      1796.308    22353954.820    91535699.527 6      1399.720
> 2024 06 03 15 11 50.0000000  0 16
G03  20570308.380   108097715.720 8      1193.205    20570306.220   108097715.722 8      1193.205    20570312.900    84231990.497 8       929.770    20570315.020    84232007.499 8       929.770
R23  24002101.380   128395071.780 6       149.054    24002104.540   128395071.766 5       149.054
G14  22847107.060   120062362.726 7       874.631    22847105.720   120062362.734 5       874.631    22847116.060    93555120.573 5       681.531    22847116.100    93555127.552 7       681.531
R02  19428832.820   103675976.678 8      3668.744    19428832.200   103675976.676 8      3668.744    19428841.320    80636905.416 8      2853.468    19428841.500    80636906.415 8      2853.468
R03  22235501.820   119028398.000 7      6700.716    22235499.400   119028398.005 6      6700.716    22235518.780    92577718.940 7      5211.668    22235519.320    92577722.943 7      5211.668
G17  21630952.800   113671420.071 7      4823.693    21630951.780   113671420.076 6      4823.693    21630956.340    88575147.274 6      3758.722    21630956.700    88575153.280 8      3758.722
G22  23364587.820   122781748.118 7      2181.094    23364586.600   122781748.128 5      2181.094    23364595.080    95674108.027 5      1699.554
G04  21464285.240   112795583.026 7      4654.179    21464284.140   112795583.036 6      4654.179    21464290.960    87892688.807 6      3626.633    21464291.040    87892686.809 8      3626.633
G21  23393218.840   122932192.823 7      1210.111    23393216.960   122932192.826 5      1210.111    23393223.880    95791336.986 5       942.943
R01  20808083.640   111231121.660 7      -254.301    20808082.060   111231121.666 7      -254.301    20808096.720    86513148.347 7      -197.790    20808095.540    86513145.339 7      -197.790
G08  24551834.000   129020744.171 5      -781.723    24551831.620   129020744.173 3      -781.723    24551852.960   100535719.513 3      -609.135    24551855.440   100535727.441 5      -609.135
R17  20997517.140   112361957.754 7      5054.225    20997515.900   112361957.763 7      5054.225    20997528.260    87392683.640 8      3931.064    20997527.900    87392681.643 8      3931.064
G09  23238542.060   122119374.839 7      6111.163    23238541.060   122119374.844 6      6111.163    23238554.560    95158013.404 6      4761.945    23238555.320    95158012.411 7      4761.945
G19  23295172.800   122416981.227 7      6082.155    23295170.600   122416981.239 5      6082.155    23295179.040    95389814.326 5      4739.342
R24  20461715.580   109417984.268 7      2283.298    20461715.100   109417984.274 7      2283.298    20461726.120    85102922.305 8      1775.898    20461725.960    85102922.309 8      1775.898
G02  22353610.600   117469029.381 8      1796.206    22353609.620   117469029.381 6      1796.206    22353613.180    91534299.864 6      1399.641
> 2024 06 03 15 11 51.0000000  0 16
G03  20570081.460   108096522.951 8      1192.456    20570079.260   108096522.950 8      1192.456    20570085.840    84231061.060 8       929.186    20570087.940    84231078.062 8       929.186
R23  24002073.840   128394923.248 6       148.125    24002075.980   128394923.271 5       148.125
G14  22846940.580   120061488.590 7       873.673    22846939.680   120061488.598 5       873.673    22846949.800    93554439.424 5       680.784    22846949.960    93554446.414 7       680.784
R02  19428145.420   103672308.726 8      3667.239    19428144.980   103672308.727 8      3667.239    19428153.980    80634052.571 8      2852.297    19428154.280    80634053.571 8      2852.297
R03  22234249.980   119021698.034 7      6699.280    22234247.760   119021698.038 7      6699.280    22234267.220    92572507.871 7      5210.551    22234267.760    92572511.879 7      5210.551
G17  21630034.740   113666596.645 7      4823.122    21630033.760   113666596.644 6      4823.122    21630038.600    88571388.765 6      3758.277    21630038.920    88571394.772 8      3758.277
G22  23364172.880   122779567.441 7      2180.310    23364171.600   122779567.446 5      2180.310    23364180.080    95672408.792 5      1698.943
G04  21463399.700   112790929.545 7      4652.992    21463398.500   112790929.555 6      4652.992    21463405.460    87889062.724 6      3625.708    21463405.480    87889060.728 8      3625.708
G21  23392988.480   122930983.151 7      1209.499    23392986.600   122930983.151 5      1209.499    23392993.640    95790394.376 5       942.467
R01  20808131.380   111231376.510 7      -255.306    20808129.960   111231376.527 7      -255.306    20808144.420    86513346.570 7      -198.571    20808143.280    86513343.558 7      -198.571
G08  24551982.620   129021526.580 5      -782.589    24551980.640   129021526.582 3      -782.589    24552001.840   100536329.172 3      -609.810    24552004.120   100536337.104 5      -609.810
R17  20996572.740   112356903.808 7      5053.868    20996571.520   112356903.831 7      5053.868    20996583.800    87388752.813 8      3930.786    20996583.620    87388750.817 8      3930.786
G09  23237379.380   122113264.053 7      6110.378    23237378.160   122113264.052 6      6110.378    23237391.480    95153251.763 6      4761.334    23237392.200    95153250.774 7      4761.334
G19  23294015.520   122410899.248 7      6081.896    23294013.420   122410899.261 5      6081.896    23294021.740    95385075.128 5      4739.140
R24  20461288.600   109415701.551 8      2282.423    20461288.260   109415701.558 7      2282.423    20461299.360    85101146.859 8      1775.218    20461299.280    85101146.863 8      1775.218
G02  22353269.100   117467233.672 7      1795.470    22353267.920   117467233.675 6      1795.470    22353271.480    91532900.617 6      1399.067
> 2024 06 03 15 11 52.0000000  0 16
G03  20569854.720   108095330.814 8      1191.895    20569852.400   108095330.814 8      1191.895    20569858.980    84230132.121 8       928.750    20569861.200    84230149.121 8       928.750
R23  24002047.020   128394775.174 6       147.913    24002048.320   128394775.199 5       147.913
G14  22846774.420   120060615.112 7       873.335    22846773.440   120060615.119 5       873.335    22846783.500    93553758.781 5       680.521    22846783.540    93553765.758 7       680.521
R02  19427458.260   103668641.823 8      3666.391    19427457.920   103668641.824 8      3666.391    19427466.840    80631200.532 8      2851.637    19427467.000    80631201.533 8      2851.637
R03  22232998.900   119014998.550 7      6699.224    22232995.780   119014998.564 7      6699.224    22233015.480    92567297.184 7      5210.508    22233016.260    92567301.192 7      5210.508
G17  21629116.980   113661773.933 7      4822.485    21629116.120   113661773.935 6      4822.485    21629120.740    88567630.812 6      3757.781    21629121.140    88567636.815 7      3757.781
G22  23363758.320   122777387.613 7      2179.470    23363756.800   122777387.618 5      2179.470    23363765.280    95670710.221 5      1698.289
G04  21462514.380   112786276.705 7      4652.605    21462513.240   112786276.713 6      4652.605    21462520.040    87885437.136 6      3625.407    21462520.160    87885435.138 8      3625.407
G21  23392758.360   122929773.736 7      1209.331    23392756.360   122929773.738 5      1209.331    23392763.320    95789451.974 5       942.336
R01  20808179.520   111231632.213 7      -256.064    20808177.740   111231632.230 7      -256.064    20808192.200    86513545.444 7      -199.161    20808191.080    86513542.432 7      -199.161
G08  24552131.280   129022309.236 5      -782.720    24552129.620   129022309.236 3      -782.720    24552150.680   100536939.022 3      -609.912    24552153.220   100536946.964 5      -609.912
R17  20995628.140   112351850.347 7      5053.350    20995627.340   112351850.373 7      5053.350    20995639.660    87384822.343 7      3930.384    20995639.320    87384820.348 7      3930.384
G09  23236216.500   122107153.574 7      6110.450    23236215.380   122107153.568 6      6110.450    23236228.760    95148490.361 6      4761.389    23236229.180    95148489.364 7      4761.389
G19  23292858.260   122404817.866 7      6081.229    23292856.060   122404817.876 5      6081.229    23292864.460    95380336.395 5      4738.620
R24  20460861.680   109413419.441 7      2281.896    20460861.580   109413419.456 7      2281.896    20460872.480    85099371.884 8      1774.808    20460872.320    85099371.891 8      1774.808
G02  22352927.420   117465438.308 8      1795.250    22352926.140   117465438.310 6      1795.250    22352929.780    91531501.629 6      1398.896
> 2024 06 03 15 11 53.0000000  0 16
G03  20569627.860   108094138.920 7      1191.735    20569625.660   108094138.919 8      1191.735    20569632.180    84229203.370 8       928.625    20569634.080    84229220.376 8       928.625
R23  24002019.520   128394627.409 5       147.523    24002020.720   128394627.437 5       147.523
G14  22846608.240   120059741.914 7       872.867    22846607.660   120059741.916 5       872.867    22846617.280    93553078.357 5       680.156    22846617.480    93553085.339 7       680.156
R02  19426771.520   103664975.713 8      3665.547    19426770.780   103664975.711 8      3665.547    19426779.740    80628349.113 8      2850.981    19426780.160    80628350.112 8      2850.981
R03  22231747.760   119008299.434 7      6698.616    22231744.340   119008299.449 6      6698.616    22231763.980    92562086.786 7      5210.035    22231764.880    92562090.794 7      5210.035
G17  21628199.380   113656951.429 7      4822.297    21628198.640   113656951.429 6      4822.297    21628203.240    88563873.016 6      3757.634    21628203.720    88563879.024 8      3757.634
G22  23363343.520   122775208.095 7      2179.185    23363342.140   122775208.097 5      2179.185    23363350.440    95669011.889 5      1698.067
G04  21461628.900   112781624.325 7      4651.953    21461627.840   112781624.333 6      4651.953    21461634.540    87881811.907 6      3624.899    21461634.940    87881809.907 8      3624.899
G21  23392528.280   122928564.374 7      1209.411    23392526.180   122928564.379 5      1209.411    23392533.180    95788509.610 5       942.398
R01  20808227.580   111231888.415 7      -256.477    20808225.840   111231888.433 7      -256.477    20808239.860    86513744.702 7      -199.482    20808239.020    86513741.695 7      -199.482
G08  24552280.400   129023092.021 5      -783.054    24552278.620   129023092.026 3      -783.054    24552299.680   100537548.973 3      -610.172    24552301.600   100537556.889 5      -610.172
R17  20994683.660   112346796.851 7      5053.486    20994684.000   112346796.880 7      5053.486    20994695.340    87380891.852 8      3930.489    20994695.020    87380889.857 8      3930.489
G09  23235053.720   122101043.197 7      6110.160    23235052.700   122101043.194 6      6110.160    23235065.940    95143729.038 6      4761.164    23235066.620    95143728.044 7      4761.164
G19  23291700.940   122398736.450 7      6081.313    23291698.660   122398736.458 5      6081.313    23291707.100    95375597.627 5      4738.685
R24  20460434.860   109411137.704 7      2281.573    20460434.780   109411137.713 7      2281.573    20460445.940    85097597.195 8      1774.557    20460445.720    85097597.200 8      1774.557
G02  22352585.720   117463643.017 8      1795.265    22352584.460   117463643.022 6      1795.265    22352588.240    91530102.704 6      1398.908
> 2024 06 03 15 11 54.0000000  0 16
G03  20569401.000   108092947.359 8      1191.655    20569398.960   108092947.366 8      1191.655    20569405.380    84228274.883 8       928.563    20569407.520    84228291.889 8       928.563
R23  24001992.780   128394479.950 5       147.427    24001993.140   128394479.959 5       147.427
G14  22846442.120   120058869.018 7       873.123    22846441.760   120058869.026 5       873.123    22846451.160    93552398.172 5       680.356    22846451.340    93552405.154 7       680.356
R02  19426084.460   103661310.502 8      3664.957    19426084.140   103661310.500 8      3664.957    19426092.980    80625498.391 8      2850.522    19426093.120    80625499.392 8      2850.522
R03  22230496.680   119001600.632 7      6698.888    22230493.080   119001600.642 6      6698.888    22230512.700    92556876.613 7      5210.246    22230513.540    92556880.627 7      5210.246
G17  21627281.840   113652129.246 7      4822.305    21627281.060   113652129.248 6      4822.305    21627285.760    88560115.471 6      3757.640    21627286.040    88560121.476 8      3757.640
G22  23362928.880   122773029.008 7      2179.235    23362927.580   122773029.018 5      2179.235    23362935.560    95667313.901 5      1698.105
G04  21460743.760   112776972.407 7      4651.773    21460742.600   112776972.415 6      4651.773    21460749.140    87878187.040 6      3624.758    21460749.880    87878185.044 8      3624.758
G21  23392298.080   122927355.132 7      1209.386    23392296.060   122927355.134 5      1209.386    23392303.120    95787567.340 5       942.379
R01  20808275.840   111232145.190 7      -256.781    20808274.040   111232145.202 7      -256.781    20808288.300    86513944.407 7      -199.718    20808286.820    86513941.400 7      -199.718
G08  24552429.440   129023874.940 5      -783.132    24552427.600   129023874.942 3      -783.132    24552448.560   100538159.026 3      -610.233    24552449.160   100538166.933 5      -610.233
R17  20993739.120   112341743.457 7      5053.635    20993739.840   112341743.488 7      5053.635    20993750.920    87376961.435 8      3930.605    20993751.040    87376959.443 8      3930.605
G09  23233891.180   122094932.936 7      6110.485    23233889.800   122094932.938 6      6110.485    23233903.220    95138967.815 6      4761.417    23233903.980    95138966.818 7      4761.417
G19  23290543.500   122392655.152 6      6081.710    23290541.420   122392655.165 5      6081.710    23290549.840    95370858.960 5      4738.995
R24  20460008.220   109408856.433 7      2281.209    20460007.980   109408856.443 7      2281.209    20460019.260    85095822.872 8      1774.274    20460019.060    85095822.877 8      1774.274
G02  22352244.340   117461847.910 8      1795.165    22352242.760   117461847.918 6      1795.165    22352246.560    91528703.921 6      1398.830
> 2024 06 03 15 11 55.0000000  0 16
G03  20569174.200   108091756.042 8      1191.178    20569172.240   108091756.044 8      1191.178    20569178.840    84227346.580 8       928.191    20569180.780    84227363.582 8       928.191
R23  24001964.660   128394332.664 5       147.323    24001965.960   128394332.671 5       147.323
G14  22846276.120   120057996.425 7       872.602    22846275.680   120057996.430 5       872.602    22846285.240    93551718.221 5       679.949    22846285.180    93551725.209 7       679.949
R02  19425397.700   103657646.110 8      3664.043    19425397.240   103657646.102 8      3664.043    19425406.180    80622648.308 8      2849.811    19425406.440    80622649.307 8      2849.811
R03  22229245.700   118994902.130 7      6698.525    22229242.500   118994902.134 6      6698.525    22229261.560    92551666.679 7      5209.964    22229262.060    92551670.695 7      5209.964
G17  21626364.200   113647307.280 7      4821.853    21626363.580   113647307.280 6      4821.853    21626368.020    88556358.095 6      3757.288    21626368.280    88556364.098 8      3757.288
G22  23362514.460   122770850.349 7      2178.410    23362513.000   122770850.359 5      2178.410    23362521.080    95665616.243 5      1697.463
G04  21459858.400   112772320.884 7      4651.405    21459857.420   112772320.891 6      4651.405    21459863.940    87874562.481 6      3624.471    21459864.440    87874560.487 8      3624.471
G21  23392067.660   122926145.838 7      1209.379    23392065.980   122926145.843 5      1209.379    23392073.000    95786625.031 5       942.373
R01  20808323.580   111232402.390 7      -257.440    20808321.940   111232402.396 7      -257.440    20808336.200    86514144.462 7      -200.231    20808335.200    86514141.454 7      -200.231
G08  24552577.420   129024657.822 5      -782.372    24552576.580   129024657.824 3      -782.372    24552597.900   100538769.049 3      -609.641    24552598.420   100538776.969 5      -609.641
R17  20992794.960   112336690.050 7      5053.325    20992794.900   112336690.075 7      5053.325    20992806.340    87373031.011 8      3930.364    20992806.520    87373029.017 8      3930.364
G09  23232728.440   122088822.775 7      6110.258    23232727.120   122088822.783 6      6110.258    23232740.420    95134206.662 6      4761.240    23232741.180    95134205.670 7      4761.240
G19  23289386.080   122386573.918 7      6081.168    23289384.160   122386573.928 5      6081.168    23289392.580    95366120.347 5      4738.573
R24  20459581.600   109406575.471 7      2280.830    20459581.620   109406575.483 7      2280.830    20459592.460    85094048.794 8      1773.979    20459592.680    85094048.799 8      1773.979
G02  22351902.600   117460052.793 8      1795.165    22351901.260   117460052.795 6      1795.165    22351904.940    91527305.122 6      1398.830
> 2024 06 03 15 11 56.0000000  0 16
G03  20568947.600   108090565.209 8      1190.442    20568945.500   108090565.211 8      1190.442    20568952.200    84226418.660 8       927.617    20568954.220    84226435.662 8       927.617
R23  24001937.080   128394185.780 5       146.441    24001938.440   128394185.802 5       146.441
G14  22846110.260   120057124.184 7       871.904    22846109.660   120057124.188 5       871.904    22846119.320    93551038.550 5       679.406    22846119.540    93551045.532 7       679.406
R02  19424711.040   103653982.617 8      3662.817    19424710.580   103653982.617 8      3662.817    19424719.680    80619798.931 8      2848.858    19424719.880    80619799.932 8      2848.858
R03  22227993.800   118988203.837 7      6697.786    22227990.900   118988203.857 6      6697.786    22228009.940    92546456.935 7      5209.389    22228010.560    92546460.945 7      5209.389
G17  21625446.760   113642485.796 7      4821.083    21625446.000   113642485.798 6      4821.083    21625450.480    88552601.098 6      3756.688    21625450.860    88552607.106 8      3756.688
G22  23362099.560   122768672.153 7      2177.805    23362098.620   122768672.160 5      2177.805    23362106.460    95663918.945 5      1696.991
G04  21458973.280   112767669.883 7      4650.575    21458972.400   112767669.891 6      4650.575    21458979.100    87870938.328 6      3623.825    21458979.580    87870936.330 8      3623.825
G21  23391837.780   122924936.802 7      1208.847    23391835.820   122924936.809 5      1208.847    23391843.140    95785682.924 5       941.958
R01  20808371.480   111232660.319 7      -258.317    20808370.000   111232660.339 7      -258.317    20808384.400    86514345.076 7      -200.914    20808383.400    86514342.070 7      -200.914
G08  24552727.260   129025441.004 5      -784.110    24552725.500   129025441.008 3      -784.110    24552747.080   100539379.308 3      -610.995    24552747.220   100539387.263 5      -610.995
R17  20991850.660   112331636.912 7      5052.867    20991850.620   112331636.938 7      5052.867    20991862.060    87369100.795 8      3930.008    20991862.020    87369098.804 8      3930.008
G09  23231565.760   122082712.680 7      6109.856    23231564.400   122082712.685 6      6109.856    23231577.720    95129445.563 6      4760.927    23231578.300    95129444.562 7      4760.927
G19  23288228.720   122380492.990 7      6080.585    23288226.960   122380492.998 5      6080.585    23288235.420    95361381.966 5      4738.118
R24  20459155.360   109404295.105 7      2280.013    20459154.860   109404295.117 7      2280.013    20459166.200    85092275.176 8      1773.343    20459166.400    85092275.181 8      1773.343
G02  22351561.120   117458257.990 8      1794.538    22351559.700   117458257.995 6      1794.538    22351563.440    91525906.575 6      1398.341
> 2024 06 03 15 11 57.0000000  0 16
G03  20568721.140   108089374.718 8      1190.444    20568718.940   108089374.712 8      1190.444    20568725.680    84225490.998 8       927.619    20568727.740    84225508.000 8       927.619
R23  24001909.880   128394039.133 5       146.508    24001910.000   128394039.172 5       146.508
G14  22845944.240   120056252.431 7       871.634    22845943.720   120056252.436 5       871.634    22845953.440    93550359.257 5       679.195    22845954.080    93550366.236 7       679.195
R02  19424024.680   103650319.999 8      3662.241    19424024.340   103650320.000 8      3662.241    19424033.320    80616950.230 8      2848.410    19424033.460    80616951.233 8      2848.410
R03  22226742.640   118981506.022 7      6697.502    22226739.400   118981506.042 6      6697.502    22226758.740    92541247.538 7      5209.168    22226759.580    92541251.550 7      5209.168
G17  21624529.340   113637664.666 7      4821.121    21624528.460   113637664.665 6      4821.121    21624533.060    88548844.376 6      3756.718    21624533.700    88548850.381 8      3756.718
G22  23361684.860   122766494.553 7      2177.411    23361684.220   122766494.565 5      2177.411    23361692.120    95662222.113 5      1696.684
G04  21458088.340   112763019.416 7      4650.185    21458087.320   112763019.426 6      4650.185    21458094.200    87867314.592 6      3623.521    21458094.460    87867312.594 8      3623.521
G21  23391608.200   122923727.810 7      1209.095    23391605.660   122923727.812 5      1209.095    23391613.140    95784740.847 5       942.152
R01  20808420.080   111232918.807 7      -258.611    20808418.820   111232918.821 7      -258.611    20808432.800    86514546.115 7      -201.142    20808431.580    86514543.106 7      -201.142
G08  24552875.620   129026224.235 5      -783.418    24552874.720   129026224.240 3      -783.418    24552896.220   100539989.611 3      -610.455    24552896.380   100539997.540 5      -610.455
R17  20990906.440   112326583.887 7      5053.117    20990906.680   112326583.907 7      5053.117    20990917.760    87365170.662 8      3930.202    20990917.620    87365168.669 8      3930.202
G09  23230403.300   122076602.842 7      6109.740    23230401.940   122076602.844 6      6109.740    23230415.140    95124684.663 6      4760.836    23230415.540    95124683.658 7      4760.836
G19  23287071.900   122374412.223 7      6080.679    23287069.760   122374412.225 5      6080.679    23287078.320    95356643.706 5      4738.191
R24  20458729.280   109402015.086 7      2279.895    20458728.320   109402015.085 7      2279.895    20458739.960    85090501.818 8      1773.252    20458740.120    85090501.820 8      1773.252
G02  22351219.700   117456463.291 7      1794.630    22351218.080   117456463.296 6      1794.630    22351221.880    91524508.112 6      1398.413
> 2024 06 03 15 11 58.0000000  0 16
G03  20568494.700   108088184.599 8      1189.513    20568492.660   108088184.604 8      1189.513    20568499.180    84224563.633 8       926.893    20568501.180    84224580.641 8       926.893
R23  24001881.840   128393892.883 5       145.757    24001883.080   128393892.908 5       145.757
G14  22845778.700   120055381.091 7       870.965    22845777.960   120055381.098 5       870.965    22845787.680    93549680.282 5       678.674    22845788.200    93549687.260 7       678.674
R02  19423339.000   103646658.259 8      3661.024    19423338.040   103646658.257 8      3661.024    19423347.000    80614102.210 8      2847.463    19423347.880    80614103.211 8      2847.463
R03  22225491.020   118974808.612 7      6697.082    22225489.000   118974808.624 7      6697.082    22225508.260    92536038.452 7      5208.841    22225508.680    92536042.466 7      5208.841
G17  21623612.200   113632843.938 7      4820.221    21623611.180   113632843.940 6      4820.221    21623615.700    88545087.969 6      3756.016    21623616.380    88545093.974 8      3756.016
G22  23361270.920   122764317.486 7      2176.599    23361269.940   122764317.499 5      2176.599    23361277.880    95660525.696 5      1696.051
G04  21457203.740   112758369.437 7      4649.480    21457202.540   112758369.442 6      4649.480    21457209.400    87863691.230 6      3622.972    21457209.820    87863689.228 8      3622.972
G21  23391377.720   122922518.918 7      1208.421    23391375.600   122922518.917 5      1208.421    23391383.140    95783798.851 5       941.627
R01  20808467.740   111233177.856 7      -259.748    20808467.220   111233177.865 7      -259.748    20808481.120    86514747.598 7      -202.027    20808480.040    86514744.591 7      -202.027
G08  24553025.100   129027007.532 5      -783.001    24553023.620   129027007.540 3      -783.001    24553045.040   100540599.960 3      -610.130    24553046.340   100540607.908 5      -610.130
R17  20989961.980   112321530.975 7      5052.477    20989962.340   112321531.006 7      5052.477    20989973.360    87361240.627 8      3929.705    20989973.480    87361238.632 8      3929.705
G09  23229240.000   122070493.177 7      6109.344    23229239.000   122070493.182 6      6109.344    23229252.500    95119923.898 6      4760.527    23229253.020    95119922.901 7      4760.527
G19  23285914.560   122368331.624 7      6080.156    23285912.780   122368331.629 5      6080.156    23285921.160    95351905.590 5      4737.784
R24  20458302.720   109399735.428 7      2278.987    20458302.240   109399735.435 7      2278.987    20458313.640    85088728.759 8      1772.546    20458313.240    85088728.763 8      1772.546
G02  22350878.440   117454668.722 7      1794.072    22350876.520   117454668.727 6      1794.072    22350880.520    91523109.743 6      1397.978
> 2024 06 03 15 11 59.0000000  0 16
G03  20568268.720   108086994.975 8      1189.247    20568266.160   108086994.980 8      1189.247    20568272.740    84223636.655 8       926.686    20568275.080    84223653.657 8       926.686
R23  24001854.760   128393747.017 5       145.452    24001856.120   128393747.045 5       145.452
G14  22845612.860   120054510.153 7       870.383    22845612.380   120054510.158 5       870.383    22845622.040    93549001.621 5       678.220    22845622.640    93549008.601 7       678.220
R02  19422652.520   103642997.463 8      3660.083    19422652.140   103642997.461 8      3660.083    19422661.080    80611254.925 8      2846.731    19422661.280    80611255.928 8      2846.731
R03  22224240.200   118968111.566 7      6696.490    22224237.560   118968111.575 7      6696.490    22224256.580    92530829.659 7      5208.381    22224257.620    92530833.669 7      5208.381
G17  21622695.140   113628023.673 7      4819.855    21622694.020   113628023.675 6      4819.855    21622698.500    88541331.926 6      3755.731    21622699.160    88541337.935 8      3755.731
G22  23360856.900   122762140.940 7      2176.116    23360855.780   122762140.952 5      2176.116    23360863.920    95658829.684 5      1695.674
G04  21456318.540   112753720.026 7      4648.916    21456317.720   112753720.034 6      4648.916    21456324.680    87860068.318 6      3622.532    21456324.820    87860066.320 8      3622.532
G21  23391147.900   122921310.275 7      1208.338    23391145.560   122921310.280 5      1208.338    23391153.320    95782857.052 5       941.562
R01  20808516.480   111233437.664 7      -260.243    20808515.360   111233437.676 7      -260.243    20808529.760    86514949.669 7      -202.411    20808528.640    86514946.657 7      -202.411
G08  24553174.240   129027791.234 5      -784.105    24553172.620   129027791.242 3      -784.105    24553194.340   100541210.626 3      -610.991    24553194.820   100541218.577 5      -610.991
R17  20989017.880   112316478.351 7      5052.361    20989018.240   112316478.382 7      5052.361    20989029.400    87357310.813 8      3929.614    20989029.120    87357308.818 8      3929.614
G09  23228077.320   122064383.676 7      6109.085    23228076.700   122064383.675 6      6109.085    23228089.800    95115163.259 6      4760.326    23228090.380    95115162.265 7      4760.326
G19  23284757.740   122362251.346 7      6080.017    23284755.620   122362251.353 5      6080.017    23284764.120    95347167.715 5      4737.676
R24  20457876.400   109397456.401 8      2278.511    20457875.800   109397456.408 7      2278.511    20457887.520    85086956.178 8      1772.175    20457887.060    85086956.181 8      1772.175
G02  22350536.660   117452874.488 7      1793.972    22350535.100   117452874.495 6      1793.972    22350539.080    91521711.640 6      1397.900
> 2024 06 03 15 12  0.0000000  0 16
G03  20568042.220   108085805.784 8      1189.118    20568039.860   108085805.789 8      1189.118    20568046.600    84222710.013 8       926.585    20568048.720    84222727.013 8       926.585
R23  24001827.540   128393601.596 5       145.439    24001829.640   128393601.624 5       145.439
G14  22845447.420   120053639.685 7       870.301    22845446.700   120053639.693 5       870.301    22845456.460    93548323.328 5       678.156    22845456.980    93548330.314 8       678.156
R02  19421966.640   103639337.674 8      3659.508    19421966.340   103639337.672 8      3659.508    19421975.220    80608408.419 8      2846.284    19421975.420    80608409.423 8      2846.284
R03  22222989.620   118961415.076 7      6696.374    22222986.560   118961415.094 7      6696.374    22223005.660    92525621.299 7      5208.291    22223006.720    92525625.311 7      5208.291
G17  21621777.940   113623203.828 7      4819.756    21621776.840   113623203.833 6      4819.756    21621781.160    88537576.202 6      3755.654    21621781.860    88537582.210 8      3755.654
G22  23360442.900   122759964.979 7      2175.817    23360441.720   122759964.989 5      2175.817    23360449.760    95657134.124 5      1695.442
G04  21455434.100   112749071.262 7      4648.577    21455433.020   112749071.269 6      4648.577    21455440.080    87856445.904 6      3622.268    21455440.300    87856443.906 8      3622.268
G21  23390917.740   122920101.843 7      1208.404    23390915.620   122920101.848 5      1208.404    23390923.340    95781915.414 5       941.614
R01  20808565.160   111233698.108 7      -260.647    20808564.260   111233698.118 7      -260.647    20808578.620    86515152.235 7      -202.726    20808577.240    86515149.231 7      -202.726
G08  24553323.960   129028575.172 5      -784.150    24553321.720   129028575.183 3      -784.150    24553343.480   100541821.477 3      -611.026    24553344.980   100541829.431 5      -611.026
R17  20988073.840   112311425.888 7      5052.540    20988074.180   112311425.919 7      5052.540    20988085.100    87353381.122 8      3929.753    20988085.080    87353379.126 8      3929.753
G09  23226915.160   122058274.471 7      6109.168    23226913.980   122058274.478 6      6109.168    23226927.120    95110402.855 6      4760.391    23226927.400    95110401.862 7      4760.391
G19  23283600.660   122356171.286 7      6080.033    23283598.820   122356171.291 5      6080.033    23283607.120    95342430.009 5      4737.688
R24  20457450.560   109395177.912 7      2278.344    20457449.560   109395177.913 7      2278.344    20457461.380    85085184.018 8      1772.045    20457461.420    85085184.022 8      1772.045
G02  22350195.360   117451080.484 8      1794.049    22350193.840   117451080.492 6      1794.049    22350197.760    91520313.713 6      1397.960
> 2024 06 03 15 12  1.0000000  0 16
G03  20567815.860   108084617.045 8      1188.603    20567813.620   108084617.042 8      1188.603    20567820.340    84221783.717 8       926.184    20567822.340    84221800.717 8       926.184
R23  24001800.140   128393456.511 5       144.749    24001802.120   128393456.539 5       144.749
G14  22845281.600   120052769.743 7       869.692    22845281.120   120052769.753 5       869.692    22845291.040    93547645.447 5       677.682    22845291.520    93547652.429 8       677.682
R02  19421281.360   103635678.890 8      3658.321    19421280.640   103635678.885 8      3658.321    19421289.460    80605562.699 8      2845.361    19421289.920    80605563.702 8      2845.361
R03  22221738.680   118954719.052 7      6695.914    22221735.940   118954719.062 7      6695.914    22221755.160    92520413.287 7      5207.933    22221755.600    92520417.303 7      5207.933
G17  21620860.680   113618384.485 7      4819.149    21620859.760   113618384.487 6      4819.149    21620864.060    88533820.872 6      3755.181    21620864.620    88533826.875 8      3755.181
G22  23360028.700   122757789.649 7      2175.208    23360027.840   122757789.654 5      2175.208    23360035.560    95655439.052 5      1694.968
G04  21454549.360   112744422.999 7      4648.133    21454548.500   112744423.006 6      4648.133    21454555.420    87852823.885 6      3621.922    21454555.380    87852821.889 8      3621.922
G21  23390687.940   122918893.500 7      1208.395    23390685.720   122918893.508 5      1208.395    23390693.420    95780973.842 5       941.607
R01  20808614.280   111233959.216 7      -261.433    20808612.880   111233959.222 7      -261.433    20808627.320    86515355.314 7      -203.337    20808625.740    86515352.307 7      -203.337
G08  24553471.700   129029359.229 5      -784.079    24553470.880   129029359.244 3      -784.079    24553492.700   100542432.422 3      -610.971    24553493.740   100542440.368 5      -610.971
R17  20987129.600   112306373.671 7      5052.166    20987129.940   112306373.704 7      5052.166    20987140.900    87349451.626 8      3929.462    20987140.900    87349449.630 8      3929.462
G09  23225752.900   122052165.487 7      6108.986    23225751.480   122052165.494 6      6108.986    23225764.720    95105642.620 6      4760.249    23225765.360    95105641.621 7      4760.249
G19  23282443.660   122350091.520 7      6079.774    23282441.760   122350091.527 5      6079.774    23282450.220    95337692.540 5      4737.486
R24  20457024.460   109392899.882 8      2277.870    20457023.640   109392899.884 7      2277.870    20457035.320    85083412.219 8      1771.677    20457035.460    85083412.220 8      1771.677
G02  22349854.020   117449286.681 7      1793.756    22349852.400   117449286.688 6      1793.756    22349856.360    91518915.946 6      1397.732
> 2024 06 03 15 12  2.0000000  0 16
G03  20567589.820   108083428.758 8      1187.987    20567587.500   108083428.763 8      1187.987    20567594.240    84220857.779 8       925.704    20567596.380    84220874.783 8       925.704
R23  24001773.080   128393311.772 5       144.372    24001774.560   128393311.819 5       144.372
G14  22845116.020   120051900.240 7       869.255    22845115.880   120051900.250 5       869.255    22845125.620    93546967.906 5       677.342    22845126.300    93546974.880 7       677.342
R02  19420595.660   103632021.045 8      3657.389    19420595.040   103632021.046 8      3657.389    19420603.860    80602717.715 8      2844.636    19420604.260    80602718.718 8      2844.636
R03  22220487.440   118948023.403 7      6695.517    22220485.560   118948023.418 7      6695.517    22220504.580    92515205.583 7      5207.624    22220504.900    92515209.597 7      5207.624
G17  21619943.500   113613565.567 7      4818.655    21619942.740   113613565.564 6      4818.655    21619947.240    88530065.872 6      3754.796    21619947.240    88530071.877 8      3754.796
G22  23359614.940   122755614.877 7      2174.545    23359614.000   122755614.887 5      2174.545    23359621.780    95653744.428 5      1694.451
G04  21453664.980   112739775.325 7      4647.479    21453664.260   112739775.335 6      4647.479    21453671.020    87849202.329 6      3621.412    21453671.260    87849200.329 8      3621.412
G21  23390458.300   122917685.399 7      1207.929    23390455.800   122917685.407 5      1207.929    23390463.380    95780032.467 5       941.244
R01  20808663.600   111234220.996 7      -262.181    20808662.000   111234221.006 7      -262.181    20808676.240    86515558.919 7      -203.919    20808675.120    86515555.912 7      -203.919
G08  24553621.960   129030143.569 5      -784.920    24553619.980   129030143.582 3      -784.920    24553642.100   100543043.584 2      -611.626    24553642.900   100543051.561 5      -611.626
R17  20986185.380   112301321.671 7      5051.864    20986186.280   112301321.699 7      5051.864    20986196.660    87345522.290 8      3929.228    20986196.720    87345520.293 8      3929.228
G09  23224590.440   122046056.721 7      6108.707    23224588.720   122046056.723 6      6108.707    23224602.160    95100882.550 6      4760.032    23224602.860    95100881.549 7      4760.032
G19  23281286.960   122344012.048 7      6079.334    23281284.940   122344012.053 5      6079.334    23281293.500    95332955.293 5      4737.144
R24  20456597.960   109390622.377 8      2277.207    20456597.780   109390622.384 7      2277.207    20456609.480    85081640.822 8      1771.161    20456609.360    85081640.824 8      1771.161
G02  22349512.640   117447493.132 8      1793.419    22349511.020   117447493.137 6      1793.419    22349515.020    91517518.371 6      1397.469
> 2024 06 03 15 12  3.0000000  0 16
G03  20567363.700   108082240.852 8      1187.645    20567361.480   108082240.854 8      1187.645    20567368.120    84219932.136 8       925.437    20567370.360    84219949.140 8       925.437
R23  24001744.840   128393167.407 5       144.024    24001747.760   128393167.457 5       144.024
G14  22844950.960   120051031.093 7       868.856    22844950.580   120051031.098 5       868.856    22844960.140    93546290.637 5       677.031    22844960.880    93546297.615 7       677.031
R02  19419910.380   103628364.129 8      3656.407    19419909.940   103628364.132 8      3656.407    19419918.700    80599873.451 8      2843.872    19419919.040    80599874.454 8      2843.872
R03  22219236.840   118941328.108 7      6695.060    22219234.420   118941328.131 7      6695.060    22219253.960    92509998.153 7      5207.269    22219254.020    92510002.163 7      5207.269
G17  21619026.420   113608747.020 7      4818.268    21619025.840   113608747.020 6      4818.268    21619030.380    88526311.162 6      3754.494    21619030.620    88526317.167 8      3754.494
G22  23359201.240   122753440.587 7      2173.928    23359200.200   122753440.595 5      2173.928    23359208.000    95652050.172 5      1693.970
G04  21452780.500   112735128.179 7      4646.870    21452779.860   112735128.191 6      4646.870    21452786.700    87845581.185 6      3620.938    21452786.940    87845579.182 8      3620.938
G21  23390228.340   122916477.437 7      1207.795    23390226.120   122916477.440 5      1207.795    23390233.500    95779091.192 5       941.139
R01  20808712.180   111234483.434 7      -262.893    20808710.780   111234483.436 7      -262.893    20808725.240    86515763.032 7      -204.472    20808724.340    86515760.022 7      -204.472
G08  24553771.740   129030928.025 5      -784.754    24553769.240   129030928.041 3      -784.754    24553791.400   100543654.836 2      -611.497    24553791.380   100543662.776 5      -611.497
R17  20985241.340   112296269.826 7      5051.602    20985242.400   112296269.859 7      5051.602    20985252.900    87341593.086 8      3929.024    20985252.520    87341591.086 8      3929.024
G09  23223428.140   122039948.092 7      6108.533    23223426.460   122039948.094 6      6108.533    23223439.700    95096122.598 6      4759.896    23223440.400    95096121.603 7      4759.896
G19  23280130.140   122337932.744 7      6079.078    23280128.000   122337932.749 5      6079.078    23280136.400    95328218.182 5      4736.944
R24  20456172.380   109388345.347 7      2276.697    20456171.800   109388345.349 7      2276.697    20456183.680    85079869.797 8      1770.764    20456183.660    85079869.799 8      1770.764
G02  22349171.420   117445699.788 7      1793.172    22349169.800   117445699.793 6      1793.172    22349173.860    91516120.954 6      1397.277
> 2024 06 03 15 12  4.0000000  0 16
G03  20567137.560   108081053.316 8      1187.416    20567135.580   108081053.321 7      1187.416    20567142.180    84219006.783 7       925.259    20567144.280    84219023.787 7       925.259
R23  24001718.480   128393023.382 5       143.811    24001721.440   128393023.415 5       143.811
G14  22844785.400   120050162.302 7       868.624    22844785.140   120050162.307 5       868.624    22844794.860    93545613.650 5       676.849    22844795.880    93545620.628 7       676.849
R02  19419225.360   103624708.083 8      3655.623    19419224.860   103624708.081 8      3655.623    19419233.640    80597029.853 7      2843.262    19419233.860    80597030.854 7      2843.262
R03  22217986.420   118934633.141 7      6694.873    22217984.020   118934633.167 7      6694.873    22218003.220    92504790.976 7      5207.123    22218003.360    92504794.988 7      5207.123
G17  21618109.480   113603928.833 7      4818.067    21618108.980   113603928.833 6      4818.067    21618113.480    88522556.732 6      3754.338    21618113.600    88522562.740 7      3754.338
G22  23358787.660   122751266.745 7      2173.732    23358786.440   122751266.752 5      2173.732    23358794.260    95650356.267 5      1693.817
G04  21451896.280   112730481.540 7      4646.404    21451895.600   112730481.552 6      4646.404    21451902.440    87841960.429 6      3620.575    21451902.900    87841958.425 8      3620.575
G21  23389998.640   122915269.578 7      1207.859    23389996.180   122915269.580 5      1207.859    23390003.620    95778150.002 5       941.189
R01  20808761.640   111234746.442 7      -263.373    20808760.240   111234746.446 7      -263.373    20808774.500    86515967.593 7      -204.846    20808773.380    86515964.590 7      -204.846
G08  24553921.160   129031712.644 5      -784.786    24553918.640   129031712.659 3      -784.786    24553940.560   100544266.217 2      -611.522    24553940.300   100544274.135 5      -611.522
R17  20984297.160   112291218.122 7      5051.646    20984298.200   112291218.153 7      5051.646    20984308.760    87337663.983 7      3929.058    20984308.940    87337661.986 7      3929.058
G09  23222265.300   122033839.646 7      6108.300    23222263.980   122033839.646 6      6108.300    23222277.200    95091362.785 6      4759.714    23222277.580    95091361.790 7      4759.714
G19  23278973.400   122331853.596 7      6079.131    23278971.200   122331853.603 5      6079.131    23278979.500    95323481.189 5      4736.985
R24  20455746.820   109386068.775 8      2276.303    20455745.920   109386068.774 7      2276.303    20455757.860    85078099.129 7      1770.458    20455758.000    85078099.132 7      1770.458
G02  22348830.060   117443906.617 8      1793.091    22348828.580   117443906.622 6      1793.091    22348832.560    91514723.685 6      1397.214
