     3.05           OBSERVATION DATA    MIXED               RINEX VERSION / TYPE
TPS2RIN 1.0.28.3459 TPS-USER            20260427 162811 UTC PGM / RUN BY / DATE
Win64 build Jun 01, 2022 (c) Topcon Positioning Systems     COMMENT
SRC: 20240603_GUI24.tps                                     COMMENT
Observer            Agency                                  OBSERVER / AGENCY
O0M3X53SBGM         TPS HIPER_SR        4.8 HSR Jul,08,2022 REC # / TYPE / VERS
FW: 4.8 HSR Jul,08,2022 p3                                  COMMENT
SN: HiPer SR 1212-12575                                     COMMENT
000                 TPSHIPER_SR     NONE                    ANT # / TYPE
        1.8000        0.0000        0.0000                  ANTENNA: DELTA H/E/N
GUI24                                                       MARKER NAME
  5391303.7019 -1592890.5847  3006327.8739                  APPROX POSITION XYZ
  2024     6     3    14     6   31.0000000     GPS         TIME OF FIRST OBS
  2024     6     3    14    21   30.0000000     GPS         TIME OF LAST OBS
     1.000                                                  INTERVAL
   900 EPOCHS                                               COMMENT
G   12 C1C L1C D1C C1W L1W D1W C2W L2W D2W C2X L2X D2X      SYS / # / OBS TYPES
R   12 C1C L1C D1C C1P L1P D1P C2P L2P D2P C2C L2C D2C      SYS / # / OBS TYPES
    16                                                      # OF SATELLITES
   G02   900   900   900   900   900   900   900   900   900PRN / # OF OBS
           0     0     0                                    PRN / # OF OBS
   G03   900   900   900   900   900   900   900   900   900PRN / # OF OBS
         900   900   900                                    PRN / # OF OBS
   G04   900   900   900   900   900   900   900   900   900PRN / # OF OBS
         900   900   900                                    PRN / # OF OBS
   G08   900   900   900   900   900   900   900   900   900PRN / # OF OBS
         900   900   900                                    PRN / # OF OBS
   G14   900   900   900   900   900   900   900   900   900PRN / # OF OBS
         900   900   900                                    PRN / # OF OBS
   G17   900   900   900   900   900   900   900   900   900PRN / # OF OBS
         900   900   900                                    PRN / # OF OBS
   G21   900   900   900   900   900   900   900   900   900PRN / # OF OBS
           0     0     0                                    PRN / # OF OBS
   G22   900   900   900   900   900   900   900   900   900PRN / # OF OBS
           0     0     0                                    PRN / # OF OBS
   R01   900   900   900   900   900   900   900   900   900PRN / # OF OBS
         900   900   900                                    PRN / # OF OBS
   R02   900   900   900   900   900   900   900   900   900PRN / # OF OBS
         900   900   900                                    PRN / # OF OBS
   R08   900   900   900   900   900   900   900   900   900PRN / # OF OBS
         900   900   900                                    PRN / # OF OBS
   R14   652   652   652   647   647   647   647   647   647PRN / # OF OBS
         646   646   646                                    PRN / # OF OBS
   R15   900   900   900   900   900   900   900   900   900PRN / # OF OBS
         900   900   900                                    PRN / # OF OBS
   R17   776   776   776   767   767   767   767   767   767PRN / # OF OBS
         765   765   765                                    PRN / # OF OBS
   R23   696   696   696   690   690   690     0     0     0PRN / # OF OBS
           0     0     0                                    PRN / # OF OBS
   R24   900   900   900   900   900   900   900   900   900PRN / # OF OBS
         900   900   900                                    PRN / # OF OBS
G L1C                                                       SYS / PHASE SHIFT
G L1W -0.25000                                              SYS / PHASE SHIFT
G L2W  0.00000                                              SYS / PHASE SHIFT
G L2X  0.25000                                              SYS / PHASE SHIFT
R L1C                                                       SYS / PHASE SHIFT
R L1P -0.25000                                              SYS / PHASE SHIFT
R L2P -0.25000                                              SYS / PHASE SHIFT
R L2C                                                       SYS / PHASE SHIFT
  8 R01  1 R02 -4 R08  6 R14 -7 R15  0 R17  4 R23  3 R24  2 GLONASS SLOT / FRQ #
                                                            GLONASS COD/PHS/BIS
               *** Undefined LeapSeconds ***                COMMENT
                                                            END OF HEADER
> 2024 06 03 14 06 31.0000000  0 15
G22  23632471.860   124189483.801 7      4158.840    23632471.600   124189483.817 4      4158.840    23632478.280    96771049.819 4      3240.654
R15  22819885.220   121942540.424 7      2370.319    22819882.460   121942540.425 6      2370.319    22819897.040    94844260.941 7      1843.582    22819898.000    94844256.939 7      1843.582
G02  21741823.120   114254049.905 7      2107.391    21741821.540   114254049.910 6      2107.391    21741824.980    89029135.912 6      1642.123
R14  22573111.520   120327377.633 6      -193.143    22573109.520   120327377.652 6      -193.143    22573128.160    93588015.609 6      -150.222    22573127.540    93588020.612 7      -150.222
R01  19579600.540   104664177.640 7      2837.791    19579601.500   104664177.649 7      2837.791    19579612.100    81405523.520 7      2207.171    19579611.360    81405519.519 7      2207.171
G08  22171764.100   116513401.045 7       153.326    22171762.460   116513401.055 7       153.326    22171772.640    90789694.371 7       119.475    22171773.880    90789698.374 8       119.475
G04  23331529.500   122608026.183 6      5680.565    23331529.080   122608026.199 4      5680.565    23331539.480    95538739.944 4      4426.415    23331540.740    95538770.964 7      4426.415
G21  22276305.540   117062754.360 7      1346.160    22276303.640   117062754.370 6      1346.160    22276308.280    91217741.149 6      1048.956
G17  23466800.320   123318872.887 7      5504.160    23466799.760   123318872.892 4      5504.160    23466806.000    96092652.721 5      4288.955    23466804.540    96092640.711 6      4288.955
R02  21119823.160   112699430.043 7      6348.399    21119821.560   112699430.031 7      6348.399    21119834.580    87655164.992 8      4937.644    21119835.160    87655166.997 8      4937.644
R08  22787052.040   122023632.181 7      -811.205    22787055.060   122023632.228 6      -811.205    22787068.020    94907326.478 7      -630.937    22787067.640    94907324.470 7      -630.937
G03  20010955.980   105158284.633 8      3077.036    20010955.140   105158284.635 8      3077.036    20010961.260    81941542.474 8      2397.691    20010962.080    81941544.479 8      2397.691
R24  20497965.560   109611832.397 7      3336.855    20497964.880   109611832.398 7      3336.855    20497975.900    85253690.379 7      2595.332    20497975.660    85253690.385 7      2595.332
G14  22089471.540   116080957.463 7      2879.052    22089470.400   116080957.470 5      2879.052    22089478.120    90452710.266 5      2243.417    22089477.720    90452718.268 8      2243.417
R17  22621119.460   121050176.292 5      4958.948    22621115.320   121050176.307 6      4958.948    22621133.440    94150192.795 7      3856.959    22621133.920    94150195.819 7      3856.959
> 2024 06 03 14 06 32.0000000  0 15
G22  23631680.740   124185325.163 7      4158.332    23631680.280   124185325.176 4      4158.332    23631686.860    96767809.325 4      3240.259
R15  22819441.660   121940170.246 7      2369.737    22819438.660   121940170.239 6      2369.737    22819453.420    94842417.463 7      1843.129    22819454.380    94842413.459 7      1843.129
G02  21741422.240   114251942.489 7      2107.415    21741420.540   114251942.493 6      2107.415    21741424.040    89027493.763 6      1642.141
R14  22573147.540   120327570.621 6      -193.101    22573146.120   120327570.635 6      -193.101    22573164.480    93588165.694 7      -150.190    22573163.300    93588170.695 7      -150.190
R01  19579069.640   104661340.335 7      2836.837    19579070.700   104661340.350 7      2836.837    19579081.500    81403316.736 7      2206.429    19579080.820    81403312.730 7      2206.429
G08  22171735.040   116513247.852 7       152.956    22171733.320   116513247.860 7       152.956    22171743.520    90789574.992 7       119.187    22171744.600    90789578.997 7       119.187
G04  23330448.720   122602345.577 7      5680.672    23330447.920   122602345.597 4      5680.672    23330458.700    95534313.507 4      4426.497    23330459.740    95534344.520 7      4426.497
G21  22276049.420   117061408.280 7      1346.119    22276047.660   117061408.285 6      1346.119    22276052.060    91216692.253 6      1048.924
G17  23465752.760   123313368.602 7      5504.245    23465752.340   123313368.599 5      5504.245    23465758.620    96088363.668 5      4289.022    23465757.120    96088351.656 6      4289.022
R02  21118632.920   112693081.875 7      6347.981    21118631.700   112693081.860 7      6347.981    21118645.140    87650227.534 8      4937.318    21118645.240    87650229.541 8      4937.318
R08  22787203.480   122024443.566 7      -811.600    22787206.900   122024443.600 6      -811.600    22787219.660    94907957.536 7      -631.244    22787219.260    94907955.529 7      -631.244
G03  20010370.580   105155207.802 8      3076.576    20010369.680   105155207.807 8      3076.576    20010375.720    81939144.942 8      2397.332    20010376.520    81939146.950 8      2397.332
R24  20497341.700   109608495.529 7      3336.763    20497341.120   109608495.523 7      3336.763    20497351.840    85251095.025 7      2595.260    20497351.760    85251095.028 7      2595.260
G14  22088923.580   116078078.594 7      2878.502    22088922.520   116078078.609 5      2878.502    22088930.420    90450466.998 5      2242.989    22088930.100    90450475.000 8      2242.989
R17  22620193.220   121045217.229 5      4959.066    22620186.460   121045217.276 6      4959.066    22620206.520    94146335.777 7      3857.051    22620207.120    94146338.808 7      3857.051
> 2024 06 03 14 06 33.0000000  0 14
G22  23630889.580   124181166.920 7      4158.240    23630889.080   124181166.932 4      4158.240    23630895.640    96764569.137 4      3240.187
R15  22818998.340   121937800.747 7      2369.228    22818995.340   121937800.743 6      2369.228    22819010.540    94840574.517 7      1842.733    22819011.120    94840570.513 7      1842.733
G02  21741021.200   114249835.072 7      2107.734    21741019.500   114249835.072 6      2107.734    21741023.100    89025851.618 6      1642.390
R14  22573183.680   120327763.776 6      -193.047    22573182.680   120327763.806 6      -193.047    22573199.700    93588315.936 7      -150.147    22573199.680    93588320.950 7      -150.147
R01  19578539.340   104658503.883 7      2836.213    19578540.320   104658503.906 7      2836.213    19578550.880    81401110.613 7      2205.943    19578549.700    81401106.609 7      2205.943
G08  22171705.940   116513094.944 7       152.955    22171704.440   116513094.954 7       152.955    22171714.680    90789455.840 7       119.186    22171715.320    90789459.841 7       119.186
G04  23329367.540   122596664.965 6      5680.910    23329367.160   122596664.980 4      5680.910    23329377.980    95529887.065 4      4426.683    23329378.740    95529918.085 7      4426.683
G21  22275793.360   117060062.171 7      1346.358    22275791.500   117060062.176 6      1346.358    22275795.960    91215643.337 6      1049.110
G17  23464705.160   123307864.286 7      5504.489    23464704.880   123307864.286 5      5504.489    23464711.260    96084074.595 5      4289.212    23464709.840    96084062.591 6      4289.212
R02  21117443.220   112686734.011 7      6347.859    21117442.100   112686734.009 7      6347.859    21117455.660    87645290.320 8      4937.224    21117455.740    87645292.326 8      4937.224
R08  22787354.920   122025255.350 7      -811.721    22787358.260   122025255.398 6      -811.721    22787371.040    94908588.932 7      -631.339    22787370.780    94908586.929 7      -631.339
G03  20009785.260   105152131.507 8      3076.200    20009784.280   105152131.509 8      3076.200    20009790.420    81936747.830 8      2397.039    20009791.100    81936749.839 8      2397.039
R24  20496717.500   109605158.718 7      3337.003    20496717.180   109605158.714 7      3337.003    20496727.820    85248499.740 7      2595.446    20496727.700    85248499.740 7      2595.446
G14  22088376.100   116075200.277 7      2878.114    22088374.720   116075200.290 5      2878.114    22088382.740    90448224.152 5      2242.686    22088382.340    90448232.155 8      2242.686
> 2024 06 03 14 06 34.0000000  0 14
G22  23630098.340   124177009.146 7      4157.382    23630097.900   124177009.156 4      4157.382    23630104.440    96761329.314 4      3239.519
R15  22818554.680   121935431.982 7      2368.239    22818551.820   121935431.965 6      2368.239    22818567.540    94838732.136 7      1841.964    22818567.980    94838728.130 7      1841.964
G02  21740620.080   114247727.622 7      2107.369    21740618.480   114247727.627 6      2107.369    21740621.940    89024209.447 6      1642.106
R14  22573219.700   120327957.233 6      -193.688    22573219.040   120327957.252 6      -193.688    22573236.580    93588466.386 6      -150.646    22573235.860    93588471.396 7      -150.646
R01  19578008.620   104655668.236 7      2835.137    19578009.700   104655668.261 7      2835.137    19578020.120    81398905.109 7      2205.107    19578019.320    81398901.110 7      2205.107
G08  22171676.780   116512942.277 7       152.408    22171675.560   116512942.285 7       152.408    22171685.620    90789336.873 7       118.759    22171686.460    90789340.876 8       118.759
G04  23328286.520   122590984.293 6      5680.693    23328286.240   122590984.305 4      5680.693    23328297.020    95525460.579 4      4426.514    23328298.180    95525491.602 7      4426.514
G21  22275537.140   117058715.965 7      1346.056    22275535.240   117058715.970 6      1346.056    22275539.920    91214594.345 6      1048.875
G17  23463657.800   123302359.952 7      5504.223    23463657.380   123302359.957 5      5504.223    23463663.700    96079785.507 5      4289.005    23463662.620    96079773.495 6      4289.005
R02  21116254.020   112680386.472 7      6347.275    21116252.560   112680386.468 7      6347.275    21116266.200    87640353.352 8      4936.769    21116266.440    87640355.356 8      4936.769
R08  22787507.140   122026067.499 7      -812.420    22787510.560   122026067.549 6      -812.420    22787523.060    94909220.595 7      -631.882    22787522.600    94909218.592 7      -631.882
G03  20009199.820   105149055.719 8      3075.417    20009198.980   105149055.724 8      3075.417    20009205.180    81934351.115 8      2396.429    20009205.800    81934353.125 8      2396.429
R24  20496093.280   109601821.928 7      3336.522    20496093.360   109601821.932 7      3336.522    20496103.680    85245904.461 7      2595.072    20496103.940    85245904.464 7      2595.072
G14  22087828.460   116072322.525 7      2877.281    22087826.980   116072322.538 5      2877.281    22087835.040    90445981.746 5      2242.037    22087835.000    90445989.747 7      2242.037
> 2024 06 03 14 06 35.0000000  0 14
G22  23629307.600   124172851.950 7      4157.144    23629306.880   124172851.958 4      4157.144    23629313.440    96758089.937 4      3239.333
R15  22818111.720   121933064.014 7      2367.829    22818109.020   121933064.010 6      2367.829    22818124.620    94836890.397 7      1841.645    22818124.780    94836886.387 7      1841.645
G02  21740219.180   114245620.371 7      2107.349    21740217.560   114245620.376 6      2107.349    21740220.940    89022567.433 6      1642.090
R14  22573256.200   120328151.042 6      -193.835    22573255.060   120328151.061 6      -193.835    22573272.420    93588617.114 7      -150.761    22573272.040    93588622.132 7      -150.761
R01  19577478.320   104652833.649 7      2834.171    19577479.560   104652833.669 7      2834.171    19577489.640    81396700.429 7      2204.355    19577489.320    81396696.425 7      2204.355
G08  22171647.720   116512790.063 7       152.058    22171646.520   116512790.073 7       152.058    22171656.600    90789218.264 7       118.487    22171657.480    90789222.265 7       118.487
G04  23327205.780   122585303.781 7      5680.555    23327205.240   122585303.793 4      5680.555    23327216.140    95521034.212 4      4426.406    23327216.820    95521065.237 7      4426.406
G21  22275280.860   117057369.922 7      1346.088    22275279.060   117057369.926 6      1346.088    22275283.860    91213545.478 6      1048.900
G17  23462610.320   123296855.775 7      5504.318    23462609.920   123296855.778 5      5504.318    23462616.360    96075496.544 5      4289.079    23462614.960    96075484.551 6      4289.079
R02  21115064.600   112674039.478 7      6346.773    21115063.080   112674039.471 7      6346.773    21115076.680    87635416.809 8      4936.379    21115077.000    87635418.813 8      4936.379
R08  22787658.680   122026880.335 7      -812.983    22787662.500   122026880.385 6      -812.983    22787674.620    94909852.801 7      -632.320    22787674.400    94909850.796 7      -632.320
G03  20008614.600   105145980.640 8      3074.875    20008613.860   105145980.642 8      3074.875    20008620.040    81931954.949 8      2396.007    20008620.740    81931956.956 8      2396.007
R24  20495469.760   109598485.387 8      3336.606    20495469.520   109598485.389 7      3336.606    20495479.940    85243309.372 7      2595.138    20495479.940    85243309.370 7      2595.138
G14  22087280.840   116069445.474 7      2876.889    22087279.500   116069445.490 5      2876.889    22087287.640    90443739.890 5      2241.732    22087287.420    90443747.888 8      2241.732
> 2024 06 03 14 06 36.0000000  0 14
G22  23628516.380   124168695.286 7      4156.493    23628515.860   124168695.298 4      4156.493    23628522.340    96754850.977 4      3238.826
R15  22817668.340   121930696.855 7      2366.847    22817665.720   121930696.859 6      2366.847    22817681.140    94835049.271 7      1840.881    22817681.940    94835045.261 7      1840.881
G02  21739818.320   114243513.146 7      2107.132    21739816.520   114243513.151 6      2107.132    21739819.860    89020925.438 6      1641.921
R14  22573292.540   120328345.346 6      -194.401    22573291.120   120328345.341 6      -194.401    22573309.520    93588768.210 7      -151.201    22573308.620    93588773.216 7      -151.201
R01  19576948.280   104649999.945 7      2833.195    19576949.260   104649999.965 7      2833.195    19576959.760    81394496.445 7      2203.596    19576959.020    81394492.437 7      2203.596
G08  22171618.900   116512638.239 7       151.661    22171617.500   116512638.242 7       151.661    22171627.740    90789099.948 7       118.177    22171628.620    90789103.953 7       118.177
G04  23326124.900   122579623.408 7      5680.382    23326124.200   122579623.420 4      5680.382    23326135.140    95516607.954 4      4426.271    23326136.020    95516638.970 7      4426.271
G21  22275024.580   117056023.836 7      1346.021    22275022.840   117056023.844 6      1346.021    22275027.680    91212496.581 6      1048.847
G17  23461563.020   123291351.664 7      5504.169    23461562.520   123291351.664 5      5504.169    23461568.960    96071207.631 5      4288.963    23461567.040    96071195.613 7      4288.963
R02  21113875.360   112667693.020 7      6346.158    21113874.000   112667693.012 7      6346.158    21113887.460    87630480.686 8      4935.901    21113887.720    87630482.689 8      4935.901
R08  22787810.840   122027693.584 7      -813.660    22787813.960   122027693.624 6      -813.660    22787826.620    94910485.305 7      -632.847    22787826.300    94910483.302 7      -632.847
G03  20008029.580   105142906.197 8      3074.059    20008028.880   105142906.202 8      3074.059    20008035.160    81929559.282 8      2395.371    20008035.480    81929561.289 8      2395.371
R24  20494845.700   109595149.012 7      3336.203    20494845.920   109595149.013 7      3336.203    20494856.220    85240714.415 7      2594.824    20494855.800    85240714.420 7      2594.824
G14  22086733.440   116066569.141 7      2876.078    22086732.120   116066569.151 5      2876.078    22086740.160    90441498.590 5      2241.100    22086739.960    90441506.587 8      2241.100
> 2024 06 03 14 06 37.0000000  0 14
G22  23627725.680   124164539.086 7      4156.055    23627724.920   124164539.099 4      4156.055    23627731.460    96751612.382 4      3238.484
R15  22817225.800   121928330.391 7      2365.983    22817223.220   121928330.400 6      2365.983    22817238.220    94833208.690 7      1840.209    22817238.800    94833204.689 7      1840.209
G02  21739417.040   114241405.998 7      2107.003    21739415.600   114241406.005 6      2107.003    21739418.760    89019283.506 6      1641.820
R14  22573329.680   120328539.901 6      -194.675    22573328.560   120328539.904 6      -194.675    22573346.460    93588919.531 7      -151.414    22573345.260    93588924.538 7      -151.414
R01  19576418.500   104647167.206 7      2832.203    19576419.240   104647167.226 7      2832.203    19576429.720    81392293.201 7      2202.825    19576429.380    81392289.196 7      2202.825
G08  22171590.160   116512486.789 7       151.336    22171588.720   116512486.792 7       151.336    22171598.820    90788981.931 7       117.924    22171599.560    90788985.934 7       117.924
G04  23325043.900   122573943.098 6      5680.277    23325043.200   122573943.111 4      5680.277    23325054.320    95512181.745 4      4426.190    23325055.240    95512212.780 7      4426.190
G21  22274768.680   117054677.817 7      1345.939    22274766.700   117054677.819 6      1345.939    22274771.700    91211447.728 6      1048.784
G17  23460515.800   123285847.572 7      5504.014    23460515.220   123285847.571 5      5504.014    23460521.300    96066918.726 5      4288.842    23460519.760    96066906.716 7      4288.842
R02  21112686.100   112661347.039 7      6345.768    21112684.880   112661347.032 7      6345.768    21112698.340    87625544.931 8      4935.597    21112698.420    87625546.935 8      4935.597
R08  22787962.600   122028507.313 7      -814.063    22787966.240   122028507.362 6      -814.063    22787979.180    94911118.207 7      -633.160    22787978.100    94911116.202 7      -633.160
G03  20007444.760   105139832.341 8      3073.462    20007444.100   105139832.348 8      3073.462    20007450.420    81927164.071 8      2394.906    20007450.580    81927166.075 8      2394.906
R24  20494221.620   109591812.848 7      3335.966    20494222.640   109591812.855 7      3335.966    20494232.020    85238119.623 7      2594.640    20494232.260    85238119.628 7      2594.640
G14  22086186.320   116063693.394 7      2875.382    22086184.860   116063693.407 5      2875.382    22086193.060    90439257.744 5      2240.557    22086192.880    90439265.745 8      2240.557
> 2024 06 03 14 06 38.0000000  0 14
G22  23626934.580   124160383.457 7      4155.249    23626934.340   124160383.469 4      4155.249    23626940.460    96748374.231 4      3237.856
R15  22816783.020   121925964.688 7      2365.194    22816780.460   121925964.684 6      2365.194    22816795.940    94831368.689 7      1839.596    22816796.140    94831364.689 7      1839.596
G02  21739015.980   114239299.002 7      2106.823    21739014.700   114239299.007 6      2106.823    21739017.880    89017641.687 6      1641.681
R14  22573366.180   120328734.765 6      -195.093    22573364.960   120328734.776 6      -195.093    22573382.660    93589071.090 7      -151.739    22573381.860    93589076.105 7      -151.739
R01  19575888.820   104644335.455 7      2831.040    19575889.240   104644335.478 7      2831.040    19575900.400    81390090.730 7      2201.920    19575899.460    81390086.725 7      2201.920
G08  22171561.240   116512335.765 7       150.595    22171560.000   116512335.770 7       150.595    22171570.260    90788864.244 7       117.347    22171570.780    90788868.246 7       117.347
G04  23323963.080   122568262.862 6      5679.960    23323962.160   122568262.877 4      5679.960    23323973.540    95507755.597 4      4425.943    23323974.320    95507786.626 7      4425.943
G21  22274512.380   117053331.926 7      1345.606    22274510.480   117053331.931 6      1345.606    22274515.580    91210398.976 6      1048.524
G17  23459468.520   123280343.574 7      5503.830    23459467.820   123280343.573 5      5503.830    23459474.020    96062629.900 5      4288.699    23459472.820    96062617.906 6      4288.699
R02  21111496.960   112655001.552 7      6345.061    21111495.760   112655001.542 7      6345.061    21111509.040    87620609.555 8      4935.047    21111509.440    87620611.560 8      4935.047
R08  22788114.360   122029321.678 7      -814.850    22788118.360   122029321.733 6      -814.850    22788130.800    94911751.598 7      -633.772    22788130.220    94911749.595 7      -633.772
G03  20006859.820   105136759.109 8      3072.792    20006859.300   105136759.109 8      3072.792    20006865.500    81924769.339 8      2394.383    20006865.680    81924771.346 8      2394.383
R24  20493597.940   109588476.925 7      3335.673    20493598.420   109588476.937 7      3335.673    20493608.480    85235525.022 7      2594.412    20493608.180    85235525.033 7      2594.412
G14  22085639.220   116060818.277 7      2874.681    22085637.720   116060818.295 5      2874.681    22085646.000    90437017.395 5      2240.011    22085645.900    90437025.394 8      2240.011
> 2024 06 03 14 06 39.0000000  0 14
G22  23626144.180   124156228.466 7      4155.024    23626143.560   124156228.478 4      4155.024    23626149.620    96745136.580 4      3237.681
R15  22816340.820   121923599.915 7      2364.734    22816338.600   121923599.914 6      2364.734    22816353.360    94829529.419 7      1839.238    22816353.780    94829525.415 7      1839.238
G02  21738615.060   114237192.114 8      2106.913    21738613.840   114237192.119 6      2106.913    21738616.960    89015999.956 6      1641.750
R14  22573402.760   120328930.141 6      -195.239    22573400.760   120328930.147 6      -195.239    22573419.000    93589223.030 7      -151.853    22573418.700    93589228.035 7      -151.853
R01  19575359.200   104641504.667 7      2830.139    19575359.540   104641504.687 7      2830.139    19575370.620    81387889.004 7      2201.219    19575369.760    81387885.001 7      2201.219
G08  22171532.580   116512185.082 7       150.342    22171531.120   116512185.089 7       150.342    22171541.400    90788746.824 7       117.150    22171542.260    90788750.835 7       117.150
G04  23322881.960   122562582.720 6      5680.024    23322881.200   122562582.736 4      5680.024    23322892.680    95503329.521 4      4425.993    23322893.160    95503360.552 7      4425.993
G21  22274256.300   117051986.030 7      1345.782    22274254.440   117051986.035 6      1345.782    22274259.540    91209350.230 6      1048.661
G17  23458421.340   123274839.765 7      5503.984    23458420.480   123274839.770 5      5503.984    23458426.660    96058341.224 5      4288.819    23458425.040    96058329.241 6      4288.819
R02  21110308.040   112648656.570 7      6344.690    21110307.040   112648656.557 7      6344.690    21110319.880    87615674.583 8      4934.759    21110320.460    87615676.586 8      4934.759
R08  22788266.400   122030136.547 7      -815.168    22788270.200   122030136.597 6      -815.168    22788282.840    94912385.371 7      -634.020    22788282.520    94912383.367 7      -634.020
G03  20006275.240   105133686.587 8      3072.234    20006274.640   105133686.595 8      3072.234    20006280.980    81922375.170 8      2393.949    20006280.920    81922377.179 8      2393.949
R24  20492974.320   109585141.196 7      3335.710    20492974.880   109585141.203 7      3335.710    20492985.100    85232930.561 7      2594.441    20492984.420    85232930.573 8      2594.441
G14  22085092.120   116057943.962 7      2874.292    22085090.980   116057943.978 5      2874.292    22085099.060    90434777.669 5      2239.708    22085099.320    90434785.668 8      2239.708
> 2024 06 03 14 06 40.0000000  0 14
G22  23625353.640   124152073.761 7      4154.348    23625353.080   124152073.779 4      4154.348    23625358.880    96741899.150 4      3237.154
R15  22815898.600   121921235.695 7      2363.732    22815896.960   121921235.691 6      2363.732    22815911.860    94827690.584 7      1838.458    22815911.200    94827686.584 7      1838.458
G02  21738214.160   114235085.257 7      2106.878    21738212.840   114235085.257 6      2106.878    21738216.060    89014358.248 6      1641.723
R14  22573439.260   120329125.623 6      -195.725    22573438.420   120329125.626 6      -195.725    22573454.920    93589375.076 7      -152.230    22573455.180    93589380.096 7      -152.230
R01  19574829.880   104638674.825 7      2829.352    19574830.760   104638674.839 7      2829.352    19574841.160    81385688.014 7      2200.607    19574840.300    81385684.008 7      2200.607
G08  22171503.960   116512034.833 7       150.201    22171502.900   116512034.835 7       150.201    22171513.180    90788629.745 7       117.039    22171514.020    90788633.750 8       117.039
G04  23321801.020   122556902.702 6      5679.989    23321800.180   122556902.718 4      5679.989    23321811.840    95498903.541 4      4425.966    23321812.320    95498934.580 7      4425.966
G21  22274000.320   117050640.194 7      1345.937    22273998.400   117050640.199 6      1345.937    22274003.220    91208301.527 6      1048.782
G17  23457373.820   123269335.796 7      5503.945    23457373.240   123269335.801 4      5503.945    23457379.420    96054052.427 5      4288.788    23457377.620    96054040.438 6      4288.788
R02  21109118.880   112642312.019 7      6344.383    21109117.660   112642312.015 7      6344.383    21109130.840    87610739.937 8      4934.520    21109131.620    87610741.944 8      4934.520
R08  22788418.680   122030951.879 7      -815.395    22788422.540   122030951.918 6      -815.395    22788434.700    94913019.516 7      -634.196    22788434.660    94913017.510 7      -634.196
G03  20005690.640   105130614.562 8      3071.794    20005689.920   105130614.567 8      3071.794    20005696.100    81919981.386 8      2393.606    20005696.420    81919983.393 8      2393.606
R24  20492350.500   109581805.551 7      3335.538    20492350.480   109581805.560 7      3335.538    20492361.260    85230336.178 7      2594.307    20492360.740    85230336.191 7      2594.307
G14  22084545.400   116055070.094 7      2873.490    22084544.100   116055070.106 5      2873.490    22084552.040    90432538.291 5      2239.083    22084552.420    90432546.286 8      2239.083
> 2024 06 03 14 06 41.0000000  0 14
G22  23624563.040   124147919.608 7      4154.062    23624562.600   124147919.626 4      4154.062    23624568.180    96738662.150 4      3236.932
R15  22815456.380   121918872.309 7      2363.025    22815454.420   121918872.316 7      2363.025    22815469.760    94825852.394 7      1837.909    22815469.540    94825848.393 7      1837.909
G02  21737813.560   114232978.366 7      2106.953    21737811.900   114232978.368 6      2106.953    21737815.100    89012716.519 6      1641.782
R14  22573475.980   120329321.497 6      -196.001    22573474.700   120329321.511 6      -196.001    22573491.660    93589527.416 7      -152.445    22573491.900    93589532.424 7      -152.445
R01  19574300.700   104635845.806 7      2828.621    19574301.440   104635845.820 7      2828.621    19574311.760    81383487.663 7      2200.038    19574311.040    81383483.656 7      2200.038
G08  22171475.440   116511884.864 7       149.879    22171474.420   116511884.869 7       149.879    22171484.740    90788512.880 7       116.789    22171485.740    90788516.885 8       116.789
G04  23320720.060   122551222.689 6      5680.058    23320719.120   122551222.705 4      5680.058    23320731.120    95494477.579 4      4426.020    23320732.060    95494508.600 7      4426.020
G21  22273743.780   117049294.283 7      1345.942    22273742.060   117049294.285 6      1345.942    22273747.020    91207252.758 6      1048.786
G17  23456326.220   123263831.921 7      5503.972    23456325.760   123263831.924 4      5503.972    23456332.120    96049763.698 5      4288.809    23456330.500    96049751.694 6      4288.809
R02  21107930.140   112635967.877 7      6343.917    21107929.040   112635967.875 7      6343.917    21107942.360    87605805.612 8      4934.158    21107942.640    87605807.618 8      4934.158
R08  22788571.280   122031767.596 7      -815.936    22788575.720   122031767.644 6      -815.936    22788587.240    94913653.958 7      -634.617    22788587.100    94913651.953 7      -634.617
G03  20005106.180   105127543.159 8      3071.098    20005105.540   105127543.164 8      3071.098    20005111.800    81917588.085 8      2393.063    20005111.900    81917590.094 8      2393.063
R24  20491726.400   109578469.970 7      3335.599    20491726.840   109578469.974 7      3335.599    20491737.320    85227741.831 7      2594.355    20491737.100    85227741.844 7      2594.355
G14  22083998.600   116052196.906 7      2872.986    22083997.220   116052196.918 5      2872.986    22084005.080    90430299.439 5      2238.691    22084005.720    90430307.436 8      2238.691
> 2024 06 03 14 06 42.0000000  0 14
G22  23623772.680   124143765.957 7      4153.461    23623772.200   124143765.972 4      4153.461    23623777.660    96735425.532 4      3236.463
R15  22815014.600   121916509.642 7      2362.235    22815013.080   121916509.651 7      2362.235    22815027.460    94824014.768 7      1837.294    22815027.420    94824010.766 7      1837.294
G02  21737412.760   114230871.599 7      2106.681    21737411.080   114230871.604 6      2106.681    21737414.380    89011074.878 6      1641.570
R14  22573513.580   120329517.569 6      -196.291    22573511.480   120329517.577 6      -196.291    22573528.780    93589679.902 7      -152.671    22573528.840    93589684.918 7      -152.671
R01  19573771.560   104633017.722 7      2827.718    19573772.100   104633017.737 7      2827.718    19573782.760    81381288.045 7      2199.337    19573782.140    81381284.038 7      2199.337
G08  22171447.180   116511735.190 7       149.586    22171445.900   116511735.193 7       149.586    22171456.280    90788396.243 7       116.561    22171457.520    90788400.256 8       116.561
G04  23319639.280   122545542.684 6      5679.983    23319638.240   122545542.700 4      5679.983    23319650.100    95490051.601 4      4425.961    23319650.980    95490082.624 7      4425.961
G21  22273487.660   117047948.410 7      1345.869    22273486.000   117047948.415 5      1345.869    22273491.140    91206204.031 6      1048.729
G17  23455278.840   123258328.112 7      5503.708    23455278.500   123258328.117 4      5503.708    23455284.760    96045475.020 5      4288.604    23455283.300    96045463.032 6      4288.604
R02  21106741.200   112629624.074 7      6343.549    21106739.980   112629624.069 7      6343.549    21106753.160    87600871.549 8      4933.872    21106753.760    87600873.557 8      4933.872
R08  22788723.420   122032583.833 7      -816.463    22788727.660   122032583.886 6      -816.463    22788739.520    94914288.805 7      -635.027    22788739.600    94914286.800 7      -635.027
G03  20004521.760   105124472.311 8      3070.538    20004521.120   105124472.313 8      3070.538    20004527.500    81915195.216 8      2392.627    20004527.840    81915197.221 8      2392.627
R24  20491103.020   109575134.584 8      3335.349    20491103.200   109575134.593 7      3335.349    20491113.540    85225147.638 7      2594.160    20491113.420    85225147.653 7      2594.160
G14  22083451.980   116049324.325 7      2872.185    22083450.680   116049324.337 5      2872.185    22083458.440    90428061.068 5      2238.066    22083459.020    90428069.068 8      2238.066
> 2024 06 03 14 06 43.0000000  0 14
G22  23622982.120   124139612.861 7      4152.890    23622981.860   124139612.879 4      4152.890    23622987.420    96732189.357 4      3236.018
R15  22814572.020   121914147.803 7      2361.372    22814571.320   121914147.820 7      2361.372    22814585.320    94822177.780 7      1836.623    22814585.340    94822173.772 7      1836.623
G02  21737011.820   114228764.753 7      2106.994    21737010.180   114228764.758 6      2106.994    21737013.300    89009433.173 6      1641.814
R14  22573550.420   120329714.117 6      -196.720    22573547.280   120329714.097 6      -196.720    22573566.680    93589832.731 7      -153.005    22573565.740    93589837.733 7      -153.005
R01  19573242.200   104630190.462 7      2827.010    19573242.720   104630190.474 7      2827.010    19573253.840    81379089.073 7      2198.785    19573253.020    81379085.062 7      2198.785
G08  22171418.720   116511585.769 7       149.498    22171417.140   116511585.776 7       149.498    22171427.540    90788279.809 7       116.492    22171429.020    90788283.828 8       116.492
G04  23318558.500   122539862.661 6      5680.157    23318557.320   122539862.677 4      5680.157    23318569.340    95485625.617 4      4426.096    23318569.800    95485656.644 7      4426.096
G21  22273231.720   117046602.409 7      1346.211    22273229.900   117046602.411 6      1346.211    22273235.220    91205155.195 6      1048.996
G17  23454231.520   123252824.351 7      5503.811    23454231.020   123252824.356 5      5503.811    23454237.400    96041186.378 5      4288.684    23454235.440    96041174.385 6      4288.684
R02  21105552.700   112623280.689 7      6343.286    21105551.700   112623280.679 7      6343.286    21105564.500    87595937.814 8      4933.667    21105565.060    87595939.826 8      4933.667
R08  22788876.240   122033400.410 7      -816.637    22788880.080   122033400.452 6      -816.637    22788892.500    94914923.904 7      -635.162    22788892.260    94914921.897 7      -635.162
G03  20003937.580   105121402.046 8      3070.072    20003937.080   105121402.048 8      3070.072    20003943.420    81912802.796 8      2392.264    20003943.840    81912804.803 8      2392.264
R24  20490479.300   109571799.291 8      3335.318    20490480.280   109571799.295 7      3335.318    20490490.060    85222553.515 7      2594.136    20490489.740    85222553.522 8      2594.136
G14  22082905.600   116046452.432 7      2871.587    22082904.280   116046452.442 5      2871.587    22082912.060    90425823.230 5      2237.600    22082912.580    90425831.217 8      2237.600
> 2024 06 03 14 06 44.0000000  0 14
G22  23622191.780   124135460.182 7      4152.558    23622191.660   124135460.200 4      4152.558    23622197.400    96728953.504 4      3235.760
R15  22814130.320   121911786.573 7      2361.096    22814130.160   121911786.582 7      2361.096    22814143.820    94820341.270 7      1836.408    22814143.700    94820337.262 7      1836.408
G02  21736610.920   114226658.159 7      2106.677    21736609.300   114226658.164 6      2106.677    21736612.260    89007791.669 6      1641.567
R14  22573587.200   120329910.754 6      -196.523    22573583.680   120329910.749 6      -196.523    22573603.260    93589985.687 7      -152.851    22573602.660    93589990.699 7      -152.851
R01  19572713.440   104627364.332 7      2825.731    19572713.980   104627364.342 7      2825.731    19572725.020    81376890.962 7      2197.791    19572724.280    81376886.952 7      2197.791
G08  22171390.320   116511436.917 7       148.727    22171388.800   116511436.917 7       148.727    22171398.980    90788163.812 7       115.891    22171400.260    90788167.831 7       115.891
G04  23317477.500   122534182.843 6      5679.655    23317476.300   122534182.861 4      5679.655    23317488.440    95481199.793 4      4425.705    23317489.180    95481230.828 7      4425.705
G21  22272975.460   117045256.658 7      1345.902    22272974.080   117045256.657 6      1345.902    22272979.360    91204106.555 6      1048.754
G17  23453184.240   123247320.584 7      5504.019    23453183.400   123247320.592 5      5504.019    23453190.080    96036897.737 5      4288.846    23453188.220    96036885.776 6      4288.846
R02  21104363.820   112616937.844 7      6342.640    21104363.100   112616937.837 7      6342.640    21104375.820    87591004.502 8      4933.164    21104376.300    87591006.514 8      4933.164
R08  22789028.280   122034217.684 7      -817.540    22789032.560   122034217.736 6      -817.540    22789045.120    94915559.569 7      -635.865    22789044.840    94915557.568 7      -635.865
G03  20003353.340   105118332.411 8      3069.461    20003352.980   105118332.414 8      3069.461    20003359.220    81910410.877 8      2391.787    20003359.640    81910412.884 8      2391.787
R24  20489855.480   109568464.293 8      3334.978    20489856.700   109568464.305 7      3334.978    20489866.520    85219959.638 7      2593.872    20489866.140    85219959.647 8      2593.872
G14  22082359.400   116043581.062 7      2871.223    22082358.160   116043581.075 5      2871.223    22082365.480    90423585.799 5      2237.317    22082366.140    90423593.792 8      2237.317
> 2024 06 03 14 06 45.0000000  0 14
G22  23621401.860   124131307.955 7      4152.280    23621401.540   124131307.970 4      4152.280    23621407.240    96725718.002 4      3235.543
R15  22813688.800   121909426.083 7      2360.490    22813688.780   121909426.095 7      2360.490    22813702.000    94818505.338 7      1835.937    22813702.080    94818501.336 7      1835.937
G02  21736209.820   114224551.404 7      2106.848    21736208.280   114224551.409 6      2106.848    21736211.220    89006150.038 6      1641.700
R14  22573623.800   120330107.902 6      -196.978    22573621.160   120330107.889 6      -196.978    22573640.300    93590138.992 7      -153.205    22573639.840    93590143.995 7      -153.205
R01  19572184.700   104624538.895 7      2825.012    19572185.060   104624538.915 7      2825.012    19572196.840    81374693.416 7      2197.232    19572195.680    81374689.404 7      2197.232
G08  22171361.980   116511288.239 7       148.480    22171360.400   116511288.244 7       148.480    22171370.520    90788047.955 7       115.699    22171371.980    90788051.980 7       115.699
G04  23316396.360   122528502.980 6      5679.700    23316395.300   122528502.998 4      5679.700    23316407.600    95476773.936 4      4425.740    23316408.300    95476804.975 7      4425.740
G21  22272719.540   117043910.685 7      1346.034    22272717.980   117043910.688 6      1346.034    22272723.280    91203057.743 6      1048.858
G17  23452137.120   123241816.817 7      5504.055    23452135.980   123241816.822 5      5504.055    23452142.720    96032609.092 5      4288.874    23452140.820    96032597.117 6      4288.874
R02  21103175.140   112610595.436 7      6342.223    21103174.480   112610595.423 7      6342.223    21103187.160    87586071.522 8      4932.840    21103187.740    87586073.532 8      4932.840
R08  22789181.260   122035035.208 7      -817.744    22789184.960   122035035.250 6      -817.744    22789197.920    94916195.407 7      -636.023    22789197.480    94916193.404 7      -636.023
G03  20002769.220   105115263.295 8      3069.005    20002768.980   105115263.294 8      3069.005    20002775.260    81908019.353 8      2391.432    20002775.500    81908021.364 8      2391.432
R24  20489231.780   109565129.209 7      3335.149    20489232.960   109565129.224 7      3335.149    20489242.820    85217365.680 8      2594.005    20489242.600    85217365.688 7      2594.005
G14  22081813.040   116040710.328 7      2870.741    22081811.960   116040710.336 5      2870.741    22081819.300    90421348.859 5      2236.941    22081820.140    90421356.844 8      2236.941
> 2024 06 03 14 06 46.0000000  0 14
G22  23620611.720   124127156.049 7      4151.786    23620611.520   124127156.059 4      4151.786    23620617.300    96722482.745 4      3235.158
R15  22813246.900   121907066.119 7      2359.721    22813247.080   121907066.134 7      2359.721    22813260.820    94816669.804 7      1835.338    22813260.540    94816665.809 7      1835.338
G02  21735808.960   114222444.658 8      2106.817    21735807.340   114222444.660 6      2106.817    21735810.280    89004508.416 6      1641.676
R14  22573660.720   120330305.122 6      -197.444    22573657.720   120330305.117 6      -197.444    22573677.400    93590292.389 7      -153.568    22573676.880    93590297.393 7      -153.568
R01  19571656.200   104621714.329 7      2824.252    19571656.640   104621714.349 7      2824.252    19571668.140    81372496.529 7      2196.640    19571667.440    81372492.511 7      2196.640
G08  22171333.960   116511139.845 7       148.449    22171332.300   116511139.844 7       148.449    22171342.600    90787932.317 7       115.674    22171343.420    90787936.342 8       115.674
G04  23315315.560   122522823.059 6      5680.103    23315314.260   122522823.077 4      5680.103    23315326.760    95472348.030 4      4426.055    23315327.860    95472379.063 7      4426.055
G21  22272463.500   117042564.695 7      1346.102    22272461.940   117042564.700 6      1346.102    22272467.220    91202008.920 6      1048.910
G17  23451089.700   123236312.935 7      5503.875    23451088.620   123236312.940 5      5503.875    23451095.140    96028320.356 5      4288.734    23451093.320    96028308.371 6      4288.734
R02  21101986.960   112604253.292 7      6342.127    21101985.420   112604253.274 7      6342.127    21101998.620    87581138.748 8      4932.766    21101999.220    87581140.760 8      4932.766
R08  22789334.420   122035853.194 7      -818.061    22789338.400   122035853.222 6      -818.061    22789350.900    94916831.597 7      -636.270    22789350.620    94916829.598 7      -636.270
G03  20002185.460   105112194.646 8      3068.479    20002185.060   105112194.645 8      3068.479    20002191.420    81905628.200 8      2391.023    20002191.540    81905630.205 8      2391.023
R24  20488607.940   109561794.227 8      3334.966    20488609.620   109561794.242 7      3334.966    20488619.300    85214771.804 8      2593.863    20488619.240    85214771.809 8      2593.863
G14  22081267.020   116037840.020 7      2869.997    22081265.540   116037840.030 5      2869.997    22081273.160    90419112.257 5      2236.362    22081273.700    90419120.253 8      2236.362
> 2024 06 03 14 06 47.0000000  0 14
G22  23619821.680   124123004.602 7      4151.089    23619821.400   124123004.617 4      4151.089    23619827.360    96719247.851 4      3234.615
R15  22812805.480   121904706.866 7      2358.654    22812806.040   121904706.881 7      2358.654    22812819.340    94814834.836 7      1834.509    22812819.200    94814830.830 7      1834.509
G02  21735408.080   114220337.912 7      2106.440    21735406.440   114220337.917 6      2106.440    21735409.400    89002866.795 6      1641.382
R14  22573697.980   120330502.550 6      -197.545    22573694.740   120330502.540 6      -197.545    22573714.760    93590445.930 7      -153.646    22573713.700    93590450.942 7      -153.646
R01  19571128.120   104618890.639 7      2822.990    19571128.580   104618890.649 7      2822.990    19571139.840    81370300.320 7      2195.659    19571139.120    81370296.302 7      2195.659
G08  22171306.000   116510991.797 7       147.595    22171304.180   116510991.800 7       147.595    22171314.400    90787816.953 7       115.009    22171315.640    90787820.979 8       115.009
G04  23314235.220   122517143.225 6      5679.511    23314233.380   122517143.243 4      5679.511    23314246.000    95467922.193 4      4425.593    23314246.680    95467953.220 7      4425.593
G21  22272207.340   117041218.665 7      1345.754    22272205.720   117041218.667 6      1345.754    22272211.120    91200960.067 6      1048.639
G17  23450042.160   123230809.026 7      5503.735    23450041.260   123230809.034 5      5503.735    23450047.700    96024031.602 5      4288.624    23450045.820    96024019.605 6      4288.624
R02  21100798.340   112597911.570 7      6341.268    21100797.200   112597911.563 7      6341.268    21100810.180    87576206.312 8      4932.098    21100810.920    87576208.322 8      4932.098
R08  22789487.340   122036671.570 7      -818.925    22789491.200   122036671.601 6      -818.925    22789503.920    94917468.106 7      -636.942    22789503.260    94917466.105 7      -636.942
G03  20001601.600   105109126.546 8      3067.618    20001601.220   105109126.548 8      3067.618    20001607.640    81903237.473 8      2390.352    20001607.740    81903239.482 8      2390.352
R24  20487984.780   109558459.352 8      3334.587    20487985.960   109558459.361 7      3334.587    20487995.520    85212178.006 8      2593.567    20487995.560    85212178.007 8      2593.567
G14  22080720.880   116034970.298 7      2869.261    22080719.660   116034970.313 5      2869.261    22080727.020    90416876.108 5      2235.787    22080727.660    90416884.103 8      2235.787
> 2024 06 03 14 06 48.0000000  0 14
G22  23619032.100   124118853.728 7      4150.685    23619031.280   124118853.746 4      4150.685    23619037.260    96716013.406 4      3234.300
R15  22812364.180   121902348.362 7      2358.286    22812365.340   121902348.371 7      2358.286    22812378.060    94813000.433 7      1834.222    22812378.100    94812996.442 7      1834.222
G02  21735007.520   114218231.412 7      2106.623    21735005.780   114218231.423 6      2106.623    21735008.680    89001225.371 6      1641.524
R14  22573734.920   120330700.389 6      -197.966    22573733.260   120330700.400 6      -197.966    22573750.740    93590599.823 7      -153.974    22573751.020    93590604.839 7      -153.974
R01  19570600.540   104616068.110 7      2822.229    19570600.560   104616068.130 7      2822.229    19570612.160    81368105.022 7      2195.067    19570611.160    81368101.008 7      2195.067
G08  22171277.700   116510844.365 7       147.357    22171276.560   116510844.367 7       147.357    22171286.760    90787702.067 7       114.824    22171287.960    90787706.080 8       114.824
G04  23313154.580   122511463.656 6      5679.664    23313152.700   122511463.674 4      5679.664    23313165.160    95463496.563 4      4425.713    23313165.980    95463527.598 7      4425.713
G21  22271951.200   117039872.908 7      1345.865    22271949.680   117039872.910 6      1345.865    22271954.980    91199911.417 6      1048.726
G17  23448995.180   123225305.230 7      5503.930    23448993.900   123225305.235 5      5503.930    23449000.300    96019742.932 5      4288.776    23448998.520    96019730.933 6      4288.776
R02  21099610.220   112591570.549 7      6340.853    21099608.460   112591570.537 7      6340.853    21099621.900    87571274.399 8      4931.775    21099622.580    87571276.408 8      4931.775
R08  22789640.820   122037490.621 7      -819.081    22789644.160   122037490.655 6      -819.081    22789655.700    94918105.140 7      -637.063    22789656.140    94918103.134 7      -637.063
G03  20001017.920   105106059.210 8      3067.102    20001017.340   105106059.210 8      3067.102    20001023.840    81900847.344 8      2389.950    20001024.260    81900849.349 8      2389.950
R24  20487360.920   109555124.813 7      3334.588    20487361.920   109555124.828 7      3334.588    20487371.760    85209584.483 7      2593.568    20487371.680    85209584.485 8      2593.568
G14  22080174.800   116032101.280 7      2868.737    22080173.640   116032101.287 5      2868.737    22080180.880    90414640.505 5      2235.379    22080181.740    90414648.503 8      2235.379
> 2024 06 03 14 06 49.0000000  0 14
G22  23618242.380   124114703.280 7      4150.135    23618241.440   124114703.296 4      4150.135    23618247.220    96712779.285 4      3233.872
R15  22811922.840   121899990.642 7      2357.227    22811924.340   121899990.654 7      2357.227    22811937.020    94811166.647 7      1833.399    22811937.220    94811162.654 7      1833.399
G02  21734606.540   114216124.766 7      2106.583    21734605.080   114216124.773 6      2106.583    21734607.880    88999583.831 6      1641.493
R14  22573771.880   120330898.502 6      -198.422    22573771.440   120330898.494 6      -198.422    22573787.260    93590753.890 7      -154.329    22573787.780    93590758.902 7      -154.329
R01  19570072.680   104613246.222 7      2821.277    19570072.780   104613246.245 7      2821.277    19570084.380    81365910.224 7      2194.327    19570083.200    81365906.212 7      2194.327
G08  22171249.860   116510696.961 7       147.122    22171248.540   116510696.961 7       147.122    22171259.000    90787587.202 7       114.640    22171260.140    90787591.211 8       114.640
G04  23312073.440   122505783.877 7      5679.598    23312072.120   122505783.900 4      5679.598    23312084.480    95459070.776 4      4425.660    23312085.520    95459101.817 7      4425.660
G21  22271695.020   117038526.883 7      1345.970    22271693.520   117038526.883 6      1345.970    22271698.500    91198862.567 6      1048.808
G17  23447947.560   123219801.443 7      5503.690    23447946.640   123219801.445 5      5503.690    23447953.100    96015454.273 5      4288.589    23447951.200    96015442.269 6      4288.589
R02  21098422.040   112585229.670 7      6340.597    21098420.220   112585229.663 7      6340.597    21098433.700    87566342.618 8      4931.575    21098434.420    87566344.628 8      4931.575
R08  22789794.140   122038309.897 7      -819.543    22789797.220   122038309.947 6      -819.543    22789808.700    94918742.365 7      -637.422    22789808.980    94918740.357 7      -637.422
G03  20000434.360   105102992.290 8      3066.569    20000433.640   105102992.292 8      3066.569    20000440.280    81898457.538 8      2389.535    20000440.620    81898459.541 8      2389.535
R24  20486737.180   109551790.187 7      3334.580    20486738.240   109551790.188 7      3334.580    20486748.120    85206990.876 7      2593.562    20486748.320    85206990.878 8      2593.562
G14  22079628.800   116029232.839 7      2867.937    22079627.640   116029232.852 5      2867.937    22079634.800    90412405.357 5      2234.756    22079635.880    90412413.361 8      2234.756
> 2024 06 03 14 06 50.0000000  0 14
G22  23617452.580   124110553.437 7      4149.408    23617451.480   124110553.449 4      4149.408    23617457.400    96709545.644 4      3233.305
R15  22811482.000   121897633.733 7      2356.414    22811483.400   121897633.747 7      2356.414    22811495.880    94809333.491 7      1832.766    22811496.020    94809329.500 7      1832.766
G02  21734205.660   114214018.235 8      2106.287    21734204.120   114214018.237 6      2106.287    21734206.800    88997942.376 6      1641.263
R14  22573809.040   120331096.996 7      -198.747    22573807.440   120331096.988 6      -198.747    22573825.380    93590908.268 7      -154.581    22573824.880    93590913.276 7      -154.581
R01  19569544.860   104610425.275 7      2820.319    19569545.000   104610425.292 7      2820.319    19569556.520    81363716.152 7      2193.582    19569555.620    81363712.136 7      2193.582
G08  22171221.760   116510549.928 7       146.720    22171220.540   116510549.930 7       146.720    22171230.880    90787472.629 7       114.328    22171232.520    90787476.648 8       114.328
G04  23310992.500   122500104.185 7      5679.641    23310991.500   122500104.205 4      5679.641    23311003.740    95454645.050 4      4425.694    23311004.900    95454676.083 7      4425.694
G21  22271438.620   117037180.919 7      1345.692    22271437.460   117037180.926 6      1345.692    22271442.540    91197813.763 6      1048.591
G17  23446900.440   123214297.773 7      5503.441    23446899.380   123214297.770 5      5503.441    23446905.780    96011165.695 5      4288.396    23446903.820    96011153.687 6      4288.396
R02  21097233.720   112578889.338 7      6340.027    21097232.500   112578889.336 7      6340.027    21097245.600    87561411.268 8      4931.132    21097246.340    87561413.279 8      4931.132
R08  22789947.180   122039129.711 7      -820.371    22789950.460   122039129.777 6      -820.371    22789962.520    94919380.000 7      -638.067    22789962.240    94919377.995 7      -638.067
G03  19999850.920   105099926.043 8      3065.808    19999850.220   105099926.045 8      3065.808    19999856.880    81896068.252 8      2388.941    19999857.340    81896070.259 8      2388.941
R24  20486113.440   109548455.771 7      3334.097    20486114.780   109548455.778 7      3334.097    20486124.880    85204397.444 7      2593.186    20486124.800    85204397.446 8      2593.186
G14  22079083.140   116026365.088 7      2867.282    22079081.980   116026365.098 5      2867.282    22079088.980    90410170.748 5      2234.246    22079090.020    90410178.753 8      2234.246
> 2024 06 03 14 06 51.0000000  0 14
G22  23616663.200   124106404.026 7      4148.988    23616661.860   124106404.039 4      4148.988    23616667.600    96706312.340 4      3232.977
R15  22811041.160   121895277.531 7      2355.604    22811043.140   121895277.559 7      2355.604    22811055.300    94807500.898 7      1832.136    22811055.100    94807496.901 7      1832.136
G02  21733804.620   114211911.683 7      2106.415    21733803.140   114211911.685 6      2106.415    21733806.000    88996300.899 6      1641.362
R14  22573846.300   120331295.754 7      -199.149    22573844.260   120331295.739 6      -199.149    22573862.720    93591062.839 7      -154.894    22573862.300    93591067.849 7      -154.894
R01  19569017.400   104607605.156 7      2819.665    19569017.080   104607605.163 7      2819.665    19569029.080    81361522.716 7      2193.073    19569028.160    81361518.706 7      2193.073
G08  22171193.860   116510403.141 7       146.402    22171192.440   116510403.144 7       146.402    22171202.880    90787358.242 7       114.080    22171204.360    90787362.261 8       114.080
G04  23309911.780   122494424.440 6      5679.482    23309910.780   122494424.458 4      5679.482    23309922.840    95450219.281 4      4425.571    23309923.720    95450250.306 7      4425.571
G21  22271182.600   117035834.907 7      1345.812    22271181.240   117035834.909 5      1345.812    22271186.460    91196764.917 6      1048.685
G17  23445853.040   123208794.085 7      5503.453    23445852.060   123208794.085 5      5503.453    23445858.520    96006877.115 5      4288.405    23445856.800    96006865.126 6      4288.405
R02  21096045.600   112572549.324 7      6339.638    21096044.420   112572549.324 7      6339.638    21096057.360    87556480.149 8      4930.829    21096058.300    87556482.163 8      4930.829
R08  22790100.080   122039949.948 7      -820.593    22790104.260   122039950.011 6      -820.593    22790115.540    94920017.960 7      -638.239    22790115.420    94920015.957 7      -638.239
G03  19999267.340   105096860.276 8      3065.306    19999266.920   105096860.281 8      3065.306    19999273.580    81893679.345 8      2388.551    19999274.180    81893681.350 8      2388.551
R24  20485490.180   109545121.463 7      3334.128    20485491.500   109545121.475 7      3334.128    20485501.200    85201804.093 7      2593.211    20485501.180    85201804.093 8      2593.211
G14  22078537.600   116023497.888 7      2866.677    22078536.080   116023497.901 5      2866.677    22078543.500    90407936.568 5      2233.775    22078544.420    90407944.567 8      2233.775
> 2024 06 03 14 06 52.0000000  0 14
G22  23615873.320   124102255.189 7      4148.731    23615872.440   124102255.205 4      4148.731    23615878.200    96703079.484 4      3232.778
R15  22810599.860   121892922.187 7      2355.114    22810602.020   121892922.207 7      2355.114    22810614.680    94805668.962 7      1831.755    22810614.120    94805664.960 7      1831.755
G02  21733403.740   114209805.299 7      2106.486    21733402.220   114209805.304 6      2106.486    21733405.100    88994659.559 6      1641.417
R14  22573883.680   120331495.053 7      -199.245    22573881.640   120331495.024 6      -199.245    22573900.620    93591217.819 7      -154.968    22573900.000    93591222.824 7      -154.968
R01  19568489.920   104604786.171 7      2818.641    19568489.500   104604786.172 7      2818.641    19568501.380    81359330.172 7      2192.276    19568500.860    81359326.162 7      2192.276
G08  22171165.860   116510256.946 7       146.073    22171164.700   116510256.951 7       146.073    22171174.920    90787244.313 7       113.823    22171176.220    90787248.337 8       113.823
G04  23308830.600   122488745.003 6      5679.527    23308829.880   122488745.018 4      5679.527    23308842.360    95445793.762 4      4425.606    23308843.020    95445824.784 7      4425.606
G21  22270926.440   117034489.011 7      1346.010    22270925.100   117034489.011 6      1346.010    22270930.620    91195716.163 6      1048.839
G17  23444805.820   123203290.528 7      5503.724    23444804.740   123203290.523 5      5503.724    23444811.080    96002588.627 4      4288.616    23444808.720    96002576.624 6      4288.616
R02  21094857.720   112566210.013 7      6339.308    21094857.080   112566210.003 7      6339.308    21094869.680    87551549.581 8      4930.573    21094870.500    87551551.593 8      4930.573
R08  22790253.280   122040770.790 7      -820.910    22790257.120   122040770.848 6      -820.910    22790269.580    94920656.372 7      -638.486    22790268.640    94920654.373 7      -638.486
G03  19998684.140   105093795.292 8      3064.770    19998683.720   105093795.300 8      3064.770    19998690.320    81891291.048 8      2388.132    19998690.780    81891293.053 8      2388.132
R24  20484866.760   109541787.440 7      3334.026    20484867.560   109541787.460 7      3334.026    20484877.700    85199210.970 7      2593.131    20484877.760    85199210.971 8      2593.131
G14  22077992.220   116020631.466 7      2866.309    22077990.780   116020631.476 5      2866.309    22077998.140    90405702.988 5      2233.487    22077998.720    90405710.979 8      2233.487
> 2024 06 03 14 06 53.0000000  0 14
G22  23615083.760   124098106.683 7      4148.080    23615083.040   124098106.698 4      4148.080    23615088.840    96699846.881 4      3232.270
R15  22810159.200   121890567.378 7      2354.227    22810161.580   121890567.392 7      2354.227    22810173.680    94803837.435 7      1831.065    22810173.160    94803833.431 7      1831.065
G02  21733002.880   114207698.892 7      2106.152    21733001.280   114207698.894 6      2106.152    21733004.160    88993018.200 6      1641.157
R14  22573921.160   120331694.419 6      -199.728    22573919.140   120331694.414 6      -199.728    22573938.220    93591372.893 7      -155.344    22573937.400    93591377.903 7      -155.344
R01  19567962.740   104601967.985 7      2817.578    19567962.480   104601967.991 7      2817.578    19567974.540    81357138.251 7      2191.450    19567973.680    81357134.242 7      2191.450
G08  22171138.260   116510110.988 7       145.678    22171136.840   116510110.995 7       145.678    22171147.180    90787130.579 7       113.515    22171148.440    90787134.599 8       113.515
G04  23307750.180   122483065.515 6      5679.349    23307749.060   122483065.533 4      5679.349    23307761.540    95441368.189 4      4425.467    23307762.100    95441399.226 7      4425.467
G21  22270670.140   117033143.073 7      1345.801    22270668.980   117033143.081 6      1345.801    22270674.380    91194667.380 6      1048.676
G17  23443758.420   123197786.830 7      5503.530    23443757.460   123197786.827 5      5503.530    23443763.620    95998300.033 4      4288.465    23443761.840    95998288.017 6      4288.465
R02  21093669.680   112559870.978 7      6338.757    21093669.200   112559870.976 7      6338.757    21093681.940    87546619.230 8      4930.145    21093682.640    87546621.242 8      4930.145
R08  22790406.680   122041592.037 7      -821.538    22790410.540   122041592.090 6      -821.538    22790423.160    94921295.109 7      -638.974    22790422.020    94921293.110 7      -638.974
G03  19998101.180   105090730.750 8      3064.125    19998100.440   105090730.755 8      3064.125    19998107.120    81888903.091 8      2387.630    19998107.740    81888905.094 8      2387.630
R24  20484243.180   109538453.447 7      3333.689    20484244.000   109538453.462 7      3333.689    20484254.080    85196617.860 7      2592.869    20484254.280    85196617.863 8      2592.869
G14  22077446.640   116017765.456 7      2865.579    22077445.340   116017765.464 5      2865.579    22077452.780    90403469.728 5      2232.919    22077453.340    90403477.727 8      2232.919
> 2024 06 03 14 06 54.0000000  0 14
G22  23614294.240   124093958.649 7      4147.768    23614293.540   124093958.662 4      4147.768    23614299.380    96696614.643 4      3232.027
R15  22809718.460   121888213.279 7      2353.658    22809721.000   121888213.293 7      2353.658    22809733.200    94802006.465 7      1830.623    22809732.680    94802002.463 7      1830.623
G02  21732602.100   114205592.524 7      2106.258    21732600.500   114205592.529 6      2106.258    21732603.360    88991376.871 6      1641.240
R14  22573958.940   120331894.102 6      -199.976    22573956.400   120331894.094 6      -199.976    22573975.400    93591528.194 7      -155.537    22573974.800    93591533.205 7      -155.537
R01  19567435.500   104599150.707 7      2816.807    19567435.700   104599150.722 7      2816.807    19567447.820    81354947.040 7      2190.850    19567447.000    81354943.028 7      2190.850
G08  22171110.280   116509965.386 7       145.392    22171109.300   116509965.391 7       145.392    22171119.620    90787017.118 7       113.292    22171121.060    90787021.133 8       113.292
G04  23306669.480   122477386.062 6      5679.504    23306668.340   122477386.075 4      5679.504    23306680.780    95436942.643 4      4425.587    23306681.080    95436973.676 7      4425.587
G21  22270414.220   117031797.153 7      1345.881    22270412.780   117031797.163 6      1345.881    22270418.360    91193618.609 6      1048.738
G17  23442711.040   123192283.179 7      5503.572    23442710.180   123192283.176 4      5503.572    23442716.400    95994011.474 4      4288.498    23442714.640    95993999.462 6      4288.498
R02  21092481.600   112553532.375 8      6338.391    21092481.740   112553532.381 7      6338.391    21092493.920    87541689.218 8      4929.859    21092494.560    87541691.230 8      4929.859
R08  22790559.940   122042413.739 7      -822.047    22790563.740   122042413.797 6      -822.047    22790576.440    94921934.210 7      -639.370    22790575.440    94921932.207 7      -639.370
G03  19997517.860   105087666.796 8      3063.608    19997517.420   105087666.801 8      3063.608    19997524.200    81886515.595 8      2387.227    19997524.760    81886517.595 8      2387.227
R24  20483619.500   109535119.577 7      3333.754    20483620.660   109535119.592 7      3333.754    20483630.800    85194024.846 7      2592.920    20483630.800    85194024.849 8      2592.920
G14  22076901.600   116014900.074 7      2864.977    22076900.080   116014900.085 5      2864.977    22076907.460    90401236.963 5      2232.450    22076908.100    90401244.966 8      2232.450
> 2024 06 03 14 06 55.0000000  0 14
G22  23613504.940   124089811.184 7      4147.170    23613504.260   124089811.204 4      4147.170    23613510.080    96693382.856 4      3231.561
R15  22809278.360   121885859.984 7      2352.940    22809281.020   121885859.994 7      2352.940    22809293.000    94800176.121 7      1830.064    22809292.340    94800172.119 7      1830.064
G02  21732201.480   114203486.232 7      2106.270    21732199.860   114203486.234 6      2106.270    21732202.440    88989735.606 6      1641.250
R14  22573996.800   120332094.123 6      -200.282    22573993.860   120332094.108 6      -200.282    22574012.520    93591683.751 7      -155.775    22574012.280    93591688.765 7      -155.775
R01  19566908.620   104596334.387 7      2815.874    19566908.780   104596334.404 7      2815.874    19566921.120    81352756.566 7      2190.124    19566919.860    81352752.553 7      2190.124
G08  22171082.660   116509820.161 7       144.966    22171081.820   116509820.168 7       144.966    22171092.100    90786903.951 7       112.961    22171093.320    90786907.968 8       112.961
G04  23305588.680   122471706.696 7      5679.344    23305587.580   122471706.708 4      5679.344    23305600.180    95432517.173 4      4425.463    23305600.520    95432548.214 7      4425.463
G21  22270158.300   117030451.268 7      1345.884    22270156.580   117030451.275 6      1345.884    22270162.160    91192569.865 6      1048.741
G17  23441663.380   123186779.620 7      5503.454    23441662.820   123186779.617 4      5503.454    23441669.180    95989722.988 4      4288.406    23441667.400    95989710.988 6      4288.406
R02  21091293.600   112547194.276 7      6337.831    21091294.060   112547194.285 7      6337.831    21091306.280    87536759.594 8      4929.424    21091306.540    87536761.606 8      4929.424
R08  22790713.340   122043235.909 7      -822.379    22790716.820   122043235.978 6      -822.379    22790730.100    94922573.676 7      -639.628    22790729.100    94922571.673 7      -639.628
G03  19996934.980   105084603.473 8      3062.991    19996934.520   105084603.478 8      3062.991    19996941.180    81884128.590 8      2386.746    19996941.880    81884130.592 8      2386.746
R24  20482996.140   109531785.884 7      3333.664    20482996.980   109531785.901 7      3333.664    20483007.380    85191431.974 8      2592.850    20483007.220    85191431.978 8      2592.850
G14  22076356.360   116012035.360 7      2864.373    22076354.940   116012035.370 5      2864.373    22076362.360    90399004.714 5      2231.979    22076362.900    90399012.721 8      2231.979
> 2024 06 03 14 06 56.0000000  0 14
G22  23612715.880   124085664.107 7      4146.625    23612715.040   124085664.122 4      4146.625    23612721.060    96690151.363 4      3231.136
R15  22808838.100   121883507.352 7      2351.990    22808840.100   121883507.367 7      2351.990    22808852.760    94798346.294 7      1829.326    22808851.980    94798342.290 7      1829.326
G02  21731800.680   114201379.854 7      2106.066    21731799.000   114201379.859 6      2106.066    21731801.500    88988094.268 6      1641.090
R14  22574034.340   120332294.302 6      -200.480    22574031.840   120332294.294 6      -200.480    22574050.320    93591839.431 7      -155.929    22574050.200    93591844.445 7      -155.929
R01  19566382.000   104593518.801 7      2814.919    19566381.960   104593518.819 7      2814.919    19566394.180    81350566.668 7      2189.382    19566393.300    81350562.659 7      2189.382
G08  22171055.220   116509675.069 7       144.715    22171054.220   116509675.074 7       144.715    22171064.420    90786790.882 7       112.765    22171065.440    90786794.898 8       112.765
G04  23304507.900   122466027.219 7      5679.317    23304506.980   122466027.229 4      5679.317    23304519.480    95428091.617 4      4425.442    23304520.040    95428122.646 7      4425.442
G21  22269902.140   117029105.209 7      1345.777    22269900.480   117029105.216 6      1345.777    22269906.040    91191520.988 6      1048.658
G17  23440616.380   123181276.002 7      5503.273    23440615.540   123181275.997 4      5503.273    23440621.880    95985434.453 4      4288.265    23440620.040    95985422.439 6      4288.265
R02  21090105.820   112540856.446 8      6337.478    21090106.800   112540856.450 7      6337.478    21090118.540    87531830.179 8      4929.150    21090118.960    87531832.189 8      4929.150
R08  22790867.140   122044058.393 7      -822.828    22790870.400   122044058.467 6      -822.828    22790884.060    94923213.379 7      -639.977    22790882.760    94923211.376 7      -639.977
G03  19996352.160   105081540.610 8      3062.362    19996351.620   105081540.610 8      3062.362    19996358.240    81881741.939 8      2386.256    19996359.000    81881743.942 8      2386.256
R24  20482372.700   109528452.212 7      3333.297    20482373.180   109528452.224 7      3333.297    20482384.080    85188839.122 8      2592.564    20482383.740    85188839.124 8      2592.564
G14  22075811.220   116009171.182 7      2863.655    22075809.840   116009171.192 5      2863.655    22075817.260    90396772.886 5      2231.419    22075818.160    90396780.882 8      2231.419
> 2024 06 03 14 06 57.0000000  0 14
G22  23611926.460   124081517.550 7      4146.421    23611925.920   124081517.565 4      4146.421    23611932.140    96686920.282 4      3230.978
R15  22808398.100   121881155.487 7      2351.491    22808400.160   121881155.494 7      2351.491    22808412.840    94796517.061 7      1828.937    22808411.940    94796513.053 7      1828.937
G02  21731399.900   114199273.609 7      2106.130    21731398.080   114199273.614 6      2106.130    21731400.680    88986453.035 6      1641.141
R14  22574072.220   120332494.707 6      -200.547    22574069.460   120332494.707 6      -200.547    22574088.240    93591995.302 7      -155.981    22574087.720    93592000.320 7      -155.981
R01  19565855.280   104590704.183 7      2814.077    19565855.400   104590704.198 7      2814.077    19565867.440    81348377.519 7      2188.726    19565866.660    81348373.510 7      2188.726
G08  22171027.660   116509530.372 7       144.392    22171026.600   116509530.379 7       144.392    22171036.780    90786678.125 7       112.513    22171037.680    90786682.144 8       112.513
G04  23303427.340   122460347.792 6      5679.244    23303426.140   122460347.799 4      5679.244    23303438.800    95423666.096 4      4425.385    23303439.160    95423697.139 7      4425.385
G21  22269645.900   117027759.263 7      1345.912    22269644.220   117027759.268 5      1345.912    22269649.980    91190472.193 6      1048.763
G17  23439569.020   123175772.448 7      5503.489    23439568.240   123175772.445 4      5503.489    23439574.360    95981145.976 4      4288.433    23439572.860    95981133.991 6      4288.433
R02  21088918.280   112534519.054 8      6337.119    21088918.720   112534519.058 7      6337.119    21088930.840    87526901.107 8      4928.870    21088931.380    87526903.117 8      4928.870
R08  22791020.880   122044881.489 7      -823.337    22791024.820   122044881.561 6      -823.337    22791037.600    94923853.563 7      -640.373    22791036.680    94923851.558 7      -640.373
G03  19995769.420   105078478.346 8      3061.931    19995768.920   105078478.348 8      3061.931    19995775.440    81879355.761 8      2385.920    19995776.000    81879357.764 8      2385.920
R24  20481749.200   109525118.756 7      3333.387    20481749.240   109525118.773 7      3333.387    20481760.640    85186246.438 8      2592.634    20481760.540    85186246.445 8      2592.634
G14  22075266.280   116006307.616 7      2863.216    22075265.140   116006307.623 5      2863.216    22075272.340    90394541.538 5      2231.078    22075273.200    90394549.536 8      2231.078
> 2024 06 03 14 06 58.0000000  0 14
G22  23611137.620   124077371.393 7      4146.082    23611136.900   124077371.406 4      4146.082    23611143.300    96683689.512 4      3230.713
R15  22807957.720   121878804.261 7      2351.016    22807960.040   121878804.272 7      2351.016    22807972.740    94794688.327 7      1828.568    22807972.020    94794684.319 7      1828.568
G02  21730999.080   114197167.346 7      2106.347    21730997.140   114197167.349 6      2106.347    21731000.040    88984811.789 6      1641.309
R14  22574109.680   120332695.429 6      -200.933    22574106.560   120332695.432 6      -200.933    22574125.720    93592151.415 7      -156.281    22574125.300    93592156.437 7      -156.281
R01  19565329.200   104587890.455 7      2813.393    19565329.060   104587890.481 7      2813.393    19565341.100    81346189.066 7      2188.195    19565340.460    81346185.059 7      2188.195
G08  22171000.000   116509386.058 7       144.386    22170999.420   116509386.060 7       144.386    22171009.340    90786565.669 7       112.509    22171010.480    90786569.682 8       112.509
G04  23302346.480   122454668.494 7      5679.370    23302345.460   122454668.501 4      5679.370    23302358.020    95419240.677 4      4425.483    23302358.260    95419271.708 7      4425.483
G21  22269389.620   117026413.283 7      1346.134    22269388.220   117026413.293 6      1346.134    22269393.940    91189423.373 6      1048.936
G17  23438522.140   123170268.813 7      5503.765    23438520.980   123170268.813 4      5503.765    23438527.100    95976857.435 4      4288.648    23438525.180    95976845.437 6      4288.648
R02  21087730.760   112528182.135 8      6336.902    21087731.240   112528182.141 7      6336.902    21087743.460    87521972.398 8      4928.701    21087743.740    87521974.408 8      4928.701
R08  22791174.400   122045704.969 7      -823.600    22791178.440   122045705.040 6      -823.600    22791191.100    94924494.037 7      -640.577    22791190.400    94924492.034 7      -640.577
G03  19995186.680   105075416.649 8      3061.516    19995186.240   105075416.651 8      3061.516    19995192.840    81876970.021 8      2385.597    19995193.540    81876972.024 8      2385.597
R24  20481125.960   109521785.389 7      3333.413    20481126.220   109521785.401 7      3333.413    20481137.460    85183653.813 7      2592.655    20481137.060    85183653.817 8      2592.655
G14  22074721.500   116003444.596 7      2862.805    22074720.320   116003444.606 5      2862.805    22074727.660    90392310.614 5      2230.757    22074728.360    90392318.614 8      2230.757
> 2024 06 03 14 06 59.0000000  0 14
G22  23610348.700   124073225.677 7      4145.514    23610347.980   124073225.692 4      4145.514    23610354.500    96680459.082 4      3230.271
R15  22807517.480   121876453.742 7      2350.195    22807520.380   121876453.754 7      2350.195    22807532.720    94792860.144 7      1827.930    22807532.340    94792856.134 7      1827.930
G02  21730597.940   114195061.073 7      2106.151    21730596.260   114195061.078 6      2106.151    21730599.260    88983170.533 6      1641.157
R14  22574146.860   120332896.375 6      -201.042    22574144.000   120332896.387 6      -201.042    22574163.060    93592307.705 7      -156.366    22574162.880    93592312.727 7      -156.366
R01  19564802.960   104585077.578 7      2812.211    19564802.720   104585077.589 7      2812.211    19564814.980    81344001.268 7      2187.275    19564814.280    81343997.256 7      2187.275
G08  22170972.720   116509241.986 7       143.831    22170971.960   116509241.991 7       143.831    22170981.940    90786453.396 7       112.076    22170982.880    90786457.414 8       112.076
G04  23301265.980   122448989.112 6      5679.209    23301264.620   122448989.122 4      5679.209    23301277.300    95414815.192 4      4425.358    23301277.480    95414846.238 7      4425.358
G21  22269133.500   117025067.229 7      1346.042    22269132.000   117025067.234 6      1346.042    22269137.820    91188374.498 6      1048.864
G17  23437474.520   123164765.186 7      5503.634    23437473.560   123164765.190 4      5503.634    23437479.700    95972568.904 4      4288.546    23437478.720    95972556.917 6      4288.546
R02  21086543.080   112521845.506 8      6336.380    21086543.540   112521845.515 7      6336.380    21086555.860    87517043.919 8      4928.296    21086556.060    87517045.931 8      4928.296
R08  22791328.900   122046528.858 7      -824.116    22791332.440   122046528.908 6      -824.116    22791344.820    94925134.821 7      -640.979    22791344.140    94925132.818 7      -640.979
G03  19994604.140   105072355.462 8      3060.801    19994603.700   105072355.470 8      3060.801    19994610.220    81874584.683 8      2385.040    19994610.980    81874586.684 8      2385.040
R24  20480502.560   109518452.099 7      3333.032    20480502.540   109518452.108 7      3333.032    20480514.180    85181061.256 7      2592.358    20480513.700    85181061.257 8      2592.358
G14  22074176.900   116000582.155 7      2862.032    22074175.520   116000582.165 5      2862.032    22074182.800    90390080.136 5      2230.155    22074183.600    90390088.142 8      2230.155
> 2024 06 03 14 07  0.0000000  0 14
G22  23609559.840   124069080.510 7      4144.835    23609559.300   124069080.528 4      4144.835    23609565.880    96677229.078 4      3229.741
R15  22807077.720   121874103.988 7      2349.331    22807080.720   121874103.991 7      2349.331    22807092.860    94791032.555 7      1827.257    22807092.560    94791028.547 7      1827.257
G02  21730197.420   114192954.870 7      2106.077    21730195.580   114192954.875 6      2106.077    21730198.460    88981529.330 6      1641.099
R14  22574184.820   120333097.759 6      -201.660    22574181.540   120333097.762 6      -201.660    22574200.840    93592464.322 7      -156.846    22574200.940    93592469.338 7      -156.846
R01  19564276.880   104582265.595 7      2811.308    19564276.880   104582265.604 7      2811.308    19564288.880    81341814.168 7      2186.573    19564288.120    81341810.161 7      2186.573
G08  22170945.360   116509098.258 7       143.356    22170944.680   116509098.268 7       143.356    22170954.520    90786341.401 7       111.706    22170955.500    90786345.418 8       111.706
G04  23300185.260   122443309.771 6      5679.228    23300183.780   122443309.784 4      5679.228    23300196.440    95410389.741 4      4425.372    23300196.580    95410420.784 7      4425.372
G21  22268877.320   117023721.217 7      1345.867    22268875.840   117023721.228 5      1345.867    22268881.680    91187325.656 6      1048.727
G17  23436427.580   123159261.642 7      5503.591    23436426.380   123159261.647 4      5503.591    23436432.400    95968280.435 4      4288.513    23436430.920    95968268.441 6      4288.513
R02  21085355.800   112515509.336 8      6335.775    21085355.840   112515509.350 7      6335.775    21085368.600    87512115.802 8      4927.825    21085368.840    87512117.813 8      4927.825
R08  22791482.540   122047353.235 7      -824.803    22791486.080   122047353.295 6      -824.803    22791498.800    94925776.009 7      -641.514    22791498.080    94925774.006 7      -641.514
G03  19994021.740   105069294.874 8      3060.255    19994021.280   105069294.877 8      3060.255    19994027.800    81872199.807 8      2384.615    19994028.420    81872201.810 8      2384.615
R24  20479879.360   109515118.967 7      3333.028    20479878.820   109515118.971 7      3333.028    20479890.900    85178468.816 8      2592.355    20479890.580    85178468.821 8      2592.355
G14  22073632.340   115997720.368 7      2861.354    22073631.100   115997720.375 5      2861.354    22073638.060    90387850.174 5      2229.627    22073639.160    90387858.169 8      2229.627
> 2024 06 03 14 07  1.0000000  0 14
G22  23608771.240   124064935.908 7      4144.660    23608770.560   124064935.924 4      4144.660    23608777.440    96673999.516 4      3229.605
R15  22806638.000   121871755.043 7      2348.761    22806641.340   121871755.047 7      2348.761    22806653.320    94789205.592 7      1826.814    22806652.700    94789201.584 7      1826.814
G02  21729796.520   114190848.876 7      2106.082    21729794.820   114190848.880 6      2106.082    21729797.780    88979888.295 6      1641.103
R14  22574223.080   120333299.547 6      -201.817    22574218.940   120333299.548 6      -201.817    22574238.600    93592621.260 7      -156.969    22574238.600    93592626.282 7      -156.969
R01  19563750.960   104579454.738 7      2810.526    19563751.140   104579454.741 7      2810.526    19563763.360    81339627.944 7      2185.965    19563762.680    81339623.932 7      2185.965
G08  22170918.060   116508955.093 7       143.089    22170917.440   116508955.103 7       143.089    22170927.340    90786229.837 7       111.498    22170927.980    90786233.854 8       111.498
G04  23299104.720   122437630.773 6      5679.005    23299102.980   122437630.786 4      5679.005    23299115.840    95405964.555 4      4425.199    23299115.920    95405995.598 7      4425.199
G21  22268621.240   117022375.369 7      1345.969    22268619.640   117022375.381 6      1345.969    22268625.440    91186276.942 6      1048.807
G17  23435379.880   123153758.246 7      5503.571    23435379.000   123153758.251 4      5503.571    23435385.220    95963992.080 4      4288.497    23435384.140    95963980.095 6      4288.497
R02  21084168.400   112509173.849 8      6335.451    21084168.760   112509173.861 7      6335.451    21084181.240    87507188.209 8      4927.573    21084181.500    87507190.217 8      4927.573
R08  22791636.760   122048178.224 7      -825.156    22791640.160   122048178.290 6      -825.156    22791652.700    94926417.666 7      -641.788    22791652.060    94926415.662 7      -641.788
G03  19993439.520   105066235.051 8      3059.683    19993438.920   105066235.056 8      3059.683    19993445.480    81869815.532 8      2384.169    19993445.920    81869817.534 8      2384.169
R24  20479255.700   109511786.164 7      3332.892    20479255.320   109511786.170 7      3332.892    20479267.560    85175876.640 8      2592.249    20479267.120    85175876.644 8      2592.249
G14  22073088.160   115994859.308 7      2860.920    22073086.680   115994859.316 5      2860.920    22073093.640    90385620.777 5      2229.288    22073094.460    90385628.775 8      2229.288
> 2024 06 03 14 07  2.0000000  0 14
G22  23607982.660   124060791.617 7      4144.071    23607981.820   124060791.632 4      4144.071    23607988.880    96670770.202 4      3229.146
R15  22806198.440   121869406.627 7      2348.045    22806201.940   121869406.636 7      2348.045    22806213.940    94787379.044 7      1826.257    22806213.040    94787375.034 7      1826.257
G02  21729395.800   114188742.710 7      2106.234    21729393.900   114188742.712 6      2106.234    21729396.980    88978247.127 6      1641.221
R14  22574260.280   120333501.458 6      -202.035    22574257.440   120333501.456 6      -202.035    22574276.720    93592778.290 7      -157.138    22574276.640    93592783.312 7      -157.138
R01  19563225.220   104576644.602 7      2809.706    19563225.420   104576644.614 7      2809.706    19563237.480    81337442.276 7      2185.327    19563236.660    81337438.271 7      2185.327
G08  22170890.920   116508812.090 7       142.923    22170890.320   116508812.095 7       142.923    22170900.240    90786118.402 7       111.369    22170901.060    90786122.415 8       111.369
G04  23298023.920   122431951.617 7      5679.022    23298022.240   122431951.629 4      5679.022    23298035.140    95401539.249 4      4425.212    23298035.560    95401570.292 7      4425.212
G21  22268364.980   117021029.336 7      1346.048    22268363.540   117021029.346 6      1346.048    22268369.320    91185228.084 6      1048.869
G17  23434332.760   123148254.647 7      5503.711    23434331.600   123148254.655 4      5503.711    23434337.820    95959703.568 4      4288.606    23434336.940    95959691.564 6      4288.606
R02  21082981.160   112502838.648 8      6334.970    21082981.840   112502838.662 7      6334.970    21082994.160    87502260.838 8      4927.199    21082994.280    87502262.850 8      4927.199
R08  22791790.640   122049003.452 7      -825.521    22791794.360   122049003.515 6      -825.521    22791807.040    94927059.499 7      -642.072    22791806.200    94927057.494 7      -642.072
G03  19992857.320   105063175.617 8      3059.169    19992856.780   105063175.624 8      3059.169    19992863.240    81867431.559 8      2383.768    19992863.680    81867433.561 8      2383.768
R24  20478632.780   109508453.261 7      3332.844    20478632.080   109508453.268 7      3332.844    20478644.320    85173284.383 8      2592.212    20478644.120    85173284.385 8      2592.212
G14  22072543.620   115991998.685 7      2860.323    22072542.380   115991998.690 5      2860.323    22072549.040    90383391.716 5      2228.823    22072549.960    90383399.713 8      2228.823
> 2024 06 03 14 07  3.0000000  0 14
G22  23607194.220   124056647.913 7      4143.596    23607193.400   124056647.926 4      4143.596    23607200.240    96667541.338 4      3228.776
R15  22805759.600   121867059.064 7      2347.262    22805762.420   121867059.078 7      2347.262    22805774.580    94785553.157 7      1825.648    22805773.960    94785549.147 7      1825.648
G02  21728994.940   114186636.705 7      2106.027    21728993.120   114186636.712 6      2106.027    21728996.080    88976606.084 6      1641.060
R14  22574297.960   120333703.766 6      -202.422    22574295.680   120333703.775 6      -202.422    22574314.720    93592935.634 7      -157.440    22574314.580    93592940.656 7      -157.440
R01  19562699.740   104573835.468 7      2808.822    19562699.900   104573835.472 7      2808.822    19562711.960    81335257.391 7      2184.640    19562711.480    81335253.381 7      2184.640
G08  22170863.780   116508669.482 7       142.630    22170863.280   116508669.486 7       142.630    22170872.960    90786007.268 7       111.141    22170873.560    90786011.282 8       111.141
G04  23296943.440   122426272.552 6      5679.233    23296941.700   122426272.560 4      5679.233    23296954.700    95397114.012 4      4425.377    23296955.020    95397145.047 7      4425.377
G21  22268108.800   117019683.385 7      1346.004    22268107.280   117019683.392 6      1346.004    22268113.140    91184179.286 6      1048.835
G17  23433285.420   123142751.240 7      5503.478    23433284.400   123142751.245 4      5503.478    23433290.420    95955415.199 4      4288.425    23433289.220    95955403.189 6      4288.425
R02  21081794.260   112496503.911 8      6334.698    21081794.940   112496503.925 7      6334.698    21081807.200    87497333.825 8      4926.987    21081807.460    87497335.839 8      4926.987
R08  22791945.260   122049829.234 7      -825.937    22791948.120   122049829.287 6      -825.937    22791961.540    94927701.758 7      -642.395    22791960.760    94927699.754 7      -642.395
G03  19992275.420   105060116.858 8      3058.565    19992274.700   105060116.860 8      3058.565    19992281.100    81865048.106 8      2383.297    19992281.340    81865050.109 8      2383.297
R24  20478009.300   109505120.576 7      3332.787    20478008.400   109505120.585 7      3332.787    20478021.120    85170692.296 8      2592.167    20478020.940    85170692.303 8      2592.167
G14  22071999.260   115989138.782 7      2859.663    22071997.940   115989138.787 5      2859.663    22072004.720    90381163.220 5      2228.309    22072005.760    90381171.213 8      2228.309
> 2024 06 03 14 07  4.0000000  0 14
G22  23606406.140   124052504.628 7      4143.006    23606404.740   124052504.638 4      4143.006    23606411.820    96664312.800 4      3228.316
R15  22805320.340   121864712.139 7      2346.584    22805322.800   121864712.153 7      2346.584    22805334.780    94783727.774 7      1825.121    22805334.720    94783723.757 7      1825.121
G02  21728594.020   114184530.712 7      2105.976    21728592.380   114184530.720 6      2105.976    21728595.360    88974965.049 6      1641.021
R14  22574336.100   120333906.234 6      -202.797    22574332.960   120333906.243 6      -202.797    22574352.220    93593093.111 7      -157.731    22574352.320    93593098.125 7      -157.731
R01  19562174.620   104571027.212 7      2807.780    19562174.820   104571027.221 7      2807.780    19562186.660    81333073.195 7      2183.829    19562185.800    81333069.184 7      2183.829
G08  22170836.720   116508527.165 7       142.256    22170835.980   116508527.167 7       142.256    22170846.020    90785896.368 7       110.849    22170846.600    90785900.375 8       110.849
G04  23295862.700   122420593.475 6      5679.009    23295860.920   122420593.485 4      5679.009    23295873.960    95392688.765 4      4425.202    23295874.740    95392719.804 7      4425.202
G21  22267852.720   117018337.423 7      1345.952    22267851.280   117018337.433 5      1345.952    22267856.940    91183130.483 6      1048.794
G17  23432237.960   123137247.778 7      5503.405    23432237.020   123137247.783 4      5503.405    23432242.940    95951126.791 4      4288.368    23432241.940    95951114.791 6      4288.368
R02  21080606.980   112490169.534 8      6334.169    21080607.520   112490169.545 7      6334.169    21080620.120    87492407.095 8      4926.576    21080620.260    87492409.111 8      4926.576
R08  22792099.280   122050655.512 7      -826.527    22792102.280   122050655.572 6      -826.527    22792115.540    94928344.420 7      -642.854    22792114.760    94928342.413 7      -642.854
G03  19991693.340   105057058.616 8      3057.883    19991692.740   105057058.616 8      3057.883    19991699.160    81862665.061 8      2382.766    19991699.460    81862667.061 8      2382.766
R24  20477386.100   109501788.053 7      3332.516    20477385.360   109501788.057 7      3332.516    20477397.840    85168100.332 8      2591.957    20477397.780    85168100.337 7      2591.957
G14  22071454.920   115986279.380 7      2859.077    22071453.780   115986279.388 5      2859.077    22071460.660    90378935.113 5      2227.852    22071461.820    90378943.116 8      2227.852
> 2024 06 03 14 07  5.0000000  0 14
G22  23605618.000   124048361.776 7      4142.672    23605616.320   124048361.786 4      4142.672    23605623.720    96661084.606 4      3228.056
R15  22804881.120   121862365.964 7      2345.750    22804883.500   121862365.979 7      2345.750    22804895.400    94781902.965 7      1824.472    22804895.520    94781898.953 7      1824.472
G02  21728193.360   114182424.649 7      2106.025    21728191.540   114182424.657 6      2106.025    21728194.540    88973323.956 6      1641.059
R14  22574373.940   120334109.065 6      -203.017    22574370.820   120334109.058 6      -203.017    22574390.220    93593250.840 7      -157.902    22574390.260    93593255.851 7      -157.902
R01  19561649.620   104568219.754 7      2806.911    19561649.600   104568219.763 7      2806.911    19561661.380    81330889.619 7      2183.153    19561660.640    81330885.614 7      2183.153
G08  22170809.940   116508385.121 7       141.867    22170808.880   116508385.123 7       141.867    22170819.000    90785785.679 7       110.546    22170819.640    90785789.690 7       110.546
G04  23294781.500   122414914.371 7      5679.268    23294780.400   122414914.384 4      5679.268    23294793.240    95388263.500 4      4425.404    23294793.980    95388294.539 7      4425.404
G21  22267596.660   117016991.333 7      1346.200    22267595.120   117016991.340 5      1346.200    22267600.840    91182081.577 6      1048.987
G17  23431190.740   123131744.300 7      5503.331    23431189.760   123131744.303 4      5503.331    23431195.620    95946838.373 4      4288.310    23431195.040    95946826.367 6      4288.310
R02  21079419.960   112483835.576 8      6333.688    21079420.540   112483835.584 7      6333.688    21079433.040    87487480.692 8      4926.202    21079433.320    87487482.706 8      4926.202
R08  22792253.600   122051482.111 7      -826.869    22792256.000   122051482.171 6      -826.869    22792269.760    94928987.330 7      -643.120    22792269.100    94928985.323 7      -643.120
G03  19991111.440   105054000.900 8      3057.352    19991110.800   105054000.905 8      3057.352    19991117.240    81860282.429 8      2382.352    19991117.560    81860284.428 8      2382.352
R24  20476762.820   109498455.531 7      3332.552    20476761.840   109498455.532 7      3332.552    20476774.620    85165508.370 7      2591.985    20476774.660    85165508.377 8      2591.985
G14  22070911.180   115983420.594 7      2858.468    22070909.680   115983420.604 5      2858.468    22070916.560    90376707.489 5      2227.378    22070917.560    90376715.486 8      2227.378
> 2024 06 03 14 07  6.0000000  0 14
G22  23604829.620   124044219.502 7      4141.921    23604827.960   124044219.515 4      4141.921    23604835.520    96657856.862 4      3227.471
R15  22804442.520   121860020.560 7      2344.997    22804444.640   121860020.564 7      2344.997    22804456.460    94780078.753 7      1823.886    22804456.540    94780074.743 7      1823.886
G02  21727792.440   114180318.772 7      2105.764    21727790.880   114180318.777 6      2105.764    21727793.900    88971683.010 6      1640.855
R14  22574411.560   120334312.207 6      -203.455    22574409.120   120334312.227 6      -203.455    22574428.380    93593408.852 7      -158.243    22574428.160    93593413.863 7      -158.243
R01  19561124.120   104565413.312 7      2805.942    19561124.580   104565413.327 7      2805.942    19561136.520    81328706.833 7      2182.399    19561135.560    81328702.826 7      2182.399
G08  22170782.800   116508243.508 7       141.363    22170781.900   116508243.513 7       141.363    22170792.020    90785675.325 7       110.153    22170792.640    90785679.332 8       110.153
G04  23293700.720   122409235.457 7      5678.833    23293699.840   122409235.469 4      5678.833    23293712.660    95383838.382 4      4425.065    23293713.120    95383869.417 7      4425.065
G21  22267340.520   117015645.418 7      1345.829    22267338.860   117015645.428 6      1345.829    22267344.720    91181032.813 6      1048.698
G17  23430143.440   123126240.901 7      5503.412    23430142.580   123126240.906 4      5503.412    23430148.500    95942550.016 4      4288.373    23430147.800    95942538.023 6      4288.373
R02  21078232.920   112477502.106 8      6333.230    21078233.740   112477502.117 7      6333.230    21078246.100    87482554.666 8      4925.846    21078246.320    87482556.682 8      4925.846
R08  22792408.560   122052309.301 7      -827.492    22792410.700   122052309.356 6      -827.492    22792424.480    94929630.692 7      -643.605    22792423.880    94929628.687 7      -643.605
G03  19990529.780   105050943.839 8      3056.756    19990529.040   105050943.841 8      3056.756    19990535.400    81857900.297 8      2381.888    19990535.800    81857902.297 8      2381.888
R24  20476139.680   109495123.300 7      3332.104    20476138.460   109495123.296 7      3332.104    20476151.540    85162916.633 8      2591.637    20476151.560    85162916.637 8      2591.637
G14  22070367.080   115980562.464 7      2857.771    22070365.820   115980562.479 5      2857.771    22070372.460    90374480.377 5      2226.834    22070373.800    90374488.379 8      2226.834
> 2024 06 03 14 07  7.0000000  0 14
G22  23604041.140   124040077.812 6      4141.410    23604039.900   124040077.825 4      4141.410    23604047.340    96654629.571 4      3227.073
R15  22804003.440   121857676.013 7      2344.021    22804005.280   121857676.027 7      2344.021    22804017.720    94778255.227 7      1823.127    22804017.820    94778251.217 7      1823.127
G02  21727391.820   114178213.030 7      2105.679    21727390.120   114178213.032 6      2105.679    21727393.300    88970042.169 6      1640.789
R14  22574450.280   120334515.819 6      -203.914    22574446.820   120334515.820 6      -203.914    22574466.380    93593567.197 7      -158.600    22574466.400    93593572.201 7      -158.600
R01  19560599.360   104562607.915 7      2804.804    19560600.020   104562607.927 7      2804.804    19560611.720    81326524.856 7      2181.514    19560610.800    81326520.848 7      2181.514
G08  22170755.840   116508102.356 7       140.896    22170755.040   116508102.353 7       140.896    22170765.120    90785565.328 7       109.789    22170765.920    90785569.337 8       109.789
G04  23292620.200   122403556.702 7      5678.591    23292619.300   122403556.710 4      5678.591    23292632.000    95379413.381 4      4424.876    23292632.460    95379444.414 7      4424.876
G21  22267084.480   117014299.590 7      1345.809    22267082.800   117014299.601 6      1345.809    22267088.640    91179984.114 6      1048.683
G17  23429096.400   123120737.689 7      5503.219    23429095.360   123120737.691 4      5503.219    23429101.440    95938261.801 4      4288.223    23429100.520    95938249.803 6      4288.223
R02  21077046.220   112471169.226 8      6332.574    21077046.460   112471169.232 7      6332.574    21077059.200    87477629.097 8      4925.335    21077059.580    87477631.113 8      4925.335
R08  22792562.780   122053137.019 7      -827.923    22792564.740   122053137.072 6      -827.923    22792578.480    94930274.471 7      -643.940    22792578.140    94930272.463 7      -643.940
G03  19989948.140   105047887.486 8      3055.998    19989947.440   105047887.491 8      3055.998    19989953.820    81855518.728 8      2381.297    19989954.320    81855520.728 8      2381.297
R24  20475516.160   109491791.296 7      3331.879    20475515.200   109491791.295 7      3331.879    20475528.420    85160325.078 8      2591.461    20475528.300    85160325.083 8      2591.461
G14  22069823.440   115977705.083 7      2857.014    22069822.000   115977705.093 5      2857.014    22069828.640    90372253.844 5      2226.244    22069829.860    90372261.840 8      2226.244
> 2024 06 03 14 07  8.0000000  0 14
G22  23603252.800   124035936.481 7      4141.169    23603251.740   124035936.494 4      4141.169    23603259.260    96651402.562 4      3226.885
R15  22803564.800   121855332.110 7      2343.559    22803566.940   121855332.116 7      2343.559    22803579.140    94776432.181 7      1822.768    22803579.140    94776428.171 7      1822.768
G02  21726991.260   114176107.222 7      2105.823    21726989.500   114176107.226 6      2105.823    21726992.640    88968401.282 6      1640.901
R14  22574488.700   120334719.649 6      -204.011    22574485.340   120334719.628 6      -204.011    22574504.500    93593725.701 7      -158.675    22574504.600    93593730.713 7      -158.675
R01  19560074.620   104559803.299 7      2804.238    19560075.140   104559803.314 7      2804.238    19560087.060    81324343.485 7      2181.074    19560086.300    81324339.482 7      2181.074
G08  22170728.860   116507961.471 7       140.877    22170728.160   116507961.478 7       140.877    22170738.340    90785455.547 7       109.774    22170739.020    90785459.562 8       109.774
G04  23291539.420   122397877.961 7      5678.698    23291538.840   122397877.969 4      5678.698    23291551.500    95374988.396 4      4424.959    23291551.820    95375019.425 7      4424.959
G21  22266828.420   117012953.658 7      1345.998    22266826.700   117012953.665 6      1345.998    22266832.700    91178935.331 6      1048.830
G17  23428049.240   123115234.398 7      5503.236    23428048.160   123115234.400 4      5503.236    23428054.240    95933973.522 4      4288.236    23428053.180    95933961.510 6      4288.236
R02  21075859.400   112464836.703 8      6332.437    21075860.200   112464836.714 7      6332.437    21075872.680    87472703.816 8      4925.229    21075872.880    87472705.830 8      4925.229
R08  22792717.400   122053965.085 7      -828.250    22792719.720   122053965.149 6      -828.250    22792733.480    94930918.522 7      -644.195    22792732.720    94930916.519 7      -644.195
G03  19989366.600   105044831.652 8      3055.579    19989366.000   105044831.657 8      3055.579    19989372.140    81853137.558 8      2380.970    19989372.440    81853139.554 8      2380.970
R24  20474893.580   109488459.271 7      3332.088    20474892.120   109488459.272 7      3332.088    20474905.360    85157733.505 8      2591.624    20474905.220    85157733.512 8      2591.624
G14  22069279.800   115974848.233 7      2856.601    22069278.320   115974848.243 5      2856.601    22069285.020    90370027.721 5      2225.923    22069285.920    90370035.717 8      2225.923
> 2024 06 03 14 07  9.0000000  0 14
G22  23602464.740   124031795.653 6      4140.640    23602463.720   124031795.668 4      4140.640    23602471.040    96648175.944 4      3226.473
R15  22803126.600   121852988.912 7      2342.883    22803128.280   121852988.908 7      2342.883    22803140.460    94774609.681 7      1822.242    22803140.520    94774605.665 7      1822.242
G02  21726590.580   114174001.466 8      2105.747    21726588.760   114174001.471 6      2105.747    21726591.900    88966760.433 6      1640.842
R14  22574527.620   120334923.628 6      -204.131    22574523.720   120334923.634 6      -204.131    22574542.760    93593884.364 7      -158.768    22574542.760    93593889.373 7      -158.768
R01  19559549.760   104556999.591 7      2803.347    19559550.340   104556999.601 7      2803.347    19559562.460    81322162.828 7      2180.381    19559561.360    81322158.823 7      2180.381
G08  22170702.420   116507820.909 7       140.556    22170701.500   116507820.919 7       140.556    22170711.620    90785346.016 7       109.524    22170712.080    90785350.028 7       109.524
G04  23290458.680   122392199.191 7      5678.815    23290458.300   122392199.199 4      5678.815    23290470.760    95370563.390 4      4425.050    23290471.500    95370594.419 7      4425.050
G21  22266572.160   117011607.727 7      1345.969    22266570.540   117011607.732 5      1345.969    22266576.600    91177886.552 6      1048.807
G17  23427001.940   123109731.080 7      5503.364    23427000.920   123109731.083 4      5503.364    23427006.920    95929685.229 4      4288.335    23427005.800    95929673.223 6      4288.335
R02  21074672.820   112458504.551 8      6332.058    21074673.520   112458504.568 7      6332.058    21074686.340    87467778.822 8      4924.934    21074686.180    87467780.835 8      4924.934
R08  22792871.920   122054793.671 7      -828.705    22792873.960   122054793.737 6      -828.705    22792888.420    94931562.976 7      -644.548    22792887.600    94931560.972 7      -644.548
G03  19988784.960   105041776.361 8      3055.040    19988784.660   105041776.369 8      3055.040    19988790.680    81850756.814 8      2380.551    19988791.080    81850758.812 8      2380.551
R24  20474270.340   109485127.428 7      3331.833    20474268.860   109485127.424 7      3331.833    20474282.180    85155142.074 7      2591.425    20474282.080    85155142.081 8      2591.425
G14  22068736.140   115971991.961 7      2856.066    22068734.760   115971991.968 5      2856.066    22068741.440    90367802.051 5      2225.506    22068742.380    90367810.046 7      2225.506
> 2024 06 03 14 07 10.0000000  0 14
G22  23601677.040   124027655.278 6      4140.225    23601675.660   124027655.296 4      4140.225    23601683.240    96644949.681 4      3226.150
R15  22802688.140   121850646.393 7      2342.228    22802689.560   121850646.400 7      2342.228    22802701.600    94772787.731 7      1821.733    22802701.820    94772783.725 7      1821.733
G02  21726189.720   114171895.676 7      2105.926    21726188.040   114171895.686 6      2105.926    21726191.140    88965119.560 6      1640.981
R14  22574565.860   120335127.914 6      -204.328    22574562.440   120335127.920 6      -204.328    22574580.680    93594043.240 7      -158.922    22574580.760    93594048.248 7      -158.922
R01  19559025.960   104554196.707 7      2802.552    19559025.600   104554196.727 7      2802.552    19559037.780    81319982.817 7      2179.763    19559037.300    81319978.812 7      2179.763
G08  22170675.760   116507680.607 7       140.205    22170674.620   116507680.610 7       140.205    22170685.000    90785236.680 7       109.250    22170685.220    90785240.689 8       109.250
G04  23289378.240   122386520.392 7      5678.830    23289377.780   122386520.400 4      5678.830    23289390.220    95366138.361 4      4425.063    23289390.660    95366169.393 7      4425.063
G21  22266315.920   117010261.747 7      1346.126    22266314.440   117010261.752 5      1346.126    22266320.420    91176837.734 6      1048.929
G17  23425954.680   123104227.810 7      5503.329    23425953.600   123104227.812 5      5503.329    23425959.720    95925396.970 4      4288.309    23425958.120    95925384.965 6      4288.309
R02  21073486.380   112452172.760 7      6331.657    21073486.940   112452172.766 7      6331.657    21073499.540    87462854.101 8      4924.622    21073499.920    87462856.113 8      4924.622
R08  22793026.880   122055622.690 7      -829.144    22793028.900   122055622.751 6      -829.144    22793043.120    94932207.764 7      -644.890    22793042.560    94932205.759 7      -644.890
G03  19988203.840   105038721.577 8      3054.627    19988203.320   105038721.587 8      3054.627    19988209.320    81848376.467 8      2380.229    19988209.600    81848378.466 8      2380.229
R24  20473647.140   109481795.683 7      3331.747    20473645.480   109481795.679 7      3331.747    20473659.020    85152550.717 8      2591.359    20473659.040    85152550.718 8      2591.359
G14  22068192.940   115969136.251 7      2855.544    22068191.440   115969136.261 5      2855.544    22068198.020    90365576.828 5      2225.099    22068199.100    90365584.828 8      2225.099
> 2024 06 03 14 07 11.0000000  0 14
G22  23600889.000   124023515.375 6      4139.523    23600888.000   124023515.390 4      4139.523    23600895.320    96641723.780 4      3225.603
R15  22802249.820   121848304.628 7      2341.272    22802251.120   121848304.626 7      2341.272    22802263.320    94770966.355 7      1820.989    22802263.320    94770962.351 7      1820.989
G02  21725789.060   114169789.994 7      2105.627    21725787.400   114169790.004 6      2105.627    21725790.440    88963478.766 6      1640.748
R14  22574604.260   120335332.515 6      -204.926    22574600.740   120335332.520 6      -204.926    22574618.760    93594202.366 7      -159.387    22574619.100    93594207.375 7      -159.387
R01  19558501.780   104551394.766 7      2801.426    19558501.740   104551394.791 7      2801.426    19558513.700    81317803.530 7      2178.887    19558513.040    81317799.526 7      2178.887
G08  22170649.140   116507540.674 7       139.677    22170648.060   116507540.679 7       139.677    22170658.260    90785127.633 7       108.839    22170658.640    90785131.642 8       108.839
G04  23288297.740   122380841.688 7      5678.497    23288297.240   122380841.698 4      5678.497    23288309.600    95361713.402 4      4424.803    23288309.920    95361744.439 7      4424.803
G21  22266060.000   117008915.801 7      1345.914    22266058.380   117008915.806 6      1345.914    22266064.240    91175788.943 6      1048.764
G17  23424907.740   123098724.543 7      5503.205    23424906.140   123098724.550 5      5503.205    23424912.520    95921108.714 4      4288.212    23424911.380    95921096.716 6      4288.212
R02  21072299.740   112445841.467 8      6330.893    21072300.200   112445841.473 7      6330.893    21072313.440    87457929.768 8      4924.028    21072313.240    87457931.782 8      4924.028
R08  22793181.180   122056452.154 6      -829.758    22793183.340   122056452.217 6      -829.758    22793197.620    94932852.903 7      -645.367    22793197.500    94932850.895 7      -645.367
G03  19987622.660   105035667.424 8      3053.763    19987622.100   105035667.427 8      3053.763    19987628.160    81845996.602 8      2379.555    19987628.520    81845998.598 8      2379.555
R24  20473024.200   109478464.102 7      3331.495    20473022.560   109478464.101 7      3331.495    20473036.200    85149959.485 8      2591.163    20473035.760    85149959.488 8      2591.163
G14  22067649.820   115966281.172 7      2854.640    22067648.100   115966281.180 5      2854.640    22067654.700    90363352.091 5      2224.395    22067655.480    90363360.085 8      2224.395
> 2024 06 03 14 07 12.0000000  0 14
G22  23600101.440   124019375.986 6      4139.279    23600100.200   124019375.999 4      4139.279    23600107.660    96638498.282 4      3225.412
R15  22801811.440   121845963.629 7      2340.723    22801812.340   121845963.641 7      2340.723    22801825.300    94769145.583 7      1820.562    22801825.280    94769141.579 7      1820.562
G02  21725388.440   114167684.403 8      2105.703    21725386.720   114167684.408 6      2105.703    21725389.820    88961838.040 6      1640.807
R14  22574642.700   120335537.485 6      -204.983    22574638.840   120335537.489 6      -204.983    22574657.480    93594361.779 7      -159.431    22574657.660    93594366.787 7      -159.431
R01  19557977.820   104548593.854 7      2800.703    19557977.900   104548593.869 7      2800.703    19557989.680    81315625.032 7      2178.324    19557989.060    81315621.031 7      2178.324
G08  22170622.440   116507401.237 7       139.375    22170621.380   116507401.236 7       139.375    22170631.800    90785018.972 7       108.604    22170632.040    90785022.988 8       108.604
G04  23287217.260   122375163.210 7      5678.571    23287216.780   122375163.217 4      5678.571    23287229.100    95357288.626 4      4424.861    23287229.260    95357319.647 7      4424.861
G21  22265803.920   117007569.947 7      1345.950    22265802.360   117007569.952 6      1345.950    22265808.160    91174740.220 6      1048.792
G17  23423860.340   123093221.343 7      5503.429    23423859.060   123093221.346 5      5503.429    23423865.180    95916820.509 4      4288.386    23423864.200    95916808.489 6      4288.386
R02  21071113.500   112439510.775 8      6330.586    21071113.900   112439510.781 7      6330.586    21071127.060    87453005.903 8      4923.789    21071126.940    87453007.915 8      4923.789
R08  22793336.340   122057282.116 6      -829.885    22793338.300   122057282.171 6      -829.885    22793352.980    94933498.414 7      -645.466    22793352.600    94933496.406 7      -645.466
G03  19987041.620   105032613.928 8      3053.299    19987041.140   105032613.930 8      3053.299    19987047.000    81843617.254 8      2379.194    19987047.660    81843619.252 8      2379.194
R24  20472401.380   109475132.687 7      3331.504    20472399.580   109475132.685 7      3331.504    20472412.920    85147368.388 8      2591.170    20472412.800    85147368.389 7      2591.170
G14  22067106.600   115963426.758 7      2854.178    22067105.040   115963426.763 5      2854.178    22067111.360    90361127.866 5      2224.035    22067112.420    90361135.862 8      2224.035
> 2024 06 03 14 07 13.0000000  0 14
G22  23599313.780   124015236.970 6      4138.666    23599312.560   124015236.980 4      4138.666    23599320.080    96635273.073 4      3224.935
R15  22801373.940   121843623.228 7      2340.116    22801374.140   121843623.227 6      2340.116    22801387.500    94767325.257 7      1820.090    22801387.380    94767321.251 7      1820.090
G02  21724987.800   114165578.729 7      2105.648    21724986.020   114165578.737 6      2105.648    21724989.160    88960197.257 6      1640.764
R14  22574680.600   120335742.621 6      -205.374    22574677.360   120335742.619 6      -205.374    22574695.860    93594521.311 7      -159.736    22574696.260    93594526.318 7      -159.736
R01  19557454.000   104545793.674 7      2799.860    19557454.040   104545793.686 7      2799.860    19557465.920    81313447.107 7      2177.669    19557465.160    81313443.107 7      2177.669
G08  22170596.100   116507261.902 7       139.245    22170594.680   116507261.909 7       139.245    22170605.100    90784910.400 7       108.503    22170605.580    90784914.413 8       108.503
G04  23286136.400   122369484.534 7      5678.712    23286136.220   122369484.542 4      5678.712    23286148.380    95352863.693 4      4424.971    23286148.800    95352894.721 7      4424.971
G21  22265547.780   117006223.933 7      1346.097    22265546.180   117006223.938 6      1346.097    22265552.000    91173691.377 6      1048.907
G17  23422813.000   123087718.086 7      5503.230    23422811.780   123087718.088 5      5503.230    23422818.040    95912532.257 4      4288.231    23422817.080    95912520.241 6      4288.231
R02  21069927.220   112433180.312 8      6330.268    21069928.060   112433180.323 7      6330.268    21069940.700    87448082.220 8      4923.542    21069940.500    87448084.236 8      4923.542
R08  22793491.780   122058112.468 7      -830.533    22793493.160   122058112.515 6      -830.533    22793507.920    94934144.244 7      -645.970    22793507.480    94934142.234 7      -645.970
G03  19986460.640   105029560.858 8      3052.743    19986460.260   105029560.865 8      3052.743    19986465.980    81841238.242 8      2378.761    19986466.660    81841240.240 8      2378.761
R24  20471778.260   109471801.255 7      3331.425    20471776.900   109471801.251 7      3331.425    20471790.140    85144777.275 7      2591.108    20471789.580    85144777.273 8      2591.108
G14  22066563.300   115960572.811 7      2853.593    22066562.080   115960572.818 5      2853.593    22066568.180    90358904.012 5      2223.579    22066569.460    90358912.013 7      2223.579
> 2024 06 03 14 07 14.0000000  0 14
G22  23598526.180   124011098.540 6      4138.164    23598524.920   124011098.553 4      4138.164    23598532.720    96632048.325 4      3224.544
R15  22800936.080   121841283.670 7      2339.084    22800936.560   121841283.663 6      2339.084    22800949.260    94765505.598 7      1819.287    22800949.640    94765501.598 7      1819.287
G02  21724587.200   114163473.149 7      2105.455    21724585.440   114163473.159 6      2105.455    21724588.460    88958556.544 6      1640.614
R14  22574719.200   120335948.109 6      -205.717    22574716.800   120335948.115 6      -205.717    22574734.120    93594681.122 7      -160.002    22574734.660    93594686.136 7      -160.002
R01  19556930.600   104542994.444 7      2798.597    19556930.060   104542994.458 7      2798.597    19556942.180    81311269.935 7      2176.687    19556941.460    81311265.932 7      2176.687
G08  22170569.460   116507122.977 7       138.571    22170568.360   116507122.987 7       138.571    22170578.680    90784802.139 7       107.978    22170579.440    90784806.146 8       107.978
G04  23285055.780   122363805.964 7      5678.463    23285055.560   122363805.972 4      5678.463    23285067.700    95348438.843 4      4424.777    23285068.120    95348469.859 7      4424.777
G21  22265291.740   117004877.982 7      1345.818    22265289.980   117004877.989 6      1345.818    22265295.980    91172642.580 6      1048.689
G17  23421765.980   123082214.932 7      5503.047    23421764.460   123082214.934 4      5503.047    23421770.800    95908244.090 4      4288.088    23421769.840    95908232.074 6      4288.088
R02  21068741.340   112426850.337 7      6329.675    21068741.400   112426850.346 7      6329.675    21068754.200    87443158.915 8      4923.080    21068754.380    87443160.924 8      4923.080
R08  22793647.000   122058943.348 7      -831.366    22793648.300   122058943.404 6      -831.366    22793663.020    94934790.477 7      -646.618    22793662.580    94934788.468 7      -646.618
G03  19985879.900   105026508.436 8      3052.025    19985879.360   105026508.441 8      3052.025    19985885.020    81838859.730 8      2378.201    19985885.740    81838861.728 8      2378.201
R24  20471155.340   109468470.043 7      3331.064    20471153.680   109468470.036 7      3331.064    20471166.960    85142186.326 8      2590.828    20471166.560    85142186.328 8      2590.828
G14  22066020.340   115957719.592 7      2852.804    22066019.040   115957719.602 5      2852.804    22066025.120    90356680.724 5      2222.964    22066026.180    90356688.713 8      2222.964
> 2024 06 03 14 07 15.0000000  0 14
G22  23597738.980   124006960.707 7      4137.590    23597737.600   124006960.720 4      4137.590    23597745.480    96628824.039 4      3224.096
R15  22800497.880   121838944.953 7      2338.232    22800499.000   121838944.933 6      2338.232    22800511.640    94763686.585 7      1818.625    22800511.940    94763682.584 7      1818.625
G02  21724186.540   114161367.754 7      2105.313    21724184.900   114161367.758 6      2105.313    21724187.800    88956915.972 6      1640.504
R14  22574757.220   120336154.077 6      -206.242    22574755.980   120336154.083 6      -206.242    22574772.640    93594841.311 7      -160.411    22574773.240    93594846.327 7      -160.411
R01  19556407.080   104540196.231 7      2797.781    19556406.180   104540196.243 7      2797.781    19556418.660    81309093.552 7      2176.052    19556417.860    81309089.551 7      2176.052
G08  22170543.300   116506984.515 7       138.352    22170542.020   116506984.520 7       138.352    22170552.360    90784694.238 7       107.807    22170553.180    90784698.247 8       107.807
G04  23283975.380   122358127.607 7      5678.330    23283975.120   122358127.619 4      5678.330    23283987.180    95344014.159 4      4424.673    23283987.520    95344045.184 7      4424.673
G21  22265035.720   117003532.144 7      1345.807    22265033.960   117003532.156 6      1345.807    22265039.780    91171593.879 6      1048.681
G17  23420718.680   123076711.911 7      5503.021    23420717.360   123076711.916 4      5503.021    23420723.560    95903956.022 4      4288.068    23420722.480    95903944.013 6      4288.068
R02  21067555.060   112420520.934 8      6329.223    21067555.260   112420520.940 7      6329.223    21067568.180    87438236.051 8      4922.729    21067568.180    87438238.061 8      4922.729
R08  22793802.480   122059774.745 7      -831.514    22793803.920   122059774.795 6      -831.514    22793818.360    94935437.111 7      -646.733    22793817.800    94935435.104 7      -646.733
G03  19985299.100   105023456.721 8      3051.435    19985298.560   105023456.732 8      3051.435    19985304.180    81836481.774 8      2377.742    19985304.900    81836483.771 8      2377.742
R24  20470532.640   109465139.092 7      3330.916    20470531.200   109465139.086 7      3330.916    20470544.000    85139595.589 7      2590.712    20470543.620    85139595.595 7      2590.712
G14  22065477.360   115954867.088 7      2852.165    22065476.140   115954867.101 5      2852.165    22065482.380    90354457.994 5      2222.466    22065483.340    90354465.987 7      2222.466
> 2024 06 03 14 07 16.0000000  0 14
G22  23596951.920   124002823.255 7      4137.476    23596950.220   124002823.265 4      4137.476    23596958.300    96625600.050 4      3224.007
R15  22800060.140   121836606.832 7      2337.985    22800061.420   121836606.819 7      2337.985    22800073.980    94761868.045 7      1818.433    22800074.260    94761864.047 7      1818.433
G02  21723785.760   114159262.347 7      2105.494    21723784.360   114159262.352 6      2105.494    21723787.240    88955275.389 6      1640.645
R14  22574796.520   120336360.242 6      -206.046    22574795.020   120336360.256 6      -206.046    22574811.460    93595001.655 7      -160.258    22574812.000    93595006.677 7      -160.258
R01  19555883.860   104537398.981 7      2796.749    19555882.600   104537398.990 7      2796.749    19555895.260    81306917.909 7      2175.249    19555894.640    81306913.908 7      2175.249
G08  22170517.020   116506846.434 7       137.967    22170515.740   116506846.436 7       137.967    22170526.020    90784586.634 7       107.507    22170526.740    90784590.637 8       107.507
G04  23282894.880   122352449.312 7      5678.388    23282894.460   122352449.325 4      5678.388    23282906.740    95339589.522 4      4424.718    23282907.220    95339620.543 7      4424.718
G21  22264779.760   117002186.326 7      1345.788    22264777.960   117002186.337 6      1345.788    22264783.580    91170545.193 6      1048.666
G17  23419671.660   123071208.843 7      5503.303    23419670.160   123071208.848 4      5503.303    23419676.380    95899667.920 5      4288.288    23419676.040    95899655.902 6      4288.288
R02  21066368.760   112414191.933 8      6328.877    21066369.120   112414191.942 7      6328.877    21066382.100    87433313.506 8      4922.460    21066382.020    87433315.513 8      4922.460
R08  22793958.140   122060606.603 7      -832.024    22793959.540   122060606.650 6      -832.024    22793974.020    94936084.097 7      -647.130    22793973.180    94936082.094 7      -647.130
G03  19984718.320   105020405.556 8      3051.038    19984718.060   105020405.563 8      3051.038    19984723.480    81834104.243 8      2377.432    19984724.080    81834106.239 8      2377.432
R24  20469909.900   109461808.289 7      3330.842    20469908.360   109461808.288 7      3330.842    20469921.000    85137004.968 7      2590.655    20469920.680    85137004.973 7      2590.655
G14  22064934.680   115952015.104 7      2851.953    22064933.260   115952015.117 5      2851.953    22064939.700    90352235.669 5      2222.301    22064940.700    90352243.666 7      2222.301
> 2024 06 03 14 07 17.0000000  0 14
G22  23596164.700   123998686.199 6      4136.521    23596162.780   123998686.207 4      4136.521    23596170.940    96622376.366 4      3223.263
R15  22799622.900   121834269.373 7      2336.714    22799623.220   121834269.364 7      2336.714    22799636.520    94760050.017 7      1817.444    22799636.960    94760046.022 7      1817.444
G02  21723385.060   114157156.867 7      2105.269    21723383.520   114157156.875 6      2105.269    21723386.680    88953634.757 6      1640.469
R14  22574835.120   120336566.681 6      -206.835    22574833.000   120336566.679 6      -206.835    22574850.580    93595162.205 7      -160.871    22574850.720    93595167.218 7      -160.871
R01  19555360.560   104534602.453 7      2795.809    19555359.540   104534602.472 7      2795.809    19555372.240    81304742.839 7      2174.518    19555371.220    81304738.838 7      2174.518
G08  22170490.760   116506708.531 7       137.664    22170489.440   116506708.533 7       137.664    22170499.820    90784479.175 7       107.271    22170500.700    90784483.184 8       107.271
G04  23281814.280   122346770.942 7      5678.198    23281814.020   122346770.952 4      5678.198    23281826.160    95335164.826 4      4424.570    23281826.880    95335195.842 7      4424.570
G21  22264523.760   117000840.354 7      1345.746    22264521.900   117000840.359 6      1345.746    22264527.520    91169496.377 6      1048.633
G17  23418624.480   123065705.707 7      5502.798    23418623.000   123065705.712 4      5502.798    23418629.040    95895379.764 5      4287.894    23418628.860    95895367.758 6      4287.894
R02  21065183.120   112407863.231 8      6328.336    21065183.440   112407863.237 8      6328.336    21065196.520    87428391.186 8      4922.039    21065196.220    87428393.192 8      4922.039
R08  22794113.540   122061438.749 7      -832.666    22794114.000   122061438.802 7      -832.666    22794129.500    94936731.328 7      -647.629    22794128.640    94936729.323 7      -647.629
G03  19984137.740   105017354.858 8      3050.117    19984137.660   105017354.866 8      3050.117    19984143.060    81831727.078 8      2376.714    19984143.520    81831729.076 8      2376.714
R24  20469287.200   109458477.502 7      3330.464    20469285.680   109458477.498 7      3330.464    20469298.120    85134414.358 8      2590.361    20469297.760    85134414.363 8      2590.361
G14  22064392.060   115949163.651 7      2850.826    22064390.880   115949163.664 5      2850.826    22064397.040    90350013.757 5      2221.422    22064397.980    90350021.752 7      2221.422
> 2024 06 03 14 07 18.0000000  0 14
G22  23595377.640   123994549.708 6      4136.334    23595375.560   123994549.716 4      4136.334    23595383.700    96619153.127 4      3223.117
R15  22799186.060   121831932.719 7      2336.361    22799185.700   121831932.720 6      2336.361    22799199.300    94758232.626 7      1817.170    22799199.880    94758228.626 7      1817.170
G02  21722984.040   114155051.600 7      2105.277    21722983.000   114155051.610 6      2105.277    21722985.960    88951994.285 6      1640.475
R14  22574874.060   120336773.416 6      -206.893    22574871.940   120336773.417 6      -206.893    22574889.420    93595322.997 7      -160.917    22574889.620    93595328.004 7      -160.917
R01  19554837.500   104531806.985 7      2795.097    19554837.420   104531806.992 7      2795.097    19554849.600    81302568.572 7      2173.965    19554848.320    81302564.571 7      2173.965
G08  22170464.780   116506571.085 7       137.293    22170463.080   116506571.096 7       137.293    22170473.640    90784372.075 7       106.981    22170474.800    90784376.076 8       106.981
G04  23280733.580   122341092.684 7      5678.307    23280733.360   122341092.697 4      5678.307    23280745.660    95330740.218 4      4424.655    23280746.520    95330771.230 7      4424.655
G21  22264267.440   116999494.561 7      1345.829    22264265.760   116999494.571 6      1345.829    22264271.520    91168447.707 6      1048.698
G17  23417577.260   123060202.702 7      5503.195    23417575.740   123060202.707 5      5503.195    23417581.840    95891091.716 5      4288.204    23417581.360    95891079.706 6      4288.204
R02  21063996.880   112401535.044 8      6327.952    21063997.380   112401535.053 7      6327.952    21064010.180    87423469.273 8      4921.740    21064010.020    87423471.283 8      4921.740
R08  22794269.320   122062271.584 7      -832.969    22794269.820   122062271.628 7      -832.969    22794284.400    94937379.076 7      -647.864    22794284.140    94937377.064 7      -647.864
G03  19983557.440   105014304.825 8      3049.788    19983557.300   105014304.830 8      3049.788    19983562.680    81829350.426 8      2376.458    19983563.560    81829352.425 8      2376.458
R24  20468664.140   109455146.990 7      3330.383    20468662.660   109455146.983 7      3330.383    20468675.400    85131823.954 7      2590.298    20468674.880    85131823.958 8      2590.298
G14  22063849.840   115946312.873 7      2850.535    22063848.440   115946312.883 5      2850.535    22063854.380    90347792.372 5      2221.196    22063855.240    90347800.371 7      2221.196
> 2024 06 03 14 07 19.0000000  0 14
G22  23594590.420   123990413.741 6      4135.742    23594588.380   123990413.748 4      4135.742    23594596.600    96615930.293 4      3222.656
R15  22798749.000   121829596.837 7      2335.542    22798748.380   121829596.830 6      2335.542    22798762.280    94756415.826 7      1816.533    22798762.840    94756411.820 7      1816.533
G02  21722583.800   114152946.304 7      2105.277    21722582.300   114152946.312 6      2105.277    21722585.380    88950353.795 6      1640.476
R14  22574912.600   120336980.501 6      -207.232    22574911.260   120336980.498 6      -207.232    22574928.240    93595484.048 7      -161.181    22574928.440    93595489.057 7      -161.181
R01  19554314.900   104529012.368 7      2794.109    19554314.260   104529012.363 7      2794.109    19554326.560    81300394.977 7      2173.196    19554325.600    81300390.976 7      2173.196
G08  22170438.360   116506433.924 7       136.923    22170436.900   116506433.931 7       136.923    22170447.460    90784265.183 7       106.694    22170448.560    90784269.190 8       106.694
G04  23279652.800   122335414.453 7      5678.165    23279652.860   122335414.463 4      5678.165    23279665.180    95326315.628 4      4424.544    23279665.540    95326346.649 7      4424.544
G21  22264011.080   116998148.688 7      1345.847    22264009.680   116998148.701 6      1345.847    22264015.240    91167398.973 6      1048.712
G17  23416530.280   123054699.750 7      5502.985    23416528.480   123054699.755 5      5502.985    23416534.640    95886803.707 5      4288.040    23416534.740    95886791.702 6      4288.040
R02  21062811.600   112395207.300 8      6327.428    21062811.420   112395207.314 7      6327.428    21062824.580    87418547.707 8      4921.333    21062824.720    87418549.715 8      4921.333
R08  22794424.700   122063104.788 7      -833.486    22794424.680   122063104.843 7      -833.486    22794439.740    94938027.130 7      -648.267    22794439.600    94938025.120 7      -648.267
G03  19982977.220   105011255.357 8      3049.192    19982976.940   105011255.364 8      3049.192    19982982.380    81826974.217 8      2375.993    19982983.000    81826976.216 8      2375.993
R24  20468041.420   109451816.526 7      3330.418    20468039.680   109451816.517 7      3330.418    20468052.520    85129233.589 8      2590.325    20468052.040    85129233.591 8      2590.325
G14  22063307.520   115943462.739 7      2849.835    22063306.080   115943462.746 5      2849.835    22063312.040    90345571.484 5      2220.650    22063312.880    90345579.487 7      2220.650
> 2024 06 03 14 07 20.0000000  0 14
G22  23593803.420   123986278.430 6      4134.990    23593801.600   123986278.437 4      4134.990    23593809.660    96612707.970 4      3222.070
R15  22798312.220   121827261.841 6      2334.635    22798311.480   121827261.835 6      2334.635    22798325.160    94754599.715 7      1815.827    22798325.680    94754595.711 7      1815.827
G02  21722183.200   114150841.224 7      2104.928    21722181.760   114150841.231 6      2104.928    21722184.880    88948713.471 6      1640.204
R14  22574952.100   120337188.043 6      -207.867    22574950.880   120337188.044 6      -207.867    22574966.900    93595645.459 7      -161.674    22574967.560    93595650.469 7      -161.674
R01  19553792.680   104526218.787 7      2793.007    19553791.160   104526218.796 7      2793.007    19553803.760    81298222.202 7      2172.339    19553803.160    81298218.199 7      2172.339
G08  22170412.360   116506297.269 7       136.241    22170411.000   116506297.277 7       136.241    22170421.560    90784158.691 7       106.162    22170422.700    90784162.690 8       106.162
G04  23278572.500   122329736.445 6      5677.805    23278572.320   122329736.452 4      5677.805    23278584.480    95321891.214 4      4424.264    23278585.280    95321922.233 7      4424.264
G21  22263754.980   116996802.968 7      1345.678    22263753.740   116996802.973 6      1345.678    22263759.100    91166350.356 6      1048.580
G17  23415483.120   123049196.995 7      5502.617    23415481.320   123049197.005 5      5502.617    23415487.420    95882515.856 4      4287.753    23415487.100    95882503.851 6      4287.753
R02  21061625.900   112388880.202 8      6326.697    21061625.380   112388880.216 7      6326.697    21061638.680    87413626.641 8      4920.764    21061638.900    87413628.644 8      4920.764
R08  22794579.840   122063938.581 7      -834.083    22794581.340   122063938.642 6      -834.083    22794595.760    94938675.634 7      -648.731    22794595.060    94938673.626 7      -648.731
G03  19982397.120   105008206.651 8      3048.362    19982396.780   105008206.658 8      3048.362    19982402.040    81824598.602 8      2375.347    19982402.760    81824600.601 8      2375.347
R24  20467418.780   109448486.405 7      3329.939    20467417.340   109448486.393 7      3329.939    20467429.920    85126643.496 7      2589.953    20467429.500    85126643.497 8      2589.953
G14  22062765.180   115940613.414 7      2848.875    22062763.780   115940613.421 5      2848.875    22062769.940    90343351.228 5      2219.902    22062770.280    90343359.232 7      2219.902
> 2024 06 03 14 07 21.0000000  0 14
G22  23593016.460   123982143.403 7      4134.958    23593014.820   123982143.410 4      4134.958    23593022.860    96609485.871 4      3222.045
R15  22797875.320   121824927.397 6      2334.388    22797875.060   121824927.385 6      2334.388    22797888.460    94752784.027 7      1815.635    22797889.060    94752780.021 7      1815.635
G02  21721782.740   114148736.033 7      2105.328    21721781.380   114148736.038 6      2105.328    21721784.200    88947073.058 6      1640.516
R14  22574991.500   120337395.703 7      -207.634    22574990.200   120337395.709 6      -207.634    22575006.100    93595806.965 7      -161.493    22575006.480    93595811.972 7      -161.493
R01  19553270.140   104523426.049 7      2792.441    19553268.700   104523426.047 7      2792.441    19553281.300    81296050.068 7      2171.899    19553280.740    81296046.069 7      2171.899
G08  22170386.460   116506160.880 7       136.284    22170385.020   116506160.885 7       136.284    22170395.500    90784052.408 7       106.195    22170396.660    90784056.413 8       106.195
G04  23277491.820   122324058.439 6      5678.050    23277491.740   122324058.452 4      5678.050    23277504.020    95317466.807 4      4424.454    23277504.760    95317497.819 7      4424.454
G21  22263498.940   116995457.148 7      1345.962    22263497.640   116995457.153 6      1345.962    22263503.060    91165301.663 6      1048.801
G17  23414435.740   123043694.082 7      5503.066    23414434.280   123043694.087 4      5503.066    23414440.380    95878227.870 4      4288.103    23414439.520    95878215.852 6      4288.103
R02  21060439.960   112382553.485 8      6326.655    21060440.160   112382553.502 7      6326.655    21060452.900    87408705.863 8      4920.731    21060452.880    87408707.869 8      4920.731
R08  22794735.980   122064772.720 6      -834.142    22794736.920   122064772.764 6      -834.142    22794752.060    94939324.389 7      -648.777    22794751.080    94939322.384 7      -648.777
G03  19981816.880   105005158.417 8      3048.120    19981816.760   105005158.422 8      3048.120    19981821.900    81822223.355 8      2375.159    19981823.000    81822225.352 8      2375.159
R24  20466795.440   109445156.262 7      3330.204    20466795.360   109445156.269 7      3330.204    20466806.820    85124053.396 7      2590.159    20466806.740    85124053.402 8      2590.159
G14  22062222.940   115937764.509 7      2848.812    22062221.740   115937764.519 5      2848.812    22062227.760    90341131.301 5      2219.854    22062228.380    90341139.304 7      2219.854
> 2024 06 03 14 07 22.0000000  0 14
G22  23592229.160   123978008.767 6      4134.366    23592228.220   123978008.777 4      4134.366    23592236.100    96606264.077 4      3221.584
R15  22797438.900   121822593.577 6      2333.411    22797438.360   121822593.581 6      2333.411    22797451.440    94750968.845 7      1814.875    22797452.160    94750964.845 7      1814.875
G02  21721382.080   114146630.837 7      2105.379    21721380.720   114146630.842 6      2105.379    21721383.520    88945432.641 6      1640.555
R14  22575030.640   120337603.499 7      -207.951    22575028.940   120337603.505 6      -207.951    22575045.020    93595968.575 7      -161.740    22575045.640    93595973.581 7      -161.740
R01  19552747.700   104520634.115 7      2791.735    19552746.660   104520634.110 7      2791.735    19552759.080    81293878.558 7      2171.350    19552758.540    81293874.557 7      2171.350
G08  22170360.520   116506024.691 7       136.140    22170359.000   116506024.693 7       136.140    22170369.600    90783946.282 7       106.083    22170370.480    90783950.285 8       106.083
G04  23276411.220   122318380.310 6      5678.256    23276411.120   122318380.318 4      5678.256    23276423.560    95313042.295 4      4424.615    23276424.520    95313073.307 7      4424.615
G21  22263242.580   116994111.263 7      1346.084    22263241.520   116994111.270 6      1346.084    22263247.040    91164252.921 6      1048.897
G17  23413388.540   123038191.108 7      5503.005    23413387.200   123038191.113 4      5503.005    23413393.120    95873939.841 4      4288.056    23413392.760    95873927.833 6      4288.056
R02  21059254.460   112376226.997 8      6326.427    21059254.540   112376227.004 7      6326.427    21059267.440    87403785.268 8      4920.554    21059267.280    87403787.274 8      4920.554
R08  22794891.480   122065607.287 6      -834.519    22794892.420   122065607.334 6      -834.519    22794907.780    94939973.493 7      -649.070    22794906.740    94939971.483 7      -649.070
G03  19981237.040   105002110.620 8      3047.605    19981236.820   105002110.628 8      3047.605    19981242.020    81819848.449 8      2374.757    19981242.940    81819850.449 8      2374.757
R24  20466172.560   109441826.226 7      3330.125    20466172.380   109441826.222 7      3330.125    20466184.100    85121463.362 7      2590.097    20466184.260    85121463.360 8      2590.097
G14  22061680.800   115934916.104 7      2848.123    22061679.760   115934916.117 5      2848.123    22061685.700    90338911.764 5      2219.317    22061686.360    90338919.778 7      2219.317
> 2024 06 03 14 07 23.0000000  0 14
G22  23591442.860   123973874.688 6      4133.922    23591441.360   123973874.701 4      4133.922    23591449.200    96603042.717 4      3221.238
R15  22797001.840   121820260.549 6      2332.752    22797001.420   121820260.547 6      2332.752    22797015.440    94749154.263 7      1814.363    22797015.680    94749150.267 7      1814.363
G02  21720981.520   114144525.709 7      2105.148    21720980.220   114144525.717 6      2105.148    21720983.020    88943792.280 6      1640.375
R14  22575069.720   120337811.733 7      -208.266    22575068.560   120337811.730 6      -208.266    22575083.840    93596130.518 7      -161.985    22575084.740    93596135.519 7      -161.985
R01  19552226.060   104517843.121 7      2790.661    19552224.160   104517843.115 7      2790.661    19552236.800    81291707.783 7      2170.514    19552236.120    81291703.782 7      2170.514
G08  22170334.620   116505888.874 7       135.678    22170333.160   116505888.882 7       135.678    22170343.800    90783840.443 7       105.723    22170344.640    90783844.444 8       105.723
G04  23275331.160   122312702.279 6      5678.070    23275330.580   122312702.284 4      5678.070    23275343.260    95308617.863 4      4424.470    23275343.800    95308648.873 7      4424.470
G21  22262986.520   116992765.391 7      1345.980    22262985.480   116992765.398 6      1345.980    22262991.020    91163204.189 6      1048.816
G17  23412341.280   123032688.222 7      5502.962    23412340.100   123032688.224 4      5502.962    23412345.960    95869651.882 4      4288.023    23412345.760    95869639.884 6      4288.023
R02  21058069.060   112369900.977 8      6325.904    21058068.700   112369900.983 7      6325.904    21058081.920    87398865.034 8      4920.148    21058081.920    87398867.042 8      4920.148
R08  22795048.080   122066442.314 6      -835.126    22795048.140   122066442.364 6      -835.126    22795063.540    94940622.952 7      -649.543    22795063.060    94940620.945 7      -649.543
G03  19980657.040   104999063.456 8      3047.006    19980656.900   104999063.459 8      3047.006    19980662.160    81817474.035 8      2374.291    19980663.160    81817476.028 8      2374.291
R24  20465550.020   109438496.324 7      3329.948    20465549.860   109438496.325 7      3329.948    20465561.320    85118873.438 7      2589.959    20465561.340    85118873.438 8      2589.959
G14  22061138.940   115932068.374 7      2847.583    22061137.800   115932068.381 5      2847.583    22061143.880    90336692.750 5      2218.896    22061144.500    90336700.760 7      2218.896
> 2024 06 03 14 07 24.0000000  0 14
G22  23590656.340   123969740.901 6      4133.688    23590654.540   123969740.914 4      4133.688    23590662.620    96599821.585 4      3221.055
R15  22796564.780   121817928.068 6      2332.403    22796564.660   121817928.053 6      2332.403    22796579.200    94747340.096 7      1814.092    22796579.260    94747336.101 7      1814.092
G02  21720580.960   114142420.439 8      2105.475    21720579.680   114142420.447 6      2105.475    21720582.280    88942151.812 6      1640.630
R14  22575108.560   120338020.110 7      -208.300    22575108.100   120338020.102 6      -208.300    22575122.880    93596292.581 7      -162.011    22575123.660    93596297.580 7      -162.011
R01  19551703.820   104515052.882 7      2789.956    19551702.560   104515052.878 7      2789.956    19551714.880    81289537.595 7      2169.965    19551714.220    81289533.598 7      2169.965
G08  22170308.980   116505753.226 7       135.666    22170307.300   116505753.231 7       135.666    22170317.900    90783734.737 7       105.714    22170318.860    90783738.737 8       105.714
G04  23274250.840   122307024.108 6      5678.396    23274250.080   122307024.113 4      5678.396    23274262.600    95304193.324 4      4424.724    23274263.000    95304224.341 7      4424.724
G21  22262730.320   116991419.363 7      1346.273    22262729.360   116991419.371 6      1346.273    22262734.940    91162155.335 6      1049.044
G17  23411294.120   123027185.191 7      5503.172    23411292.940   123027185.198 4      5503.172    23411298.880    95865363.810 4      4288.186    23411298.780    95865351.812 6      4288.186
R02  21056883.640   112363575.197 8      6325.787    21056883.220   112363575.200 7      6325.787    21056896.140    87393944.991 8      4920.056    21056896.360    87393946.997 8      4920.056
R08  22795203.880   122067277.612 6      -835.283    22795204.100   122067277.659 6      -835.283    22795219.360    94941272.626 7      -649.665    22795218.880    94941270.615 7      -649.665
G03  19980077.580   104996016.705 8      3046.690    19980077.040   104996016.710 8      3046.690    19980082.340    81815099.943 8      2374.044    19980083.360    81815101.938 8      2374.044
R24  20464927.760   109435166.411 7      3330.068    20464927.380   109435166.410 7      3330.068    20464938.820    85116283.501 7      2590.053    20464938.700    85116283.504 8      2590.053
G14  22060596.880   115929221.075 7      2847.158    22060596.060   115929221.085 5      2847.158    22060602.060    90334474.071 5      2218.565    22060602.880    90334482.093 7      2218.565
> 2024 06 03 14 07 25.0000000  0 14
G22  23589869.720   123965607.645 6      4132.941    23589868.140   123965607.658 4      4132.941    23589876.100    96596600.866 4      3220.473
R15  22796128.660   121815596.351 6      2331.419    22796127.900   121815596.336 6      2331.419    22796143.040    94745526.537 7      1813.326    22796143.000    94745522.537 7      1813.326
G02  21720180.360   114140315.283 7      2105.100    21720179.100   114140315.293 6      2105.100    21720181.700    88940511.428 6      1640.337
R14  22575147.480   120338228.809 7      -208.964    22575146.860   120338228.810 6      -208.964    22575161.800    93596454.892 7      -162.527    22575162.660    93596459.889 7      -162.527
R01  19551182.260   104512263.586 7      2788.723    19551180.400   104512263.584 7      2788.723    19551193.140    81287368.145 7      2169.007    19551192.140    81287364.143 7      2169.007
G08  22170283.480   116505617.953 7       135.042    22170281.720   116505617.964 7       135.042    22170292.240    90783629.325 7       105.228    22170293.220    90783633.326 8       105.228
G04  23273170.300   122301346.060 7      5677.879    23273169.360   122301346.065 4      5677.879    23273181.960    95299768.880 4      4424.321    23273182.700    95299799.892 7      4424.321
G21  22262474.400   116990073.394 7      1345.961    22262473.200   116990073.406 6      1345.961    22262478.760    91161106.529 6      1048.801
G17  23410246.580   123021682.223 7      5502.962    23410245.760   123021682.228 4      5502.962    23410251.840    95861075.789 4      4288.023    23410251.120    95861063.789 6      4288.023
R02  21055698.460   112357249.926 8      6324.841    21055697.680   112357249.935 7      6324.841    21055710.900    87389025.346 8      4919.321    21055711.140    87389027.354 8      4919.321
R08  22795359.900   122068113.408 6      -835.923    22795360.560   122068113.458 6      -835.923    22795375.100    94941922.682 7      -650.162    22795374.900    94941920.674 7      -650.162
G03  19979497.900   104992970.569 8      3045.795    19979497.540   104992970.576 8      3045.795    19979502.660    81812726.330 8      2373.347    19979503.640    81812728.327 8      2373.347
R24  20464304.680   109431836.691 7      3329.666    20464304.620   109431836.687 7      3329.666    20464316.080    85113693.717 7      2589.740    20464316.380    85113693.717 8      2589.740
G14  22060055.080   115926374.422 7      2846.325    22060054.420   115926374.432 5      2846.325    22060060.420    90332255.900 5      2217.916    22060061.100    90332263.916 7      2217.916
> 2024 06 03 14 07 26.0000000  0 14
G22  23589082.980   123961474.725 6      4132.697    23589081.760   123961474.738 4      4132.697    23589089.480    96593380.407 4      3220.283
R15  22795692.560   121813265.275 6      2330.558    22795691.780   121813265.255 6      2330.558    22795706.840    94743713.472 7      1812.656    22795706.940    94743709.470 7      1812.656
G02  21719779.560   114138209.984 7      2105.227    21719778.620   114138209.994 6      2105.227    21719781.140    88938870.932 6      1640.437
R14  22575186.560   120338437.685 7      -209.217    22575186.420   120338437.682 6      -209.217    22575200.700    93596617.338 7      -162.724    22575201.940    93596622.340 7      -162.724
R01  19550660.680   104509475.009 7      2788.124    19550658.460   104509475.013 7      2788.124    19550671.440    81285199.256 7      2168.541    19550670.560    81285195.252 7      2168.541
G08  22170257.700   116505482.883 7       134.836    22170256.020   116505482.891 7       134.836    22170266.580    90783524.070 7       105.067    22170267.560    90783528.066 8       105.067
G04  23272089.380   122295667.929 7      5678.013    23272088.900   122295667.934 4      5678.013    23272101.540    95295344.366 4      4424.425    23272101.900    95295375.383 7      4424.425
G21  22262218.020   116988727.243 7      1346.150    22262217.080   116988727.250 6      1346.150    22262222.680    91160057.574 6      1048.948
G17  23409199.660   123016179.142 7      5503.000    23409198.680   123016179.147 4      5503.000    23409204.800    95856787.676 4      4288.052    23409203.960    95856775.684 6      4288.052
R02  21054513.080   112350925.002 8      6324.604    21054512.160   112350925.005 7      6324.604    21054525.020    87384105.961 8      4919.137    21054525.780    87384107.967 8      4919.137
R08  22795515.460   122068949.501 6      -836.339    22795516.660   122068949.540 6      -836.339    22795531.340    94942572.962 7      -650.486    22795530.680    94942570.956 7      -650.486
G03  19978918.180   104989924.884 8      3045.293    19978917.780   104989924.897 8      3045.293    19978923.080    81810353.074 8      2372.956    19978924.120    81810355.070 8      2372.956
R24  20463681.880   109428506.933 7      3329.632    20463682.160   109428506.932 7      3329.632    20463693.280    85111103.905 7      2589.714    20463693.300    85111103.908 8      2589.714
G14  22059513.480   115923528.266 7      2845.766    22059512.820   115923528.279 5      2845.766    22059518.780    90330038.116 5      2217.480    22059519.460    90330046.136 7      2217.480
> 2024 06 03 14 07 27.0000000  0 14
G22  23588296.900   123957342.300 7      4132.267    23588295.660   123957342.310 4      4132.267    23588303.320    96590160.334 4      3219.949
R15  22795256.640   121810934.881 6      2330.080    22795255.540   121810934.848 6      2330.080    22795271.020    94741900.931 7      1812.284    22795270.920    94741896.935 7      1812.284
G02  21719379.300   114136104.756 7      2105.181    21719378.080   114136104.761 6      2105.181    21719380.520    88937230.491 6      1640.401
R14  22575226.120   120338646.749 7      -209.234    22575225.580   120338646.752 6      -209.234    22575239.460    93596779.938 7      -162.737    22575241.160    93596784.937 7      -162.737
R01  19550138.760   104506687.397 7      2787.193    19550137.220   104506687.390 7      2787.193    19550149.660    81283031.111 7      2167.816    19550148.780    81283027.101 7      2167.816
G08  22170232.080   116505348.181 7       134.564    22170230.400   116505348.183 7       134.564    22170240.960    90783419.097 7       104.855    22170241.860    90783423.089 8       104.855
G04  23271008.940   122289989.855 6      5678.065    23271008.300   122289989.860 4      5678.065    23271020.960    95290919.907 4      4424.466    23271021.800    95290950.924 7      4424.466
G21  22261961.900   116987381.131 7      1346.138    22261961.000   116987381.136 6      1346.138    22261966.580    91159008.654 6      1048.938
G17  23408152.540   123010676.092 7      5503.015    23408151.580   123010676.100 4      5503.015    23408157.480    95852499.591 4      4288.064    23408156.680    95852487.590 6      4288.064
R02  21053327.600   112344600.545 8      6324.283    21053326.800   112344600.548 7      6324.283    21053339.920    87379186.945 8      4918.886    21053340.360    87379188.949 8      4918.886
R08  22795671.920   122069786.106 6      -836.826    22795673.060   122069786.148 6      -836.826    22795687.900    94943223.650 7      -650.864    22795687.360    94943221.649 7      -650.864
G03  19978338.800   104986879.777 8      3044.843    19978338.300   104986879.788 8      3044.843    19978343.600    81807980.264 8      2372.605    19978344.580    81807982.258 8      2372.605
R24  20463059.320   109425177.314 7      3329.541    20463060.540   109425177.316 7      3329.541    20463070.520    85108514.202 7      2589.643    20463070.600    85108514.204 8      2589.643
G14  22058972.280   115920682.688 7      2845.382    22058971.460   115920682.701 5      2845.382    22058977.240    90327820.781 5      2217.181    22058977.900    90327828.801 7      2217.181
> 2024 06 03 14 07 28.0000000  0 14
G22  23587510.460   123953210.139 6      4131.835    23587509.500   123953210.147 4      4131.835    23587516.920    96586940.469 4      3219.612
R15  22794820.380   121808604.981 6      2329.395    22794819.100   121808604.966 6      2329.395    22794834.860    94740088.801 7      1811.752    22794834.780    94740084.805 7      1811.752
G02  21718978.440   114133999.416 7      2105.394    21718977.420   114133999.423 6      2105.394    21718979.740    88935589.965 6      1640.567
R14  22575265.320   120338855.862 7      -209.159    22575264.640   120338855.849 6      -209.159    22575279.100    93596942.558 7      -162.679    22575280.240    93596947.555 7      -162.679
R01  19549617.360   104503900.546 7      2786.352    19549615.800   104503900.540 7      2786.352    19549628.740    81280863.552 7      2167.163    19549627.440    81280859.545 7      2167.163
G08  22170206.380   116505213.686 7       134.368    22170204.640   116505213.691 7       134.368    22170215.260    90783314.289 7       104.703    22170216.160    90783318.288 8       104.703
G04  23269928.960   122284311.745 6      5677.924    23269927.740   122284311.744 4      5677.924    23269940.600    95286495.408 4      4424.356    23269941.160    95286526.412 7      4424.356
G21  22261705.820   116986034.896 7      1346.284    22261704.900   116986034.904 6      1346.284    22261710.300    91157959.638 6      1049.053
G17  23407105.240   123005172.867 7      5503.198    23407104.420   123005172.874 4      5503.198    23407110.440    95848211.366 4      4288.206    23407109.960    95848199.362 6      4288.206
R02  21052142.680   112338276.400 8      6323.828    21052141.880   112338276.404 7      6323.828    21052154.980    87374268.174 8      4918.533    21052155.340    87374270.178 8      4918.533
R08  22795828.080   122070623.008 7      -837.139    22795829.260   122070623.060 6      -837.139    22795843.860    94943874.578 7      -651.108    22795843.380    94943872.572 7      -651.108
G03  19977759.380   104983835.084 8      3044.391    19977759.000   104983835.094 8      3044.391    19977764.300    81805607.773 8      2372.253    19977765.220    81805609.769 8      2372.253
R24  20462436.600   109421847.639 7      3329.651    20462437.540   109421847.638 7      3329.651    20462447.900    85105924.448 7      2589.728    20462448.080    85105924.453 8      2589.728
G14  22058431.320   115917837.517 7      2844.892    22058430.040   115917837.530 5      2844.892    22058435.800    90325603.762 5      2216.799    22058436.520    90325611.784 7      2216.799
> 2024 06 03 14 07 29.0000000  0 14
G22  23586723.880   123949078.614 6      4131.230    23586723.160   123949078.627 4      4131.230    23586730.500    96583721.101 4      3219.140
R15  22794384.980   121806275.977 6      2328.537    22794383.760   121806275.959 6      2328.537    22794399.140    94738277.346 7      1811.085    22794399.060    94738273.351 7      1811.085
G02  21718578.000   114131894.254 7      2105.025    21718576.740   114131894.261 6      2105.025    21718579.240    88933949.580 6      1640.279
R14  22575304.940   120339065.534 7      -209.910    22575303.740   120339065.508 6      -209.910    22575318.500    93597105.618 7      -163.264    22575319.720    93597110.622 7      -163.264
R01  19549096.600   104501114.693 7      2785.227    19549094.440   104501114.691 7      2785.227    19549107.280    81278696.777 7      2166.288    19549106.480    81278692.770 7      2166.288
G08  22170180.800   116505079.643 7       133.730    22170179.180   116505079.646 7       133.730    22170189.600    90783209.836 7       104.205    22170190.360    90783213.833 8       104.205
G04  23268848.040   122278633.737 7      5677.690    23268847.180   122278633.741 4      5677.690    23268860.180    95282070.996 4      4424.174    23268860.960    95282102.015 7      4424.174
G21  22261449.700   116984688.771 7      1345.997    22261448.740   116984688.774 6      1345.997    22261453.960    91156910.703 6      1048.828
G17  23406058.320   122999669.849 7      5502.899    23406057.280   122999669.854 4      5502.899    23406063.380    95843923.298 4      4287.973    23406062.680    95843911.292 6      4287.973
R02  21050957.240   112331952.813 8      6323.182    21050956.800   112331952.819 7      6323.182    21050969.860    87369349.835 8      4918.030    21050970.000    87369351.839 8      4918.030
R08  22795984.840   122071460.450 7      -837.799    22795985.940   122071460.497 6      -837.799    22796000.380    94944525.916 7      -651.621    22795999.940    94944523.910 7      -651.621
G03  19977180.160   104980791.120 8      3043.584    19977179.720   104980791.125 8      3043.584    19977185.100    81803235.853 8      2371.624    19977185.980    81803237.847 8      2371.624
R24  20461814.060   109418518.237 7      3329.275    20461815.140   109418518.233 7      3329.275    20461825.300    85103334.915 7      2589.436    20461825.480    85103334.916 8      2589.436
G14  22057889.920   115914993.153 7      2843.956    22057888.920   115914993.166 5      2843.956    22057894.600    90323387.375 5      2216.070    22057894.980    90323395.395 7      2216.070
> 2024 06 03 14 07 30.0000000  0 14
G22  23585938.140   123944947.599 6      4130.830    23585936.980   123944947.615 4      4130.830    23585944.320    96580502.125 4      3218.829
R15  22793949.140   121803947.698 6      2327.980    22793947.660   121803947.697 6      2327.980    22793963.940    94736466.465 7      1810.651    22793963.340    94736462.470 7      1810.651
G02  21718177.300   114129789.160 7      2105.092    21718176.160   114129789.168 6      2105.092    21718178.580    88932309.241 6      1640.331
R14  22575344.120   120339275.505 7      -209.974    22575342.600   120339275.484 6      -209.974    22575358.020    93597268.925 7      -163.313    22575359.140    93597273.924 7      -163.313
R01  19548575.560   104498329.810 7      2784.358    19548573.900   104498329.814 7      2784.358    19548586.440    81276530.755 7      2165.612    19548585.380    81276526.741 7      2165.612
G08  22170155.540   116504946.000 7       133.463    22170153.840   116504946.005 7       133.463    22170164.240    90783105.695 7       103.997    22170165.000    90783109.695 7       103.997
G04  23267767.740   122272955.855 7      5678.026    23267766.820   122272955.862 4      5678.026    23267779.720    95277646.681 4      4424.436    23267780.380    95277677.691 7      4424.436
G21  22261193.560   116983342.678 7      1346.098    22261192.760   116983342.681 6      1346.098    22261197.920    91155861.798 6      1048.907
G17  23405011.040   122994166.844 7      5503.054    23405010.200   122994166.844 4      5503.054    23405016.060    95839635.242 4      4288.094    23405015.080    95839623.240 6      4288.094
R02  21049772.460   112325629.685 8      6322.981    21049772.140   112325629.686 7      6322.981    21049785.000    87364431.844 8      4917.874    21049785.160    87364433.848 8      4917.874
R08  22796141.140   122072298.407 7      -838.244    22796141.480   122072298.459 6      -838.244    22796156.820    94945177.658 7      -651.968    22796156.400    94945175.657 7      -651.968
G03  19976600.980   104977747.763 8      3043.110    19976600.520   104977747.771 8      3043.110    19976606.100    81800864.406 8      2371.255    19976606.840    81800866.401 8      2371.255
R24  20461191.420   109415189.017 7      3329.187    20461192.680   109415189.029 7      3329.187    20461202.340    85100745.528 7      2589.368    20461202.960    85100745.532 8      2589.368
G14  22057348.560   115912149.396 7      2843.494    22057347.880   115912149.409 5      2843.494    22057353.280    90321171.456 5      2215.710    22057354.280    90321179.476 7      2215.710
> 2024 06 03 14 07 31.0000000  0 14
G22  23585152.100   123940817.241 6      4129.762    23585151.020   123940817.257 4      4129.762    23585158.260    96577283.664 4      3217.996
R15  22793513.280   121801620.356 6      2326.595    22793512.100   121801620.357 6      2326.595    22793528.480    94734656.308 7      1809.574    22793528.000    94734652.312 7      1809.574
G02  21717776.680   114127684.240 7      2104.543    21717775.680   114127684.253 6      2104.543    21717778.060    88930669.047 6      1639.903
R14  22575383.340   120339485.929 7      -211.016    22575382.440   120339485.927 6      -211.016    22575397.420    93597432.594 7      -164.124    22575398.740    93597437.587 7      -164.124
R01  19548054.520   104495545.867 7      2783.347    19548052.940   104495545.874 7      2783.347    19548065.400    81274365.470 7      2164.825    19548064.740    81274361.461 7      2164.825
G08  22170130.360   116504812.706 7       132.817    22170128.440   116504812.713 7       132.817    22170138.840    90783001.827 7       103.494    22170139.440    90783005.824 7       103.494
G04  23266687.120   122267278.062 7      5677.574    23266686.440   122267278.070 4      5677.574    23266699.420    95273222.437 4      4424.084    23266699.760    95273253.452 7      4424.084
G21  22260937.380   116981996.690 7      1345.767    22260936.480   116981996.695 6      1345.767    22260941.860    91154812.976 6      1048.650
G17  23403964.140   122988664.057 7      5502.438    23403962.940   122988664.059 4      5502.438    23403968.900    95835347.360 4      4287.614    23403968.080    95835335.365 6      4287.614
R02  21048587.780   112319306.994 8      6322.277    21048586.880   112319306.995 7      6322.277    21048599.980    87359514.208 8      4917.327    21048600.200    87359516.210 8      4917.327
R08  22796297.240   122073136.963 6      -839.127    22796297.880   122073137.013 6      -839.127    22796313.200    94945829.866 7      -652.654    22796312.720    94945827.859 7      -652.654
G03  19976021.780   104974705.103 8      3041.991    19976021.520   104974705.111 8      3041.991    19976027.040    81798493.502 8      2370.383    19976027.800    81798495.497 8      2370.383
R24  20460569.080   109411860.101 7      3328.524    20460570.320   109411860.116 7      3328.524    20460579.960    85098156.375 7      2588.852    20460580.180    85098156.380 7      2588.852
G14  22056807.900   115909306.398 7      2842.304    22056806.940   115909306.411 5      2842.304    22056812.320    90318956.135 5      2214.782    22056813.260    90318964.157 7      2214.782
> 2024 06 03 14 07 32.0000000  0 14
G22  23584366.180   123936687.503 6      4129.589    23584365.220   123936687.521 4      4129.589    23584372.340    96574065.688 4      3217.862
R15  22793078.160   121799293.924 6      2325.934    22793076.560   121799293.922 6      2325.934    22793093.420    94732846.857 7      1809.060    22793092.620    94732842.867 7      1809.060
G02  21717376.400   114125579.475 7      2104.613    21717375.220   114125579.485 6      2104.613    21717377.480    88929028.968 6      1639.958
R14  22575423.120   120339696.843 7      -211.054    22575422.500   120339696.828 6      -211.054    22575436.460    93597596.612 7      -164.153    22575437.960    93597601.607 7      -164.153
R01  19547533.460   104492763.015 7      2782.373    19547532.060   104492763.022 7      2782.373    19547544.760    81272201.036 7      2164.068    19547543.940    81272197.018 7      2164.068
G08  22170105.160   116504679.898 7       132.443    22170103.280   116504679.903 7       132.443    22170113.720    90782898.326 7       103.202    22170114.500    90782902.325 8       103.202
G04  23265606.560   122261600.467 6      5677.515    23265605.920   122261600.474 4      5677.515    23265619.040    95268798.349 4      4424.037    23265619.200    95268829.359 7      4424.037
G21  22260681.420   116980650.821 7      1345.769    22260680.380   116980650.825 6      1345.769    22260685.640    91153764.248 6      1048.651
G17  23402916.780   122983161.446 7      5502.553    23402916.040   122983161.451 4      5502.553    23402921.780    95831059.618 5      4287.704    23402921.040    95831047.622 6      4287.704
R02  21047403.180   112312984.882 7      6321.904    21047401.560   112312984.886 7      6321.904    21047414.960    87354597.019 8      4917.036    21047415.380    87354599.020 8      4917.036
R08  22796454.360   122073976.055 6      -839.312    22796455.160   122073976.102 6      -839.312    22796470.240    94946482.481 7      -652.798    22796469.780    94946480.480 7      -652.798
G03  19975443.040   104971663.126 8      3041.759    19975442.420   104971663.134 8      3041.759    19975448.080    81796123.130 8      2370.202    19975448.820    81796125.125 8      2370.202
R24  20459946.660   109408531.442 7      3328.548    20459948.120   109408531.452 7      3328.548    20459957.540    85095567.412 7      2588.871    20459957.540    85095567.421 7      2588.871
G14  22056266.680   115906464.170 7      2841.996    22056266.160   115906464.183 5      2841.996    22056271.560    90316741.408 5      2214.542    22056272.580    90316749.428 7      2214.542
> 2024 06 03 14 07 33.0000000  0 14
G22  23583580.540   123932558.131 7      4129.290    23583579.640   123932558.149 4      4129.290    23583586.520    96570847.993 4      3217.629
R15  22792642.560   121796968.029 6      2325.562    22792641.220   121796968.038 6      2325.562    22792657.880    94731037.825 7      1808.770    22792657.680    94731033.838 7      1808.770
G02  21716975.680   114123474.704 8      2104.748    21716974.700   114123474.714 6      2104.748    21716977.040    88927388.885 6      1640.064
R14  22575462.620   120339907.907 7      -211.148    22575462.140   120339907.894 6      -211.148    22575475.860    93597760.764 7      -164.226    22575477.420    93597765.757 7      -164.226
R01  19547013.200   104489981.059 7      2781.489    19547011.760   104489981.071 7      2781.489    19547024.280    81270037.288 7      2163.381    19547023.740    81270033.274 7      2163.381
G08  22170079.740   116504547.411 7       132.421    22170078.120   116504547.413 7       132.421    22170088.700    90782795.081 7       103.186    22170089.320    90782799.082 8       103.186
G04  23264526.600   122255922.937 6      5677.529    23264525.340   122255922.942 4      5677.529    23264538.580    95264374.306 4      4424.049    23264538.580    95264405.314 7      4424.049
G21  22260425.180   116979304.932 7      1345.935    22260424.200   116979304.937 6      1345.935    22260429.540    91152715.502 6      1048.781
G17  23401869.460   122977658.710 7      5502.841    23401868.960   122977658.715 5      5502.841    23401874.620    95826771.773 5      4287.928    23401873.800    95826759.780 6      4287.928
R02  21046218.360   112306663.219 7      6321.492    21046216.760   112306663.214 7      6321.492    21046230.340    87349680.167 8      4916.716    21046230.660    87349682.171 8      4916.716
R08  22796611.140   122074815.570 6      -839.663    22796612.280   122074815.617 6      -839.663    22796627.100    94947135.429 7      -653.071    22796626.280    94947133.425 7      -653.071
G03  19974864.260   104968621.709 8      3041.183    19974863.620   104968621.711 8      3041.183    19974869.300    81793753.191 8      2369.753    19974870.180    81793755.183 8      2369.753
R24  20459324.200   109405202.850 7      3328.587    20459325.540   109405202.857 7      3328.587    20459335.260    85092978.503 7      2588.901    20459335.160    85092978.510 7      2588.901
G14  22055725.840   115903622.426 7      2841.522    22055725.320   115903622.438 5      2841.522    22055730.840    90314527.055 5      2214.173    22055731.960    90314535.073 7      2214.173
> 2024 06 03 14 07 34.0000000  0 14
G22  23582794.960   123928429.215 7      4128.555    23582793.980   123928429.231 4      4128.555    23582800.780    96567630.652 4      3217.056
R15  22792206.760   121794642.866 6      2324.865    22792206.040   121794642.865 6      2324.865    22792222.600    94729229.357 7      1808.229    22792222.480    94729225.368 7      1808.229
G02  21716575.100   114121369.923 7      2104.817    21716574.240   114121369.931 6      2104.817    21716576.360    88925748.792 6      1640.118
R14  22575501.880   120340119.219 7      -211.575    22575501.280   120340119.211 6      -211.575    22575515.940    93597925.107 7      -164.558    22575516.780    93597930.100 7      -164.558
R01  19546493.280   104487199.939 7      2780.677    19546491.680   104487199.945 7      2780.677    19546504.160    81267874.193 7      2162.749    19546503.220    81267870.177 7      2162.749
G08  22170054.440   116504415.231 7       131.976    22170052.880   116504415.238 7       131.976    22170063.640    90782692.086 7       102.839    22170063.860    90782696.089 8       102.839
G04  23263446.040   122250245.389 6      5677.536    23263444.800   122250245.391 4      5677.536    23263458.240    95259950.249 4      4424.054    23263457.780    95259981.257 7      4424.054
G21  22260168.940   116977959.008 7      1345.931    22260167.940   116977959.010 6      1345.931    22260173.400    91151666.725 5      1048.777
G17  23400822.280   122972155.986 7      5502.764    23400821.860   122972155.988 5      5502.764    23400827.620    95822483.939 5      4287.868    23400826.540    95822471.939 6      4287.868
R02  21045033.680   112300341.932 7      6321.036    21045032.200   112300341.935 7      6321.036    21045045.700    87344763.627 8      4916.361    21045046.000    87344765.629 8      4916.361
R08  22796768.180   122075655.506 6      -840.157    22796768.980   122075655.564 6      -840.157    22796783.740    94947788.716 7      -653.455    22796782.900    94947786.715 7      -653.455
G03  19974285.540   104965580.801 8      3040.607    19974285.020   104965580.803 8      3040.607    19974290.720    81791383.650 8      2369.304    19974291.500    81791385.640 8      2369.304
R24  20458701.680   109401874.378 7      3328.419    20458702.960   109401874.385 7      3328.419    20458712.700    85090389.692 7      2588.770    20458712.500    85090389.698 8      2588.770
G14  22055185.180   115900781.249 7      2840.837    22055184.720   115900781.259 5      2840.837    22055190.360    90312313.147 5      2213.639    22055191.260    90312321.163 7      2213.639
> 2024 06 03 14 07 35.0000000  0 14
G22  23582009.420   123924300.851 7      4128.036    23582008.440   123924300.867 4      4128.036    23582015.020    96564413.745 4      3216.652
R15  22791771.760   121792318.484 6      2323.964    22791771.480   121792318.498 6      2323.964    22791787.400    94727421.506 7      1807.527    22791787.460    94727417.521 7      1807.527
G02  21716174.580   114119265.321 7      2104.540    21716173.740   114119265.326 6      2104.540    21716176.060    88924108.840 6      1639.902
R14  22575541.920   120340330.842 7      -211.744    22575541.120   120340330.826 6      -211.744    22575555.860    93598089.682 7      -164.690    22575556.380    93598094.673 7      -164.690
R01  19545973.580   104484419.856 7      2779.527    19545971.840   104484419.857 7      2779.527    19545984.060    81265711.896 7      2161.854    19545983.300    81265707.882 7      2161.854
G08  22170029.320   116504283.508 7       131.392    22170027.960   116504283.508 7       131.392    22170038.600    90782589.436 7       102.384    22170039.060    90782593.437 8       102.384
G04  23262365.620   122244567.988 6      5677.293    23262364.420   122244567.990 4      5677.293    23262377.940    95255526.308 4      4423.865    23262377.800    95255557.316 7      4423.865
G21  22259912.960   116976613.217 7      1345.621    22259911.900   116976613.219 6      1345.621    22259917.340    91150618.055 6      1048.536
G17  23399774.960   122966653.399 7      5502.542    23399774.640   122966653.401 5      5502.542    23399780.620    95818196.217 5      4287.695    23399779.200    95818184.231 6      4287.695
R02  21043849.340   112294021.221 7      6320.440    21043848.060   112294021.213 7      6320.440    21043861.340    87339847.523 8      4915.898    21043861.340    87339849.522 8      4915.898
R08  22796924.500   122076496.043 6      -840.944    22796925.920   122076496.093 6      -840.944    22796940.400    94948442.461 7      -654.067    22796939.680    94948440.462 7      -654.067
G03  19973707.000   104962540.584 8      3039.860    19973706.560   104962540.586 8      3039.860    19973712.280    81789014.650 8      2368.722    19973712.860    81789016.640 8      2368.722
R24  20458079.520   109398546.155 7      3328.131    20458080.100   109398546.170 7      3328.131    20458090.360    85087801.080 7      2588.547    20458090.120    85087801.087 7      2588.547
G14  22054645.040   115897940.773 7      2840.146    22054644.280   115897940.781 5      2840.146    22054649.900    90310099.788 5      2213.101    22054650.700    90310107.801 7      2213.101
> 2024 06 03 14 07 36.0000000  0 14
G22  23581223.900   123920173.179 7      4127.418    23581222.820   123920173.194 4      4127.418    23581229.480    96561197.379 4      3216.170
R15  22791337.200   121789995.007 6      2323.205    22791337.500   121789995.013 6      2323.205    22791352.780    94725614.347 7      1806.938    22791352.500    94725610.366 7      1806.938
G02  21715774.300   114117160.932 7      2104.401    21715773.180   114117160.939 6      2104.401    21715775.660    88922469.056 6      1639.793
R14  22575581.660   120340542.961 6      -212.088    22575581.060   120340542.948 6      -212.088    22575595.940    93598254.659 7      -164.957    22575596.360    93598259.655 7      -164.957
R01  19545453.380   104481640.840 7      2778.624    19545451.980   104481640.843 7      2778.624    19545464.120    81263550.438 7      2161.152    19545463.600    81263546.429 7      2161.152
G08  22170004.300   116504152.290 7       131.212    22170002.980   116504152.292 7       131.212    22170013.460    90782487.182 7       102.243    22170013.980    90782491.187 7       102.243
G04  23261285.420   122238890.860 6      5677.215    23261284.120   122238890.862 4      5677.215    23261297.620    95251102.580 4      4423.804    23261297.420    95251133.592 7      4423.804
G21  22259656.800   116975267.583 7      1345.679    22259655.880   116975267.583 6      1345.679    22259661.180    91149569.503 6      1048.581
G17  23398728.160   122961151.001 7      5502.579    23398727.320   122961151.001 5      5502.579    23398733.720    95813908.640 5      4287.724    23398732.520    95813896.640 6      4287.724
R02  21042664.820   112287701.163 8      6319.982    21042663.440   112287701.162 7      6319.982    21042676.980    87334931.927 8      4915.541    21042676.820    87334933.932 8      4915.541
R08  22797082.040   122077337.173 6      -841.446    22797082.860   122077337.231 6      -841.446    22797097.280    94949096.673 7      -654.458    22797096.880    94949094.672 7      -654.458
G03  19973128.620   104959501.132 8      3039.226    19973128.180   104959501.140 8      3039.226    19973134.020    81786646.250 8      2368.228    19973134.580    81786648.236 8      2368.228
R24  20457457.200   109395218.240 7      3327.994    20457457.960   109395218.249 7      3327.994    20457468.180    85085212.693 7      2588.440    20457467.840    85085212.700 7      2588.440
G14  22054104.480   115895101.102 7      2839.499    22054103.960   115895101.109 5      2839.499    22054109.700    90307887.052 5      2212.597    22054110.180    90307895.058 7      2212.597
> 2024 06 03 14 07 37.0000000  0 14
G22  23580438.660   123916045.835 6      4127.285    23580437.460   123916045.847 4      4127.285    23580443.940    96557981.265 4      3216.066
R15  22790902.640   121787672.129 6      2322.612    22790902.600   121787672.127 6      2322.612    22790918.160    94723807.656 7      1806.476    22790918.360    94723803.677 7      1806.476
G02  21715373.860   114115056.353 7      2104.597    21715372.800   114115056.358 6      2104.597    21715375.020    88920829.121 6      1639.945
R14  22575621.440   120340755.269 6      -212.319    22575620.360   120340755.265 6      -212.319    22575635.360    93598419.774 7      -165.137    22575636.020    93598424.773 7      -165.137
R01  19544933.560   104478862.489 7      2777.984    19544932.640   104478862.498 7      2777.984    19544944.480    81261389.503 7      2160.654    19544943.780    81261385.487 7      2160.654
G08  22169979.460   116504021.190 7       131.081    22169977.860   116504021.189 7       131.081    22169988.660    90782385.020 7       102.141    22169989.140    90782389.015 8       102.141
G04  23260205.080   122233213.548 6      5677.494    23260203.820   122233213.550 4      5677.494    23260217.080    95246678.709 4      4424.021    23260217.280    95246709.723 7      4424.021
G21  22259400.880   116973921.690 7      1345.889    22259399.760   116973921.692 5      1345.889    22259404.960    91148520.757 6      1048.744
G17  23397681.060   122955648.498 7      5502.613    23397680.280   122955648.500 5      5502.613    23397686.400    95809620.981 5      4287.750    23397685.880    95809608.982 6      4287.750
R02  21041480.860   112281381.314 7      6319.906    21041478.920   112281381.304 7      6319.906    21041492.540    87330016.486 8      4915.482    21041492.860    87330018.488 8      4915.482
R08  22797239.060   122078178.498 6      -841.460    22797239.360   122078178.550 6      -841.460    22797254.740    94949751.022 7      -654.469    22797253.560    94949749.021 7      -654.469
G03  19972550.300   104956462.074 8      3038.862    19972549.640   104956462.082 8      3038.862    19972555.680    81784278.153 8      2367.945    19972556.220    81784280.141 8      2367.945
R24  20456834.540   109391890.222 7      3327.929    20456835.740   109391890.232 7      3327.929    20456845.720    85082624.233 7      2588.389    20456845.640    85082624.242 7      2588.389
G14  22053564.080   115892261.924 7      2838.985    22053563.520   115892261.932 5      2838.985    22053569.440    90305674.702 5      2212.196    22053569.720    90305682.710 7      2212.196
> 2024 06 03 14 07 38.0000000  0 14
G22  23579653.360   123911919.005 6      4126.638    23579652.520   123911919.018 4      4126.638    23579658.600    96554765.556 4      3215.562
R15  22790467.860   121785350.012 6      2321.873    22790468.260   121785350.005 6      2321.873    22790483.720    94722001.561 7      1805.901    22790483.780    94721997.580 7      1805.901
G02  21714973.380   114112951.948 7      2104.338    21714972.300   114112951.950 6      2104.338    21714974.680    88919189.323 6      1639.744
R14  22575661.480   120340967.839 6      -212.702    22575660.940   120340967.829 6      -212.702    22575675.600    93598585.087 7      -165.435    22575675.980    93598590.086 7      -165.435
R01  19544413.740   104476085.175 7      2776.729    19544412.880   104476085.181 7      2776.729    19544424.700    81259229.366 7      2159.678    19544424.200    81259225.354 7      2159.678
G08  22169954.700   116503890.513 7       130.252    22169953.420   116503890.513 7       130.252    22169963.900    90782283.186 7       101.495    22169964.100    90782287.185 7       101.495
G04  23259124.980   122227536.352 6      5676.968    23259123.440   122227536.359 4      5676.968    23259136.840    95242254.926 4      4423.612    23259136.820    95242285.938 7      4423.612
G21  22259144.600   116972575.967 7      1345.643    22259143.520   116972575.970 5      1345.643    22259148.840    91147472.140 6      1048.553
G17  23396633.960   122950146.079 7      5502.570    23396633.100   122950146.084 5      5502.570    23396639.300    95805333.382 5      4287.717    23396638.820    95805321.393 6      4287.717
R02  21040296.180   112275061.932 7      6318.925    21040294.460   112275061.919 7      6318.925    21040308.140    87325101.422 8      4914.719    21040308.540    87325103.429 8      4914.719
R08  22797396.020   122079020.500 6      -842.231    22797397.360   122079020.550 6      -842.231    22797411.800    94950405.896 7      -655.068    22797411.100    94950403.895 7      -655.068
G03  19971972.040   104953423.657 8      3038.086    19971971.340   104953423.659 8      3038.086    19971977.380    81781910.549 8      2367.340    19971978.260    81781912.533 8      2367.340
R24  20456212.300   109388562.467 7      3327.647    20456212.780   109388562.471 7      3327.647    20456223.480    85080035.975 7      2588.170    20456223.420    85080035.979 7      2588.170
G14  22053023.860   115889423.351 7      2838.280    22053023.460   115889423.359 5      2838.280    22053029.300    90303462.821 5      2211.647    22053029.660    90303470.827 7      2211.647
> 2024 06 03 14 07 39.0000000  0 14
G22  23578868.320   123907792.528 7      4125.973    23578867.180   123907792.546 4      4125.973    23578873.480    96551550.121 4      3215.044
R15  22790034.240   121783028.491 6      2320.918    22790034.400   121783028.479 6      2320.918    22790049.320    94720195.923 7      1805.158    22790048.900    94720191.923 7      1805.158
G02  21714573.000   114110847.519 7      2104.275    21714571.820   114110847.521 6      2104.275    21714574.320    88917549.506 6      1639.695
R14  22575701.480   120341180.662 6      -212.891    22575699.740   120341180.657 6      -212.891    22575715.980    93598750.624 7      -165.582    22575716.000    93598755.619 7      -165.582
R01  19543894.520   104473308.767 7      2775.922    19543894.340   104473308.773 7      2775.922    19543905.540    81257069.938 7      2159.050    19543904.600    81257065.926 7      2159.050
G08  22169929.780   116503760.262 7       130.216    22169928.160   116503760.261 7       130.216    22169938.820    90782181.683 7       101.467    22169939.760    90782185.688 8       101.467
G04  23258044.420   122221859.313 6      5677.234    23258043.240   122221859.321 4      5677.234    23258056.460    95237831.270 4      4423.819    23258056.660    95237862.278 7      4423.819
G21  22258888.480   116971230.213 7      1345.669    22258887.500   116971230.218 5      1345.669    22258892.720    91146423.497 6      1048.573
G17  23395586.820   122944643.534 7      5502.282    23395586.000   122944643.536 5      5502.282    23395592.240    95801045.687 5      4287.493    23395591.720    95801033.697 6      4287.493
R02  21039112.020   112268743.065 8      6318.767    21039110.720   112268743.057 7      6318.767    21039124.360    87320186.749 8      4914.596    21039124.120    87320188.753 8      4914.596
R08  22797553.780   122079862.845 6      -842.767    22797554.200   122079862.892 6      -842.767    22797569.060    94951061.062 7      -655.485    22797568.380    94951059.059 7      -655.485
G03  19971394.080   104950385.797 8      3037.379    19971393.400   104950385.800 8      3037.379    19971399.660    81779543.384 8      2366.788    19971400.320    81779545.372 8      2366.788
R24  20455589.880   109385234.750 8      3327.472    20455591.000   109385234.756 7      3327.472    20455601.020    85077447.752 7      2588.033    20455601.040    85077447.761 7      2588.033
G14  22052483.740   115886585.272 7      2837.527    22052483.340   115886585.277 5      2837.527    22052489.040    90301251.335 5      2211.060    22052489.480    90301259.341 7      2211.060
> 2024 06 03 14 07 40.0000000  0 14
G22  23578083.400   123903666.526 7      4126.036    23578082.160   123903666.547 4      4126.036    23578088.220    96548335.055 4      3215.093
R15  22789600.080   121780707.715 6      2320.696    22789599.940   121780707.708 6      2320.696    22789614.560    94718390.871 7      1804.986    22789614.440    94718386.880 7      1804.986
G02  21714172.580   114108742.990 8      2104.672    21714171.400   114108742.995 6      2104.672    21714173.680    88915909.617 6      1640.004
R14  22575741.060   120341393.708 6      -212.989    22575739.960   120341393.717 6      -212.989    22575755.860    93598916.310 7      -165.658    22575755.840    93598921.314 7      -165.658
R01  19543375.280   104470533.019 7      2775.247    19543375.080   104470533.023 7      2775.247    19543386.100    81254911.021 7      2158.525    19543385.460    81254907.003 7      2158.525
G08  22169904.820   116503630.021 7       129.902    22169903.660   116503630.018 7       129.902    22169914.180    90782080.191 7       101.222    22169914.860    90782084.192 7       101.222
G04  23256964.220   122216181.996 6      5677.092    23256962.840   122216182.004 4      5677.092    23256976.160    95233407.399 4      4423.708    23256976.280    95233438.415 7      4423.708
G21  22258632.380   116969884.265 7      1346.032    22258631.320   116969884.264 5      1346.032    22258636.520    91145374.703 5      1048.856
G17  23394540.000   122939141.029 7      5502.787    23394538.760   122939141.031 5      5502.787    23394544.960    95796758.024 5      4287.886    23394544.420    95796746.035 6      4287.886
R02  21037927.740   112262424.339 7      6318.435    21037926.140   112262424.334 7      6318.435    21037940.040    87315272.197 8      4914.338    21037940.080    87315274.203 8      4914.338
R08  22797711.000   122080705.522 6      -842.746    22797712.080   122080705.559 6      -842.746    22797726.040    94951716.455 7      -655.469    22797725.520    94951714.453 7      -655.469
G03  19970816.140   104947348.334 8      3037.225    19970815.340   104947348.342 8      3037.225    19970821.500    81777176.533 8      2366.669    19970822.340    81777178.518 8      2366.669
R24  20454967.440   109381907.080 7      3327.776    20454968.080   109381907.089 7      3327.776    20454979.120    85074859.566 7      2588.271    20454978.840    85074859.569 7      2588.271
G14  22051944.060   115883747.782 7      2837.403    22051943.400   115883747.789 5      2837.403    22051949.340    90299040.299 5      2210.964    22051949.340    90299048.307 7      2210.964
> 2024 06 03 14 07 41.0000000  0 14
G22  23577298.320   123899540.735 7      4125.526    23577297.200   123899540.753 4      4125.526    23577302.860    96545120.150 4      3214.695
R15  22789166.020   121778387.338 7      2319.945    22789165.480   121778387.334 6      2319.945    22789180.640    94716586.135 7      1804.401    22789180.300    94716582.137 7      1804.401
G02  21713772.020   114106638.280 8      2104.712    21713771.000   114106638.280 6      2104.712    21713773.100    88914269.575 6      1640.035
R14  22575780.780   120341606.845 6      -213.236    22575779.780   120341606.846 6      -213.236    22575795.660    93599082.075 7      -165.850    22575795.860    93599087.079 7      -165.850
R01  19542856.280   104467758.001 7      2774.651    19542856.740   104467758.005 7      2774.651    19542867.100    81252752.673 7      2158.062    19542866.420    81252748.668 7      2158.062
G08  22169880.340   116503500.040 7       129.892    22169878.780   116503500.040 7       129.892    22169889.320    90781978.901 7       101.214    22169889.860    90781982.904 7       101.214
G04  23255883.600   122210504.708 6      5677.302    23255882.500   122210504.716 4      5677.302    23255895.680    95228983.548 4      4423.871    23255896.140    95229014.559 7      4423.871
G21  22258376.260   116968538.103 7      1346.200    22258375.120   116968538.103 5      1346.200    22258380.260    91144325.744 5      1048.987
G17  23393492.820   122933638.250 7      5502.619    23393491.540   122933638.252 5      5502.619    23393497.800    95792470.143 5      4287.755    23393496.900    95792458.151 6      4287.755
R02  21036743.640   112256106.021 8      6318.157    21036742.140   112256106.017 7      6318.157    21036755.860    87310357.950 8      4914.122    21036756.340    87310359.954 8      4914.122
R08  22797869.460   122081548.381 6      -843.069    22797868.560   122081548.397 6      -843.069    22797883.600    94952371.985 7      -655.720    22797883.180    94952369.975 7      -655.720
G03  19970238.300   104944311.294 8      3036.747    19970237.300   104944311.299 8      3036.747    19970243.780    81774810.011 8      2366.296    19970244.500    81774811.999 8      2366.296
R24  20454345.040   109378579.319 7      3327.650    20454346.300   109378579.321 7      3327.650    20454356.420    85072271.302 7      2588.172    20454356.440    85072271.307 8      2588.172
G14  22051404.120   115880910.659 7      2836.702    22051403.560   115880910.669 5      2836.702    22051409.460    90296829.554 5      2210.417    22051409.640    90296837.562 7      2210.417
> 2024 06 03 14 07 42.0000000  0 14
G22  23576513.200   123895415.553 6      4124.956    23576512.280   123895415.571 4      4124.956    23576517.600    96541905.723 4      3214.251
R15  22788731.800   121776067.815 7      2319.220    22788731.220   121776067.806 6      2319.220    22788746.320    94714782.054 7      1803.837    22788746.220    94714778.066 7      1803.837
G02  21713371.600   114104533.717 8      2104.490    21713370.680   114104533.725 6      2104.490    21713372.560    88912629.656 6      1639.863
R14  22575820.860   120341820.305 6      -213.549    22575819.840   120341820.298 6      -213.549    22575835.860    93599248.079 7      -166.094    22575835.740    93599253.078 7      -166.094
R01  19542337.180   104464983.962 7      2773.489    19542337.920   104464983.976 7      2773.489    19542347.840    81250595.091 7      2157.158    19542347.100    81250591.084 7      2157.158
G08  22169855.680   116503370.362 7       129.428    22169854.080   116503370.359 7       129.428    22169864.660    90781877.847 7       100.853    22169865.300    90781881.845 7       100.853
G04  23254803.320   122204827.365 6      5677.259    23254802.120   122204827.373 4      5677.259    23254815.340    95224559.648 4      4423.838    23254815.780    95224590.667 7      4423.838
G21  22258120.100   116967192.057 7      1345.946    22258119.100   116967192.057 5      1345.946    22258124.120    91143276.876 5      1048.789
G17  23392445.920   122928135.650 7      5502.634    23392444.580   122928135.652 5      5502.634    23392450.560    95788182.408 5      4287.766    23392449.060    95788170.413 6      4287.766
R02  21035559.720   112249788.064 7      6317.702    21035557.920   112249788.064 7      6317.702    21035571.760    87305444.000 8      4913.768    21035571.960    87305446.001 8      4913.768
R08  22798026.740   122082391.811 6      -843.736    22798025.680   122082391.837 6      -843.736    22798041.620    94953028.000 7      -656.239    22798040.380    94953025.994 7      -656.239
G03  19969660.380   104941274.867 8      3036.138    19969659.420   104941274.877 8      3036.138    19969665.940    81772443.965 8      2365.822    19969666.660    81772445.956 8      2365.822
R24  20453723.300   109375251.815 7      3327.430    20453723.740   109375251.811 7      3327.430    20453734.760    85069683.241 7      2588.001    20453734.120    85069683.248 7      2588.001
G14  22050864.280   115878074.232 7      2836.127    22050863.740   115878074.243 5      2836.127    22050869.620    90294619.350 5      2209.969    22050870.160    90294627.353 7      2209.969
> 2024 06 03 14 07 43.0000000  0 14
G22  23575728.100   123891290.981 6      4124.324    23575727.600   123891290.999 4      4124.324    23575732.740    96538691.768 4      3213.759
R15  22788298.100   121773749.148 7      2318.342    22788297.440   121773749.160 6      2318.342    22788312.220    94712978.648 7      1803.155    22788312.360    94712974.658 7      1803.155
G02  21712970.980   114102429.359 8      2104.405    21712970.180   114102429.367 6      2104.405    21712972.240    88910989.897 6      1639.796
R14  22575861.200   120342034.247 6      -214.222    22575860.440   120342034.234 6      -214.222    22575876.360    93599414.468 7      -166.617    22575876.100    93599419.465 7      -166.617
R01  19541818.540   104462211.026 7      2772.461    19541819.220   104462211.043 7      2772.461    19541829.300    81248438.365 7      2156.358    19541828.440    81248434.360 7      2156.358
G08  22169831.200   116503241.266 7       128.911    22169829.500   116503241.258 7       128.911    22169840.280    90781777.243 7       100.450    22169840.760    90781781.246 8       100.450
G04  23253723.300   122199150.350 6      5677.006    23253721.860   122199150.358 4      5677.006    23253735.060    95220136.011 4      4423.641    23253735.020    95220167.021 7      4423.641
G21  22257864.080   116965846.177 7      1345.969    22257862.900   116965846.177 5      1345.969    22257867.900    91142228.136 5      1048.807
G17  23391398.360   122922633.204 7      5502.559    23391397.620   122922633.209 5      5502.559    23391403.440    95783894.791 5      4287.709    23391402.720    95783882.793 6      4287.709
R02  21034375.660   112243470.824 7      6316.923    21034374.140   112243470.817 7      6316.923    21034388.000    87300530.595 8      4913.163    21034388.160    87300532.601 8      4913.163
R08  22798183.980   122083235.875 6      -844.343    22798183.500   122083235.917 6      -844.343    22798198.980    94953684.498 7      -656.711    22798198.280    94953682.497 7      -656.711
G03  19969082.700   104938239.224 8      3035.334    19969081.820   104938239.229 8      3035.334    19969088.240    81770078.526 8      2365.195    19969089.020    81770080.516 8      2365.195
R24  20453101.220   109371924.614 7      3327.143    20453100.860   109371924.602 7      3327.143    20453112.520    85067095.416 7      2587.778    20453111.900    85067095.418 8      2587.778
G14  22050324.560   115875238.568 7      2835.288    22050324.220   115875238.578 5      2835.288    22050330.160    90292409.737 5      2209.315    22050330.800    90292417.739 7      2209.315
> 2024 06 03 14 07 44.0000000  0 14
G22  23574943.400   123887166.926 7      4123.775    23574942.960   123887166.944 4      4123.775    23574947.960    96535478.217 4      3213.331
R15  22787864.440   121771431.258 7      2317.526    22787864.320   121771431.254 6      2317.526    22787878.640    94711175.832 7      1802.520    22787878.500    94711171.836 7      1802.520
G02  21712570.600   114100325.078 8      2104.279    21712569.700   114100325.082 6      2104.279    21712571.820    88909350.191 6      1639.698
R14  22575901.860   120342248.541 6      -214.401    22575900.260   120342248.534 6      -214.401    22575916.500    93599581.131 7      -166.756    22575916.300    93599586.136 7      -166.756
R01  19541300.340   104459439.052 7      2771.549    19541301.360   104459439.064 7      2771.549    19541310.320    81246282.384 7      2155.649    19541310.120    81246278.378 7      2155.649
G08  22169806.940   116503112.568 7       128.543    22169804.860   116503112.562 7       128.543    22169815.660    90781676.952 7       100.163    22169816.240    90781680.953 7       100.163
G04  23252642.760   122193473.480 6      5676.905    23252641.520   122193473.485 4      5676.905    23252654.680    95215712.484 4      4423.562    23252655.060    95215743.492 7      4423.562
G21  22257607.920   116964500.326 7      1345.921    22257606.860   116964500.323 5      1345.921    22257612.080    91141179.416 5      1048.770
G17  23390351.400   122917130.825 7      5502.373    23390350.320   122917130.827 5      5502.373    23390356.180    95779607.222 5      4287.564    23390354.720    95779595.219 6      4287.564
R02  21033191.780   112237154.067 7      6316.632    21033190.640   112237154.060 7      6316.632    21033203.900    87295617.562 8      4912.936    21033204.240    87295619.566 8      4912.936
R08  22798341.520   122084080.405 6      -845.003    22798341.240   122084080.425 6      -845.003    22798356.900    94954341.340 7      -657.224    22798355.440    94954339.333 7      -657.224
G03  19968505.300   104935204.197 8      3034.765    19968504.240   104935204.197 8      3034.765    19968510.840    81767713.569 8      2364.752    19968511.580    81767715.562 8      2364.752
R24  20452478.980   109368597.540 7      3326.988    20452479.380   109368597.526 7      3326.988    20452490.320    85064507.692 8      2587.657    20452489.660    85064507.697 8      2587.657
G14  22049785.480   115872403.553 7      2834.668    22049784.720   115872403.563 5      2834.668    22049790.660    90290200.634 5      2208.832    22049791.300    90290208.634 7      2208.832
> 2024 06 03 14 07 45.0000000  0 14
G22  23574158.620   123883043.258 7      4123.727    23574158.260   123883043.273 4      4123.727    23574163.480    96532264.971 4      3213.294
R15  22787430.740   121769114.017 7      2317.096    22787431.000   121769114.010 6      2317.096    22787445.000    94709373.527 7      1802.185    22787444.740    94709369.530 7      1802.185
G02  21712170.160   114098220.788 8      2104.335    21712169.280   114098220.790 6      2104.335    21712171.320    88907710.484 6      1639.741
R14  22575942.420   120342462.950 6      -214.255    22575940.800   120342462.956 6      -214.255    22575956.960    93599747.893 7      -166.643    22575956.740    93599752.886 7      -166.643
R01  19540781.560   104456667.888 7      2770.776    19540782.780   104456667.900 7      2770.776    19540792.160    81244127.038 7      2155.048    19540791.560    81244123.033 7      2155.048
G08  22169782.400   116502984.053 7       128.353    22169780.600   116502984.050 7       128.353    22169791.260    90781576.811 7       100.016    22169791.680    90781580.814 7       100.016
G04  23251562.480   122187796.465 6      5676.963    23251561.300   122187796.470 4      5676.963    23251574.300    95211288.846 4      4423.607    23251574.720    95211319.854 7      4423.607
G21  22257351.820   116963154.427 7      1345.945    22257350.540   116963154.429 6      1345.945    22257356.000    91140130.666 6      1048.788
G17  23389304.320   122911628.403 7      5502.593    23389303.400   122911628.406 5      5502.593    23389309.080    95775319.627 5      4287.735    23389308.060    95775307.634 6      4287.735
R02  21032008.400   112230837.540 7      6316.367    21032006.560   112230837.538 7      6316.367    21032020.160    87290704.724 8      4912.730    21032020.620    87290706.728 8      4912.730
R08  22798500.140   122084925.344 6      -845.071    22798498.140   122084925.354 6      -845.071    22798514.660    94954998.505 7      -657.277    22798513.380    94954996.500 7      -657.277
G03  19967927.740   104932169.622 8      3034.464    19967926.700   104932169.624 8      3034.464    19967933.440    81765348.965 8      2364.518    19967934.240    81765350.957 8      2364.518
R24  20451856.980   109365270.571 7      3327.069    20451856.540   109365270.562 7      3327.069    20451868.340    85061920.051 8      2587.720    20451867.760    85061920.052 8      2587.720
G14  22049245.980   115869569.029 7      2834.449    22049245.520   115869569.036 5      2834.449    22049251.280    90287991.908 5      2208.662    22049251.980    90287999.911 7      2208.662
> 2024 06 03 14 07 46.0000000  0 14
G22  23573374.280   123878919.931 7      4123.029    23573373.680   123878919.947 4      4123.029    23573378.740    96529051.987 4      3212.750
R15  22786997.140   121766797.348 7      2316.225    22786996.720   121766797.334 6      2316.225    22787011.280    94707571.657 7      1801.508    22787011.260    94707567.658 7      1801.508
G02  21711769.580   114096116.349 8      2104.317    21711768.820   114096116.353 6      2104.317    21711770.800    88906070.664 6      1639.728
R14  22575982.900   120342677.529 6      -214.829    22575981.220   120342677.543 6      -214.829    22575997.580    93599914.784 7      -167.090    22575997.100    93599919.772 7      -167.090
R01  19540263.480   104453897.451 7      2769.946    19540264.560   104453897.466 7      2769.946    19540273.880    81241972.256 7      2154.402    19540273.420    81241968.255 7      2154.402
G08  22169757.840   116502855.747 7       128.096    22169756.180   116502855.736 7       128.096    22169766.760    90781476.819 7        99.815    22169767.460    90781480.826 8        99.815
G04  23250481.920   122182119.382 6      5676.870    23250480.900   122182119.387 4      5676.870    23250493.960    95206865.155 4      4423.535    23250494.740    95206896.172 7      4423.535
G21  22257095.820   116961808.347 7      1345.985    22257094.300   116961808.349 6      1345.985    22257099.560    91139081.773 5      1048.819
G17  23388257.300   122906125.829 7      5502.525    23388256.260   122906125.832 5      5502.525    23388261.980    95771031.909 5      4287.682    23388260.500    95771019.916 6      4287.682
R02  21030824.560   112224521.322 8      6315.857    21030823.120   112224521.317 7      6315.857    21030836.540    87285792.112 8      4912.333    21030837.020    87285794.114 8      4912.333
R08  22798658.200   122085770.568 6      -845.498    22798656.460   122085770.583 6      -845.498    22798672.500    94955655.891 7      -657.610    22798671.020    94955653.889 7      -657.610
G03  19967350.440   104929135.490 8      3033.759    19967349.380   104929135.495 8      3033.759    19967356.100    81762984.709 8      2363.968    19967357.040    81762986.701 8      2363.968
R24  20451234.740   109361943.565 7      3326.972    20451234.100   109361943.555 7      3326.972    20451246.360    85059332.380 7      2587.645    20451245.880    85059332.382 8      2587.645
G14  22048706.680   115866734.962 7      2833.680    22048706.100   115866734.972 5      2833.680    22048712.000    90285783.546 5      2208.062    22048712.540    90285791.546 8      2208.062
> 2024 06 03 14 07 47.0000000  0 14
G22  23572589.860   123874797.064 7      4122.339    23572589.260   123874797.080 4      4122.339    23572594.200    96525839.360 4      3212.212
R15  22786564.040   121764481.350 7      2315.452    22786563.080   121764481.341 6      2315.452    22786578.100    94705770.329 7      1800.907    22786577.760    94705766.332 7      1800.907
G02  21711369.240   114094011.891 8      2104.275    21711368.320   114094011.898 6      2104.275    21711370.300    88904430.822 6      1639.695
R14  22576022.820   120342892.396 6      -215.048    22576021.600   120342892.391 6      -215.048    22576038.000    93600081.873 7      -167.260    22576037.340    93600086.870 7      -167.260
R01  19539745.080   104451127.902 7      2768.897    19539746.740   104451127.911 7      2768.897    19539755.500    81239818.156 7      2153.587    19539755.120    81239814.155 7      2153.587
G08  22169733.540   116502727.757 7       127.763    22169731.720   116502727.757 7       127.763    22169742.300    90781377.085 7        99.555    22169743.280    90781381.088 7        99.555
G04  23249401.840   122176442.365 6      5676.777    23249400.540   122176442.372 4      5676.777    23249413.680    95202441.517 4      4423.463    23249414.400    95202472.536 7      4423.463
G21  22256839.640   116960462.209 7      1345.850    22256838.280   116960462.217 5      1345.850    22256843.380    91138032.834 5      1048.714
G17  23387210.380   122900623.248 7      5502.445    23387209.260   122900623.250 5      5502.445    23387214.720    95766744.185 5      4287.620    23387213.540    95766732.190 6      4287.620
R02  21029641.180   112218205.563 7      6315.418    21029639.400   112218205.548 7      6315.418    21029652.880    87280879.853 8      4911.992    21029653.480    87280881.850 8      4911.992
R08  22798816.600   122086616.161 6      -846.253    22798812.960   122086616.178 6      -846.253    22798830.540    94956313.584 7      -658.197    22798829.360    94956311.581 7      -658.197
G03  19966773.240   104926101.916 8      3033.110    19966772.060   104926101.921 8      3033.110    19966778.920    81760620.887 8      2363.462    19966779.700    81760622.883 8      2363.462
R24  20450612.600   109358616.654 7      3326.616    20450612.360   109358616.648 7      3326.616    20450623.980    85056744.787 8      2587.368    20450623.700    85056744.792 8      2587.368
G14  22048167.300   115863901.504 7      2832.995    22048166.980   115863901.514 5      2832.995    22048172.780    90283575.649 5      2207.528    22048173.560    90283583.657 8      2207.528
> 2024 06 03 14 07 48.0000000  0 14
G22  23571805.500   123870674.749 7      4121.867    23571804.920   123870674.767 4      4121.867    23571809.640    96522627.166 4      3211.844
R15  22786130.640   121762166.153 7      2314.720    22786130.580   121762166.149 6      2314.720    22786144.500    94703969.615 7      1800.338    22786144.560    94703965.617 7      1800.338
G02  21710969.040   114091907.635 7      2104.175    21710967.900   114091907.640 6      2104.175    21710969.940    88902791.145 6      1639.617
R14  22576063.180   120343107.572 6      -215.525    22576062.040   120343107.570 6      -215.525    22576078.440    93600249.222 7      -167.631    22576077.620    93600254.215 7      -167.631
R01  19539227.140   104448359.328 7      2767.987    19539228.780   104448359.340 7      2767.987    19539237.400    81237664.827 7      2152.878    19539237.200    81237660.826 7      2152.878
G08  22169708.980   116502600.189 7       127.210    22169707.480   116502600.186 7       127.210    22169718.020    90781277.677 7        99.125    22169719.040    90781281.676 7        99.125
G04  23248321.500   122170765.442 7      5676.594    23248320.240   122170765.452 4      5676.594    23248333.480    95198017.953 4      4423.320    23248334.180    95198048.960 7      4423.320
G21  22256583.500   116959116.216 7      1345.849    22256581.980   116959116.224 5      1345.849    22256587.120    91136984.006 5      1048.713
G17  23386163.260   122895120.852 7      5502.278    23386162.280   122895120.855 5      5502.278    23386167.620    95762456.609 5      4287.489    23386166.520    95762444.607 6      4287.489
R02  21028457.600   112211890.313 7      6314.735    21028456.080   112211890.304 7      6314.735    21028469.480    87275968.003 8      4911.460    21028469.780    87275970.002 8      4911.460
R08  22798973.620   122087462.318 6      -846.357    22798971.460   122087462.349 6      -846.357    22798988.300    94956971.701 7      -658.277    22798987.040    94956969.700 7      -658.277
G03  19966196.020   104923069.009 8      3032.396    19966194.940   104923069.017 8      3032.396    19966201.780    81758257.585 8      2362.906    19966202.520    81758259.581 8      2362.906
R24  20449990.180   109355289.993 7      3326.526    20449989.700   109355289.994 7      3326.526    20450002.120    85054157.385 8      2587.298    20450001.660    85054157.390 8      2587.298
G14  22047628.260   115861068.741 7      2832.297    22047628.120   115861068.753 5      2832.297    22047633.840    90281368.305 5      2206.985    22047634.500    90281376.308 8      2206.985
> 2024 06 03 14 07 49.0000000  0 14
G22  23571020.740   123866553.033 7      4121.412    23571020.760   123866553.046 4      4121.412    23571025.280    96519415.439 4      3211.490
R15  22785697.620   121759851.801 7      2313.832    22785697.660   121759851.799 6      2313.832    22785711.360    94702169.554 7      1799.647    22785711.460    94702165.555 7      1799.647
G02  21710568.520   114089803.506 7      2103.996    21710567.560   114089803.511 6      2103.996    21710569.540    88901151.559 6      1639.478
R14  22576103.760   120343323.193 6      -216.010    22576102.500   120343323.196 6      -216.010    22576119.120    93600416.919 7      -168.008    22576118.340    93600421.906 7      -168.008
R01  19538709.340   104445591.757 7      2767.117    19538710.740   104445591.782 7      2767.117    19538719.800    81235512.279 7      2152.202    19538719.540    81235508.280 7      2152.202
G08  22169684.760   116502473.080 7       126.826    22169683.200   116502473.074 7       126.826    22169693.820    90781178.621 7        98.825    22169694.820    90781182.620 8        98.825
G04  23247240.980   122165088.703 6      5676.637    23247240.060   122165088.713 4      5676.637    23247253.260    95193594.527 4      4423.354    23247253.960    95193625.527 7      4423.354
G21  22256327.300   116957770.296 7      1345.887    22256325.640   116957770.301 5      1345.887    22256331.020    91135935.233 5      1048.743
G17  23385115.960   122889618.554 7      5502.129    23385115.320   122889618.557 5      5502.129    23385120.620    95758169.104 5      4287.373    23385119.360    95758157.106 6      4287.373
R02  21027274.680   112205575.702 7      6314.268    21027272.860   112205575.689 7      6314.268    21027286.060    87271056.642 8      4911.098    21027286.520    87271058.640 8      4911.098
R08  22799131.600   122088309.052 6      -846.820    22799129.620   122088309.072 6      -846.820    22799146.360    94957630.261 7      -658.638    22799145.580    94957628.255 7      -658.638
G03  19965618.860   104920036.775 8      3031.869    19965617.840   104920036.782 8      3031.869    19965624.780    81755894.805 8      2362.495    19965625.660    81755896.803 8      2362.495
R24  20449368.000   109351963.532 7      3326.219    20449367.600   109351963.530 7      3326.219    20449380.100    85051570.138 8      2587.059    20449379.700    85051570.140 8      2587.059
G14  22047089.340   115858236.713 7      2831.548    22047089.160   115858236.720 5      2831.548    22047094.840    90279161.522 5      2206.401    22047095.480    90279169.521 8      2206.401
> 2024 06 03 14 07 50.0000000  0 14
G22  23570236.700   123862431.897 7      4120.967    23570236.560   123862431.908 4      4120.967    23570240.880    96516204.167 4      3211.143
R15  22785264.540   121757538.237 7      2313.280    22785264.980   121757538.249 6      2313.280    22785277.980    94700370.124 7      1799.217    22785278.340    94700366.139 7      1799.217
G02  21710167.880   114087699.429 7      2104.122    21710167.120   114087699.431 6      2104.122    21710169.140    88899512.017 6      1639.576
R14  22576144.060   120343539.150 6      -216.008    22576143.480   120343539.167 6      -216.008    22576159.520    93600584.880 7      -168.006    22576158.860    93600589.869 7      -168.006
R01  19538191.620   104442825.134 7      2766.238    19538193.380   104442825.151 7      2766.238    19538202.080    81233360.458 7      2151.519    19538201.700    81233356.452 7      2151.519
G08  22169660.860   116502346.247 7       126.710    22169659.240   116502346.244 7       126.710    22169669.900    90781079.786 7        98.735    22169670.780    90781083.785 8        98.735
G04  23246160.680   122159411.974 6      5676.758    23246159.740   122159411.987 4      5676.758    23246172.840    95189171.114 4      4423.448    23246173.720    95189202.133 7      4423.448
G21  22256071.460   116956424.398 7      1345.915    22256069.480   116956424.400 5      1345.915    22256074.820    91134886.481 6      1048.765
G17  23384069.100   122884116.372 7      5502.135    23384068.360   122884116.374 5      5502.135    23384073.580    95753881.695 5      4287.378    23384072.320    95753869.691 6      4287.378
R02  21026091.640   112199261.530 7      6314.106    21026089.240   112199261.518 7      6314.106    21026102.480    87266145.626 8      4910.972    21026103.220    87266147.626 8      4910.972
R08  22799289.640   122089156.302 6      -847.444    22799287.700   122089156.333 6      -847.444    22799304.660    94958289.237 7      -659.123    22799303.840    94958287.238 7      -659.123
G03  19965042.120   104917005.174 8      3031.350    19965040.980   104917005.179 8      3031.350    19965047.880    81753532.520 8      2362.091    19965048.600    81753534.519 8      2362.091
R24  20448746.180   109348637.242 7      3326.154    20448745.580   109348637.240 7      3326.154    20448758.280    85048983.028 8      2587.009    20448757.800    85048983.028 8      2587.009
G14  22046550.620   115855405.331 7      2831.166    22046550.280   115855405.336 5      2831.166    22046556.260    90276955.242 5      2206.103    22046557.140    90276963.248 8      2206.103
> 2024 06 03 14 07 51.0000000  0 14
G22  23569452.120   123858310.988 7      4120.910    23569452.520   123858310.998 4      4120.910    23569456.820    96512993.071 4      3211.099
R15  22784831.080   121755225.159 7      2312.940    22784831.760   121755225.179 6      2312.940    22784844.940    94698571.065 7      1798.953    22784845.680    94698567.080 7      1798.953
G02  21709767.520   114085595.268 7      2104.201    21709766.780   114085595.271 6      2104.201    21709768.700    88897872.409 6      1639.637
R14  22576184.720   120343755.243 6      -216.153    22576184.320   120343755.268 6      -216.153    22576200.520    93600752.944 7      -168.119    22576199.500    93600757.928 7      -168.119
R01  19537674.100   104440059.289 7      2765.327    19537675.820   104440059.309 7      2765.327    19537684.660    81231209.249 7      2150.810    19537684.120    81231205.239 7      2150.810
G08  22169636.680   116502219.680 7       126.341    22169635.400   116502219.677 7       126.341    22169645.940    90780981.160 7        98.447    22169646.780    90780985.161 8        98.447
G04  23245080.460   122153735.204 6      5676.854    23245079.420   122153735.214 4      5676.854    23245092.420    95184747.667 4      4423.523    23245093.280    95184778.671 7      4423.523
G21  22255815.160   116955078.389 7      1345.971    22255813.220   116955078.391 5      1345.971    22255818.700    91133837.641 5      1048.808
G17  23383022.240   122878613.961 7      5502.625    23383021.300   122878613.963 5      5502.625    23383026.640    95749594.104 5      4287.760    23383025.480    95749582.088 6      4287.760
R02  21024908.220   112192947.679 7      6313.666    21024906.100   112192947.672 7      6313.666    21024919.260    87261234.866 8      4910.629    21024919.820    87261236.863 8      4910.629
R08  22799447.680   122090003.863 6      -847.681    22799447.040   122090003.889 6      -847.681    22799463.180    94958948.443 7      -659.308    22799461.920    94958946.442 7      -659.308
G03  19964465.180   104913973.954 8      3031.042    19964464.100   104913973.956 8      3031.042    19964471.080    81751170.529 8      2361.851    19964471.840    81751172.527 8      2361.851
R24  20448124.080   109345310.973 7      3326.356    20448122.700   109345310.964 7      3326.356    20448136.420    85046395.924 8      2587.165    20448135.420    85046395.922 8      2587.165
G14  22046012.080   115852574.338 7      2830.829    22046011.840   115852574.341 6      2830.829    22046017.720    90274749.270 6      2205.841    22046018.340    90274757.277 8      2205.841
> 2024 06 03 14 07 52.0000000  0 14
G22  23568668.280   123854190.491 7      4120.124    23568668.420   123854190.501 4      4120.124    23568672.640    96509782.290 4      3210.486
R15  22784398.840   121752912.786 7      2311.877    22784399.500   121752912.798 6      2311.877    22784412.520    94696772.539 7      1798.126    22784412.800    94696768.545 7      1798.126
G02  21709367.260   114083491.026 8      2104.193    21709366.440   114083491.031 6      2104.193    21709368.280    88896232.740 6      1639.631
R14  22576225.300   120343971.582 6      -216.708    22576224.900   120343971.601 6      -216.708    22576241.640    93600921.192 7      -168.550    22576240.200    93600926.175 7      -168.550
R01  19537156.960   104437294.248 7      2764.375    19537158.420   104437294.268 7      2764.375    19537167.580    81229058.660 7      2150.069    19537167.380    81229054.650 7      2150.069
G08  22169612.700   116502093.338 7       126.056    22169611.280   116502093.332 7       126.056    22169621.720    90780882.704 7        98.226    22169622.980    90780886.703 8        98.226
G04  23244000.100   122148058.402 6      5676.738    23243999.120   122148058.412 4      5676.738    23244012.180    95180324.191 4      4423.432    23244012.900    95180355.203 7      4423.432
G21  22255559.160   116953732.254 7      1346.100    22255557.060   116953732.256 5      1346.100    22255562.360    91132788.704 5      1048.909
G17  23381975.200   122873111.516 7      5502.308    23381974.260   122873111.518 5      5502.308    23381979.580    95745306.489 5      4287.513    23381978.440    95745294.483 6      4287.513
R02  21023724.740   112186634.126 8      6313.306    21023723.020   112186634.117 7      6313.306    21023736.460    87256324.327 8      4910.349    21023736.640    87256326.324 8      4910.349
R08  22799606.040   122090851.748 6      -848.276    22799604.160   122090851.768 6      -848.276    22799621.200    94959607.905 7      -659.770    22799620.360    94959605.906 7      -659.770
G03  19963888.360   104910943.238 8      3030.335    19963887.400   104910943.240 8      3030.335    19963894.380    81748808.934 8      2361.300    19963895.240    81748810.931 8      2361.300
R24  20447502.160   109341984.758 7      3326.166    20447500.640   109341984.743 7      3326.166    20447514.440    85043808.863 8      2587.018    20447513.480    85043808.862 8      2587.018
G14  22045473.260   115849743.863 7      2830.015    22045473.200   115849743.871 6      2830.015    22045479.040    90272543.707 6      2205.206    22045479.820    90272551.714 8      2205.206
> 2024 06 03 14 07 53.0000000  0 14
G22  23567884.240   123850070.488 7      4119.778    23567884.440   123850070.496 4      4119.778    23567888.700    96506571.896 4      3210.217
R15  22783966.540   121750601.124 7      2311.365    22783966.580   121750601.136 6      2311.365    22783980.040    94694974.580 7      1797.728    22783980.000    94694970.586 7      1797.728
G02  21708966.800   114081386.839 8      2104.247    21708966.000   114081386.846 6      2104.247    21708967.820    88894593.115 6      1639.673
R14  22576266.220   120344188.208 7      -216.742    22576265.580   120344188.227 6      -216.742    22576281.980    93601089.667 7      -168.577    22576281.100    93601094.652 7      -168.577
R01  19536640.040   104434530.090 7      2763.821    19536641.320   104434530.102 7      2763.821    19536650.320    81226908.749 7      2149.639    19536649.900    81226904.743 7      2149.639
G08  22169588.740   116501967.367 7       125.856    22169587.120   116501967.361 7       125.856    22169597.580    90780784.541 7        98.070    22169598.900    90780788.539 8        98.070
G04  23242920.300   122142381.671 6      5676.917    23242918.860   122142381.678 4      5676.917    23242931.900    95175900.774 4      4423.572    23242932.700    95175931.785 7      4423.572
G21  22255302.880   116952386.145 7      1346.090    22255301.040   116952386.144 5      1346.090    22255306.260    91131739.786 5      1048.902
G17  23380928.120   122867609.097 7      5502.447    23380927.240   122867609.099 5      5502.447    23380932.520    95741018.892 5      4287.621    23380931.060    95741006.869 6      4287.621
R02  21022541.760   112180321.001 7      6313.022    21022540.100   112180320.994 7      6313.022    21022553.440    87251414.126 8      4910.128    21022553.700    87251416.122 8      4910.128
R08  22799764.480   122091700.021 6      -848.546    22799762.180   122091700.062 6      -848.546    22799779.560    94960267.691 7      -659.980    22799778.960    94960265.690 7      -659.980
G03  19963311.860   104907913.121 8      3029.859    19963310.820   104907913.124 8      3029.859    19963317.860    81746447.804 8      2360.929    19963318.560    81746449.805 8      2360.929
R24  20446880.280   109338658.655 7      3326.035    20446878.920   109338658.648 7      3326.035    20446892.420    85041221.901 7      2586.916    20446891.760    85041221.903 8      2586.916
G14  22044934.600   115846914.027 7      2829.597    22044934.620   115846914.034 6      2829.597    22044940.480    90270338.635 6      2204.881    22044941.280    90270346.643 8      2204.881
> 2024 06 03 14 07 54.0000000  0 14
G22  23567100.400   123845950.890 7      4119.662    23567100.620   123845950.900 4      4119.662    23567104.800    96503361.821 4      3210.127
R15  22783533.640   121748290.098 7      2310.931    22783533.960   121748290.110 6      2310.931    22783547.240    94693177.107 7      1797.390    22783547.520    94693173.101 7      1797.390
G02  21708566.440   114079282.662 8      2104.355    21708565.540   114079282.667 6      2104.355    21708567.420    88892953.493 6      1639.757
R14  22576306.960   120344404.988 7      -216.674    22576306.300   120344405.013 6      -216.674    22576322.780    93601258.272 7      -168.524    22576321.700    93601263.257 7      -168.524
R01  19536123.400   104431766.800 7      2763.039    19536124.420   104431766.817 7      2763.039    19536133.320    81224759.525 7      2149.031    19536133.200    81224755.518 7      2149.031
G08  22169565.000   116501841.640 7       125.744    22169563.300   116501841.635 7       125.744    22169573.640    90780686.570 7        97.982    22169574.960    90780690.566 8        97.982
G04  23241840.220   122136704.916 6      5677.076    23241838.640   122136704.926 4      5677.076    23241851.620    95171477.339 4      4423.695    23241852.540    95171508.350 7      4423.695
G21  22255046.940   116951039.986 7      1346.357    22255044.840   116951039.988 5      1346.357    22255050.000    91130690.827 5      1049.110
G17  23379880.820   122862106.657 7      5502.671    23379880.120   122862106.662 5      5502.671    23379885.480    95736731.276 5      4287.795    23379884.240    95736719.270 6      4287.795
R02  21021358.880   112174008.198 8      6312.789    21021357.320   112174008.194 7      6312.789    21021370.540    87246504.179 8      4909.947    21021370.700    87246506.174 8      4909.947
R08  22799922.940   122092548.813 6      -849.001    22799920.440   122092548.839 6      -849.001    22799938.380    94960927.845 7      -660.334    22799937.300    94960925.848 7      -660.334
G03  19962735.320   104904883.502 8      3029.584    19962734.300   104904883.501 8      3029.584    19962741.260    81744087.057 8      2360.715    19962742.260    81744089.058 8      2360.715
R24  20446257.840   109335332.606 7      3326.209    20446256.880   109335332.599 7      3326.209    20446270.640    85038634.973 8      2587.052    20446269.740    85038634.974 8      2587.052
G14  22044396.220   115844084.729 7      2829.203    22044396.240   115844084.736 5      2829.203    22044402.100    90268133.983 5      2204.574    22044402.880    90268141.997 8      2204.574
> 2024 06 03 14 07 55.0000000  0 14
G22  23566316.540   123841831.756 7      4118.870    23566316.860   123841831.764 4      4118.870    23566320.860    96500152.105 4      3209.509
R15  22783102.060   121745979.730 7      2310.123    22783101.480   121745979.728 6      2310.123    22783114.920    94691380.130 7      1796.762    22783115.000    94691376.116 7      1796.762
G02  21708165.800   114077178.522 8      2104.199    21708165.220   114077178.525 6      2104.199    21708167.060    88891313.902 6      1639.635
R14  22576347.860   120344622.004 7      -217.143    22576347.340   120344622.028 6      -217.143    22576363.900    93601427.053 7      -168.889    22576362.720    93601432.036 7      -168.889
R01  19535606.540   104429004.422 7      2761.912    19535607.520   104429004.436 7      2761.912    19535616.700    81222611.011 7      2148.154    19535616.580    81222606.999 7      2148.154
G08  22169540.880   116501716.297 7       125.065    22169539.640   116501716.286 7       125.065    22169549.720    90780588.887 7        97.454    22169550.960    90780592.886 7        97.454
G04  23240759.800   122131028.254 7      5676.515    23240758.180   122131028.266 4      5676.515    23240771.360    95167053.974 4      4423.258    23240772.120    95167084.976 7      4423.258
G21  22254790.900   116949693.853 7      1346.169    22254788.500   116949693.853 5      1346.169    22254793.620    91129641.887 5      1048.963
G17  23378833.560   122856604.222 7      5502.424    23378832.960   122856604.232 5      5502.424    23378838.380    95732443.669 5      4287.603    23378837.080    95732431.663 6      4287.603
R02  21020175.700   112167695.857 7      6311.997    21020174.720   112167695.853 7      6311.997    21020187.920    87241594.585 8      4909.331    21020187.680    87241596.586 8      4909.331
R08  22800080.720   122093398.050 6      -849.496    22800079.400   122093398.078 6      -849.496    22800096.180    94961588.356 7      -660.719    22800095.720    94961586.363 7      -660.719
G03  19962158.940   104901854.454 8      3028.799    19962157.900   104901854.451 8      3028.799    19962164.880    81741726.759 8      2360.103    19962165.720    81741728.757 8      2360.103
R24  20445636.020   109332006.733 7      3325.781    20445634.840   109332006.726 7      3325.781    20445648.760    85036048.177 8      2586.719    20445647.680    85036048.175 8      2586.719
G14  22043858.100   115841255.996 7      2828.358    22043857.920   115841256.006 5      2828.358    22043863.840    90265929.772 5      2203.915    22043864.440    90265937.783 8      2203.915
> 2024 06 03 14 07 56.0000000  0 14
G22  23565532.520   123837713.133 7      4118.226    23565533.300   123837713.140 4      4118.226    23565537.060    96496942.786 4      3209.008
R15  22782669.680   121743670.098 7      2309.250    22782667.940   121743670.105 6      2309.250    22782683.640    94689583.748 7      1796.083    22782682.940    94689579.732 7      1796.083
G02  21707765.600   114075074.472 7      2103.983    21707764.660   114075074.479 6      2103.983    21707766.660    88889674.380 6      1639.468
R14  22576388.640   120344839.352 7      -217.512    22576388.060   120344839.376 6      -217.512    22576404.580    93601596.094 7      -169.176    22576403.700    93601601.085 7      -169.176
R01  19535090.000   104426243.003 7      2760.915    19535090.640   104426243.026 7      2760.915    19535100.280    81220463.247 7      2147.378    19535099.700    81220459.237 7      2147.378
G08  22169517.060   116501591.351 7       124.678    22169515.900   116501591.343 7       124.678    22169525.720    90780491.525 7        97.152    22169527.240    90780495.527 7        97.152
G04  23239679.520   122125351.685 6      5676.598    23239678.080   122125351.695 4      5676.598    23239690.900    95162630.682 4      4423.323    23239691.820    95162661.672 7      4423.323
G21  22254534.760   116948347.755 7      1346.065    22254532.420   116948347.757 5      1346.065    22254537.500    91128592.979 5      1048.882
G17  23377786.440   122851101.811 7      5502.330    23377785.820   122851101.819 5      5502.330    23377791.480    95728156.082 5      4287.530    23377790.780    95728144.086 6      4287.530
R02  21018992.820   112161384.082 8      6311.502    21018992.380   112161384.074 7      6311.502    21019005.420    87236685.430 8      4908.946    21019005.140    87236687.431 8      4908.946
R08  22800240.040   122094247.718 6      -849.741    22800238.520   122094247.741 6      -849.741    22800254.720    94962249.209 7      -660.910    22800254.140    94962247.214 7      -660.910
G03  19961582.760   104898826.041 8      3027.993    19961581.620   104898826.038 8      3027.993    19961588.680    81739366.954 8      2359.475    19961589.440    81739368.954 8      2359.475
R24  20445014.080   109328681.031 7      3325.582    20445012.720   109328681.024 7      3325.582    20445026.880    85033461.522 8      2586.564    20445025.760    85033461.516 8      2586.564
G14  22043319.800   115838427.885 7      2827.737    22043319.560   115838427.893 5      2827.737    22043325.680    90263726.047 5      2203.431    22043326.440    90263734.051 8      2203.431
> 2024 06 03 14 07 57.0000000  0 14
G22  23564749.040   123833595.051 7      4117.874    23564749.640   123833595.055 4      4117.874    23564753.340    96493733.886 4      3208.733
R15  22782237.500   121741361.362 7      2308.371    22782236.520   121741361.377 6      2308.371    22782251.320    94687788.079 7      1795.399    22782250.980    94687784.065 7      1795.399
G02  21707365.280   114072970.416 8      2103.975    21707364.400   114072970.418 6      2103.975    21707366.380    88888034.852 6      1639.461
R14  22576428.860   120345057.143 6      -218.164    22576429.000   120345057.167 6      -218.164    22576445.400    93601765.476 7      -169.683    22576444.680    93601770.465 7      -169.683
R01  19534573.320   104423482.461 7      2759.947    19534574.320   104423482.483 7      2759.947    19534583.780    81218316.154 7      2146.625    19534583.180    81218312.147 7      2146.625
G08  22169493.500   116501466.680 7       124.316    22169492.020   116501466.672 7       124.316    22169502.160    90780394.373 7        96.870    22169503.360    90780398.371 7        96.870
G04  23238599.280   122119675.167 6      5676.259    23238597.920   122119675.177 4      5676.259    23238610.820    95158207.432 4      4423.059    23238611.380    95158238.446 7      4423.059
G21  22254278.540   116947001.588 7      1346.006    22254276.180   116947001.591 5      1346.006    22254281.360    91127544.016 5      1048.836
G17  23376739.320   122845599.534 7      5502.232    23376738.860   122845599.537 5      5502.232    23376744.300    95723868.595 5      4287.453    23376743.540    95723856.585 6      4287.453
R02  21017810.220   112155072.797 8      6310.784    21017809.500   112155072.795 7      6310.784    21017822.540    87231776.661 8      4908.387    21017822.500    87231778.663 8      4908.387
R08  22800398.740   122095097.790 6      -850.414    22800396.660   122095097.832 6      -850.414    22800413.880    94962910.393 7      -661.433    22800412.580    94962908.394 6      -661.433
G03  19961006.500   104895798.210 8      3027.433    19961005.420   104895798.220 8      3027.433    19961012.440    81737007.618 8      2359.039    19961013.100    81737009.622 8      2359.039
R24  20444392.160   109325355.482 7      3325.463    20444391.020   109325355.470 7      3325.463    20444404.780    85030874.984 8      2586.471    20444404.140    85030874.984 8      2586.471
G14  22042781.820   115835600.500 7      2827.117    22042781.320   115835600.505 5      2827.117    22042787.700    90261522.890 5      2202.948    22042787.940    90261530.904 7      2202.948
> 2024 06 03 14 07 58.0000000  0 14
G22  23563965.420   123829477.502 7      4117.276    23563966.040   123829477.509 4      4117.276    23563969.720    96490525.403 4      3208.267
R15  22781805.500   121739053.430 7      2307.287    22781803.120   121739053.434 6      2307.287    22781820.200    94685993.000 7      1794.557    22781819.360    94685988.982 7      1794.557
G02  21706964.960   114070866.644 8      2103.630    21706964.100   114070866.646 6      2103.630    21706966.080    88886395.549 6      1639.193
R14  22576469.780   120345275.141 6      -218.077    22576470.040   120345275.153 6      -218.077    22576486.180    93601935.020 7      -169.615    22576485.560    93601940.015 7      -169.615
R01  19534057.200   104420723.065 7      2758.971    19534057.800   104420723.080 7      2758.971    19534067.620    81216169.949 7      2145.866    19534066.840    81216165.942 7      2145.866
G08  22169469.620   116501342.530 7       124.183    22169468.320   116501342.524 7       124.183    22169478.400    90780297.630 7        96.766    22169479.880    90780301.633 7        96.766
G04  23237519.340   122113998.830 6      5676.645    23237517.660   122113998.838 4      5676.645    23237530.680    95153784.322 4      4423.360    23237531.260    95153815.310 7      4423.360
G21  22254022.260   116945655.692 7      1345.850    22254020.060   116945655.697 5      1345.850    22254025.220    91126495.262 5      1048.715
G17  23375692.300   122840097.368 7      5501.881    23375692.020   122840097.370 5      5501.881    23375697.060    95719581.187 5      4287.180    23375696.620    95719569.197 6      4287.180
R02  21016627.640   112148761.982 7      6310.829    21016627.200   112148761.977 7      6310.829    21016640.080    87226868.262 8      4908.423    21016639.780    87226870.264 8      4908.423
R08  22800557.620   122095948.650 6      -851.456    22800556.040   122095948.683 6      -851.456    22800572.680    94963572.158 7      -662.243    22800571.720    94963570.157 7      -662.243
G03  19960430.380   104892771.078 7      3026.895    19960429.300   104892771.081 8      3026.895    19960436.360    81734648.806 8      2358.620    19960436.920    81734650.808 8      2358.620
R24  20443770.460   109322030.272 7      3325.034    20443769.240   109322030.268 7      3325.034    20443782.980    85028288.718 8      2586.137    20443782.040    85028288.716 8      2586.137
G14  22042243.960   115832773.746 7      2826.383    22042243.340   115832773.753 5      2826.383    22042249.720    90259320.224 5      2202.376    22042249.960    90259328.232 8      2202.376
> 2024 06 03 14 07 59.0000000  0 14
G22  23563181.660   123825360.799 7      4116.762    23563182.520   123825360.812 4      4116.762    23563186.260    96487317.588 4      3207.867
R15  22781374.000   121736746.508 6      2306.964    22781371.820   121736746.504 6      2306.964    22781387.780    94684198.715 7      1794.306    22781387.600    94684194.703 7      1794.306
G02  21706564.640   114068762.998 7      2103.795    21706563.720   114068763.003 6      2103.795    21706565.660    88884756.348 6      1639.321
R14  22576510.720   120345493.841 7      -218.484    22576511.060   120345493.860 6      -218.484    22576527.440    93602105.108 7      -169.932    22576526.740    93602110.101 7      -169.932
R01  19533541.360   104417964.659 7      2758.114    19533541.980   104417964.671 7      2758.114    19533551.440    81214024.520 7      2145.200    19533551.000    81214020.517 7      2145.200
G08  22169446.040   116501218.811 7       123.725    22169445.060   116501218.803 7       123.725    22169454.840    90780201.217 7        96.409    22169455.880    90780205.216 7        96.409
G04  23236439.280   122108322.714 6      5676.115    23236437.360   122108322.722 4      5676.115    23236450.460    95149361.385 4      4422.947    23236451.340    95149392.393 7      4422.947
G21  22253766.300   116944309.828 7      1346.060    22253764.160   116944309.833 5      1346.060    22253768.900    91125446.534 5      1048.878
G17  23374645.420   122834595.495 7      5502.195    23374644.900   122834595.500 5      5502.195    23374650.180    95715294.020 5      4287.424    23374649.560    95715282.016 6      4287.424
R02  21015445.280   112142451.850 7      6310.028    21015444.320   112142451.848 7      6310.028    21015457.580    87221960.386 8      4907.800    21015457.440    87221962.387 8      4907.800
R08  22800716.140   122096799.916 6      -851.240    22800714.440   122096799.958 6      -851.240    22800731.600    94964234.258 7      -662.076    22800730.800    94964232.259 6      -662.076
G03  19959854.420   104889744.761 8      3026.269    19959853.500   104889744.766 8      3026.269    19959860.520    81732290.643 8      2358.131    19959861.260    81732292.649 8      2358.131
R24  20443148.640   109318705.287 7      3325.189    20443147.160   109318705.285 7      3325.189    20443161.160    85025702.620 8      2586.258    20443160.500    85025702.625 8      2586.258
G14  22041706.200   115829947.966 7      2825.900    22041705.740   115829947.976 5      2825.900    22041712.020    90257118.312 5      2202.000    22041712.780    90257126.319 8      2202.000
> 2024 06 03 14 08  0.0000000  0 14
G22  23562398.480   123821244.314 7      4116.531    23562399.260   123821244.327 4      4116.531    23562402.960    96484109.940 4      3207.686
R15  22780942.440   121734440.014 6      2306.370    22780940.780   121734440.015 6      2306.370    22780956.300    94682404.769 7      1793.843    22780955.820    94682400.752 7      1793.843
G02  21706164.440   114066659.339 7      2103.746    21706163.440   114066659.341 6      2103.746    21706165.540    88883117.127 6      1639.283
R14  22576552.000   120345712.559 7      -218.594    22576551.560   120345712.576 6      -218.594    22576568.480    93602275.214 7      -170.017    22576567.640    93602280.209 7      -170.017
R01  19533025.440   104415207.121 7      2757.179    19533026.200   104415207.135 7      2757.179    19533035.820    81211879.775 7      2144.473    19533035.060    81211875.765 7      2144.473
G08  22169422.660   116501095.425 7       123.322    22169421.540   116501095.417 7       123.322    22169431.300    90780105.064 7        96.095    22169432.320    90780109.067 7        96.095
G04  23235358.920   122102646.579 6      5676.179    23235357.140   122102646.587 4      5676.179    23235370.080    95144938.435 4      4422.997    23235370.960    95144969.437 7      4422.997
G21  22253509.960   116942963.974 7      1346.009    22253508.020   116942963.979 5      1346.009    22253512.760    91124397.815 5      1048.838
G17  23373598.720   122829093.455 7      5502.206    23373597.800   122829093.460 5      5502.206    23373603.280    95711006.717 5      4287.433    23373602.860    95710994.722 6      4287.433
R02  21014262.800   112136141.980 7      6309.807    21014261.600   112136141.975 7      6309.807    21014274.980    87217052.715 8      4907.627    21014274.880    87217054.719 8      4907.627
R08  22800874.860   122097651.707 6      -851.935    22800873.200   122097651.746 6      -851.935    22800890.720    94964896.754 7      -662.616    22800889.540    94964894.751 6      -662.616
G03  19959278.580   104886718.865 8      3025.764    19959277.680   104886718.867 8      3025.764    19959284.700    81729932.801 8      2357.738    19959285.540    81729934.804 8      2357.738
R24  20442527.160   109315380.368 7      3325.030    20442525.140   109315380.356 7      3325.030    20442539.500    85023116.564 8      2586.135    20442538.780    85023116.569 8      2586.135
G14  22041168.740   115827122.525 7      2825.360    22041168.180   115827122.533 6      2825.360    22041174.400    90254916.668 5      2201.579    22041174.900    90254924.683 7      2201.579
> 2024 06 03 14 08  1.0000000  0 14
G22  23561615.520   123817128.166 7      4116.116    23561616.000   123817128.176 4      4116.116    23561619.660    96480902.554 4      3207.363
R15  22780510.720   121732134.078 6      2305.560    22780509.220   121732134.090 6      2305.560    22780525.500    94680611.267 7      1793.213    22780524.560    94680607.251 7      1793.213
G02  21705764.040   114064555.486 8      2103.925    21705763.080   114064555.491 6      2103.925    21705765.260    88881477.763 6      1639.422
R14  22576592.840   120345931.416 6      -218.850    22576593.020   120345931.435 6      -218.850    22576609.360    93602445.425 7      -170.217    22576608.440    93602450.422 7      -170.217
R01  19532509.760   104412450.216 7      2756.623    19532510.280   104412450.228 7      2756.623    19532519.880    81209735.516 7      2144.040    19532519.240    81209731.510 7      2144.040
G08  22169399.200   116500972.108 7       123.230    22169398.160   116500972.102 7       123.230    22169407.660    90780008.969 7        96.023    22169409.060    90780012.974 7        96.023
G04  23234278.600   122096970.250 6      5676.539    23234276.960   122096970.255 4      5676.539    23234290.000    95140515.330 4      4423.277    23234291.280    95140546.332 7      4423.277
G21  22253253.820   116941617.841 7      1346.276    22253251.840   116941617.846 5      1346.276    22253256.640    91123348.884 5      1049.047
G17  23372551.640   122823591.278 7      5502.268    23372550.940   122823591.282 5      5502.268    23372556.160    95706719.313 5      4287.482    23372554.940    95706707.309 6      4287.482
R02  21013080.460   112129832.368 7      6309.482    21013079.560   112129832.366 7      6309.482    21013092.820    87212145.250 8      4907.375    21013092.280    87212147.251 8      4907.375
R08  22801033.900   122098503.648 6      -852.275    22801032.320   122098503.687 6      -852.275    22801049.600    94965559.369 7      -662.880    22801048.900    94965557.367 7      -662.880
G03  19958702.960   104883693.344 8      3025.369    19958701.940   104883693.348 8      3025.369    19958709.020    81727575.254 8      2357.430    19958709.580    81727577.259 8      2357.430
R24  20441904.960   109312055.364 7      3324.918    20441903.360   109312055.342 7      3324.918    20441917.720    85020530.440 8      2586.048    20441917.100    85020530.447 8      2586.048
G14  22040631.040   115824297.552 7      2824.784    22040630.420   115824297.560 6      2824.784    22040636.740    90252715.388 6      2201.130    22040637.200    90252723.398 8      2201.130
> 2024 06 03 14 08  2.0000000  0 14
G22  23560832.460   123813012.608 7      4115.303    23560832.740   123813012.621 4      4115.303    23560836.380    96477695.626 4      3206.729
R15  22780078.860   121729828.994 6      2304.556    22780077.960   121729829.014 6      2304.556    22780093.740    94678818.422 7      1792.432    22780093.180    94678814.412 7      1792.432
G02  21705363.680   114062451.764 8      2103.650    21705362.740   114062451.774 6      2103.650    21705364.820    88879838.499 6      1639.208
R14  22576634.600   120346150.641 6      -219.472    22576633.900   120346150.658 6      -219.472    22576650.620    93602615.921 7      -170.701    22576649.540    93602620.916 7      -170.701
R01  19531994.040   104409694.325 7      2755.296    19531994.540   104409694.337 7      2755.296    19532004.640    81207592.040 7      2143.008    19532003.940    81207588.037 7      2143.008
G08  22169375.840   116500849.153 7       122.785    22169374.780   116500849.148 7       122.785    22169384.500    90779913.156 7        95.677    22169385.740    90779917.155 8        95.677
G04  23233198.740   122091294.029 6      5676.244    23233196.900   122091294.031 4      5676.244    23233210.020    95136092.310 4      4423.048    23233211.380    95136123.315 7      4423.048
G21  22252997.820   116940271.840 7      1345.819    22252995.660   116940271.842 5      1345.819    22253000.500    91122300.052 5      1048.690
G17  23371504.440   122818089.253 7      5501.906    23371504.080   122818089.255 5      5501.906    23371509.180    95702432.023 5      4287.200    23371508.780    95702420.009 6      4287.200
R02  21011897.800   112123523.255 7      6308.858    21011897.100   112123523.259 7      6308.858    21011910.600    87207238.170 8      4906.889    21011909.980    87207240.170 8      4906.889
R08  22801193.340   122099356.104 6      -852.927    22801191.740   122099356.145 6      -852.927    22801209.220    94966222.387 7      -663.387    22801208.140    94966220.386 7      -663.387
G03  19958127.480   104880668.487 8      3024.553    19958126.460   104880668.490 8      3024.553    19958133.300    81725218.223 8      2356.795    19958133.920    81725220.228 8      2356.795
R24  20441283.480   109308730.588 7      3324.549    20441281.620   109308730.568 7      3324.549    20441295.840    85017944.502 8      2585.760    20441295.480    85017944.507 8      2585.760
G14  22040093.580   115821473.289 7      2823.845    22040093.040   115821473.299 6      2823.845    22040099.300    90250514.661 6      2200.399    22040099.540    90250522.675 8      2200.399
> 2024 06 03 14 08  3.0000000  0 14
G22  23560049.360   123808897.422 7      4115.094    23560049.520   123808897.434 4      4115.094    23560053.340    96474488.989 4      3206.567
R15  22779647.720   121727524.509 6      2304.297    22779646.260   121727524.537 6      2304.297    22779662.520    94677026.047 7      1792.231    22779662.080    94677022.030 7      1792.231
G02  21704963.400   114060348.076 7      2103.818    21704962.460   114060348.078 6      2103.818    21704964.480    88878199.260 6      1639.338
R14  22576675.320   120346370.026 6      -219.499    22576675.040   120346370.045 6      -219.499    22576691.820    93602786.543 7      -170.721    22576691.000    93602791.553 7      -170.721
R01  19531479.060   104406939.281 7      2754.698    19531479.820   104406939.295 7      2754.698    19531489.100    81205449.230 7      2142.543    19531488.260    81205445.223 7      2142.543
G08  22169352.680   116500726.566 7       122.562    22169351.940   116500726.556 7       122.562    22169361.100    90779817.622 7        95.503    22169362.560    90779821.629 7        95.503
G04  23232118.300   122085617.858 6      5676.170    23232116.740   122085617.860 4      5676.170    23232129.820    95131669.330 4      4422.989    23232130.780    95131700.328 7      4422.989
G21  22252741.800   116938925.800 7      1346.256    22252739.680   116938925.804 5      1346.256    22252744.100    91121251.187 5      1049.031
G17  23370457.360   122812587.107 7      5502.378    23370456.860   122812587.115 5      5502.378    23370462.400    95698144.643 5      4287.567    23370461.160    95698132.641 6      4287.567
R02  21010715.660   112117214.580 8      6308.514    21010714.840   112117214.578 7      6308.514    21010728.400    87202331.431 8      4906.622    21010728.040    87202333.431 8      4906.622
R08  22801352.860   122100209.041 6      -852.972    22801351.940   122100209.083 6      -852.972    22801367.900    94966885.762 7      -663.423    22801367.340    94966883.767 7      -663.423
G03  19957551.840   104877644.146 8      3024.171    19957550.860   104877644.146 8      3024.171    19957557.780    81722861.588 8      2356.497    19957558.500    81722863.592 8      2356.497
R24  20440661.880   109305405.902 7      3324.817    20440659.400   109305405.890 7      3324.817    20440674.240    85015358.642 8      2585.969    20440673.800    85015358.642 8      2585.969
G14  22039556.280   115818649.477 7      2823.610    22039555.800   115818649.490 6      2823.610    22039562.080    90248314.284 6      2200.216    22039562.320    90248322.298 8      2200.216
> 2024 06 03 14 08  4.0000000  0 14
G22  23559266.300   123804782.711 7      4114.507    23559266.360   123804782.721 4      4114.507    23559270.160    96471282.720 4      3206.109
R15  22779216.700   121725220.777 6      2303.476    22779214.340   121725220.799 6      2303.476    22779231.700    94675234.257 7      1791.592    22779230.900    94675230.245 7      1791.592
G02  21704563.200   114058244.377 8      2103.625    21704562.060   114058244.382 6      2103.625    21704564.180    88876560.014 6      1639.189
R14  22576716.380   120346589.815 6      -219.917    22576716.000   120346589.829 6      -219.917    22576733.000    93602957.482 7      -171.047    22576732.100    93602962.490 7      -171.047
R01  19530963.400   104404185.190 7      2753.489    19530964.220   104404185.200 7      2753.489    19530974.060    81203307.158 7      2141.602    19530973.480    81203303.153 7      2141.602
G08  22169329.420   116500604.397 7       121.851    22169328.400   116500604.394 7       121.851    22169337.660    90779722.429 7        94.949    22169339.340    90779726.426 7        94.949
G04  23231038.500   122079941.839 6      5675.968    23231036.740   122079941.844 4      5675.968    23231049.680    95127246.468 4      4422.832    23231050.520    95127277.477 7      4422.832
G21  22252485.420   116937579.746 7      1345.958    22252483.480   116937579.751 5      1345.958    22252487.920    91120202.312 5      1048.798
G17  23369410.540   122807085.004 7      5502.131    23369409.680   122807085.008 5      5502.131    23369415.420    95693857.291 5      4287.375    23369414.420    95693845.281 6      4287.375
R02  21009533.300   112110906.476 8      6307.827    21009533.160   112110906.474 7      6307.827    21009546.200    87197425.128 8      4906.088    21009545.800    87197427.129 8      4906.088
R08  22801512.340   122101062.377 6      -853.814    22801510.840   122101062.416 6      -853.814    22801527.440    94967549.468 7      -664.078    22801526.800    94967547.462 7      -664.078
G03  19956976.440   104874620.412 8      3023.529    19956975.480   104874620.414 8      3023.529    19956982.300    81720505.435 8      2355.996    19956983.120    81720507.442 8      2355.996
R24  20440040.000   109302081.350 7      3324.432    20440038.060   109302081.346 7      3324.432    20440052.440    85012772.888 8      2585.670    20440051.980    85012772.892 8      2585.670
G14  22039018.980   115815826.317 7      2823.001    22039018.400   115815826.327 6      2823.001    22039024.900    90246114.415 6      2199.741    22039024.900    90246122.423 8      2199.741
> 2024 06 03 14 08  5.0000000  0 14
G22  23558483.240   123800668.499 7      4113.982    23558483.560   123800668.506 4      4113.982    23558487.400    96468076.835 4      3205.700
R15  22778785.720   121722917.831 6      2302.805    22778783.320   121722917.826 6      2302.805    22778800.880    94673443.062 7      1791.070    22778800.240    94673439.050 7      1791.070
G02  21704162.780   114056140.647 8      2103.867    21704161.920   114056140.650 6      2103.867    21704163.880    88874920.740 6      1639.377
R14  22576758.280   120346809.928 6      -219.902    22576757.680   120346809.926 6      -219.902    22576774.040    93603128.658 7      -171.035    22576773.600    93603133.659 7      -171.035
R01  19530448.300   104401431.878 7      2753.080    19530448.540   104401431.882 7      2753.080    19530459.420    81201165.695 7      2141.284    19530458.640    81201161.690 7      2141.284
G08  22169306.120   116500482.454 7       121.861    22169304.740   116500482.449 7       121.861    22169314.360    90779627.400 7        94.957    22169316.260    90779631.393 7        94.957
G04  23229958.060   122074265.825 6      5676.254    23229956.620   122074265.830 4      5676.254    23229969.520    95122823.615 4      4423.055    23229970.520    95122854.631 7      4423.055
G21  22252229.400   116936233.590 7      1346.209    22252227.220   116936233.597 5      1346.209    22252231.860    91119153.355 5      1048.994
G17  23368363.480   122801582.918 7      5502.200    23368362.660   122801582.921 5      5502.200    23368368.340    95689569.950 5      4287.429    23368367.140    95689557.922 6      4287.429
R02  21008351.140   112104598.769 7      6307.705    21008351.360   112104598.764 7      6307.705    21008364.220    87192519.134 8      4905.993    21008363.660    87192521.135 8      4905.993
R08  22801670.960   122101915.970 6      -853.564    22801670.140   122101916.015 6      -853.564    22801687.120    94968213.394 7      -663.883    22801685.960    94968211.381 6      -663.883
G03  19956401.240   104871597.242 8      3023.053    19956400.160   104871597.242 8      3023.053    19956406.920    81718149.725 8      2355.625    19956407.780    81718151.730 8      2355.625
R24  20439418.280   109298756.873 7      3324.595    20439416.960   109298756.863 7      3324.595    20439430.360    85010187.175 8      2585.796    20439430.220    85010187.181 8      2585.796
G14  22038481.700   115813003.814 7      2822.356    22038481.280   115813003.821 6      2822.356    22038487.720    90243915.062 5      2199.238    22038487.820    90243923.080 7      2199.238
> 2024 06 03 14 08  6.0000000  0 14
G22  23557700.560   123796554.728 7      4113.541    23557700.920   123796554.736 3      4113.541    23557704.540    96464871.299 4      3205.357
R15  22778354.660   121720615.517 6      2302.026    22778353.860   121720615.524 6      2302.026    22778369.820    94671652.370 7      1790.464    22778369.460    94671648.362 7      1790.464
G02  21703762.340   114054036.999 8      2103.805    21703761.460   114054037.001 6      2103.805    21703763.680    88873281.531 6      1639.328
R14  22576799.500   120347030.131 6      -220.251    22576798.320   120347030.126 6      -220.251    22576815.380    93603299.912 7      -171.306    22576814.940    93603304.920 7      -171.306
R01  19529933.680   104398679.451 7      2752.125    19529933.760   104398679.455 7      2752.125    19529944.400    81199024.914 7      2140.541    19529943.680    81199020.911 7      2140.541
G08  22169282.960   116500360.682 7       121.715    22169281.780   116500360.674 7       121.715    22169291.460    90779532.504 7        94.843    22169293.160    90779536.503 8        94.843
G04  23228878.160   122068589.643 6      5676.168    23228876.400   122068589.643 4      5676.168    23228889.360    95118400.628 4      4422.988    23228890.160    95118431.643 7      4422.988
G21  22251973.520   116934887.455 7      1346.262    22251971.100   116934887.465 5      1346.262    22251975.740    91118104.421 5      1049.035
G17  23367316.860   122796080.883 7      5502.076    23367315.700   122796080.885 5      5502.076    23367321.360    95685282.652 5      4287.332    23367320.880    95685270.638 6      4287.332
R02  21007168.900   112098291.281 8      6307.282    21007169.040   112098291.282 7      6307.282    21007182.220    87187613.320 8      4905.664    21007181.500    87187615.320 8      4905.664
R08  22801829.740   122102770.208 6      -854.103    22801828.920   122102770.250 6      -854.103    22801846.640    94968877.781 7      -664.303    22801845.440    94968875.774 7      -664.303
G03  19955826.100   104868574.543 8      3022.531    19955825.120   104868574.548 8      3022.531    19955831.740    81715794.377 8      2355.219    19955832.440    81715796.382 8      2355.219
R24  20438796.720   109295432.577 7      3324.322    20438795.040   109295432.568 7      3324.322    20438808.360    85007601.612 8      2585.584    20438808.360    85007601.616 8      2585.584
G14  22037944.840   115810181.823 7      2821.737    22037944.320   115810181.833 5      2821.737    22037950.720    90241716.106 5      2198.756    22037950.760    90241724.118 8      2198.756
> 2024 06 03 14 08  7.0000000  0 14
G22  23556917.480   123792441.515 7      4112.955    23556918.140   123792441.522 3      4112.955    23556921.840    96461666.202 3      3204.900
R15  22777923.940   121718313.998 6      2301.028    22777922.980   121718314.007 6      2301.028    22777938.820    94669862.302 7      1789.688    22777938.500    94669858.294 7      1789.688
G02  21703362.000   114051933.513 7      2103.292    21703361.040   114051933.518 6      2103.292    21703363.300    88871642.454 6      1638.929
R14  22576840.880   120347250.739 6      -220.850    22576840.960   120347250.736 6      -220.850    22576856.600    93603471.486 7      -171.772    22576856.440    93603476.489 7      -171.772
R01  19529418.760   104395928.079 7      2750.814    19529419.420   104395928.085 7      2750.814    19529429.740    81196884.958 7      2139.522    19529429.040    81196880.950 7      2139.522
G08  22169259.820   116500239.477 7       120.777    22169258.960   116500239.469 7       120.777    22169268.460    90779438.055 7        94.112    22169270.260    90779442.054 8        94.112
G04  23227798.160   122062913.721 7      5675.677    23227796.320   122062913.721 4      5675.677    23227809.140    95113977.844 4      4422.605    23227810.020    95114008.855 7      4422.605
G21  22251717.360   116933541.480 7      1345.793    22251715.140   116933541.487 5      1345.793    22251719.580    91117055.611 5      1048.670
G17  23366269.700   122790578.958 7      5501.783    23366268.780   122790578.963 5      5501.783    23366274.260    95680995.442 5      4287.103    23366273.700    95680983.426 6      4287.103
R02  21005987.220   112091984.415 7      6306.453    21005986.960   112091984.424 7      6306.453    21006000.400    87182707.997 8      4905.019    21005999.660    87182709.998 8      4905.019
R08  22801990.120   122103625.022 6      -855.288    22801988.220   122103625.062 6      -855.288    22802006.320    94969542.630 7      -665.224    22802005.360    94969540.621 7      -665.224
G03  19955250.880   104865552.570 8      3021.617    19955250.200   104865552.569 8      3021.617    19955256.640    81713439.586 8      2354.506    19955257.400    81713441.593 8      2354.506
R24  20438175.080   109292108.472 7      3323.901    20438173.360   109292108.470 7      3323.901    20438186.740    85005016.198 8      2585.256    20438186.600    85005016.205 8      2585.256
G14  22037407.880   115807360.528 7      2820.922    22037407.640   115807360.538 6      2820.922    22037413.860    90239517.688 6      2198.121    22037414.120    90239525.692 8      2198.121
> 2024 06 03 14 08  8.0000000  0 14
G22  23556134.940   123788328.527 7      4112.769    23556135.240   123788328.532 3      4112.769    23556139.120    96458461.277 3      3204.755
R15  22777493.140   121716012.917 6      2300.690    22777492.040   121716012.942 6      2300.690    22777509.300    94668072.580 7      1789.425    22777508.040    94668068.572 7      1789.425
G02  21702961.880   114049829.836 7      2103.745    21702960.860   114049829.843 6      2103.745    21702963.020    88870003.222 6      1639.282
R14  22576882.640   120347471.397 6      -220.815    22576882.260   120347471.422 6      -220.815    22576898.360    93603643.126 7      -171.745    22576898.060    93603648.140 7      -171.745
R01  19528904.080   104393177.450 7      2750.176    19528904.560   104393177.459 7      2750.176    19528915.240    81194745.584 7      2139.025    19528914.660    81194741.581 7      2139.025
G08  22169236.920   116500118.472 7       120.813    22169236.040   116500118.472 7       120.813    22169245.280    90779343.765 7        94.140    22169247.080    90779347.764 7        94.140
G04  23226717.920   122057237.779 6      5675.760    23226716.420   122057237.778 4      5675.760    23226729.020    95109555.038 4      4422.670    23226729.440    95109586.048 7      4422.670
G21  22251460.960   116932195.305 7      1346.248    22251459.020   116932195.310 5      1346.248    22251463.340    91116006.638 5      1049.024
G17  23365222.580   122785076.755 7      5502.154    23365221.520   122785076.760 5      5502.154    23365227.320    95676708.013 5      4287.392    23365226.560    95676696.007 6      4287.392
R02  21004805.420   112085677.872 8      6306.249    21004805.760   112085677.875 7      6306.249    21004818.440    87177802.911 8      4904.861    21004817.940    87177804.917 8      4904.861
R08  22802150.520   122104480.013 6      -855.221    22802148.840   122104480.058 6      -855.221    22802165.740    94970207.621 7      -665.172    22802164.940    94970205.614 7      -665.172
G03  19954675.940   104862530.964 8      3021.388    19954674.940   104862530.966 8      3021.388    19954681.620    81711085.092 8      2354.328    19954682.300    81711087.097 8      2354.328
R24  20437553.280   109288784.302 7      3324.161    20437551.640   109288784.306 7      3324.161    20437565.460    85002430.739 8      2585.459    20437565.160    85002430.746 8      2585.459
G14  22036871.240   115804539.583 7      2820.676    22036870.620   115804539.596 6      2820.676    22036877.180    90237319.547 6      2197.930    22036877.180    90237327.547 7      2197.930
> 2024 06 03 14 08  9.0000000  0 14
G22  23555352.320   123784216.068 7      4111.935    23555352.460   123784216.073 3      4111.935    23555356.420    96455256.763 3      3204.106
R15  22777062.540   121713712.664 6      2299.690    22777061.320   121713712.678 6      2299.690    22777079.280    94666283.484 7      1788.648    22777077.900    94666279.478 7      1788.648
G02  21702561.500   114047726.143 7      2103.527    21702560.520   114047726.145 6      2103.527    21702562.620    88868363.977 6      1639.112
R14  22576924.180   120347692.461 6      -221.479    22576923.820   120347692.464 6      -221.479    22576939.800    93603815.040 7      -172.262    22576939.480    93603820.041 7      -172.262
R01  19528390.140   104390427.618 7      2749.251    19528389.860   104390427.624 7      2749.251    19528401.360    81192606.830 7      2138.306    19528400.300    81192602.829 7      2138.306
G08  22169214.000   116499997.685 7       120.690    22169212.720   116499997.682 7       120.690    22169222.220    90779249.640 7        94.044    22169224.000    90779253.628 7        94.044
G04  23225637.720   122051561.775 6      5675.836    23225636.500   122051561.775 4      5675.836    23225648.900    95105132.190 4      4422.729    23225649.740    95105163.213 7      4422.729
G21  22251204.920   116930848.999 7      1346.280    22251202.900   116930849.004 5      1346.280    22251207.360    91114957.562 5      1049.050
G17  23364175.180   122779574.638 7      5501.866    23364174.480   122779574.640 5      5501.866    23364180.240    95672420.649 5      4287.168    23364179.360    95672408.631 6      4287.168
R02  21003624.180   112079371.723 8      6305.785    21003624.120   112079371.724 8      6305.785    21003636.660    87172898.129 8      4904.499    21003636.420    87172900.133 8      4904.499
R08  22802310.100   122105335.301 6      -855.556    22802309.220   122105335.343 6      -855.556    22802325.720    94970872.849 7      -665.432    22802325.000    94970870.836 7      -665.432
G03  19954100.800   104859509.938 8      3020.621    19954100.040   104859509.938 8      3020.621    19954106.620    81708731.046 8      2353.731    19954107.500    81708733.049 8      2353.731
R24  20436931.880   109285460.287 7      3323.790    20436930.180   109285460.275 7      3323.790    20436943.320    84999845.384 8      2585.170    20436943.340    84999845.389 8      2585.170
G14  22036334.500   115801719.361 7      2819.649    22036333.800   115801719.368 5      2819.649    22036340.300    90235121.967 6      2197.129    22036340.380    90235129.971 7      2197.129
> 2024 06 03 14 08 10.0000000  0 14
G22  23554569.900   123780104.186 7      4111.711    23554570.000   123780104.191 3      4111.711    23554574.000    96452052.704 3      3203.930
R15  22776632.640   121711413.169 6      2299.310    22776631.620   121711413.186 6      2299.310    22776647.480    94664494.990 7      1788.352    22776647.480    94664490.978 7      1788.352
G02  21702161.080   114045622.555 7      2103.555    21702159.980   114045622.557 6      2103.555    21702162.440    88866724.819 6      1639.134
R14  22576965.160   120347913.738 6      -221.347    22576965.340   120347913.749 6      -221.347    22576980.780    93603987.125 7      -172.159    22576980.900    93603992.127 7      -172.159
R01  19527875.380   104387678.742 7      2748.433    19527875.380   104387678.741 7      2748.433    19527887.340    81190468.811 7      2137.670    19527885.980    81190464.804 7      2137.670
G08  22169191.120   116499877.245 7       120.116    22169189.600   116499877.250 7       120.116    22169199.520    90779155.790 7        93.597    22169200.720    90779159.785 8        93.597
G04  23224557.480   122045885.814 6      5675.912    23224556.420   122045885.816 4      5675.912    23224568.720    95100709.378 4      4422.789    23224569.160    95100740.399 7      4422.789
G21  22250948.820   116929502.812 7      1346.052    22250946.780   116929502.816 5      1346.052    22250951.260    91113908.587 5      1048.872
G17  23363127.900   122774072.640 7      5502.000    23363127.600   122774072.642 5      5502.000    23363132.960    95668133.377 5      4287.273    23363132.240    95668121.365 6      4287.273
R02  21002442.700   112073065.996 7      6305.429    21002441.760   112073066.000 7      6305.429    21002454.880    87167993.681 8      4904.222    21002454.920    87167995.687 8      4904.222
R08  22802470.020   122106191.232 6      -856.322    22802468.820   122106191.268 6      -856.322    22802485.760    94971538.573 7      -666.029    22802484.880    94971536.562 7      -666.029
G03  19953526.180   104856489.515 8      3020.141    19953525.820   104856489.520 8      3020.141    19953531.720    81706377.476 8      2353.357    19953532.360    81706379.476 8      2353.357
R24  20436310.320   109282136.487 7      3323.719    20436309.720   109282136.485 7      3323.719    20436321.120    84997260.206 7      2585.114    20436321.960    84997260.212 7      2585.114
G14  22035798.260   115798899.748 7      2819.425    22035797.460   115798899.755 6      2819.425    22035803.860    90232924.868 5      2196.955    22035803.820    90232932.874 8      2196.955
> 2024 06 03 14 08 11.0000000  0 14
G22  23553787.140   123775992.825 7      4110.999    23553787.700   123775992.830 3      4110.999    23553791.500    96448849.046 3      3203.376
R15  22776202.640   121709114.418 6      2298.205    22776201.660   121709114.448 6      2298.205    22776217.680    94662707.081 7      1787.493    22776217.160    94662703.075 7      1787.493
G02  21701760.740   114043519.164 8      2103.354    21701759.720   114043519.169 6      2103.354    21701762.240    88865085.813 6      1638.977
R14  22577007.240   120348135.367 6      -221.973    22577007.140   120348135.386 6      -221.973    22577023.060    93604159.501 7      -172.646    22577022.640    93604164.509 7      -172.646
R01  19527361.300   104384930.952 7      2747.372    19527361.840   104384930.953 7      2747.372    19527373.180    81188331.637 7      2136.845    19527372.000    81188327.630 7      2136.845
G08  22169168.220   116499757.296 7       119.896    22169167.160   116499757.293 7       119.896    22169176.660    90779062.311 7        93.425    22169177.920    90779066.308 7        93.425
G04  23223477.560   122040210.024 7      5675.948    23223476.400   122040210.026 4      5675.948    23223488.740    95096286.694 4      4422.817    23223489.300    95096317.711 7      4422.817
G21  22250692.560   116928156.787 7      1345.943    22250690.700   116928156.789 5      1345.943    22250695.100    91112859.733 5      1048.787
G17  23362080.960   122768570.730 7      5501.786    23362080.620   122768570.738 5      5501.786    23362086.040    95663846.179 5      4287.106    23362084.920    95663834.174 6      4287.106
R02  21001260.960   112066760.824 7      6304.954    21001260.340   112066760.833 7      6304.954    21001273.380    87163089.675 8      4903.853    21001273.000    87163091.681 8      4903.853
R08  22802630.140   122107047.776 6      -856.742    22802628.900   122107047.780 6      -856.742    22802645.280    94972204.736 7      -666.355    22802644.580    94972202.721 7      -666.355
G03  19952951.580   104853469.772 8      3019.359    19952951.020   104853469.771 8      3019.359    19952957.160    81704024.423 8      2352.748    19952957.720    81704026.428 8      2352.748
R24  20435688.840   109278812.913 7      3323.472    20435687.880   109278812.914 7      3323.472    20435699.740    84994675.210 8      2584.923    20435699.800    84994675.217 8      2584.923
G14  22035261.660   115796080.802 7      2818.514    22035260.980   115796080.812 6      2818.514    22035267.460    90230728.285 6      2196.245    22035267.280    90230736.277 8      2196.245
> 2024 06 03 14 08 12.0000000  0 14
G22  23553004.560   123771881.866 6      4110.597    23553005.140   123771881.879 3      4110.597    23553009.160    96445645.707 3      3203.062
R15  22775772.180   121706816.353 6      2297.580    22775773.460   121706816.392 6      2297.580    22775787.280    94660919.695 7      1787.006    22775787.180    94660915.689 7      1787.006
G02  21701360.540   114041415.652 7      2103.456    21701359.360   114041415.662 6      2103.456    21701361.760    88863446.713 6      1639.057
R14  22577048.440   120348357.246 6      -222.292    22577047.800   120348357.249 6      -222.292    22577064.860    93604332.049 7      -172.894    22577064.400    93604337.048 7      -172.894
R01  19526847.540   104382183.889 7      2746.635    19526848.160   104382183.893 7      2746.635    19526859.120    81186195.030 7      2136.271    19526858.220    81186191.025 7      2136.271
G08  22169145.420   116499637.529 7       119.468    22169144.640   116499637.526 7       119.468    22169153.880    90778968.984 7        93.092    22169155.180    90778972.981 7        93.092
G04  23222397.540   122034534.189 7      5675.588    23222396.360   122034534.194 4      5675.588    23222408.460    95091863.974 4      4422.536    23222408.840    95091894.990 7      4422.536
G21  22250436.260   116926810.568 7      1346.192    22250434.660   116926810.570 5      1346.192    22250438.940    91111810.733 5      1048.981
G17  23361034.160   122763068.779 7      5501.878    23361033.540   122763068.787 5      5501.878    23361039.180    95659558.945 5      4287.177    23361037.940    95659546.939 6      4287.177
R02  21000079.140   112060455.988 7      6304.503    21000078.560   112060455.997 7      6304.503    21000091.740    87158185.920 8      4903.503    21000091.420    87158187.926 8      4903.503
R08  22802790.540   122107904.547 6      -856.827    22802788.040   122107904.549 6      -856.827    22802805.380    94972871.097 7      -666.421    22802804.780    94972869.088 7      -666.421
G03  19952377.100   104850450.465 8      3018.979    19952376.660   104850450.470 8      3018.979    19952382.560    81701671.720 8      2352.451    19952383.320    81701673.723 8      2352.451
R24  20435067.220   109275489.291 7      3323.627    20435066.340   109275489.298 7      3323.627    20435078.500    84992090.175 8      2585.043    20435078.400    84992090.178 8      2585.043
G14  22034725.260   115793262.385 7      2818.080    22034724.760   115793262.395 6      2818.080    22034731.120    90228532.106 6      2195.907    22034730.920    90228540.103 8      2195.907
> 2024 06 03 14 08 13.0000000  0 14
G22  23552222.520   123767771.370 6      4110.591    23552222.600   123767771.380 3      4110.591    23552226.860    96442442.723 3      3203.058
R15  22775343.060   121704519.020 6      2297.189    22775343.120   121704519.045 6      2297.189    22775357.700    94659132.866 7      1786.703    22775357.240    94659128.860 7      1786.703
G02  21700960.200   114039312.240 7      2103.486    21700958.960   114039312.245 6      2103.486    21700961.480    88861807.687 6      1639.080
R14  22577090.260   120348579.427 6      -222.044    22577089.320   120348579.424 6      -222.044    22577106.800    93604504.842 7      -172.701    22577106.140    93604509.845 7      -172.701
R01  19526333.600   104379437.854 7      2745.732    19526334.100   104379437.856 7      2745.732    19526345.640    81184059.226 7      2135.570    19526344.880    81184055.223 7      2135.570
G08  22169122.740   116499518.258 7       119.103    22169121.840   116499518.257 7       119.103    22169131.200    90778876.041 7        92.807    22169132.680    90778880.036 8        92.807
G04  23221317.600   122028858.564 7      5675.619    23221316.280   122028858.566 4      5675.619    23221328.380    95087441.413 4      4422.560    23221328.780    95087472.432 7      4422.560
G21  22250180.200   116925464.469 7      1346.052    22250178.420   116925464.477 5      1346.052    22250182.820    91110761.829 5      1048.871
G17  23359987.200   122757566.794 7      5502.257    23359986.440   122757566.801 5      5502.257    23359992.240    95655271.688 5      4287.473    23359991.100    95655259.688 6      4287.473
R02  20998897.700   112054151.742 7      6304.141    20998897.120   112054151.743 7      6304.141    20998910.340    87153282.618 8      4903.220    20998910.200    87153284.623 8      4903.220
R08  22802950.160   122108761.797 6      -857.399    22802948.320   122108761.831 6      -857.399    22802965.380    94973537.873 7      -666.866    22802965.000    94973535.861 7      -666.866
G03  19951802.540   104847431.828 8      3018.522    19951802.240   104847431.830 8      3018.522    19951808.080    81699319.536 8      2352.095    19951808.800    81699321.538 8      2352.095
R24  20434445.960   109272165.884 7      3323.426    20434445.240   109272165.888 7      3323.426    20434456.680    84989505.299 8      2584.887    20434456.980    84989505.305 8      2584.887
G14  22034189.080   115790444.572 7      2817.787    22034188.600   115790444.587 6      2817.787    22034194.940    90226336.403 6      2195.678    22034194.900    90226344.402 8      2195.678
> 2024 06 03 14 08 14.0000000  0 14
G22  23551440.700   123763661.209 6      4110.034    23551440.360   123763661.225 3      4110.034    23551445.040    96439240.002 3      3202.624
R15  22774913.500   121702222.283 6      2296.424    22774913.040   121702222.292 6      2296.424    22774928.840    94657346.499 7      1786.107    22774927.820    94657342.497 7      1786.107
G02  21700560.060   114037208.754 8      2103.490    21700558.880   114037208.759 6      2103.490    21700561.320    88860168.607 6      1639.083
R14  22577131.360   120348801.751 6      -222.309    22577131.540   120348801.746 6      -222.309    22577148.880    93604677.757 7      -172.907    22577148.080    93604682.762 7      -172.907
R01  19525820.220   104376692.590 7      2744.869    19525820.160   104376692.583 7      2744.869    19525832.420    81181924.024 7      2134.898    19525831.420    81181920.017 7      2134.898
G08  22169099.940   116499399.165 7       118.995    22169099.160   116499399.165 7       118.995    22169108.400    90778783.240 7        92.723    22169109.940    90778787.231 7        92.723
G04  23220237.600   122023182.810 7      5675.874    23220236.260   122023182.812 4      5675.874    23220248.320    95083018.754 4      4422.759    23220248.820    95083049.773 7      4422.759
G21  22249924.140   116924118.221 7      1346.336    22249922.200   116924118.231 5      1346.336    22249926.400    91109712.802 5      1049.093
G17  23358940.100   122752064.766 7      5501.986    23358939.460   122752064.777 5      5501.986    23358945.200    95650984.400 5      4287.262    23358944.020    95650972.394 6      4287.262
R02  20997716.060   112047847.744 7      6303.883    20997716.200   112047847.742 7      6303.883    20997728.960    87148379.514 8      4903.020    20997728.600    87148381.520 8      4903.020
R08  22803110.680   122109619.442 6      -857.992    22803109.360   122109619.473 6      -857.992    22803125.740    94974204.921 7      -667.327    22803125.060    94974202.909 7      -667.327
G03  19951228.280   104844413.614 8      3018.017    19951227.520   104844413.619 8      3018.017    19951233.700    81696967.683 8      2351.702    19951234.380    81696969.686 8      2351.702
R24  20433824.240   109268842.519 7      3323.319    20433823.320   109268842.520 7      3323.319    20433835.320    84986920.463 8      2584.804    20433835.420    84986920.466 8      2584.804
G14  22033652.880   115787627.232 7      2817.144    22033652.340   115787627.242 5      2817.144    22033658.600    90224141.071 5      2195.177    22033658.460    90224149.058 7      2195.177
> 2024 06 03 14 08 15.0000000  0 14
G22  23550659.060   123759551.543 7      4109.380    23550658.120   123759551.558 3      4109.380    23550663.000    96436037.663 3      3202.114
R15  22774483.680   121699926.236 6      2295.601    22774483.100   121699926.237 6      2295.601    22774499.360    94655560.673 7      1785.467    22774498.160    94655556.670 7      1785.467
G02  21700159.720   114035105.258 8      2103.353    21700158.740   114035105.263 6      2103.353    21700160.900    88858529.517 6      1638.977
R14  22577173.160   120349024.291 6      -222.807    22577173.840   120349024.287 6      -222.807    22577190.400    93604850.831 7      -173.294    22577189.720    93604855.834 7      -173.294
R01  19525306.900   104373948.135 7      2743.918    19525306.780   104373948.126 7      2743.918    19525318.740    81179789.436 7      2134.158    19525317.680    81179785.431 7      2134.158
G08  22169077.440   116499280.318 7       118.550    22169076.820   116499280.312 7       118.550    22169085.780    90778690.617 7        92.376    22169087.080    90778694.612 7        92.376
G04  23219157.280   122017507.017 7      5675.628    23219156.240   122017507.017 4      5675.628    23219168.180    95078596.066 4      4422.567    23219168.560    95078627.075 7      4422.567
G21  22249668.020   116922771.941 7      1346.206    22249666.000   116922771.944 5      1346.206    22249670.060    91108663.745 5      1048.991
G17  23357893.580   122746562.718 7      5501.896    23357892.400   122746562.726 5      5501.896    23357898.120    95646697.091 5      4287.192    23357897.300    95646685.077 6      4287.192
R02  20996534.760   112041544.082 8      6303.271    20996534.960   112041544.083 7      6303.271    20996547.540    87143476.673 8      4902.544    20996547.360    87143478.678 8      4902.544
R08  22803270.300   122110477.487 6      -858.410    22803269.900   122110477.511 6      -858.410    22803285.440    94974872.265 7      -667.653    22803284.900    94974870.253 7      -667.653
G03  19950654.060   104841395.918 8      3017.319    19950653.200   104841395.920 8      3017.319    19950659.500    81694616.221 8      2351.158    19950660.200    81694618.228 8      2351.158
R24  20433202.840   109265519.296 8      3323.055    20433201.580   109265519.289 7      3323.055    20433214.120    84984335.722 8      2584.598    20433214.120    84984335.726 8      2584.598
G14  22033117.060   115784810.454 7      2816.375    22033116.340   115784810.464 5      2816.375    22033122.540    90221946.177 5      2194.578    22033122.520    90221954.154 7      2194.578
> 2024 06 03 14 08 16.0000000  0 14
G22  23549876.700   123755442.074 6      4109.234    23549875.960   123755442.089 3      4109.234    23549880.960    96432835.481 3      3202.001
R15  22774053.660   121697630.578 6      2295.368    22774053.640   121697630.590 6      2295.368    22774069.740    94653775.164 7      1785.286    22774068.600    94653771.160 7      1785.286
G02  21699759.420   114033001.544 8      2103.801    21699758.400   114033001.546 6      2103.801    21699760.640    88856890.255 6      1639.325
R14  22577214.880   120349246.845 6      -222.657    22577215.300   120349246.843 6      -222.657    22577232.100    93605023.922 7      -173.177    22577231.400    93605028.936 7      -173.177
R01  19524793.760   104371204.346 7      2743.438    19524792.900   104371204.342 7      2743.438    19524805.180    81177655.382 7      2133.785    19524804.400    81177651.376 7      2133.785
G08  22169054.920   116499161.577 7       118.678    22169054.360   116499161.574 7       118.678    22169063.260    90778598.092 7        92.477    22169064.660    90778602.083 7        92.477
G04  23218077.720   122011831.059 7      5676.019    23218076.360   122011831.061 4      5676.019    23218088.140    95074173.248 4      4422.872    23218088.520    95074204.268 7      4422.872
G21  22249411.520   116921425.396 7      1346.729    22249409.920   116921425.399 5      1346.729    22249413.880    91107614.487 5      1049.399
G17  23356846.560   122741060.410 7      5502.348    23356845.280   122741060.414 5      5502.348    23356851.040    95642409.580 5      4287.544    23356850.740    95642397.576 6      4287.544
R02  20995353.600   112035240.669 8      6303.319    20995353.980   112035240.667 8      6303.319    20995366.560    87138574.026 8      4902.582    20995366.120    87138576.029 8      4902.582
R08  22803431.060   122111335.689 6      -858.275    22803430.900   122111335.738 6      -858.275    22803445.820    94975539.767 7      -667.547    22803445.440    94975537.758 7      -667.547
G03  19950080.000   104838378.537 8      3017.252    19950078.840   104838378.539 8      3017.252    19950085.280    81692265.019 8      2351.105    19950086.040    81692267.024 8      2351.105
R24  20432581.300   109262195.904 7      3323.490    20432579.780   109262195.903 7      3323.490    20432592.880    84981750.866 8      2584.937    20432592.660    84981750.872 8      2584.937
G14  22032580.940   115781994.004 7      2816.279    22032580.160   115781994.014 5      2816.279    22032586.580    90219751.541 5      2194.503    22032586.900    90219759.514 8      2194.503
> 2024 06 03 14 08 17.0000000  0 14
G22  23549094.880   123751333.227 6      4108.395    23549094.000   123751333.243 3      4108.395    23549098.980    96429633.783 3      3201.347
R15  22773624.060   121695335.800 6      2294.286    22773624.480   121695335.820 6      2294.286    22773639.920    94651990.336 7      1784.445    22773639.220    94651986.333 7      1784.445
G02  21699359.080   114030897.995 8      2103.333    21699358.120   114030897.997 6      2103.333    21699360.360    88855251.127 6      1638.961
R14  22577257.280   120349469.862 6      -223.410    22577257.440   120349469.860 6      -223.410    22577273.840    93605197.366 7      -173.763    22577273.300    93605202.381 7      -173.763
R01  19524280.760   104368461.557 7      2742.143    19524279.760   104368461.547 7      2742.143    19524291.840    81175522.103 7      2132.778    19524291.380    81175518.096 7      2132.778
G08  22169032.580   116499043.252 7       118.009    22169031.960   116499043.255 7       118.009    22169040.600    90778505.889 7        91.955    22169041.900    90778509.886 7        91.955
G04  23216997.500   122006155.260 7      5675.594    23216996.280   122006155.265 5      5675.594    23217007.920    95069750.558 5      4422.541    23217008.260    95069781.573 7      4422.541
G21  22249155.320   116920078.972 7      1346.279    22249153.800   116920078.974 5      1346.279    22249157.560    91106565.330 5      1049.049
G17  23355799.660   122735558.316 7      5501.941    23355798.240   122735558.324 5      5501.941    23355804.240    95638122.241 5      4287.227    23355803.560    95638110.225 6      4287.227
R02  20994172.360   112028937.845 8      6302.364    20994172.740   112028937.853 8      6302.364    20994185.440    87133671.848 8      4901.838    20994185.240    87133673.849 8      4901.838
R08  22803591.280   122112194.473 6      -859.120    22803591.580   122112194.521 6      -859.120    22803606.200    94976207.701 7      -668.204    22803605.760    94976205.685 7      -668.204
G03  19949505.920   104835361.902 8      3016.130    19949504.840   104835361.907 8      3016.130    19949511.200    81689914.397 8      2350.231    19949512.120    81689916.399 8      2350.231
R24  20431959.920   109258872.782 8      3322.811    20431958.480   109258872.778 7      3322.811    20431971.300    84979166.211 8      2584.409    20431971.380    84979166.220 8      2584.409
G14  22032045.120   115779178.351 7      2815.151    22032044.200   115779178.364 5      2815.151    22032050.700    90217557.526 5      2193.625    22032051.260    90217565.497 8      2193.625
> 2024 06 03 14 08 18.0000000  0 14
G22  23548313.560   123747225.051 6      4107.934    23548312.040   123747225.066 3      4107.934    23548317.180    96426432.606 3      3200.988
R15  22773194.600   121693041.908 6      2293.557    22773195.940   121693041.955 6      2293.557    22773210.000    94650206.215 7      1783.878    22773209.900    94650202.213 7      1783.878
G02  21698958.900   114028794.651 7      2103.398    21698957.900   114028794.654 6      2103.398    21698960.380    88853612.159 6      1639.011
R14  22577299.480   120349693.333 6      -223.622    22577298.360   120349693.326 6      -223.622    22577315.960    93605371.161 7      -173.928    22577315.140    93605376.171 7      -173.928
R01  19523767.680   104365719.831 7      2741.280    19523766.920   104365719.822 7      2741.280    19523779.160    81173389.648 7      2132.107    19523778.040    81173385.638 7      2132.107
G08  22169010.240   116498925.424 7       117.665    22169009.700   116498925.432 7       117.665    22169018.240    90778414.073 7        91.687    22169019.600    90778418.065 7        91.687
G04  23215917.680   122000479.662 7      5675.581    23215916.360   122000479.664 5      5675.581    23215927.860    95065328.022 5      4422.531    23215928.840    95065359.040 7      4422.531
G21  22248899.480   116918732.703 7      1346.366    22248897.620   116918732.708 5      1346.366    22248901.420    91105516.289 5      1049.116
G17  23354752.660   122730056.441 7      5501.931    23354751.060   122730056.446 5      5501.931    23354757.560    95633835.070 5      4287.219    23354756.620    95633823.052 6      4287.219
R02  20992991.500   112022635.605 8      6302.011    20992991.540   112022635.606 7      6302.011    20993004.320    87128770.110 8      4901.564    20993004.360    87128772.114 8      4901.564
R08  22803752.360   122113053.903 6      -859.560    22803752.760   122113053.948 6      -859.560    22803766.480    94976876.136 7      -668.547    22803766.240    94976874.128 7      -668.547
G03  19948931.920   104832345.979 8      3015.688    19948930.940   104832345.987 8      3015.688    19948937.240    81687564.327 8      2349.886    19948938.220    81687566.330 8      2349.886
R24  20431338.420   109255549.957 7      3322.802    20431337.540   109255549.948 7      3322.802    20431350.100    84976581.788 8      2584.401    20431349.900    84976581.793 8      2584.401
G14  22031509.420   115776363.473 7      2814.601    22031508.640   115776363.486 6      2814.601    22031515.080    90215364.108 6      2193.195    22031515.760    90215372.081 8      2193.195
> 2024 06 03 14 08 19.0000000  0 14
G22  23547531.760   123743117.476 6      4107.612    23547530.160   123743117.491 3      4107.612    23547535.540    96423231.898 3      3200.737
R15  22772765.160   121690748.917 6      2292.797    22772767.980   121690748.964 6      2292.797    22772780.720    94648422.770 7      1783.287    22772780.820    94648418.768 7      1783.287
G02  21698558.740   114026691.442 7      2103.169    21698557.480   114026691.447 6      2103.169    21698560.040    88851973.293 6      1638.833
R14  22577341.160   120349917.270 6      -224.089    22577338.860   120349917.262 6      -224.089    22577357.960    93605545.314 7      -174.292    22577357.040    93605550.317 7      -174.292
R01  19523254.980   104362979.083 7      2740.394    19523254.680   104362979.074 7      2740.394    19523266.500    81171257.957 7      2131.417    19523265.420    81171253.948 7      2131.417
G08  22168987.800   116498808.032 7       117.231    22168987.280   116498808.034 7       117.231    22168996.100    90778322.592 7        91.349    22168997.340    90778326.585 7        91.349
G04  23214837.540   121994804.284 7      5675.286    23214836.340   121994804.286 5      5675.286    23214847.620    95060905.654 5      4422.301    23214848.420    95060936.676 7      4422.301
G21  22248643.040   116917386.510 7      1346.107    22248641.520   116917386.515 5      1346.107    22248645.360    91104467.305 5      1048.914
G17  23353705.680   122724554.677 7      5501.888    23353704.100   122724554.682 5      5501.888    23353710.580    95629547.980 5      4287.185    23353709.300    95629535.975 6      4287.185
R02  20991810.540   112016333.949 7      6301.392    20991810.140   112016333.948 7      6301.392    20991823.080    87123868.827 8      4901.082    20991823.160    87123870.830 8      4901.082
R08  22803912.780   122113913.773 6      -859.951    22803911.500   122113913.822 6      -859.951    22803927.040    94977544.931 7      -668.851    22803927.020    94977542.917 7      -668.851
G03  19948357.940   104829330.766 8      3014.985    19948357.560   104829330.766 8      3014.985    19948363.420    81685214.808 8      2349.339    19948364.680    81685216.811 8      2349.339
R24  20430717.380   109252227.341 7      3322.579    20430716.360   109252227.345 7      3322.579    20430728.720    84973997.541 8      2584.228    20430728.340    84973997.546 8      2584.228
G14  22030973.940   115773549.344 7      2813.868    22030973.320   115773549.356 5      2813.868    22030979.440    90213171.278 5      2192.624    22030980.120    90213179.255 8      2192.624
> 2024 06 03 14 08 20.0000000  0 14
G22  23546749.960   123739010.156 6      4106.994    23546748.520   123739010.166 3      4106.994    23546753.760    96420031.387 3      3200.255
R15  22772336.320   121688456.421 6      2291.814    22772337.580   121688456.462 6      2291.814    22772352.740    94646639.714 7      1782.522    22772351.880    94646635.719 7      1782.522
G02  21698158.480   114024588.140 7      2103.255    21698157.200   114024588.148 6      2103.255    21698159.800    88850334.354 6      1638.900
R14  22577383.080   120350141.281 6      -224.462    22577381.780   120350141.274 6      -224.462    22577400.120    93605719.543 7      -174.581    22577399.000    93605724.549 7      -174.581
R01  19522742.140   104360239.231 7      2739.350    19522741.600   104360239.227 7      2739.350    19522754.060    81169126.970 7      2130.606    19522752.720    81169122.960 7      2130.606
G08  22168965.720   116498690.994 7       116.988    22168965.020   116498690.989 7       116.988    22168973.740    90778231.382 7        91.160    22168975.100    90778235.372 7        91.160
G04  23213757.180   121989128.938 7      5675.323    23213756.300   121989128.940 5      5675.323    23213767.640    95056483.314 5      4422.330    23213768.680    95056514.328 7      4422.330
G21  22248386.940   116916040.246 7      1346.225    22248385.420   116916040.248 5      1346.225    22248389.140    91103418.262 5      1049.007
G17  23352658.380   122719052.715 7      5501.656    23352657.120   122719052.725 5      5501.656    23352663.700    95625260.742 5      4287.005    23352662.140    95625248.738 6      4287.005
R02  20990629.700   112010032.684 7      6301.033    20990630.380   112010032.676 7      6301.033    20990642.240    87118967.842 8      4900.803    20990642.160    87118969.839 8      4900.803
R08  22804072.580   122114774.054 6      -860.633    22804073.660   122114774.104 6      -860.633    22804088.160    94978214.037 7      -669.381    22804087.500    94978212.025 7      -669.381
G03  19947784.460   104826316.000 8      3014.320    19947783.460   104826316.002 8      3014.320    19947789.700    81682865.642 8      2348.821    19947790.820    81682867.646 8      2348.821
R24  20430095.880   109248904.757 7      3322.384    20430095.060   109248904.758 7      3322.384    20430107.120    84971413.303 8      2584.077    20430106.840    84971413.307 8      2584.077
G14  22030438.460   115770735.587 7      2813.129    22030437.820   115770735.603 6      2813.129    22030444.140    90210978.739 6      2192.049    22030444.660    90210986.716 8      2192.049
> 2024 06 03 14 08 21.0000000  0 14
G22  23545968.200   123734903.170 6      4106.798    23545966.780   123734903.177 3      4106.798    23545972.120    96416831.138 3      3200.102
R15  22771907.240   121686164.504 6      2291.528    22771908.620   121686164.542 6      2291.528    22771923.920    94644857.108 7      1782.299    22771923.060    94644853.111 7      1782.299
G02  21697758.020   114022484.665 8      2103.552    21697756.920   114022484.673 6      2103.552    21697759.520    88848695.283 6      1639.131
R14  22577425.240   120350365.304 6      -223.925    22577423.520   120350365.304 6      -223.925    22577442.460    93605893.768 7      -174.164    22577441.040    93605898.780 7      -174.164
R01  19522229.740   104357499.970 7      2738.860    19522228.940   104357499.963 7      2738.860    19522241.560    81166996.429 7      2130.224    19522240.280    81166992.423 7      2130.224
G08  22168943.260   116498573.928 7       117.034    22168942.660   116498573.927 7       117.034    22168951.440    90778140.157 7        91.196    22168952.540    90778144.152 7        91.196
G04  23212677.240   121983453.271 7      5675.812    23212676.260   121983453.273 5      5675.812    23212687.660    95052060.723 5      4422.711    23212688.980    95052091.749 7      4422.711
G21  22248130.680   116914693.712 7      1346.608    22248129.220   116914693.711 5      1346.608    22248132.820    91102369.012 5      1049.305
G17  23351611.320   122713550.619 7      5502.280    23351610.180   122713550.630 5      5502.280    23351616.560    95620973.394 5      4287.491    23351615.360    95620961.391 6      4287.491
R02  20989449.040   112003731.519 8      6301.069    20989449.460   112003731.520 7      6301.069    20989461.360    87114066.949 8      4900.832    20989461.320    87114068.946 8      4900.832
R08  22804232.860   122115634.504 6      -860.652    22804234.360   122115634.546 6      -860.652    22804248.840    94978883.270 7      -669.396    22804248.460    94978881.254 7      -669.396
G03  19947210.720   104823301.533 8      3014.388    19947209.880   104823301.532 8      3014.388    19947216.020    81680516.704 8      2348.874    19947217.240    81680518.709 8      2348.874
R24  20429474.580   109245582.068 7      3322.734    20429474.240   109245582.070 7      3322.734    20429485.480    84968828.987 8      2584.349    20429485.520    84968828.994 7      2584.349
G14  22029903.180   115767922.231 7      2813.260    22029902.240   115767922.246 5      2813.260    22029908.760    90208786.513 6      2192.150    22029909.380    90208794.489 8      2192.150
> 2024 06 03 14 08 22.0000000  0 14
G22  23545186.760   123730796.648 6      4106.141    23545185.140   123730796.656 3      4106.141    23545190.720    96413631.250 3      3199.590
R15  22771478.720   121683873.258 6      2290.763    22771480.620   121683873.291 6      2290.763    22771494.700    94643075.003 7      1781.704    22771494.200    94643071.003 7      1781.704
G02  21697357.580   114020381.253 8      2103.209    21697356.620   114020381.255 6      2103.209    21697359.200    88847056.258 6      1638.864
R14  22577467.480   120350589.616 6      -224.555    22577464.760   120350589.609 6      -224.555    22577484.160    93606068.215 7      -174.654    22577483.320    93606073.222 7      -174.654
R01  19521717.400   104354761.591 7      2737.757    19521716.820   104354761.581 7      2737.757    19521729.260    81164866.580 7      2129.366    19521727.960    81164862.571 7      2129.366
G08  22168920.980   116498457.135 7       116.526    22168920.460   116498457.134 7       116.526    22168929.260    90778049.143 7        90.799    22168930.380    90778053.132 7        90.799
G04  23211597.280   121977777.583 7      5675.548    23211596.260   121977777.585 5      5675.548    23211607.440    95047638.117 5      4422.505    23211608.800    95047669.144 7      4422.505
G21  22247874.520   116913347.190 7      1346.416    22247872.980   116913347.193 5      1346.416    22247876.680    91101319.773 5      1049.156
G17  23350564.460   122708048.592 7      5501.926    23350563.100   122708048.602 5      5501.926    23350569.460    95616686.106 5      4287.215    23350568.400    95616674.107 6      4287.215
R02  20988268.380   111997430.683 8      6300.432    20988268.780   111997430.689 7      6300.432    20988280.460    87109166.311 8      4900.336    20988280.740    87109168.310 8      4900.336
R08  22804394.000   122116495.455 6      -861.233    22804394.980   122116495.492 6      -861.233    22804409.700    94979552.879 7      -669.848    22804409.460    94979550.862 7      -669.848
G03  19946637.120   104820287.652 8      3013.447    19946636.520   104820287.656 8      3013.447    19946642.480    81678168.230 8      2348.140    19946643.740    81678170.234 8      2348.140
R24  20428853.660   109242259.543 7      3322.319    20428852.820   109242259.544 7      3322.319    20428864.560    84966244.803 7      2584.026    20428864.080    84966244.812 7      2584.026
G14  22029367.780   115765109.497 7      2812.345    22029366.780   115765109.515 5      2812.345    22029373.500    90206594.772 5      2191.438    22029374.480    90206602.745 7      2191.438
