     3.05           OBSERVATION DATA    MIXED               RINEX VERSION / TYPE
TPS2RIN 1.0.28.3459 TB                  20241016 133434 UTC PGM / RUN BY / DATE
Win64 build Jun 01, 2022 (c) Topcon Positioning Systems     COMMENT
Insert your comment here                                    COMMENT
SRC: 20241007_GUI33.tps                                     COMMENT
OPT: -v 3.05 -S                                             COMMENT
OPT: -p \Users\Thomas\Travaux\Projets\Volcano\Software\GPS\TCOMMENT
TB                  CSIC                                    OBSERVER / AGENCY
O0M3X53SBGM         TPS HIPER_SR        4.8 HSR Jul,08,2022 REC # / TYPE / VERS
FW: 4.8 HSR Jul,08,2022 p3                                  COMMENT
SN: HiPer SR 1212-12575                                     COMMENT
0001                TPSHIPER_SR                             ANT # / TYPE
        1.8000        0.0000        0.0000                  ANTENNA: DELTA H/E/N
GUI                                                         MARKER NAME
000                                                         MARKER NUMBER
GEODETIC                                                    MARKER TYPE
  5389909.1460 -1595252.1487  3008199.7272                  APPROX POSITION XYZ
  2024    10     7    12     0   34.0000000     GPS         TIME OF FIRST OBS
  2024    10     7    12    15   33.0000000     GPS         TIME OF LAST OBS
     1.000                                                  INTERVAL
   900 EPOCHS                                               COMMENT
G   16 C1C L1C D1C S1C C1W L1W D1W S1W C2W L2W D2W S2W C2X  SYS / # / OBS TYPES
       L2X D2X S2X                                          SYS / # / OBS TYPES
R   16 C1C L1C D1C S1C C1P L1P D1P S1P C2P L2P D2P S2P C2C  SYS / # / OBS TYPES
       L2C D2C S2C                                          SYS / # / OBS TYPES
    15                                                      # OF SATELLITES
   G05   900   900   900   900   900   900   900   900   900PRN / # OF OBS
         900   900   900   900   900   900   900            PRN / # OF OBS
   G06   900   900   900   900   900   900   900   900   900PRN / # OF OBS
         900   900   900   900   900   900   900            PRN / # OF OBS
   G07   900   900   900   900   900   900   900   900   900PRN / # OF OBS
         900   900   900   900   900   900   900            PRN / # OF OBS
   G11   900   900   900   900   900   900   900   900   900PRN / # OF OBS
         900   900   900   900   900   900   900            PRN / # OF OBS
   G13   900   900   900   900   900   900   900   900   900PRN / # OF OBS
         900   900   900     0     0     0     0            PRN / # OF OBS
   G14   333   333   333   333   289   289   289   289   286PRN / # OF OBS
         286   286   286   253   253   253   253            PRN / # OF OBS
   G20   900   900   900   900   900   900   900   900   900PRN / # OF OBS
         900   900   900     0     0     0     0            PRN / # OF OBS
   G22   900   900   900   900   900   900   900   900   900PRN / # OF OBS
         900   900   900     0     0     0     0            PRN / # OF OBS
   G30   900   900   900   900   900   900   900   900   900PRN / # OF OBS
         900   900   900   900   900   900   900            PRN / # OF OBS
   R02   900   900   900   900   900   900   900   900   900PRN / # OF OBS
         900   900   900   900   900   900   900            PRN / # OF OBS
   R03   900   900   900   900   900   900   900   900   900PRN / # OF OBS
         900   900   900   900   900   900   900            PRN / # OF OBS
   R12   900   900   900   900   900   900   900   900   900PRN / # OF OBS
         900   900   900   900   900   900   900            PRN / # OF OBS
   R13   900   900   900   900   900   900   900   900     0PRN / # OF OBS
           0     0     0     0     0     0     0            PRN / # OF OBS
   R17   900   900   900   900   900   900   900   900   900PRN / # OF OBS
         900   900   900   900   900   900   900            PRN / # OF OBS
   R18   900   900   900   900   900   900   900   900   900PRN / # OF OBS
         900   900   900   900   900   900   900            PRN / # OF OBS
G L1C                                                       SYS / PHASE SHIFT
G L1W -0.25000                                              SYS / PHASE SHIFT
G L2W  0.00000                                              SYS / PHASE SHIFT
G L2X  0.25000                                              SYS / PHASE SHIFT
R L1C                                                       SYS / PHASE SHIFT
R L1P -0.25000                                              SYS / PHASE SHIFT
R L2P -0.25000                                              SYS / PHASE SHIFT
R L2C                                                       SYS / PHASE SHIFT
  6 R02 -4 R03  5 R12 -1 R13 -2 R17  4 R18 -3               GLONASS SLOT / FRQ #
                                                            GLONASS COD/PHS/BIS
               *** Undefined LeapSeconds ***                COMMENT
                                                            END OF HEADER
> 2024 10 07 12 00 34.0000000  0 14
G11  20842062.100   109525770.171 7      1679.872          47.250    20842060.540   109525770.166 6      1679.872          39.812    20842069.140    85344777.244 6      1308.991          39.000    20842069.680    85344799.238 8      1308.991          52.187
G13  21290235.760   111880943.990 7      4036.843          47.937    21290235.680   111880944.003 6      4036.843          36.812    21290243.320    87179982.282 6      3145.592          36.875
G20  20526104.580   107865404.425 7      3953.144          47.625    20526102.960   107865404.430 6      3953.144          41.250    20526110.400    84050983.219 6      3080.372          41.187
R03  21593250.540   115590346.789 7      3833.903          44.937    21593250.560   115590346.820 7      3833.903          45.125    21593264.860    89903675.165 7      2981.924          46.625    21593264.520    89903676.163 7      2981.924          45.312
R02  21066344.560   112414046.773 8      1973.788          48.750    21066344.640   112414046.779 7      1973.788          47.250    21066358.220    87433207.082 8      1535.168          49.375    21066358.800    87433208.081 8      1535.168          49.625
R18  21081691.860   112535495.260 7      3523.040          46.687    21081691.500   112535495.261 7      3523.040          46.687    21081704.800    87527670.689 8      2740.142          48.312    21081704.740    87527667.695 8      2740.142          48.187
G30  21098744.680   110874649.991 8      1764.033          48.312    21098743.100   110874649.996 8      1764.033          49.250    21098754.820    86395871.447 8      1374.571          49.500    21098755.600    86395874.446 8      1374.571          50.250
G06  22622564.720   118882372.445 7      -617.065          45.125    22622564.600   118882372.444 7      -617.065          44.687    22622582.700    92635686.070 7      -480.830          44.812    22622583.540    92635691.077 7      -480.830          47.875
R13  21610119.280   115396809.580 6      6072.497          40.687    21610118.300   115396809.607 6      6072.497          40.375
G22  24674888.720   129667415.693 6      5018.950          41.312    24674887.460   129667415.695 3      5018.950          22.250    24674917.160   101039546.995 3      3910.870          22.312
R12  21209061.900   113295009.469 7      3301.517          46.625    21209062.600   113295009.478 7      3301.517          47.187    21209079.160    88118410.572 8      2567.847          48.562    21209080.020    88118411.576 8      2567.847          48.875
R17  20712645.680   110837556.391 7        26.740          46.750    20712647.040   110837556.401 7        26.740          46.437    20712663.300    86207053.977 8        20.798          50.437    20712663.380    86207052.976 8        20.798          50.500
G05  22083127.720   116047633.181 7      5114.953          43.687    22083126.140   116047633.186 7      5114.953          43.437    22083136.020    90426746.592 7      3985.678          43.375    22083136.720    90426756.602 7      3985.678          46.812
G07  23162639.080   121720482.249 7       245.330          44.437    23162638.420   121720482.257 6       245.330          41.937    23162650.160    94847152.839 6       191.166          41.812    23162650.720    94847187.848 7       191.166          46.000
> 2024 10 07 12 00 35.0000000  0 14
G11  20841742.440   109524090.552 7      1679.502          46.437    20841740.840   109524090.551 6      1679.502          39.812    20841749.660    85343468.444 6      1308.703          39.312    20841750.100    85343490.437 8      1308.703          52.812
G13  21289467.620   111876907.340 7      4036.601          47.875    21289467.360   111876907.352 6      4036.601          37.375    21289475.340    87176836.841 6      3145.403          37.375
G20  20525352.400   107861451.498 8      3952.836          48.562    20525350.760   107861451.503 6      3952.836          41.375    20525358.200    84047903.016 6      3080.132          41.250
R03  21592534.360   115586512.909 7      3833.984          45.750    21592534.120   115586512.940 7      3833.984          45.187    21592548.740    89900693.261 7      2981.988          46.125    21592548.720    89900694.262 7      2981.988          46.625
R02  21065974.760   112412072.963 8      1973.901          49.062    21065975.280   112412072.964 7      1973.901          47.812    21065988.060    87431671.887 8      1535.256          49.000    21065988.700    87431672.884 8      1535.256          48.937
R18  21081031.660   112531972.669 7      3522.281          47.187    21081031.740   112531972.675 7      3522.281          46.687    21081044.420    87524930.898 8      2739.552          48.312    21081044.700    87524927.897 8      2739.552          48.500
G30  21098409.140   110872886.199 8      1763.603          49.250    21098407.440   110872886.206 8      1763.603          49.250    21098419.140    86394497.065 8      1374.236          49.125    21098419.860    86394500.065 8      1374.236          50.375
G06  22622682.240   118882989.643 7      -617.254          45.187    22622681.960   118882989.640 7      -617.254          44.875    22622700.060    92636166.980 7      -480.977          45.000    22622700.700    92636171.980 8      -480.977          48.312
R13  21608982.040   115390737.179 6      6072.349          41.500    21608981.200   115390737.207 6      6072.349          40.250
G22  24673933.840   129662396.793 6      5018.887          41.000    24673932.600   129662396.790 3      5018.887          22.250    24673961.840   101035636.162 3      3910.821          22.312
R12  21208444.020   113291708.280 7      3300.904          47.750    21208444.680   113291708.283 7      3300.904          47.687    21208461.560    88115842.995 8      2567.370          48.500    21208461.980    88115843.995 8      2567.370          48.750
R17  20712640.960   110837529.970 7        26.197          46.937    20712641.960   110837529.987 7        26.197          46.687    20712658.460    86207033.421 8        20.376          49.812    20712658.440    86207032.420 8        20.376          50.625
G05  22082154.340   116042518.239 7      5115.016          44.562    22082152.800   116042518.247 7      5115.016          43.312    22082162.520    90422760.929 7      3985.727          43.187    22082163.360    90422770.935 7      3985.727          47.250
G07  23162592.580   121720237.005 7       245.172          44.125    23162591.480   121720237.012 7       245.172          42.125    23162603.680    94846961.737 6       191.043          41.750    23162604.540    94846996.752 7       191.043          46.312
> 2024 10 07 12 00 36.0000000  0 14
G11  20841422.840   109522411.494 7      1678.593          45.875    20841421.420   109522411.491 6      1678.593          39.687    20841430.160    85342160.083 6      1307.995          39.562    20841430.640    85342182.077 8      1307.995          53.000
G13  21288699.440   111872870.923 8      4036.049          48.625    21288699.280   111872870.936 6      4036.049          36.750    21288707.320    87173691.583 6      3144.974          37.187
G20  20524600.460   107857498.803 7      3952.291          47.812    20524598.500   107857498.810 6      3952.291          41.312    20524605.980    84044822.990 6      3079.708          40.687
R03  21591818.100   115582678.991 7      3833.692          45.000    21591818.560   115582679.014 7      3833.692          44.687    21591832.040    89897711.310 7      2981.761          46.500    21591832.540    89897712.308 7      2981.761          45.937
R02  21065605.320   112410099.050 8      1973.694          49.375    21065605.700   112410099.053 7      1973.694          47.500    21065618.500    87430136.621 8      1535.095          48.937    21065618.580    87430137.620 8      1535.095          49.000
R18  21080371.920   112528450.828 7      3521.135          46.187    21080372.300   112528450.850 7      3521.135          47.125    21080385.080    87522191.697 8      2738.660          48.062    21080385.060    87522188.694 8      2738.660          48.250
G30  21098073.520   110871122.866 8      1762.803          48.687    21098071.820   110871122.876 8      1762.803          49.875    21098083.680    86393123.036 8      1373.613          49.625    21098084.360    86393126.036 8      1373.613          49.625
G06  22622799.940   118883607.010 7      -617.756          44.875    22622799.320   118883607.005 7      -617.756          44.875    22622817.660    92636648.031 7      -481.369          44.812    22622818.260    92636653.031 8      -481.369          48.062
R13  21607845.260   115384665.075 6      6071.706          41.500    21607843.660   115384665.100 6      6071.706          40.250
G22  24672978.960   129657377.600 6      5018.932          40.750    24672977.420   129657377.600 3      5018.932          22.250    24673006.560   101031725.095 3      3910.856          22.312
R12  21207826.200   113288407.825 7      3299.782          47.187    21207826.860   113288407.832 7      3299.782          47.125    21207843.540    88113275.973 8      2566.497          48.812    21207844.280    88113276.973 8      2566.497          49.062
R17  20712636.060   110837504.065 7        25.412          47.625    20712637.320   110837504.085 7        25.412          47.250    20712653.420    86207013.264 8        19.765          49.875    20712653.420    86207012.263 8        19.765          50.437
G05  22081181.280   116037403.327 7      5114.609          43.625    22081179.500   116037403.337 7      5114.609          43.187    22081188.980    90418775.285 7      3985.410          42.937    22081190.240    90418785.291 7      3985.410          46.625
G07  23162546.080   121719991.981 7       244.621          44.500    23162544.840   121719991.986 7       244.621          42.750    23162557.160    94846770.803 7       190.614          42.250    23162557.920    94846805.816 7       190.614          46.187
> 2024 10 07 12 00 37.0000000  0 14
G11  20841103.560   109520733.170 7      1677.879          46.687    20841101.800   109520733.170 6      1677.879          39.687    20841110.660    85340852.298 6      1307.438          39.375    20841111.220    85340874.293 8      1307.438          53.000
G13  21287931.440   111868834.972 8      4035.610          48.187    21287931.180   111868834.985 6      4035.610          37.062    21287939.320    87170546.696 6      3144.631          37.062
G20  20523848.020   107853546.561 7      3951.917          47.812    20523846.580   107853546.566 6      3951.917          41.562    20523853.900    84041743.319 6      3079.416          41.312
R03  21591102.300   115578845.202 7      3833.642          45.375    21591102.680   115578845.230 7      3833.642          45.312    21591115.640    89894729.474 7      2981.721          46.375    21591116.180    89894730.474 7      2981.721          46.125
R02  21065234.900   112408125.259 8      1973.612          49.125    21065236.340   112408125.263 7      1973.612          47.687    21065248.380    87428601.450 8      1535.031          48.812    21065249.020    87428602.451 8      1535.031          49.125
R18  21079712.460   112524930.015 7      3520.213          47.437    21079712.660   112524930.026 7      3520.213          46.750    21079725.520    87519453.280 8      2737.943          48.375    21079725.700    87519450.281 8      2737.943          48.000
G30  21097738.160   110869360.204 8      1762.226          49.000    21097736.400   110869360.209 8      1762.226          49.625    21097748.120    86391749.527 8      1373.163          49.437    21097748.580    86391752.524 8      1373.163          49.625
G06  22622917.340   118884224.745 7      -618.043          44.687    22622916.720   118884224.742 7      -618.043          44.812    22622935.200    92637129.372 7      -481.592          44.750    22622935.900    92637134.374 8      -481.592          48.125
R13  21606707.840   115378593.476 6      6071.270          40.437    21606706.340   115378593.501 6      6071.270          40.250
G22  24672023.940   129652358.369 6      5019.270          41.562    24672022.280   129652358.369 3      5019.270          22.375    24672051.360   101027813.995 3      3911.119          22.312
R12  21207208.360   113285108.308 8      3299.033          48.250    21207209.340   113285108.315 7      3299.033          47.937    21207226.120    88110709.675 8      2565.914          48.687    21207226.600    88110710.675 8      2565.914          49.062
R17  20712631.560   110837478.922 7        24.674          46.875    20712632.560   110837478.934 7        24.674          46.250    20712648.760    86206993.694 8        19.191          50.375    20712648.800    86206992.695 8        19.191          51.062
G05  22080207.840   116032288.637 7      5114.448          43.500    22080206.100   116032288.647 7      5114.448          43.000    22080215.580    90414789.817 7      3985.284          42.750    22080216.380    90414799.833 7      3985.284          46.312
G07  23162499.400   121719747.364 7       244.322          44.312    23162498.580   121719747.366 7       244.322          42.687    23162510.540    94846580.183 7       190.380          42.375    23162511.100    94846615.192 7       190.380          46.062
> 2024 10 07 12 00 38.0000000  0 14
G11  20840784.580   109519055.198 7      1677.844          46.375    20840782.360   109519055.197 6      1677.844          39.937    20840791.420    85339544.783 6      1307.411          39.062    20840791.900    85339566.774 8      1307.411          52.812
G13  21287163.600   111864799.060 8      4035.932          48.437    21287162.860   111864799.070 6      4035.932          36.750    21287171.340    87167401.834 6      3144.882          36.562
G20  20523096.160   107849594.370 7      3952.176          46.750    20523094.180   107849594.380 6      3952.176          41.500    20523101.740    84038663.691 6      3079.618          41.125
R03  21590385.820   115575011.151 7      3834.259          47.125    21590387.000   115575011.182 7      3834.259          45.250    21590400.000    89891747.432 7      2982.202          45.875    21590400.000    89891748.430 7      2982.202          45.625
R02  21064864.800   112406151.170 8      1974.319          49.937    21064866.060   112406151.171 7      1974.319          47.875    21064878.600    87427066.037 8      1535.581          49.250    21064878.940    87427067.042 8      1535.581          49.125
R18  21079052.920   112521409.778 7      3519.972          47.750    21079052.620   112521409.792 7      3519.972          47.125    21079066.000    87516715.320 8      2737.756          48.875    21079066.260    87516712.326 8      2737.756          48.250
G30  21097402.720   110867597.804 8      1762.310          49.312    21097401.000   110867597.812 8      1762.310          49.187    21097412.820    86390376.228 8      1373.229          49.375    21097413.260    86390379.226 8      1373.229          49.500
G06  22623035.160   118884842.459 7      -617.642          44.750    22623034.540   118884842.450 7      -617.642          44.937    22623052.660    92637610.691 7      -481.280          44.375    22623053.200    92637615.695 7      -481.280          47.937
R13  21605570.940   115372521.959 6      6071.581          40.437    21605569.380   115372521.971 6      6071.581          40.187
G22  24671068.360   129647338.746 6      5019.899          41.187    24671066.960   129647338.746 3      5019.899          22.375    24671096.040   101023902.594 3      3911.610          22.312
R12  21206591.000   113281809.328 8      3298.879          48.437    21206591.780   113281809.329 8      3298.879          48.000    21206608.400    88108143.806 8      2565.795          49.250    21206609.040    88108144.806 8      2565.795          48.687
R17  20712626.940   110837454.143 7        24.688          47.187    20712628.120   110837454.147 7        24.688          46.687    20712644.360    86206974.403 8        19.202          50.125    20712644.220    86206973.402 8        19.202          50.625
G05  22079234.200   116027173.780 7      5114.907          44.375    22079232.760   116027173.787 7      5114.907          43.312    22079242.080    90410804.214 7      3985.642          43.250    22079242.360    90410814.220 7      3985.642          46.125
G07  23162453.100   121719502.766 7       244.652          45.437    23162452.060   121719502.768 7       244.652          42.937    23162464.340    94846389.580 7       190.638          42.687    23162464.820    94846424.592 7       190.638          46.187
> 2024 10 07 12 00 39.0000000  0 14
G11  20840465.160   109517377.961 7      1676.947          45.875    20840463.040   109517377.953 6      1676.947          39.937    20840472.040    85338237.833 6      1306.712          39.312    20840472.820    85338259.827 8      1306.712          52.312
G13  21286395.580   111860763.608 7      4035.287          47.562    21286394.940   111860763.618 6      4035.287          36.750    21286403.560    87164257.326 6      3144.380          37.062
G20  20522343.920   107845642.623 7      3951.544          47.562    20522342.240   107845642.636 6      3951.544          41.000    20522349.760    84035584.406 6      3079.125          40.500
R03  21589669.820   115571177.263 7      3833.826          46.500    21589670.540   115571177.296 7      3833.826          45.187    21589684.000    89888765.520 7      2981.864          46.125    21589684.120    89888766.521 7      2981.864          46.687
R02  21064494.840   112404177.233 8      1973.876          49.687    21064495.940   112404177.233 7      1973.876          47.812    21064508.820    87425530.752 8      1535.237          49.125    21064509.200    87425531.756 8      1535.237          48.437
R18  21078393.260   112517890.507 7      3518.763          47.812    21078393.900   112517890.519 7      3518.763          46.750    21078406.800    87513978.108 8      2736.816          48.437    21078406.860    87513975.109 7      2736.816          47.875
G30  21097067.500   110865836.069 8      1761.371          48.875    21097065.800   110865836.077 8      1761.371          49.125    21097077.580    86389003.446 8      1372.497          49.437    21097078.420    86389006.445 8      1372.497          50.125
G06  22623152.440   118885460.548 7      -618.188          45.187    22623152.160   118885460.540 7      -618.188          44.937    22623170.380    92638092.290 7      -481.705          45.000    22623171.140    92638097.295 8      -481.705          48.000
R13  21604434.120   115366450.937 6      6070.867          40.250    21604432.620   115366450.935 6      6070.867          40.187
G22  24670113.320   129642319.078 6      5019.587          41.187    24670111.600   129642319.075 3      5019.587          22.375    24670140.940   101019991.157 3      3911.367          22.312
R12  21205973.600   113278511.280 7      3297.652          47.687    21205974.480   113278511.284 7      3297.652          47.375    21205990.880    88105578.660 8      2564.841          48.625    21205991.540    88105579.660 8      2564.841          48.875
R17  20712622.460   110837430.124 7        23.655          47.687    20712623.120   110837430.129 7        23.655          46.625    20712639.580    86206955.711 8        18.398          49.750    20712639.640    86206954.713 8        18.398          50.687
G05  22078260.840   116022059.130 7      5114.611          43.500    22078259.340   116022059.138 7      5114.611          42.625    22078268.620    90406818.779 7      3985.411          42.625    22078269.260    90406828.789 7      3985.411          46.562
G07  23162406.540   121719258.572 7       244.057          45.375    23162405.580   121719258.574 7       244.057          42.937    23162417.720    94846199.296 7       190.175          42.687    23162418.380    94846234.307 7       190.175          46.250
> 2024 10 07 12 00 40.0000000  0 14
G11  20840146.320   109515701.345 7      1676.238          45.937    20840144.140   109515701.344 6      1676.238          39.562    20840153.120    85336931.377 6      1306.160          38.875    20840153.760    85336953.370 8      1306.160          52.500
G13  21285627.680   111856728.487 7      4034.859          47.562    21285627.080   111856728.497 6      4034.859          36.812    21285635.900    87161113.071 6      3144.046          36.937
G20  20521592.020   107841691.215 7      3951.174          47.750    20521590.380   107841691.222 6      3951.174          41.125    20521597.900    84032505.382 6      3078.837          40.812
R03  21588953.860   115567343.425 7      3833.621          46.000    21588953.800   115567343.457 7      3833.621          44.875    21588967.880    89885783.644 7      2981.705          46.437    21588967.940    89885784.646 7      2981.705          46.375
R02  21064125.020   112402203.317 8      1973.840          48.875    21064125.960   112402203.318 8      1973.840          48.062    21064138.640    87423995.482 8      1535.209          48.375    21064139.320    87423996.488 8      1535.209          49.000
R18  21077734.300   112514372.072 7      3517.919          46.125    21077734.540   112514372.081 7      3517.919          46.312    21077747.600    87511241.543 7      2736.160          47.812    21077747.680    87511238.540 7      2736.160          47.562
G30  21096732.200   110864074.860 8      1760.864          48.375    21096730.740   110864074.867 8      1760.864          49.062    21096742.420    86387631.077 8      1372.102          49.000    21096743.180    86387634.078 8      1372.102          50.062
G06  22623269.920   118886078.884 7      -618.498          44.562    22623269.620   118886078.879 7      -618.498          44.125    22623288.040    92638574.099 7      -481.946          43.875    22623288.560    92638579.095 7      -481.946          47.875
R13  21603297.160   115360380.251 6      6070.396          40.250    21603295.740   115360380.262 6      6070.396          40.187
G22  24669157.960   129637299.232 6      5019.911          41.750    24669156.400   129637299.234 3      5019.911          22.375    24669185.780   101016079.582 3      3911.619          22.937
R12  21205356.300   113275213.999 7      3296.784          47.500    21205357.280   113275214.002 7      3296.784          47.625    21205373.920    88103014.112 8      2564.166          48.062    21205374.180    88103015.107 8      2564.166          48.687
R17  20712618.000   110837406.667 7        22.989          47.937    20712618.520   110837406.682 7        22.989          46.312    20712635.300    86206937.469 8        17.880          50.125    20712635.140    86206936.474 8        17.880          49.937
G05  22077287.580   116016944.585 7      5114.380          43.312    22077285.960   116016944.601 7      5114.380          43.437    22077295.280    90402833.423 7      3985.231          43.000    22077296.220    90402843.444 7      3985.231          46.562
G07  23162360.200   121719014.678 7       243.702          44.187    23162358.960   121719014.683 7       243.702          42.625    23162371.320    94846009.244 7       189.898          42.250    23162372.000    94846044.257 7       189.898          46.437
> 2024 10 07 12 00 41.0000000  0 14
G11  20839826.880   109514025.199 7      1675.869          46.750    20839825.000   109514025.196 6      1675.869          39.937    20839834.080    85335625.285 6      1305.872          39.437    20839834.800    85335647.278 8      1305.872          52.687
G13  21284859.960   111852693.521 8      4034.797          48.187    21284859.280   111852693.528 6      4034.797          36.937    21284868.160    87157968.946 6      3143.998          37.062
G20  20520839.940   107837739.964 7      3951.104          47.875    20520838.380   107837739.974 6      3951.104          41.187    20520845.880    84029426.488 6      3078.782          40.812
R03  21588237.500   115563509.436 7      3834.000          45.687    21588237.220   115563509.469 7      3834.000          44.875    21588251.820    89882801.662 7      2982.000          46.687    21588251.820    89882802.666 7      2982.000          46.062
R02  21063754.920   112400229.265 8      1974.113          49.687    21063756.220   112400229.271 7      1974.113          47.312    21063768.800    87422460.098 8      1535.421          48.687    21063769.300    87422461.106 8      1535.421          49.500
R18  21077075.400   112510854.349 7      3517.320          46.937    21077075.260   112510854.352 7      3517.320          46.375    21077088.560    87508505.528 8      2735.694          48.312    21077088.720    87508502.529 8      2735.694          48.125
G30  21096397.140   110862314.032 8      1760.575          49.125    21096395.600   110862314.039 8      1760.575          49.687    21096407.440    86386259.009 8      1371.877          49.937    21096407.900    86386262.015 8      1371.877          50.125
G06  22623387.900   118886697.315 7      -618.557          45.375    22623387.260   118886697.315 7      -618.557          44.437    22623405.820    92639055.981 7      -481.992          44.312    22623406.660    92639060.983 7      -481.992          47.812
R13  21602160.680   115354309.767 6      6070.364          40.437    21602159.060   115354309.779 6      6070.364          40.187
G22  24668203.040   129632279.094 6      5020.453          40.937    24668201.100   129632279.096 3      5020.453          22.375    24668230.500   101012167.780 3      3912.042          22.937
R12  21204739.080   113271917.337 8      3296.272          48.187    21204740.240   113271917.341 8      3296.272          48.000    21204756.680    88100450.035 8      2563.767          48.625    21204756.960    88100451.031 8      2563.767          48.875
R17  20712613.900   110837383.614 7        22.760          47.187    20712614.100   110837383.632 7        22.760          46.500    20712630.840    86206919.530 8        17.703          50.187    20712630.600    86206918.534 8        17.703          50.312
G05  22076314.380   116011830.004 7      5114.492          43.562    22076312.520   116011830.014 7      5114.492          43.062    22076322.200    90398848.041 7      3985.318          42.625    22076323.180    90398858.064 7      3985.318          46.437
G07  23162313.700   121718770.926 7       243.627          45.187    23162312.880   121718770.928 7       243.627          42.812    23162324.700    94845819.305 7       189.839          42.312    23162325.620    94845854.323 7       189.839          46.250
> 2024 10 07 12 00 42.0000000  0 14
G11  20839508.220   109512349.746 7      1675.050          46.437    20839506.160   109512349.741 6      1675.050          39.062    20839515.240    85334319.731 6      1305.234          38.625    20839515.880    85334341.721 8      1305.234          52.187
G13  21284092.080   111848658.957 8      4034.348          48.312    21284091.460   111848658.965 6      4034.348          37.312    21284100.500    87154825.132 6      3143.648          37.437
G20  20520088.140   107833789.128 7      3950.640          47.250    20520086.440   107833789.136 6      3950.640          40.750    20520093.840    84026347.917 6      3078.421          40.750
R03  21587521.420   115559675.615 7      3833.800          46.500    21587521.720   115559675.654 7      3833.800          45.125    21587535.720    89879819.797 7      2981.845          47.250    21587535.540    89879820.791 7      2981.845          45.937
R02  21063385.380   112398255.338 8      1973.872          49.187    21063386.120   112398255.333 7      1973.872          47.562    21063399.260    87420924.824 8      1535.234          49.187    21063399.480    87420925.825 8      1535.234          49.062
R18  21076416.480   112507337.555 7      3516.259          46.437    21076416.200   112507337.564 7      3516.259          46.625    21076429.980    87505770.244 8      2734.868          48.125    21076429.820    87505767.243 8      2734.868          48.062
G30  21096061.980   110860553.831 8      1759.914          48.062    21096060.640   110860553.836 8      1759.914          49.500    21096072.320    86384887.418 8      1371.362          49.312    21096072.640    86384890.422 8      1371.362          49.687
G06  22623505.320   118887316.090 7      -619.007          44.875    22623504.680   118887316.087 7      -619.007          43.937    22623523.380    92639538.125 7      -482.343          43.875    22623524.280    92639543.123 7      -482.343          47.937
R13  21601024.160   115348239.711 6      6069.882          40.437    21601021.960   115348239.728 6      6069.882          40.187
G22  24667247.960   129627258.903 6      5020.175          41.437    24667245.800   129627258.900 3      5020.175          22.375    24667275.260   101008255.937 3      3911.825          22.937
R12  21204122.300   113268621.562 7      3295.306          47.500    21204123.060   113268621.568 7      3295.306          47.312    21204139.620    88097886.659 8      2563.016          49.312    21204140.080    88097887.657 8      2563.016          49.500
R17  20712609.340   110837361.287 7        21.929          47.625    20712609.920   110837361.299 7        21.929          46.750    20712626.940    86206902.150 8        17.056          50.937    20712626.740    86206901.153 8        17.056          50.312
G05  22075341.100   116006715.580 7      5114.453          43.125    22075339.360   116006715.585 7      5114.453          42.875    22075348.800    90394862.774 7      3985.288          42.687    22075349.860    90394872.786 7      3985.288          46.312
G07  23162267.240   121718527.542 7       243.211          45.812    23162266.320   121718527.539 7       243.211          42.500    23162278.640    94845629.649 7       189.515          42.375    23162279.440    94845664.658 7       189.515          46.000
> 2024 10 07 12 00 43.0000000  0 14
G11  20839189.660   109510674.843 7      1674.870          47.375    20839187.380   109510674.840 6      1674.870          39.562    20839196.400    85333014.610 6      1305.093          39.250    20839197.140    85333036.597 8      1305.093          52.437
G13  21283324.480   111844624.645 8      4034.459          48.812    21283323.760   111844624.655 6      4034.459          37.375    21283332.660    87151681.519 6      3143.735          37.312
G20  20519336.620   107829838.553 8      3950.709          48.062    20519334.640   107829838.560 6      3950.709          40.937    20519342.180    84023269.544 6      3078.474          41.000
R03  21586804.980   115555841.761 7      3834.093          45.750    21586805.340   115555841.814 7      3834.093          45.250    21586819.620    89876837.926 7      2982.073          46.875    21586819.360    89876838.923 7      2982.073          47.187
R02  21063015.280   112396281.366 8      1974.199          49.312    21063015.680   112396281.369 7      1974.199          47.687    21063029.200    87419389.516 8      1535.488          49.187    21063029.400    87419390.518 8      1535.488          49.562
R18  21075757.880   112503821.541 7      3515.829          46.062    21075757.420   112503821.544 7      3515.829          46.812    21075771.540    87503035.568 8      2734.534          48.375    21075771.260    87503032.569 8      2734.534          48.562
G30  21095727.140   110858794.093 8      1759.757          48.312    21095725.720   110858794.098 8      1759.757          49.500    21095737.480    86383516.194 8      1371.239          49.562    21095737.900    86383519.197 8      1371.239          50.187
G06  22623623.160   118887935.034 7      -618.817          45.062    22623622.560   118887935.026 7      -618.817          43.562    22623641.000    92640020.398 7      -482.195          43.312    22623641.980    92640025.396 7      -482.195          47.875
R13  21599887.220   115342169.999 6      6069.873          40.437    21599885.540   115342170.011 6      6069.873          40.500
G22  24666292.060   129622238.495 7      5020.684          42.125    24666290.540   129622238.494 3      5020.684          22.375    24666319.940   101004343.924 3      3912.222          22.937
R12  21203505.580   113265326.559 8      3294.880          48.000    21203506.100   113265326.565 7      3294.880          47.500    21203522.980    88095323.881 8      2562.684          49.125    21203523.240    88095324.878 8      2562.684          49.187
R17  20712605.280   110837339.553 7        21.610          47.875    20712605.720   110837339.562 7        21.610          46.437    20712622.540    86206885.235 8        16.808          50.750    20712622.680    86206884.237 8        16.808          50.750
G05  22074368.300   116001601.243 7      5114.606          43.312    22074366.260   116001601.248 7      5114.606          43.437    22074375.560    90390877.578 7      3985.408          42.812    22074376.580    90390887.584 7      3985.408          46.562
G07  23162221.020   121718284.362 7       243.358          45.062    23162220.040   121718284.364 7       243.358          42.437    23162232.160    94845440.161 7       189.630          42.625    23162232.880    94845475.176 7       189.630          45.812
> 2024 10 07 12 00 44.0000000  0 14
G11  20838871.000   109509000.497 7      1673.973          46.875    20838869.040   109509000.494 6      1673.973          39.875    20838877.780    85331709.916 6      1304.395          39.187    20838878.560    85331731.908 8      1304.395          52.125
G13  21282556.860   111840590.602 8      4033.817          48.625    21282556.200   111840590.617 6      4033.817          37.062    21282564.960    87148538.112 6      3143.234          37.500
G20  20518584.940   107825888.246 7      3950.097          47.437    20518582.960   107825888.256 6      3950.097          41.187    20518590.420    84020191.383 6      3077.998          40.750
R03  21586088.360   115552007.911 7      3833.754          45.750    21586088.140   115552007.958 7      3833.754          45.250    21586103.300    89873856.038 7      2981.809          46.625    21586103.400    89873857.042 7      2981.809          46.437
R02  21062645.180   112394307.325 8      1973.944          48.750    21062645.260   112394307.336 7      1973.944          47.375    21062659.180    87417854.149 8      1535.290          49.687    21062659.580    87417855.154 8      1535.290          49.562
R18  21075099.100   112500306.305 7      3514.719          47.187    21075098.860   112500306.314 7      3514.719          46.437    21075113.120    87500301.500 8      2733.670          49.062    21075112.600    87500298.503 8      2733.670          48.562
G30  21095392.360   110857034.839 8      1758.889          48.000    21095390.900   110857034.846 8      1758.889          49.062    21095402.700    86382145.346 8      1370.563          48.937    21095403.200    86382148.348 8      1370.563          49.687
G06  22623740.820   118888554.187 7      -619.440          43.875    22623740.420   118888554.176 7      -619.440          43.875    22623758.940    92640502.831 7      -482.680          43.000    22623759.660    92640507.828 7      -482.680          47.750
R13  21598750.960   115336100.600 6      6069.178          40.125    21598748.680   115336100.601 6      6069.178          40.500
G22  24665336.660   129617217.829 6      5020.716          41.500    24665335.180   129617217.826 3      5020.716          22.375    24665364.500   101000431.711 3      3912.246          22.937
R12  21202889.120   113262032.303 7      3293.731          47.875    21202889.240   113262032.307 7      3293.731          47.500    21202906.120    88092761.686 8      2561.791          49.000    21202906.620    88092762.684 8      2561.791          49.187
R17  20712601.740   110837318.338 7        20.914          47.125    20712601.760   110837318.347 7        20.914          46.750    20712618.920    86206868.722 8        16.266          50.562    20712618.960    86206867.724 8        16.266          50.625
G05  22073395.300   115996486.932 7      5114.149          44.062    22073392.980   115996486.937 7      5114.149          43.250    22073402.140    90386892.407 7      3985.051          43.125    22073403.560    90386902.419 7      3985.051          45.875
G07  23162174.980   121718041.430 7       242.731          46.000    23162174.100   121718041.435 7       242.731          42.437    23162186.020    94845250.859 7       189.141          43.250    23162186.740    94845285.868 7       189.141          45.812
> 2024 10 07 12 00 45.0000000  0 14
G11  20838552.400   109507326.747 7      1673.311          46.750    20838550.540   109507326.747 6      1673.311          39.812    20838559.320    85330405.693 6      1303.878          39.312    20838560.040    85330427.685 8      1303.878          52.250
G13  21281789.260   111836556.878 7      4033.386          47.937    21281788.520   111836556.886 6      4033.386          37.562    21281797.500    87145394.955 6      3142.898          37.562
G20  20517833.060   107821938.240 7      3949.723          47.937    20517831.120   107821938.251 6      3949.723          40.562    20517838.820    84017113.458 6      3077.706          40.187
R03  21585372.540   115548174.033 7      3833.763          45.375    21585371.660   115548174.075 7      3833.763          44.250    21585387.640    89870874.127 7      2981.815          47.062    21585387.380    89870875.123 7      2981.815          46.562
R02  21062275.520   112392333.262 8      1973.953          48.812    21062275.380   112392333.268 7      1973.953          47.937    21062289.320    87416318.763 8      1535.296          49.500    21062289.600    87416319.770 8      1535.296          49.562
R18  21074440.480   112496791.932 7      3513.725          46.750    21074440.200   112496791.936 7      3513.725          46.187    21074454.640    87497568.099 8      2732.897          48.562    21074454.300    87497565.106 8      2732.897          48.812
G30  21095057.620   110855276.102 8      1758.317          48.312    21095056.240   110855276.107 8      1758.317          49.125    21095067.980    86380774.898 8      1370.117          48.937    21095068.740    86380777.899 8      1370.117          50.250
G06  22623858.760   118889173.525 7      -619.586          44.062    22623858.040   118889173.519 7      -619.586          43.500    22623876.680    92640985.419 7      -482.795          42.937    22623877.420    92640990.423 7      -482.795          47.437
R13  21597614.460   115330031.545 6      6068.819          40.125    21597612.360   115330031.530 6      6068.819          40.437
G22  24664381.300   129612196.997 6      5020.816          41.312    24664379.660   129612196.996 4      5020.816          24.000    24664409.160   100996519.372 3      3912.324          22.937
R12  21202272.360   113258738.804 8      3292.928          48.125    21202272.680   113258738.808 7      3292.928          47.125    21202289.620    88090200.073 8      2561.166          49.125    21202290.040    88090201.073 8      2561.166          48.875
R17  20712597.580   110837297.701 7        20.229          47.750    20712597.780   110837297.716 7        20.229          46.812    20712615.200    86206852.661 8        15.734          51.125    20712614.760    86206851.660 8        15.734          50.625
G05  22072421.640   115991372.700 7      5113.958          43.812    22072419.780   115991372.702 7      5113.958          42.937    22072428.960    90382907.297 7      3984.903          42.437    22072429.980    90382917.301 7      3984.903          45.812
G07  23162128.700   121717798.750 7       242.482          44.937    23162127.700   121717798.755 7       242.482          42.812    23162139.760    94845061.751 7       188.947          42.562    23162140.400    94845096.764 7       188.947          46.250
> 2024 10 07 12 00 46.0000000  0 14
G11  20838233.940   109505653.683 7      1672.803          47.062    20838232.140   109505653.682 6      1672.803          39.812    20838241.060    85329102.001 6      1303.483          39.312    20838241.760    85329123.999 8      1303.483          52.437
G13  21281021.760   111832523.541 8      4033.165          48.187    21281020.980   111832523.549 6      4033.165          37.125    21281030.060    87142252.101 6      3142.726          37.000
G20  20517081.560   107817988.661 7      3949.421          47.375    20517079.620   107817988.668 6      3949.421          40.937    20517087.040    84014035.858 6      3077.471          40.750
R03  21584656.180   115544340.242 7      3833.862          45.125    21584655.380   115544340.281 7      3833.862          44.687    21584671.640    89867892.298 7      2981.893          47.312    21584671.140    89867893.299 7      2981.893          46.937
R02  21061905.280   112390359.303 8      1973.988          48.625    21061905.220   112390359.304 7      1973.988          47.062    21061919.460    87414783.449 8      1535.324          49.437    21061919.860    87414784.456 8      1535.324          49.437
R18  21073782.540   112493278.464 7      3513.089          45.000    21073782.520   112493278.460 7      3513.089          46.250    21073796.540    87494835.391 8      2732.402          49.125    21073796.100    87494832.394 8      2732.402          48.562
G30  21094723.240   110853517.969 8      1757.921          49.187    21094721.880   110853517.977 8      1757.921          49.625    21094733.380    86379404.926 8      1369.809          49.062    21094734.220    86379407.932 8      1369.809          49.937
G06  22623976.760   118889793.214 7      -619.802          44.000    22623975.720   118889793.206 7      -619.802          43.687    22623994.560    92641468.284 7      -482.962          43.437    22623995.500    92641473.279 7      -482.962          47.500
R13  21596478.280   115323962.950 6      6068.515          39.812    21596475.540   115323962.927 6      6068.515          40.437
G22  24663425.660   129607176.105 6      5020.931          41.687    24663424.280   129607176.107 4      5020.931          24.000    24663453.720   100992606.987 3      3912.414          22.937
R12  21201656.160   113255446.167 7      3292.305          47.562    21201656.400   113255446.171 7      3292.305          47.312    21201673.180    88087639.144 8      2560.682          48.562    21201673.800    88087640.146 8      2560.682          49.000
R17  20712594.420   110837277.744 7        19.713          47.937    20712594.080   110837277.753 7        19.713          46.562    20712611.460    86206837.124 8        15.332          50.750    20712611.320    86206836.127 8        15.332          50.625
G05  22071448.320   115986258.647 7      5113.955          43.062    22071446.560   115986258.649 7      5113.955          42.937    22071455.760    90378922.323 7      3984.900          42.875    22071456.980    90378932.329 7      3984.900          46.437
G07  23162082.340   121717556.466 7       242.166          45.312    23162081.900   121717556.474 7       242.166          42.312    23162093.820    94844872.951 7       188.701          42.500    23162094.120    94844907.956 7       188.701          46.187
> 2024 10 07 12 00 47.0000000  0 14
G11  20837915.700   109503981.100 7      1672.314          46.437    20837913.920   109503981.105 6      1672.314          39.812    20837922.700    85327798.694 6      1303.101          39.437    20837923.460    85327820.687 8      1303.101          51.875
G13  21280254.380   111828490.375 8      4033.103          48.187    21280253.480   111828490.385 6      4033.103          37.437    21280262.480    87139109.379 6      3142.677          37.625
G20  20516330.000   107814039.249 7      3949.321          46.562    20516328.100   107814039.260 6      3949.321          40.125    20516335.620    84010958.390 6      3077.393          40.250
R03  21583939.920   115540506.311 7      3834.019          45.500    21583939.120   115540506.353 7      3834.019          44.437    21583955.620    89864910.351 7      2982.015          46.937    21583955.120    89864911.349 7      2982.015          47.125
R02  21061535.340   112388385.219 8      1974.195          48.312    21061535.360   112388385.223 7      1974.195          47.000    21061549.460    87413248.046 8      1535.485          49.312    21061549.940    87413249.056 8      1535.485          49.937
R18  21073124.420   112489765.692 7      3512.561          46.625    21073124.100   112489765.680 7      3512.561          46.250    21073138.760    87492103.231 8      2731.992          48.562    21073138.060    87492100.239 8      2731.992          48.625
G30  21094388.640   110851760.231 8      1757.586          48.500    21094387.360   110851760.233 8      1757.586          49.500    21094398.860    86378035.252 8      1369.548          49.625    21094399.600    86378038.255 8      1369.548          50.187
G06  22624094.660   118890412.980 7      -619.717          45.000    22624093.680   118890412.969 7      -619.717          44.000    22624112.400    92641951.197 7      -482.897          43.500    22624113.400    92641956.197 7      -482.897          47.750
R13  21595341.860   115317894.530 6      6068.459          39.812    21595339.540   115317894.529 6      6068.459          40.437
G22  24662470.320   129602154.908 7      5021.440          42.125    24662468.800   129602154.910 4      5021.440          24.000    24662498.260   100988694.357 3      3912.810          22.937
R12  21201039.640   113252154.204 8      3291.714          48.000    21201039.960   113252154.207 7      3291.714          47.312    21201057.060    88085078.722 8      2560.222          49.187    21201057.420    88085079.722 8      2560.222          49.312
R17  20712590.760   110837258.249 8        19.304          48.125    20712590.540   110837258.259 7        19.304          46.625    20712607.620    86206821.949 8        15.014          50.250    20712607.560    86206820.949 8        15.014          50.812
G05  22070475.240   115981144.546 7      5114.168          43.562    22070473.260   115981144.548 7      5114.168          42.500    22070482.680    90374937.311 7      3985.066          42.187    22070483.760    90374947.311 7      3985.066          46.187
G07  23162036.560   121717314.306 7       242.144          45.437    23162035.600   121717314.314 7       242.144          42.687    23162047.760    94844684.240 7       188.683          42.812    23162048.000    94844719.251 7       188.683          46.187
> 2024 10 07 12 00 48.0000000  0 14
G11  20837597.480   109502309.276 7      1671.328          47.375    20837595.760   109502309.278 6      1671.328          39.937    20837604.600    85326495.965 6      1302.334          39.562    20837605.400    85326517.957 8      1302.334          52.250
G13  21279487.020   111824457.687 8      4032.354          48.312    21279486.120   111824457.697 6      4032.354          37.437    21279495.120    87135967.027 6      3142.094          37.312
G20  20515578.340   107810090.308 7      3948.619          47.062    20515576.560   107810090.311 6      3948.619          40.375    20515584.120    84007881.285 6      3076.846          40.312
R03  21583223.960   115536672.527 7      3833.655          45.125    21583223.020   115536672.564 7      3833.655          44.375    21583239.580    89861928.520 7      2981.732          47.562    21583239.020    89861929.517 7      2981.732          47.375
R02  21061165.420   112386411.335 8      1973.744          48.125    21061164.960   112386411.328 7      1973.744          46.625    21061179.580    87411712.791 8      1535.134          48.937    21061179.940    87411713.796 8      1535.134          49.562
R18  21072466.700   112486253.927 7      3511.089          46.312    21072466.420   112486253.920 7      3511.089          47.000    21072480.900    87489371.864 8      2730.847          48.875    21072480.460    87489368.867 8      2730.847          48.250
G30  21094054.420   110850003.173 8      1756.590          49.187    21094052.980   110850003.175 8      1756.590          49.937    21094064.480    86376666.118 8      1368.771          50.062    21094065.300    86376669.121 8      1368.771          49.875
G06  22624212.600   118891033.182 7      -620.592          43.187    22624211.860   118891033.176 7      -620.592          43.437    22624230.200    92642434.459 7      -483.578          43.250    22624231.060    92642439.455 7      -483.578          47.500
R13  21594205.520   115311826.648 6      6067.568          39.375    21594203.080   115311826.665 6      6067.568          40.375
G22  24661514.680   129597133.685 6      5021.208          41.937    24661513.320   129597133.687 4      5021.208          24.000    24661542.780   100984781.710 4      3912.630          24.312
R12  21200423.320   113248863.151 7      3290.498          47.875    21200423.980   113248863.149 7      3290.498          47.437    21200440.900    88082519.014 8      2559.276          48.625    21200441.240    88082520.016 8      2559.276          49.437
R17  20712587.180   110837239.547 8        18.220          48.000    20712586.900   110837239.551 7        18.220          47.125    20712604.000    86206807.388 8        14.171          50.250    20712604.040    86206806.386 8        14.171          50.375
G05  22069501.860   115976030.703 7      5113.625          43.437    22069500.320   115976030.708 7      5113.625          42.875    22069509.360    90370952.507 7      3984.643          42.250    22069510.540    90370962.510 7      3984.643          46.125
G07  23161990.580   121717072.585 7       241.425          45.562    23161989.580   121717072.590 7       241.425          42.750    23162001.780    94844495.876 7       188.123          42.500    23162002.280    94844530.893 7       188.123          46.437
> 2024 10 07 12 00 49.0000000  0 14
G11  20837279.640   109500638.043 7      1670.965          47.625    20837277.760   109500638.045 6      1670.965          39.750    20837286.680    85325193.702 6      1302.051          39.125    20837287.220    85325215.696 8      1302.051          52.125
G13  21278719.640   111820425.291 8      4032.245          48.500    21278718.760   111820425.301 6      4032.245          37.375    21278727.820    87132824.904 6      3142.009          37.375
G20  20514826.980   107806141.667 7      3948.482          47.250    20514825.260   107806141.677 6      3948.482          40.687    20514832.580    84004804.430 6      3076.739          40.500
R03  21582507.880   115532838.789 7      3833.720          44.750    21582506.360   115532838.812 7      3833.720          44.375    21582523.460    89858946.717 7      2981.782          47.312    21582522.520    89858947.714 8      2981.782          48.062
R02  21060795.800   112384437.403 8      1973.920          48.750    21060795.160   112384437.409 7      1973.920          47.187    21060809.320    87410177.518 8      1535.271          49.312    21060809.920    87410178.528 8      1535.271          49.375
R18  21071809.020   112482742.981 7      3510.554          47.375    21071808.880   112482742.974 7      3510.554          46.500    21071823.500    87486641.128 8      2730.431          49.125    21071822.840    87486638.132 8      2730.431          48.562
G30  21093720.240   110848246.630 8      1756.270          48.875    21093718.860   110848246.630 8      1756.270          49.687    21093730.260    86375297.383 8      1368.522          49.625    21093730.880    86375300.387 8      1368.522          49.750
G06  22624330.640   118891653.570 7      -620.551          43.312    22624329.680   118891653.570 7      -620.551          43.062    22624348.420    92642917.867 7      -483.547          42.812    22624349.260    92642922.859 7      -483.547          47.125
R13  21593068.500   115305759.125 6      6067.438          39.375    21593067.360   115305759.145 6      6067.438          40.375
G22  24660559.100   129592112.304 6      5021.516          41.875    24660557.640   129592112.306 4      5021.516          24.000    24660587.180   100980868.941 4      3912.870          24.312
R12  21199807.720   113245572.904 7      3289.816          47.750    21199808.020   113245572.903 7      3289.816          47.375    21199824.960    88079959.929 8      2558.746          48.500    21199825.480    88079960.933 8      2558.746          49.812
R17  20712584.180   110837221.428 7        17.815          47.437    20712583.260   110837221.432 7        17.815          46.687    20712600.720    86206793.285 8        13.856          51.062    20712600.360    86206792.280 8        13.856          50.687
G05  22068529.340   115970916.941 7      5113.644          43.750    22068527.380   115970916.949 7      5113.644          42.937    22068536.300    90366967.763 7      3984.658          42.687    22068537.280    90366977.763 7      3984.658          45.875
G07  23161944.640   121716831.127 7       241.334          44.437    23161943.380   121716831.129 7       241.334          42.000    23161955.660    94844307.727 7       188.053          42.187    23161956.320    94844342.738 7       188.053          46.062
> 2024 10 07 12 00 50.0000000  0 14
G11  20836961.580   109498967.425 7      1670.251          46.875    20836959.800   109498967.425 6      1670.251          39.625    20836968.740    85323891.914 6      1301.494          39.437    20836969.360    85323913.905 8      1301.494          52.312
G13  21277952.260   111816393.218 7      4031.878          47.562    21277951.560   111816393.228 6      4031.878          37.312    21277960.320    87129683.035 6      3141.723          37.187
G20  20514075.720   107802193.351 7      3948.076          47.062    20514073.640   107802193.361 6      3948.076          40.562    20514081.260    84001727.818 6      3076.422          40.312
R03  21581791.580   115529005.064 7      3833.610          44.625    21581790.000   115529005.087 7      3833.610          44.187    21581807.080    89855964.939 7      2981.696          47.125    21581806.600    89855965.939 7      2981.696          47.062
R02  21060425.840   112382463.463 7      1973.949          47.937    21060425.160   112382463.456 7      1973.949          47.125    21060439.540    87408642.221 8      1535.294          49.187    21060440.140    87408643.227 8      1535.294          49.500
R18  21071151.520   112479232.897 7      3509.583          46.312    21071151.700   112479232.885 7      3509.583          46.250    21071165.980    87483911.047 8      2729.675          48.437    21071165.340    87483908.046 8      2729.675          48.875
G30  21093385.980   110846490.618 8      1755.671          49.187    21093384.600   110846490.618 8      1755.671          49.312    21093396.100    86373929.060 8      1368.055          49.562    21093396.740    86373932.059 8      1368.055          49.625
G06  22624448.680   118892274.203 7      -620.643          44.062    22624447.620   118892274.195 7      -620.643          42.750    22624466.460    92643401.454 7      -483.618          42.500    22624467.340    92643406.450 7      -483.618          46.937
R13  21591931.800   115299692.004 6      6066.737          41.125    21591930.900   115299692.010 6      6066.737          40.687
G22  24659603.440   129587090.755 7      5021.556          42.312    24659602.020   129587090.757 4      5021.556          24.000    24659631.680   100976956.044 4      3912.901          24.312
R12  21199191.440   113242283.403 7      3289.034          47.500    21199192.160   113242283.407 7      3289.034          47.875    21199209.020    88077401.435 8      2558.137          48.812    21199209.460    88077402.441 8      2558.137          48.562
R17  20712580.560   110837203.862 7        17.269          47.375    20712580.160   110837203.877 7        17.269          46.937    20712597.620    86206779.613 8        13.432          49.250    20712597.320    86206778.608 8        13.432          49.562
G05  22067556.000   115965803.245 7      5113.644          43.812    22067554.060   115965803.247 7      5113.644          42.937    22067563.320    90362983.061 7      3984.658          42.312    22067564.060    90362993.069 7      3984.658          45.312
G07  23161898.500   121716589.944 7       241.021          44.750    23161897.140   121716589.944 6       241.021          41.812    23161909.880    94844119.784 6       187.808          41.687    23161910.260    94844154.789 7       187.808          46.125
> 2024 10 07 12 00 51.0000000  0 14
G11  20836643.720   109497297.483 7      1669.548          47.750    20836641.820   109497297.485 6      1669.548          40.187    20836651.020    85322590.658 6      1300.946          39.875    20836651.600    85322612.649 8      1300.946          52.250
G13  21277185.100   111812361.534 8      4031.435          48.875    21277184.340   111812361.546 6      4031.435          37.687    21277193.300    87126541.465 6      3141.378          37.812
G20  20513324.520   107798245.408 7      3947.773          46.750    20513322.360   107798245.416 6      3947.773          40.750    20513330.100    83998651.499 6      3076.187          40.562
R03  21581075.420   115525171.468 7      3833.447          45.500    21581073.860   115525171.494 7      3833.447          44.125    21581091.080    89852983.253 7      2981.570          47.312    21581090.580    89852984.255 7      2981.570          47.312
R02  21060056.240   112380489.598 7      1973.838          47.875    21060055.760   112380489.593 7      1973.838          47.125    21060069.480    87407106.978 8      1535.207          48.750    21060070.240    87407107.988 8      1535.207          49.687
R18  21070494.260   112475723.707 7      3508.685          47.375    21070494.540   112475723.700 7      3508.685          45.937    21070508.640    87481181.685 8      2728.977          49.375    21070507.940    87481178.682 8      2728.977          49.187
G30  21093052.120   110844735.186 8      1755.124          49.687    21093050.720   110844735.189 8      1755.124          50.125    21093062.060    86372561.199 8      1367.629          50.062    21093062.620    86372564.203 8      1367.629          49.937
G06  22624566.920   118892895.159 7      -620.948          42.625    22624565.300   118892895.154 7      -620.948          42.000    22624584.340    92643885.306 6      -483.856          41.875    22624585.460    92643890.300 7      -483.856          46.937
R13  21590795.800   115293625.234 6      6066.577          40.937    21590794.620   115293625.238 6      6066.577          40.687
G22  24658648.160   129582069.093 7      5021.699          42.500    24658646.320   129582069.095 4      5021.699          24.000    24658676.180   100973043.053 4      3913.012          24.312
R12  21198576.100   113238994.765 7      3288.257          47.437    21198576.620   113238994.761 7      3288.257          47.312    21198593.580    88074843.601 8      2557.533          48.625    21198593.960    88074844.605 8      2557.533          49.250
R17  20712577.060   110837186.968 7        16.601          47.312    20712576.840   110837186.983 7        16.601          46.125    20712594.500    86206766.480 8        12.912          50.375    20712594.060    86206765.477 8        12.912          50.750
G05  22066582.760   115960689.736 7      5113.433          43.125    22066581.060   115960689.740 7      5113.433          42.937    22066590.200    90358998.525 7      3984.493          42.562    22066591.080    90359008.520 7      3984.493          45.875
G07  23161852.680   121716349.101 7       240.673          44.250    23161851.500   121716349.108 7       240.673          42.750    23161863.860    94843932.114 7       187.537          42.437    23161864.500    94843967.127 7       187.537          46.375
> 2024 10 07 12 00 52.0000000  0 14
G11  20836325.980   109495628.084 7      1669.176          47.625    20836324.280   109495628.081 6      1669.176          39.562    20836333.240    85321289.820 6      1300.657          39.375    20836333.920    85321311.809 8      1300.657          52.187
G13  21276417.980   111808330.096 8      4031.292          48.187    21276416.920   111808330.104 6      4031.292          37.187    21276426.220    87123400.087 6      3141.266          37.125
G20  20512573.440   107794297.737 7      3947.548          47.187    20512571.040   107794297.741 6      3947.548          41.062    20512579.000    83995575.393 6      3076.011          40.625
R03  21580359.320   115521337.821 7      3833.652          44.562    21580357.520   115521337.833 7      3833.652          43.937    21580375.040    89850001.524 7      2981.729          47.437    21580374.600    89850002.521 7      2981.729          47.312
R02  21059686.380   112378515.647 8      1973.947          48.000    21059685.240   112378515.651 7      1973.947          47.000    21059699.740    87405571.683 8      1535.292          49.125    21059700.220    87405572.693 8      1535.292          49.562
R18  21069837.100   112472215.291 7      3508.036          46.812    21069837.140   112472215.290 7      3508.036          46.312    21069851.400    87478452.925 8      2728.472          49.437    21069850.800    87478449.925 8      2728.472          49.437
G30  21092718.000   110842980.231 8      1754.698          49.062    21092716.760   110842980.235 8      1754.698          49.500    21092728.060    86371193.707 8      1367.297          49.437    21092728.680    86371196.713 8      1367.297          49.625
G06  22624685.160   118893516.320 7      -621.224          42.687    22624683.260   118893516.315 7      -621.224          42.187    22624702.460    92644369.303 6      -484.071          41.625    22624703.960    92644374.292 7      -484.071          46.437
R13  21589659.980   115287558.799 6      6066.343          40.937    21589658.600   115287558.813 6      6066.343          41.000
G22  24657692.300   129577047.234 6      5021.976          41.187    24657690.640   129577047.236 4      5021.976          24.250    24657720.840   100969129.907 4      3913.228          24.312
R12  21197960.640   113235706.858 7      3287.545          47.875    21197961.260   113235706.859 7      3287.545          47.437    21197977.920    88072286.346 8      2556.980          49.000    21197978.080    88072287.350 8      2556.980          49.250
R17  20712574.240   110837170.623 7        16.112          46.562    20712574.080   110837170.638 7        16.112          46.875    20712591.460    86206753.750 8        12.531          50.375    20712591.160    86206752.749 8        12.531          50.437
G05  22065609.820   115955576.276 7      5113.376          44.437    22065608.120   115955576.281 7      5113.376          42.937    22065617.220    90355014.011 7      3984.449          42.375    22065617.940    90355024.000 7      3984.449          46.375
G07  23161806.920   121716108.499 7       240.506          44.250    23161806.040   121716108.504 7       240.506          42.250    23161818.020    94843744.626 7       187.408          42.000    23161819.040    94843779.637 7       187.408          46.000
> 2024 10 07 12 00 53.0000000  0 14
G11  20836008.360   109493959.295 7      1668.486          47.187    20836006.620   109493959.295 6      1668.486          39.875    20836015.680    85319989.460 6      1300.119          39.500    20836016.460    85320011.448 8      1300.119          52.437
G13  21275650.900   111804298.964 8      4031.056          48.375    21275650.000   111804298.971 6      4031.056          37.500    21275659.120    87120258.951 6      3141.083          37.625
G20  20511822.200   107790350.369 7      3947.284          46.812    20511819.720   107790350.379 6      3947.284          40.312    20511827.620    83992499.527 6      3075.805          40.312
R03  21579643.240   115517504.160 7      3833.746          43.187    21579641.040   115517504.175 7      3833.746          43.937    21579658.880    89847019.796 7      2981.802          47.625    21579658.540    89847020.797 7      2981.802          47.687
R02  21059316.360   112376541.699 8      1974.070          48.250    21059315.520   112376541.708 7      1974.070          47.312    21059329.580    87404036.388 8      1535.388          49.250    21059330.560    87404037.394 8      1535.388          49.312
R18  21069179.840   112468707.735 7      3507.266          45.562    21069179.620   112468707.723 7      3507.266          46.750    21069194.240    87475724.820 8      2727.874          49.750    21069193.700    87475721.819 8      2727.874          49.937
G30  21092384.200   110841225.798 8      1754.269          49.187    21092382.920   110841225.797 8      1754.269          49.750    21092394.060    86369826.608 8      1366.963          49.500    21092394.720    86369829.612 8      1366.963          49.625
G06  22624803.100   118894137.676 7      -621.424          42.562    22624801.400   118894137.678 7      -621.424          42.062    22624820.640    92644853.463 6      -484.226          41.687    22624821.400    92644858.453 7      -484.226          46.875
R13  21588524.380   115281492.731 6      6065.982          41.687    21588522.860   115281492.738 6      6065.982          41.000
G22  24656736.860   129572025.175 7      5022.166          42.312    24656734.940   129572025.175 4      5022.166          24.250    24656765.140   100965216.609 4      3913.376          24.312
R12  21197345.120   113232419.777 8      3286.798          48.250    21197345.880   113232419.776 7      3286.798          47.687    21197362.620    88069729.725 8      2556.399          48.625    21197363.100    88069730.727 8      2556.399          49.000
R17  20712571.220   110837154.867 7        15.593          47.250    20712571.320   110837154.884 7        15.593          47.187    20712588.440    86206741.489 8        12.128          50.625    20712588.320    86206740.486 8        12.128          50.625
G05  22064636.600   115950462.890 7      5113.448          43.625    22064635.220   115950462.890 7      5113.448          42.500    22064644.240    90351029.556 7      3984.505          42.500    22064644.960    90351039.552 7      3984.505          45.750
G07  23161761.220   121715868.147 7       240.363          44.062    23161760.100   121715868.149 7       240.363          42.312    23161772.580    94843557.332 7       187.296          42.125    23161773.200    94843592.347 7       187.296          46.625
> 2024 10 07 12 00 54.0000000  0 14
G11  20835691.140   109492291.126 7      1667.813          47.187    20835689.160   109492291.123 6      1667.813          40.000    20835698.220    85318689.578 6      1299.594          39.500    20835698.880    85318711.570 8      1299.594          52.437
G13  21274883.760   111800268.178 7      4030.582          47.937    21274882.900   111800268.183 6      4030.582          37.562    21274892.100    87117118.077 6      3140.713          37.312
G20  20511071.060   107786403.354 7      3946.700          47.250    20511068.780   107786403.364 6      3946.700          40.625    20511076.580    83989423.927 6      3075.351          40.562
R03  21578926.960   115513670.532 7      3833.520          43.187    21578925.300   115513670.547 7      3833.520          43.812    21578942.900    89844038.091 7      2981.627          47.625    21578942.160    89844039.089 7      2981.627          47.187
R02  21058946.320   112374567.845 7      1973.703          47.937    21058945.620   112374567.851 7      1973.703          47.312    21058959.640    87402501.166 8      1535.103          48.875    21058960.320    87402502.171 8      1535.103          49.062
R18  21068523.160   112465201.046 7      3506.202          46.562    21068523.220   112465201.039 7      3506.202          46.500    21068537.560    87472997.393 8      2727.046          49.500    21068536.860    87472994.394 8      2727.046          49.562
G30  21092050.460   110839471.911 8      1753.554          48.687    21092049.220   110839471.913 8      1753.554          49.562    21092060.480    86368459.944 8      1366.406          49.875    21092061.200    86368462.950 8      1366.406          50.312
G06  22624921.500   118894759.299 7      -621.844          42.625    22624919.420   118894759.299 6      -621.844          41.437    22624938.980    92645337.827 6      -484.554          41.500    22624939.700    92645342.817 7      -484.554          46.750
R13  21587388.260   115275427.051 6      6065.398          41.687    21587386.840   115275427.052 6      6065.398          41.250
G22  24655780.960   129567003.006 7      5022.113          42.500    24655779.300   129567003.008 4      5022.113          24.250    24655809.440   100961303.222 4      3913.335          24.312
R12  21196730.160   113229133.503 8      3285.749          48.250    21196730.420   113229133.498 7      3285.749          47.125    21196747.320    88067173.740 8      2555.582          49.125    21196747.780    88067174.740 8      2555.582          49.000
R17  20712568.320   110837139.787 7        14.738          47.687    20712568.240   110837139.791 7        14.738          47.312    20712585.460    86206729.741 8        11.463          50.250    20712585.380    86206728.736 8        11.463          50.250
G05  22063663.620   115945349.622 7      5113.149          44.125    22063662.320   115945349.624 7      5113.149          43.562    22063671.220    90347045.198 7      3984.272          43.062    22063671.820    90347055.187 7      3984.272          46.125
G07  23161715.480   121715628.118 7       239.896          44.250    23161714.320   121715628.120 7       239.896          42.312    23161726.560    94843370.288 7       186.932          42.312    23161727.100    94843405.297 7       186.932          46.312
> 2024 10 07 12 00 55.0000000  0 14
G11  20835373.920   109490623.693 7      1667.005          47.625    20835371.960   109490623.698 6      1667.005          39.562    20835380.960    85317390.284 6      1298.965          39.250    20835381.480    85317412.277 8      1298.965          52.375
G13  21274116.740   111796237.826 8      4030.109          48.187    21274116.100   111796237.829 6      4030.109          37.125    21274124.960    87113977.541 6      3140.345          37.250
G20  20510320.180   107782456.775 7      3946.261          47.062    20510317.780   107782456.780 6      3946.261          40.562    20510325.600    83986348.670 6      3075.009          40.437
R03  21578210.940   115509837.040 7      3833.255          44.375    21578208.760   115509837.060 7      3833.255          43.687    21578226.400    89841056.484 7      2981.421          47.375    21578226.020    89841057.488 7      2981.421          46.937
R02  21058576.500   112372594.107 8      1973.582          48.250    21058575.220   112372594.116 7      1973.582          46.625    21058589.860    87400966.045 8      1535.008          49.062    21058590.520    87400967.051 8      1535.008          49.187
R18  21067866.240   112461695.324 7      3505.095          46.062    21067866.560   112461695.322 7      3505.095          46.250    21067881.120    87470270.726 8      2726.185          49.812    21067880.120    87470267.725 8      2726.185          50.000
G30  21091716.700   110837718.692 8      1752.831          49.562    21091715.560   110837718.697 8      1752.831          49.437    21091726.720    86367093.795 8      1365.842          49.687    21091727.620    86367096.801 8      1365.842          49.687
G06  22625039.740   118895381.303 7      -622.290          42.000    22625037.720   118895381.298 6      -622.290          41.562    22625057.220    92645822.483 6      -484.901          41.125    22625058.200    92645827.475 7      -484.901          46.375
R13  21586252.800   115269361.852 6      6064.703          40.937    21586251.380   115269361.853 6      6064.703          41.250
G22  24654825.200   129561980.782 6      5022.192          41.875    24654823.640   129561980.784 4      5022.192          24.250    24654853.660   100957389.797 4      3913.396          24.312
R12  21196115.040   113225848.120 7      3284.782          47.562    21196115.560   113225848.116 7      3284.782          47.875    21196132.320    88064618.443 8      2554.831          48.437    21196132.620    88064619.445 8      2554.831          49.437
R17  20712565.860   110837125.432 7        13.906          47.187    20712565.280   110837125.439 7        13.906          46.562    20712582.800    86206718.568 8        10.816          50.687    20712582.660    86206717.570 8        10.816          49.937
G05  22062690.520   115940236.562 7      5112.902          45.125    22062689.340   115940236.570 7      5112.902          43.250    22062698.400    90343061.001 7      3984.080          43.000    22062698.920    90343070.999 7      3984.080          46.187
G07  23161669.880   121715388.496 7       239.366          44.312    23161668.840   121715388.504 7       239.366          42.000    23161681.180    94843183.570 7       186.519          42.687    23161681.480    94843218.581 7       186.519          46.250
> 2024 10 07 12 00 56.0000000  0 14
G11  20835056.600   109488956.843 7      1666.911          47.937    20835054.920   109488956.848 6      1666.911          40.000    20835063.820    85316091.433 6      1298.892          39.437    20835064.460    85316113.427 8      1298.892          52.375
G13  21273349.820   111792207.768 8      4030.171          49.750    21273349.280   111792207.773 6      4030.171          37.562    21273358.020    87110837.242 6      3140.393          37.750
G20  20509569.160   107778510.491 7      3946.317          46.687    20509566.740   107778510.501 6      3946.317          40.687    20509574.540    83983273.641 6      3075.052          40.437
R03  21577494.720   115506003.526 7      3833.702          45.375    21577492.840   115506003.544 7      3833.702          43.687    21577510.300    89838074.857 7      2981.768          47.750    21577509.920    89838075.850 7      2981.768          47.250
R02  21058206.420   112370620.341 8      1974.038          48.375    21058205.240   112370620.339 7      1974.038          47.625    21058220.040    87399430.879 8      1535.363          49.312    21058220.680    87399431.880 8      1535.363          49.625
R18  21067209.420   112458190.393 8      3504.792          48.375    21067209.620   112458190.392 7      3504.792          46.875    21067224.320    87467544.667 8      2725.949          49.812    21067223.640    87467541.669 8      2725.949          50.125
G30  21091383.260   110835965.980 8      1752.664          49.187    21091381.940   110835965.982 8      1752.664          50.125    21091393.220    86365728.043 8      1365.713          49.625    21091394.200    86365731.049 8      1365.713          50.062
G06  22625158.340   118896003.497 7      -621.860          42.500    22625156.100   118896003.491 6      -621.860          41.437    22625175.600    92646307.289 6      -484.566          41.187    22625176.680    92646312.287 7      -484.566          46.062
R13  21585117.100   115263296.930 6      6064.899          40.937    21585115.980   115263296.937 6      6064.899          41.187
G22  24653869.780   129556958.366 7      5022.726          42.062    24653868.100   129556958.368 4      5022.726          24.250    24653897.820   100953476.219 4      3913.812          24.250
R12  21195500.100   113222563.485 8      3284.486          48.437    21195500.380   113222563.486 8      3284.486          48.687    21195517.520    88062063.729 8      2554.600          48.875    21195517.880    88062064.731 8      2554.600          49.375
R17  20712563.120   110837111.599 8        13.795          49.375    20712562.920   110837111.612 8        13.795          48.062    20712580.520    86206707.805 8        10.729          50.312    20712580.020    86206706.811 8        10.729          50.187
G05  22061717.520   115935123.594 7      5113.218          44.000    22061716.420   115935123.599 7      5113.218          43.500    22061725.640    90339076.876 7      3984.326          43.125    22061726.220    90339086.872 7      3984.326          46.875
G07  23161624.200   121715149.119 7       239.511          44.812    23161623.200   121715149.124 7       239.511          42.625    23161635.600    94842997.032 7       186.632          42.125    23161635.820    94843032.045 7       186.632          46.437
> 2024 10 07 12 00 57.0000000  0 14
G11  20834739.660   109487290.574 7      1665.976          47.750    20834737.760   109487290.579 6      1665.976          40.187    20834746.740    85314793.042 6      1298.163          39.500    20834747.280    85314815.035 8      1298.163          52.625
G13  21272583.100   111788177.989 8      4029.578          49.000    21272582.380   111788177.994 6      4029.578          36.937    21272590.980    87107697.159 6      3139.931          37.000
G20  20508817.980   107774564.492 7      3945.717          46.750    20508815.920   107774564.500 6      3945.717          40.187    20508823.740    83980198.837 6      3074.585          40.000
R03  21576778.240   115502170.008 7      3833.443          45.687    21576776.880   115502170.023 7      3833.443          44.937    21576793.860    89835093.239 7      2981.567          46.562    21576793.800    89835094.237 7      2981.567          46.937
R02  21057836.800   112368646.526 7      1973.746          47.812    21057835.920   112368646.516 7      1973.746          47.187    21057850.160    87397895.673 8      1535.135          49.125    21057850.740    87397896.675 8      1535.135          49.062
R18  21066553.000   112454686.294 8      3503.627          48.125    21066553.640   112454686.286 7      3503.627          47.687    21066567.920    87464819.258 8      2725.044          49.625    21066567.500    87464816.260 8      2725.044          49.812
G30  21091049.740   110834213.738 8      1751.959          49.687    21091048.660   110834213.741 8      1751.959          50.125    21091059.820    86364362.664 8      1365.163          49.687    21091060.500    86364365.668 8      1365.163          49.937
G06  22625276.320   118896625.911 6      -622.510          41.625    22625274.600   118896625.911 6      -622.510          40.625    22625293.820    92646792.281 6      -485.073          40.375    22625295.200    92646797.273 7      -485.073          45.875
R13  21583981.360   115257232.326 7      6064.383          42.250    21583980.300   115257232.333 6      6064.383          41.187
G22  24652913.760   129551935.745 7      5022.682          42.250    24652912.460   129551935.750 4      5022.682          24.250    24652942.000   100949562.485 4      3913.779          24.250
R12  21194885.280   113219279.625 8      3283.402          48.625    21194885.620   113219279.626 8      3283.402          48.437    21194902.580    88059509.609 8      2553.757          48.750    21194902.960    88059510.607 8      2553.757          48.687
R17  20712560.740   110837098.315 8        13.000          48.625    20712560.300   110837098.322 7        13.000          47.937    20712578.120    86206697.460 8        10.111          50.312    20712577.760    86206696.464 8        10.111          50.500
G05  22060744.380   115930010.694 7      5112.852          44.312    22060743.360   115930010.686 7      5112.852          43.687    22060752.940    90335092.790 7      3984.040          43.562    22060753.260    90335102.790 7      3984.040          46.937
G07  23161578.780   121714909.991 7       238.919          43.562    23161577.580   121714909.998 7       238.919          42.500    23161590.160    94842810.692 7       186.171          42.250    23161590.180    94842845.699 7       186.171          46.562
> 2024 10 07 12 00 58.0000000  0 14
G11  20834422.660   109485624.893 7      1665.331          47.562    20834420.860   109485624.895 6      1665.331          39.812    20834429.720    85313495.103 6      1297.661          39.500    20834430.400    85313517.096 8      1297.661          52.500
G13  21271816.160   111784148.488 8      4029.295          49.500    21271815.600   111784148.491 6      4029.295          37.562    21271824.060    87104557.292 6      3139.710          37.125
G20  20508067.380   107770618.778 7      3945.463          47.312    20508065.120   107770618.783 6      3945.463          40.375    20508072.780    83977124.253 6      3074.387          40.125
R03  21576061.800   115498336.529 7      3833.337          46.062    21576060.620   115498336.552 7      3833.337          44.937    21576077.940    89832111.655 7      2981.484          46.937    21576077.620    89832112.659 7      2981.484          47.062
R02  21057466.580   112366672.642 7      1973.804          47.750    21057466.000   112366672.643 7      1973.804          47.250    21057480.080    87396360.435 8      1535.181          49.000    21057480.720    87396361.434 8      1535.181          49.250
R18  21065896.740   112451183.026 7      3502.723          47.437    21065896.840   112451183.009 7      3502.723          46.875    21065911.900    87462094.478 8      2724.340          49.437    21065911.240    87462091.486 8      2724.340          49.625
G30  21090716.440   110832462.017 8      1751.368          49.187    21090715.120   110832462.019 8      1751.368          50.125    21090726.520    86362997.680 8      1364.703          50.062    21090727.300    86363000.686 8      1364.703          49.937
G06  22625394.860   118897248.536 6      -622.742          41.687    22625392.980   118897248.538 6      -622.742          40.812    22625412.280    92647277.422 6      -485.253          40.562    22625413.460    92647282.414 7      -485.253          46.062
R13  21582845.980   115251168.107 7      6063.991          42.125    21582844.600   115251168.110 6      6063.991          41.937
G22  24651958.020   129546912.932 7      5022.980          42.437    24651956.640   129546912.942 4      5022.980          24.250    24651986.380   100945648.600 4      3914.011          24.250
R12  21194270.780   113215996.532 7      3282.641          47.687    21194270.720   113215996.535 8      3282.641          48.312    21194288.140    88056956.105 8      2553.165          48.875    21194288.480    88056957.107 8      2553.165          49.312
R17  20712558.460   110837085.603 8        12.383          48.562    20712557.800   110837085.607 7        12.383          47.625    20712575.580    86206687.559 8         9.631          50.187    20712575.280    86206686.558 8         9.631          50.625
G05  22059771.660   115924897.870 7      5112.721          44.687    22059770.620   115924897.862 7      5112.721          44.000    22059779.980    90331108.774 7      3983.938          43.687    22059780.440    90331118.761 7      3983.938          47.187
G07  23161533.480   121714671.129 7       238.592          45.250    23161532.260   121714671.131 7       238.592          42.437    23161544.440    94842624.558 7       185.916          42.250    23161544.900    94842659.571 7       185.916          46.062
> 2024 10 07 12 00 59.0000000  0 14
G11  20834105.700   109483959.964 7      1664.652          47.312    20834104.180   109483959.969 6      1664.652          39.562    20834112.860    85312197.751 6      1297.132          39.062    20834113.640    85312219.745 8      1297.132          52.500
G13  21271049.360   111780119.468 8      4028.902          48.812    21271049.040   111780119.473 6      4028.902          37.187    21271057.100    87101417.796 6      3139.404          37.000
G20  20507316.800   107766673.531 7      3945.122          47.000    20507314.360   107766673.539 6      3945.122          40.687    20507321.980    83974050.036 6      3074.121          40.187
R03  21575345.620   115494503.227 7      3833.274          44.937    21575344.860   115494503.253 7      3833.274          44.437    21575361.900    89829130.194 7      2981.435          47.125    21575361.580    89829131.193 7      2981.435          46.562
R02  21057096.860   112364698.940 7      1973.734          47.187    21057095.360   112364698.938 7      1973.734          46.687    21057110.560    87394825.330 8      1535.126          49.062    21057110.740    87394826.328 8      1535.126          49.062
R18  21065240.700   112447680.709 7      3501.903          46.062    21065240.680   112447680.705 7      3501.903          46.312    21065255.660    87459370.471 8      2723.702          49.875    21065255.260    87459367.478 8      2723.702          50.062
G30  21090383.200   110830710.960 8      1750.801          48.875    21090382.040   110830710.963 8      1750.801          49.625    21090393.200    86361633.221 8      1364.261          49.687    21090393.880    86361636.226 8      1364.261          49.875
G06  22625513.540   118897871.568 7      -623.071          42.000    22625511.500   118897871.562 6      -623.071          41.000    22625530.900    92647762.879 6      -485.510          40.875    22625531.900    92647767.871 7      -485.510          46.125
R13  21581710.060   115245104.421 7      6063.577          42.125    21581709.220   115245104.417 6      6063.577          41.937
G22  24651002.300   129541890.153 7      5022.781          42.187    24651000.840   129541890.158 4      5022.781          24.250    24651030.560   100941734.739 4      3913.855          24.250
R12  21193656.440   113212714.410 7      3281.780          47.562    21193656.520   113212714.414 7      3281.780          47.625    21193673.860    88054403.346 8      2552.496          49.125    21193674.200    88054404.350 8      2552.496          49.250
R17  20712556.120   110837073.692 7        11.589          47.750    20712555.600   110837073.693 7        11.589          47.000    20712573.320    86206678.282 8         9.014          49.875    20712573.020    86206677.285 8         9.014          50.437
G05  22058798.700   115919785.275 7      5112.515          44.812    22058797.960   115919785.272 7      5112.515          44.062    22058807.260    90327124.944 7      3983.778          43.500    22058807.740    90327134.950 7      3983.778          46.625
G07  23161488.000   121714432.676 7       238.310          44.937    23161486.900   121714432.678 7       238.310          42.437    23161499.400    94842438.738 7       185.696          42.125    23161499.680    94842473.743 7       185.696          46.562
> 2024 10 07 12 01  0.0000000  0 14
G11  20833789.000   109482295.597 7      1663.869          47.125    20833787.460   109482295.604 6      1663.869          39.312    20833796.140    85310900.838 6      1296.521          38.750    20833796.680    85310922.831 8      1296.521          52.000
G13  21270282.780   111776090.709 8      4028.396          48.187    21270282.360   111776090.711 6      4028.396          37.000    21270290.440    87098278.500 6      3139.010          37.500
G20  20506566.140   107762728.579 7      3944.661          46.250    20506563.620   107762728.578 6      3944.661          40.687    20506571.460    83970976.039 6      3073.762          40.437
R03  21574629.800   115490669.899 7      3833.101          45.125    21574628.660   115490669.919 7      3833.101          43.875    21574645.440    89826148.714 7      2981.301          46.812    21574645.380    89826149.709 7      2981.301          47.187
R02  21056726.960   112362725.240 7      1973.538          47.375    21056726.500   112362725.235 7      1973.538          46.062    21056740.400    87393290.220 8      1534.974          48.750    21056741.100    87393291.215 8      1534.974          48.937
R18  21064584.640   112444179.209 7      3500.845          47.125    21064584.820   112444179.199 7      3500.845          46.562    21064599.640    87456647.075 8      2722.879          49.375    21064599.300    87456644.081 8      2722.879          49.187
G30  21090050.100   110828960.379 8      1750.107          49.250    21090048.900   110828960.379 8      1750.107          49.125    21090060.020    86360269.131 8      1363.720          48.750    21090060.840    86360272.137 8      1363.720          49.750
G06  22625632.320   118898494.765 6      -623.507          41.750    22625630.080   118898494.770 6      -623.507          41.187    22625649.380    92648248.475 6      -485.850          40.562    22625650.280    92648253.469 7      -485.850          45.937
R13  21580574.340   115239041.053 6      6063.025          41.625    21580573.560   115239041.046 6      6063.025          40.750
G22  24650046.820   129536867.117 7      5022.914          42.062    24650044.900   129536867.122 4      5022.914          24.687    24650074.720   100937820.678 4      3913.959          24.250
R12  21193042.020   113209433.029 7      3280.736          47.437    21193041.880   113209433.035 7      3280.736          47.375    21193059.420    88051851.162 8      2551.684          48.562    21193059.860    88051852.166 8      2551.684          48.875
R17  20712553.860   110837062.301 7        10.986          47.500    20712553.300   110837062.306 7        10.986          46.875    20712571.440    86206669.414 8         8.544          49.562    20712570.900    86206668.420 8         8.544          49.375
G05  22057825.940   115914672.738 7      5112.237          44.000    22057824.960   115914672.730 7      5112.237          43.875    22057834.300    90323141.150 7      3983.561          43.500    22057834.580    90323151.150 7      3983.561          46.250
G07  23161442.540   121714194.460 7       237.914          44.125    23161441.400   121714194.460 7       237.914          42.312    23161453.960    94842253.113 7       185.387          42.125    23161454.540    94842288.124 7       185.387          46.125
> 2024 10 07 12 01  1.0000000  0 14
G11  20833472.680   109480631.913 7      1663.448          47.687    20833470.960   109480631.920 6      1663.448          40.187    20833479.520    85309604.455 6      1296.193          39.562    20833480.140    85309626.456 8      1296.193          52.562
G13  21269516.020   111772062.325 8      4028.287          48.562    21269515.920   111772062.329 6      4028.287          37.125    21269523.820    87095139.502 6      3138.925          37.187
G20  20505815.500   107758784.004 7      3944.518          47.125    20505813.140   107758784.009 6      3944.518          40.625    20505820.640    83967902.349 6      3073.650          40.187
R03  21573913.820   115486836.672 7      3833.316          44.375    21573912.820   115486836.692 7      3833.316          43.875    21573929.580    89823167.309 7      2981.468          47.187    21573929.340    89823168.304 7      2981.468          47.812
R02  21056357.020   112360751.634 8      1973.666          48.000    21056356.080   112360751.637 7      1973.666          46.375    21056370.920    87391755.205 8      1535.073          49.062    21056370.960    87391756.200 8      1535.073          49.437
R18  21063929.000   112440678.597 7      3500.297          46.375    21063928.800   112440678.588 7      3500.297          46.625    21063943.700    87453924.377 8      2722.454          49.062    21063943.480    87453921.383 8      2722.454          49.750
G30  21089717.120   110827210.403 8      1749.801          49.500    21089716.000   110827210.402 8      1749.801          50.000    21089727.100    86358905.511 8      1363.481          50.250    21089727.600    86358908.515 8      1363.481          50.000
G06  22625750.880   118899118.291 6      -623.665          41.812    22625748.760   118899118.298 6      -623.665          41.500    22625768.160    92648734.323 6      -485.972          41.062    22625769.320    92648739.321 7      -485.972          46.000
R13  21579439.160   115232978.059 6      6062.885          41.625    21579438.040   115232978.082 6      6062.885          40.750
G22  24649090.900   129531844.002 6      5023.345          41.687    24649089.040   129531844.004 4      5023.345          24.687    24649118.860   100933906.557 4      3914.295          24.250
R12  21192428.080   113206152.462 7      3280.338          46.812    21192427.640   113206152.466 8      3280.338          48.000    21192445.600    88049299.610 8      2551.374          49.187    21192445.560    88049300.614 8      2551.374          48.875
R17  20712552.140   110837051.599 7        10.444          47.062    20712551.340   110837051.609 7        10.444          46.250    20712569.240    86206661.086 8         8.123          49.625    20712568.400    86206660.090 8         8.123          50.312
G05  22056853.460   115909560.342 7      5112.450          44.562    22056852.180   115909560.339 7      5112.450          43.687    22056861.600    90319157.472 7      3983.727          43.812    22056861.940    90319167.474 7      3983.727          47.250
G07  23161397.480   121713956.599 7       237.716          42.687    23161396.120   121713956.604 6       237.716          41.937    23161408.760    94842067.765 6       185.233          41.625    23161409.580    94842102.776 7       185.233          46.375
> 2024 10 07 12 01  2.0000000  0 14
G11  20833156.120   109478968.749 7      1662.904          47.625    20833154.500   109478968.754 6      1662.904          39.687    20833163.140    85308308.477 6      1295.770          39.312    20833163.940    85308330.474 8      1295.770          52.312
G13  21268749.500   111768034.174 8      4028.026          48.437    21268749.340   111768034.182 6      4028.026          37.187    21268757.200    87092000.688 6      3138.722          36.937
G20  20505064.780   107754839.664 7      3944.250          47.187    20505062.480   107754839.669 6      3944.250          40.187    20505070.120    83964828.837 6      3073.442          40.125
R03  21573197.840   115483003.370 7      3833.346          45.437    21573197.380   115483003.398 7      3833.346          44.187    21573213.020    89820185.856 7      2981.491          47.062    21573213.040    89820186.860 7      2981.491          46.875
R02  21055987.560   112358777.971 7      1973.745          47.812    21055986.260   112358777.964 7      1973.745          46.562    21056001.120    87390220.116 8      1535.135          49.625    21056000.960    87390221.107 8      1535.135          49.250
R18  21063273.060   112437178.792 7      3499.395          47.000    21063273.440   112437178.774 7      3499.395          46.562    21063288.120    87451202.302 8      2721.752          49.937    21063287.560    87451199.308 8      2721.752          50.000
G30  21089384.280   110825460.875 8      1749.335          49.062    21089382.980   110825460.877 8      1749.335          49.437    21089394.100    86357542.243 8      1363.118          49.687    21089394.800    86357545.245 8      1363.118          49.750
G06  22625869.620   118899741.961 7      -623.838          42.187    22625867.360   118899741.966 6      -623.838          40.875    22625886.960    92649220.281 6      -486.108          40.625    22625887.920    92649225.273 7      -486.108          46.250
R13  21578303.880   115226915.370 6      6062.613          41.812    21578302.860   115226915.384 6      6062.613          41.125
G22  24648134.640   129526820.630 7      5023.634          42.562    24648133.160   129526820.629 4      5023.634          24.687    24648162.960   100929992.234 4      3914.520          24.250
R12  21191814.320   113202872.637 7      3279.359          45.750    21191813.820   113202872.641 7      3279.359          47.250    21191831.540    88046748.642 8      2550.612          49.437    21191831.700    88046749.646 8      2550.612          49.250
R17  20712550.180   110837041.405 7         9.901          47.437    20712549.640   110837041.409 7         9.901          46.500    20712567.180    86206653.139 8         7.701          50.125    20712567.080    86206652.144 8         7.701          49.750
G05  22055880.580   115904447.986 7      5112.273          44.437    22055879.460   115904447.989 7      5112.273          43.812    22055888.720    90315173.826 7      3983.590          43.437    22055889.260    90315183.836 7      3983.590          46.812
G07  23161352.100   121713718.929 7       237.463          43.750    23161351.180   121713718.934 6       237.463          41.875    23161363.480    94841882.562 6       185.036          41.562    23161364.140    94841917.569 7       185.036          46.375
> 2024 10 07 12 01  3.0000000  0 14
G11  20832839.800   109477306.295 7      1662.148          47.562    20832838.240   109477306.300 6      1662.148          39.625    20832846.820    85307013.054 6      1295.180          39.437    20832847.400    85307035.049 8      1295.180          52.312
G13  21267983.060   111764006.426 8      4027.593          48.500    21267982.760   111764006.431 6      4027.593          36.750    21267990.780    87088862.185 6      3138.384          36.937
G20  20504314.320   107750895.755 7      3943.761          47.312    20504311.960   107750895.760 6      3943.761          40.437    20504319.680    83961755.657 6      3073.061          40.000
R03  21572481.740   115479170.175 7      3833.169          45.625    21572481.320   115479170.206 7      3833.169          44.562    21572496.680    89817204.480 7      2981.354          47.187    21572496.960    89817205.482 7      2981.354          46.187
R02  21055617.800   112356804.383 7      1973.592          47.875    21055616.700   112356804.381 7      1973.592          46.437    21055631.480    87388685.103 8      1535.016          49.187    21055631.300    87388686.098 8      1535.016          49.687
R18  21062617.940   112433679.923 7      3498.437          46.937    21062617.380   112433679.908 7      3498.437          47.125    21062632.780    87448480.956 8      2721.006          49.875    21062632.300    87448477.961 8      2721.006          49.875
G30  21089051.500   110823711.968 8      1748.660          49.500    21089050.220   110823711.973 8      1748.660          49.500    21089061.220    86356179.454 8      1362.593          50.062    21089061.800    86356182.460 8      1362.593          49.375
G06  22625988.160   118900365.941 7      -624.042          42.312    22625986.360   118900365.949 6      -624.042          41.062    22626005.760    92649706.483 6      -486.267          40.875    22626006.660    92649711.483 7      -486.267          45.875
R13  21577168.660   115220853.142 6      6062.014          41.812    21577168.020   115220853.148 6      6062.014          41.125
G22  24647178.800   129521797.223 7      5023.422          42.000    24647177.280   129521797.225 4      5023.422          24.687    24647207.140   100926077.890 4      3914.355          24.875
R12  21191200.100   113199593.654 7      3278.528          46.562    21191200.060   113199593.664 7      3278.528          46.937    21191217.640    88044198.324 8      2549.966          49.062    21191217.960    88044199.334 8      2549.966          49.750
R17  20712548.500   110837031.872 8         9.195          48.375    20712548.240   110837031.889 7         9.195          47.312    20712565.340    86206645.728 8         7.152          50.250    20712565.320    86206644.736 8         7.152          50.187
G05  22054907.640   115899335.809 7      5112.025          44.500    22054906.800   115899335.814 7      5112.025          44.187    22054915.840    90311190.317 7      3983.396          43.687    22054916.220    90311200.317 7      3983.396          46.812
G07  23161307.240   121713481.630 7       237.136          44.187    23161305.720   121713481.633 7       237.136          42.562    23161318.280    94841697.641 7       184.781          42.562    23161318.940    94841732.650 7       184.781          46.125
> 2024 10 07 12 01  4.0000000  0 14
G11  20832523.580   109475644.424 8      1661.551          48.062    20832521.920   109475644.429 6      1661.551          39.750    20832530.600    85305718.086 6      1294.715          39.437    20832531.080    85305740.081 8      1294.715          52.312
G13  21267216.580   111759978.988 8      4027.173          48.312    21267216.420   111759978.996 6      4027.173          37.000    21267224.320    87085723.921 6      3138.057          36.875
G20  20503563.760   107746952.127 7      3943.402          47.312    20503561.560   107746952.137 6      3943.402          40.375    20503569.100    83958682.704 6      3072.781          40.062
R03  21571765.580   115475336.983 7      3833.240          45.562    21571765.240   115475337.019 7      3833.240          44.875    21571780.880    89814223.107 7      2981.409          46.687    21571780.760    89814224.110 7      2981.409          46.687
R02  21055247.840   112354830.774 7      1973.647          47.500    21055246.540   112354830.770 7      1973.647          47.312    21055261.280    87387150.070 8      1535.059          49.812    21055261.740    87387151.067 8      1535.059          49.625
R18  21061962.840   112430181.837 7      3497.636          46.562    21061962.220   112430181.832 7      3497.636          46.812    21061977.280    87445760.230 8      2720.384          50.187    21061977.260    87445757.236 8      2720.384          49.500
G30  21088718.700   110821963.568 8      1748.128          48.750    21088717.620   110821963.567 8      1748.128          49.937    21088728.560    86354817.068 8      1362.177          49.937    21088729.300    86354820.074 8      1362.177          49.750
G06  22626106.900   118900990.166 6      -624.429          41.937    22626105.200   118900990.181 6      -624.429          40.812    22626124.480    92650192.886 6      -486.568          40.500    22626125.840    92650197.886 7      -486.568          46.062
R13  21576033.340   115214791.251 6      6061.688          41.875    21576032.540   115214791.241 6      6061.688          40.937
G22  24646222.660   129516773.622 7      5023.666          42.000    24646221.280   129516773.621 4      5023.666          24.687    24646251.160   100922163.389 4      3914.545          24.875
R12  21190586.380   113196315.457 7      3277.795          47.750    21190586.260   113196315.463 7      3277.795          47.375    21190603.920    88041648.614 8      2549.396          49.125    21190604.300    88041649.620 8      2549.396          49.312
R17  20712546.680   110837022.949 7         8.558          47.375    20712546.380   110837022.974 7         8.558          46.812    20712563.740    86206638.786 8         6.656          49.625    20712563.460    86206637.794 8         6.656          49.562
G05  22053935.060   115894223.713 7      5111.983          44.812    22053934.140   115894223.713 7      5111.983          44.437    22053943.080    90307206.870 7      3983.364          44.312    22053943.440    90307216.876 7      3983.364          47.062
G07  23161262.280   121713244.589 7       236.789          45.375    23161260.640   121713244.596 7       236.789          42.562    23161273.100    94841512.934 6       184.511          41.875    23161273.460    94841547.947 7       184.511          46.687
> 2024 10 07 12 01  5.0000000  0 14
G11  20832207.360   109473983.153 8      1661.226          48.375    20832205.960   109473983.158 6      1661.226          40.375    20832214.520    85304423.582 6      1294.462          40.000    20832214.900    85304445.580 8      1294.462          52.500
G13  21266450.440   111755951.836 7      4027.150          47.500    21266450.020   111755951.849 6      4027.150          37.000    21266458.000    87082585.883 6      3138.039          36.625
G20  20502813.520   107743008.824 7      3943.370          47.187    20502811.220   107743008.829 6      3943.370          40.437    20502818.820    83955609.999 6      3072.756          40.187
R03  21571049.360   115471503.839 7      3833.368          45.375    21571049.520   115471503.862 7      3833.368          44.750    21571064.720    89811241.781 7      2981.509          46.562    21571064.560    89811242.784 7      2981.509          46.000
R02  21054878.020   112352857.149 7      1973.871          47.625    21054876.880   112352857.147 7      1973.871          46.625    21054891.880    87385615.024 8      1535.233          49.125    21054891.800    87385616.021 8      1535.233          49.687
R18  21061307.480   112426684.604 7      3497.004          45.437    21061307.160   112426684.584 7      3497.004          46.187    21061322.460    87443040.150 8      2719.892          49.750    21061321.840    87443037.151 8      2719.892          49.437
G30  21088386.120   110820215.693 8      1747.874          49.062    21088384.940   110820215.695 8      1747.874          49.375    21088395.920    86353455.084 8      1361.979          49.375    21088396.680    86353458.088 8      1361.979          49.687
G06  22626225.740   118901614.629 6      -624.336          41.500    22626223.920   118901614.637 6      -624.336          40.812    22626243.300    92650679.461 6      -486.496          40.312    22626244.700    92650684.454 7      -486.496          46.312
R13  21574898.240   115208729.690 6      6061.566          41.875    21574897.020   115208729.689 6      6061.566          40.937
G22  24645266.800   129511749.813 6      5024.218          41.000    24645265.320   129511749.815 4      5024.218          24.687    24645295.160   100918248.727 4      3914.975          24.875
R12  21189972.840   113193038.049 7      3277.235          47.187    21189972.900   113193038.053 7      3277.235          47.312    21189990.520    88039099.524 8      2548.960          49.437    21189990.900    88039100.530 8      2548.960          48.812
R17  20712544.880   110837014.638 7         8.275          47.750    20712545.120   110837014.661 7         8.275          46.812    20712561.780    86206632.314 8         6.436          49.187    20712561.920    86206631.322 8         6.436          49.875
G05  22052962.180   115889111.696 7      5112.196          44.750    22052961.440   115889111.696 7      5112.196          44.187    22052970.280    90303223.486 7      3983.529          43.875    22052970.520    90303233.490 7      3983.529          46.812
G07  23161216.800   121713007.834 7       236.831          45.000    23161215.500   121713007.836 7       236.831          42.062    23161228.040    94841328.439 6       184.544          41.500    23161228.640    94841363.452 7       184.544          46.062
> 2024 10 07 12 01  6.0000000  0 14
G11  20831891.540   109472322.577 8      1660.287          48.000    20831889.900   109472322.585 6      1660.287          40.000    20831898.360    85303129.625 6      1293.730          39.625    20831898.860    85303151.621 8      1293.730          51.875
G13  21265684.060   111751925.097 7      4026.573          47.500    21265683.480   111751925.110 6      4026.573          36.875    21265691.720    87079448.168 6      3137.589          37.000
G20  20502062.880   107739065.913 7      3942.803          46.812    20502060.820   107739065.918 6      3942.803          40.812    20502068.580    83952537.597 6      3072.314          40.562
R03  21570333.300   115467670.794 7      3833.076          44.625    21570333.100   115467670.814 7      3833.076          44.875    21570348.800    89808260.515 7      2981.282          46.687    21570348.520    89808261.515 7      2981.282          46.375
R02  21054507.860   112350883.561 7      1973.592          47.312    21054507.340   112350883.557 7      1973.592          47.000    21054521.520    87384080.005 8      1535.016          49.750    21054522.020    87384081.002 8      1535.016          49.750
R18  21060652.380   112423188.287 7      3495.837          46.625    21060652.320   112423188.280 7      3495.837          46.062    21060667.440    87440320.796 8      2718.984          49.750    21060666.800    87440317.802 8      2718.984          49.937
G30  21088053.660   110818468.430 8      1747.027          48.375    21088052.520   110818468.433 8      1747.027          49.375    21088063.500    86352093.585 8      1361.320          49.812    21088064.120    86352096.589 8      1361.320          50.062
G06  22626344.460   118902239.380 6      -624.780          41.375    22626342.960   118902239.390 6      -624.780          40.500    22626362.140    92651166.269 6      -486.842          40.375    22626362.960    92651171.269 7      -486.842          45.875
R13  21573763.120   115202668.579 6      6060.989          41.875    21573762.260   115202668.580 6      6060.989          40.937
G22  24644310.860   129506725.999 6      5023.780          41.937    24644309.460   129506726.004 4      5023.780          24.687    24644339.180   100914334.067 4      3914.633          24.875
R12  21189359.220   113189761.550 7      3276.134          47.125    21189359.360   113189761.554 7      3276.134          46.812    21189377.100    88036551.140 8      2548.104          49.125    21189377.520    88036552.148 8      2548.104          49.625
R17  20712543.260   110837007.013 7         7.360          47.375    20712543.620   110837007.036 7         7.360          46.750    20712560.340    86206626.375 8         5.725          49.500    20712560.320    86206625.376 8         5.725          49.250
G05  22051989.340   115883999.860 7      5111.815          44.875    22051988.740   115883999.868 7      5111.815          44.437    22051997.540    90299240.246 7      3983.233          44.437    22051997.700    90299250.252 7      3983.233          47.312
G07  23161171.600   121712771.436 7       236.224          44.187    23161170.460   121712771.438 7       236.224          42.187    23161183.220    94841144.229 6       184.070          41.875    23161183.740    94841179.242 7       184.070          46.500
> 2024 10 07 12 01  7.0000000  0 14
G11  20831575.620   109470662.609 7      1659.636          47.937    20831574.140   109470662.616 6      1659.636          39.937    20831582.740    85301836.139 6      1293.223          39.375    20831583.000    85301858.133 8      1293.223          52.312
G13  21264917.740   111747898.663 8      4026.288          48.000    21264917.220   111747898.675 6      4026.288          36.937    21264925.520    87076310.683 6      3137.368          36.875
G20  20501312.640   107735123.331 7      3942.430          47.625    20501310.600   107735123.338 6      3942.430          40.500    20501318.200    83949465.454 6      3072.023          40.125
R03  21569617.300   115463837.762 7      3832.982          44.500    21569617.720   115463837.791 7      3832.982          44.625    21569632.680    89805279.264 7      2981.208          47.125    21569632.640    89805280.266 7      2981.208          46.875
R02  21054138.280   112348909.981 7      1973.535          47.687    21054137.800   112348909.971 7      1973.535          47.125    21054151.660    87382544.980 8      1534.971          49.250    21054151.980    87382545.977 8      1534.971          48.562
R18  21059997.760   112419692.848 7      3494.912          46.875    21059997.560   112419692.841 7      3494.912          46.187    21060012.980    87437602.118 8      2718.265          50.187    21060012.260    87437599.121 8      2718.265          50.562
G30  21087721.220   110816721.704 8      1746.346          49.312    21087719.960   110816721.703 8      1746.346          49.562    21087731.080    86350732.493 8      1360.789          49.375    21087731.920    86350735.497 8      1360.789          49.812
G06  22626463.500   118902864.427 7      -625.174          43.437    22626462.220   118902864.434 6      -625.174          41.000    22626481.100    92651653.292 6      -487.149          41.187    22626482.040    92651658.286 7      -487.149          45.937
R13  21572627.940   115196607.854 6      6060.560          41.687    21572627.020   115196607.855 6      6060.560          40.937
G22  24643354.600   129501701.978 6      5024.130          41.000    24643353.380   129501701.983 4      5024.130          24.875    24643383.160   100910419.239 4      3914.907          24.875
R12  21188746.080   113186485.858 7      3275.200          47.375    21188746.340   113186485.862 7      3275.200          47.562    21188764.020    88034003.390 8      2547.378          49.250    21188764.340    88034004.396 8      2547.378          49.875
R17  20712542.120   110836999.984 7         6.627          47.250    20712542.160   110837000.010 7         6.627          47.125    20712559.020    86206620.904 8         5.155          49.375    20712559.020    86206619.905 8         5.155          49.625
G05  22051016.660   115878888.140 7      5111.606          45.437    22051016.080   115878888.142 7      5111.606          44.875    22051024.880    90295257.087 7      3983.069          44.187    22051025.340    90295267.087 7      3983.069          46.562
G07  23161126.480   121712535.322 7       235.889          44.250    23161125.820   121712535.321 7       235.889          42.437    23161138.320    94840960.235 6       183.810          41.625    23161138.760    94840995.247 7       183.810          46.062
> 2024 10 07 12 01  8.0000000  0 14
G11  20831259.880   109469003.105 8      1659.217          48.562    20831258.520   109469003.110 6      1659.217          40.250    20831266.940    85300543.013 6      1292.896          40.125    20831267.260    85300565.007 8      1292.896          51.812
G13  21264151.660   111743872.404 7      4026.079          47.125    21264150.700   111743872.420 6      4026.079          36.750    21264159.400    87073173.346 6      3137.205          36.500
G20  20500562.600   107731180.919 7      3942.263          47.187    20500560.420   107731180.927 6      3942.263          40.625    20500568.020    83946393.451 6      3071.893          40.125
R03  21568901.160   115460004.557 7      3833.132          45.000    21568901.600   115460004.598 7      3833.132          44.625    21568916.920    89802297.899 7      2981.325          47.125    21568916.500    89802298.900 7      2981.325          46.250
R02  21053768.040   112346936.279 8      1973.744          48.312    21053768.000   112346936.272 7      1973.744          47.062    21053781.900    87381009.878 8      1535.134          48.937    21053782.460    87381010.877 8      1535.134          48.687
R18  21059342.820   112416198.093 7      3494.357          46.625    21059343.720   112416198.085 7      3494.357          46.875    21059358.320    87434883.974 8      2717.833          49.562    21059357.320    87434880.973 8      2717.833          50.625
G30  21087388.900   110814975.332 8      1746.145          49.875    21087387.740   110814975.334 8      1746.145          49.500    21087398.640    86349371.686 8      1360.633          49.625    21087399.540    86349374.694 8      1360.633          49.250
G06  22626582.600   118903489.526 7      -625.211          42.937    22626581.480   118903489.539 6      -625.211          41.312    22626600.080    92652140.366 6      -487.177          40.937    22626601.280    92652145.364 7      -487.177          46.187
R13  21571493.080   115190547.325 6      6060.428          41.687    21571492.000   115190547.331 6      6060.428          40.875
G22  24642398.640   129496677.662 6      5024.414          41.062    24642397.100   129496677.667 4      5024.414          24.875    24642426.940   100906504.181 4      3915.128          24.875
R12  21188133.100   113183210.774 7      3274.712          47.875    21188133.320   113183210.781 7      3274.712          47.250    21188150.860    88031456.094 8      2546.998          49.500    21188151.260    88031457.096 8      2546.998          49.375
R17  20712540.900   110836993.370 7         6.344          47.187    20712541.060   110836993.390 7         6.344          47.250    20712557.740    86206615.745 8         4.934          49.312    20712557.820    86206614.750 8         4.934          49.062
G05  22050043.880   115873776.365 7      5111.686          44.875    22050043.360   115873776.365 7      5111.686          44.500    22050052.200    90291273.890 7      3983.132          44.500    22050052.400    90291283.892 7      3983.132          47.062
G07  23161081.820   121712299.331 7       235.775          44.375    23161080.980   121712299.331 7       235.775          42.000    23161093.500    94840776.339 7       183.721          42.000    23161093.500    94840811.346 7       183.721          46.687
> 2024 10 07 12 01  9.0000000  0 14
G11  20830944.060   109467344.219 8      1658.384          48.312    20830942.900   109467344.230 6      1658.384          40.375    20830951.260    85299250.375 6      1292.247          40.000    20830951.700    85299272.373 8      1292.247          51.875
G13  21263385.580   111739846.474 7      4025.624          47.562    21263384.660   111739846.487 6      4025.624          36.312    21263393.160    87070036.256 6      3136.850          36.000
G20  20499812.280   107727238.857 7      3941.723          46.625    20499810.240   107727238.864 6      3941.723          40.562    20499817.940    83943321.706 6      3071.472          40.375
R03  21568185.000   115456171.389 7      3832.938          45.125    21568185.160   115456171.436 7      3832.938          44.437    21568200.780    89799316.550 7      2981.174          46.750    21568200.480    89799317.550 7      2981.174          46.437
R02  21053398.220   112344962.654 8      1973.450          48.250    21053398.680   112344962.654 7      1973.450          47.250    21053412.040    87379474.840 8      1534.906          49.250    21053412.440    87379475.839 8      1534.906          49.312
R18  21058688.300   112412704.170 7      3493.388          47.812    21058689.240   112412704.165 7      3493.388          46.875    21058703.880    87432166.477 8      2717.080          50.062    21058703.080    87432163.476 8      2717.080          50.875
G30  21087056.660   110813229.512 8      1745.404          50.312    21087055.700   110813229.514 8      1745.404          49.562    21087066.380    86348011.311 8      1360.055          49.562    21087067.200    86348014.319 8      1360.055          49.375
G06  22626701.620   118904114.904 7      -625.732          43.125    22626700.600   118904114.917 6      -625.732          41.437    22626719.140    92652627.653 6      -487.583          41.562    22626720.280    92652632.639 7      -487.583          46.562
R13  21570358.200   115184487.169 6      6059.975          41.500    21570356.220   115184487.183 6      6059.975          40.875
G22  24641442.560   129491653.215 6      5024.341          41.312    24641441.020   129491653.217 4      5024.341          24.875    24641470.700   100902589.025 4      3915.071          24.875
R12  21187520.240   113179936.447 7      3273.855          47.812    21187520.300   113179936.450 7      3273.855          47.250    21187538.000    88028909.393 8      2546.332          49.500    21187538.220    88028910.397 8      2546.332          49.562
R17  20712539.500   110836987.390 7         5.538          47.625    20712540.100   110836987.410 7         5.538          47.250    20712556.660    86206611.083 8         4.307          49.312    20712556.720    86206610.085 8         4.307          49.812
G05  22049071.220   115868664.700 7      5111.404          45.125    22049070.920   115868664.700 7      5111.404          45.000    22049079.400    90287290.776 7      3982.912          45.062    22049079.460    90287300.774 7      3982.912          46.687
G07  23161037.300   121712063.617 7       235.527          44.812    23161036.380   121712063.619 7       235.527          42.562    23161048.400    94840592.657 7       183.527          42.187    23161049.020    94840627.662 7       183.527          46.375
> 2024 10 07 12 01 10.0000000  0 14
G11  20830628.400   109465686.074 8      1657.938          48.062    20830627.280   109465686.085 6      1657.938          39.812    20830635.560    85297958.304 6      1291.900          39.437    20830636.100    85297980.299 8      1291.900          51.812
G13  21262619.520   111735820.986 7      4025.406          47.062    21262618.520   111735820.998 6      4025.406          36.000    21262627.120    87066899.516 6      3136.680          36.000
G20  20499062.120   107723297.220 7      3941.601          46.937    20499060.140   107723297.228 6      3941.601          40.187    20499068.080    83940250.303 6      3071.378          39.937
R03  21567469.140   115452338.405 7      3833.018          45.875    21567469.740   115452338.442 7      3833.018          44.937    21567484.600    89796335.335 7      2981.236          47.250    21567484.360    89796336.332 7      2981.236          46.812
R02  21053028.200   112342989.183 7      1973.533          47.937    21053028.040   112342989.192 7      1973.533          47.500    21053042.140    87377939.914 8      1534.970          48.562    21053042.540    87377940.918 8      1534.970          49.500
R18  21058033.900   112409211.237 7      3492.593          46.750    21058034.820   112409211.233 7      3492.593          46.625    21058050.080    87429449.749 8      2716.461          49.750    21058048.860    87429446.750 8      2716.461          50.187
G30  21086724.720   110811484.359 8      1745.020          49.500    21086723.720   110811484.359 8      1745.020          48.750    21086734.060    86346651.439 8      1359.756          49.000    21086735.000    86346654.449 8      1359.756          48.937
G06  22626820.620   118904740.614 7      -625.779          42.375    22626819.840   118904740.626 6      -625.779          41.062    22626838.400    92653115.206 6      -487.620          40.937    22626839.200    92653120.200 7      -487.620          46.187
R13  21569223.440   115178427.574 6      6059.518          41.500    21569221.880   115178427.585 6      6059.518          40.875
G22  24640486.420   129486628.736 6      5024.565          40.625    24640484.920   129486628.741 4      5024.565          24.875    24640514.540   100898673.845 4      3915.245          24.875
R12  21186907.320   113176663.089 7      3273.033          47.500    21186907.600   113176663.087 7      3273.033          47.000    21186925.300    88026363.456 8      2545.693          48.812    21186925.580    88026364.458 8      2545.693          49.625
R17  20712538.720   110836982.140 7         5.110          46.750    20712539.640   110836982.158 7         5.110          46.750    20712555.640    86206606.988 8         3.974          49.500    20712555.700    86206605.989 8         3.974          49.187
G05  22048098.740   115863553.232 7      5111.526          45.500    22048098.200   115863553.237 7      5111.526          44.875    22048106.700    90283307.818 7      3983.007          44.625    22048107.160    90283317.818 7      3983.007          47.250
G07  23160992.580   121711828.341 7       235.291          44.187    23160991.520   121711828.343 6       235.291          41.875    23161003.620    94840409.325 7       183.343          42.000    23161004.380    94840444.330 7       183.343          46.312
> 2024 10 07 12 01 11.0000000  0 14
G11  20830312.720   109464028.434 8      1657.404          48.062    20830312.020   109464028.439 6      1657.404          39.562    20830320.260    85296666.634 6      1291.483          39.187    20830320.840    85296688.627 8      1291.483          52.125
G13  21261853.560   111731795.692 7      4025.225          46.750    21261852.380   111731795.707 6      4025.225          36.000    21261861.260    87063762.919 6      3136.539          36.062
G20  20498312.020   107719355.807 7      3941.327          47.562    20498310.160   107719355.812 6      3941.327          40.187    20498318.040    83937179.070 6      3071.164          39.875
R03  21566753.120   115448505.331 7      3832.971          45.312    21566752.800   115448505.373 7      3832.971          44.687    21566769.360    89793354.061 7      2981.200          46.812    21566768.260    89793355.060 7      2981.200          46.437
R02  21052658.400   112341015.590 7      1973.663          47.937    21052658.760   112341015.594 7      1973.663          47.375    21052672.780    87376404.891 8      1535.071          49.187    21052672.560    87376405.888 8      1535.071          50.250
R18  21057380.220   112405719.049 7      3491.710          47.500    21057380.600   112405719.055 7      3491.710          46.375    21057395.660    87426733.613 8      2715.774          50.500    21057394.980    87426730.614 8      2715.774          50.750
G30  21086392.760   110809739.622 8      1744.540          49.500    21086391.800   110809739.624 8      1744.540          49.062    21086401.960    86345291.908 8      1359.382          49.125    21086403.000    86345294.914 8      1359.382          49.125
G06  22626939.860   118905366.478 7      -626.027          42.750    22626939.280   118905366.488 6      -626.027          41.562    22626957.420    92653602.876 6      -487.814          41.250    22626958.260    92653607.872 7      -487.814          46.375
R13  21568088.700   115172368.232 6      6059.194          41.437    21568087.080   115172368.244 6      6059.194          41.062
G22  24639530.200   129481603.971 6      5024.792          40.875    24639528.720   129481603.973 4      5024.792          24.875    24639558.420   100894758.440 4      3915.423          25.000
R12  21186294.660   113173390.422 7      3272.389          47.562    21186294.980   113173390.426 7      3272.389          47.437    21186312.660    88023818.053 8      2545.191          49.125    21186313.160    88023819.059 8      2545.191          49.562
R17  20712537.920   110836977.391 7         4.499          47.812    20712538.520   110836977.401 7         4.499          47.625    20712554.760    86206603.284 8         3.499          48.875    20712554.700    86206602.285 8         3.499          49.500
G05  22047126.200   115858441.801 7      5111.408          46.562    22047125.720   115858441.803 7      5111.408          44.937    22047133.840    90279324.885 7      3982.915          44.375    22047134.520    90279334.883 7      3982.915          47.125
G07  23160947.920   121711593.241 7       235.019          45.000    23160946.580   121711593.246 7       235.019          42.062    23160958.700    94840226.118 6       183.131          41.500    23160959.620    94840261.125 7       183.131          46.625
> 2024 10 07 12 01 12.0000000  0 14
G11  20829997.720   109462371.398 7      1656.741          47.125    20829996.780   109462371.408 6      1656.741          40.187    20830004.840    85295375.433 6      1290.967          39.625    20830005.300    85295397.432 8      1290.967          51.937
G13  21261087.640   111727770.723 7      4024.865          46.812    21261086.260   111727770.739 6      4024.865          36.187    21261095.260    87060626.586 5      3136.259          35.937
G20  20497562.260   107715414.709 7      3940.907          46.625    20497560.200   107715414.709 6      3940.907          40.687    20497568.000    83934108.085 6      3070.837          40.312
R03  21566036.980   115444672.243 7      3833.122          45.000    21566036.760   115444672.285 7      3833.122          44.187    21566052.900    89790372.766 7      2981.317          47.437    21566052.480    89790373.774 7      2981.317          47.375
R02  21052288.440   112339041.936 7      1973.671          47.375    21052288.240   112339041.939 7      1973.671          46.812    21052302.720    87374869.839 8      1535.077          49.000    21052302.840    87374870.842 8      1535.077          49.437
R18  21056726.000   112402227.710 7      3490.895          47.375    21056727.200   112402227.713 7      3490.895          46.687    21056741.960    87424018.125 8      2715.141          50.500    21056740.900    87424015.126 8      2715.141          50.437
G30  21086060.720   110807995.407 8      1744.011          49.500    21086059.860   110807995.410 8      1744.011          49.125    21086070.380    86343932.788 8      1358.969          49.125    21086071.080    86343935.789 8      1358.969          49.375
G06  22627059.100   118905992.555 7      -626.232          43.062    22627058.380   118905992.568 7      -626.232          42.187    22627076.820    92654090.710 6      -487.973          41.500    22627077.740    92654095.714 7      -487.973          46.375
R13  21566954.320   115166309.219 6      6058.791          41.437    21566952.420   115166309.228 6      6058.791          41.062
G22  24638573.980   129476579.043 6      5024.992          40.875    24638572.520   129476579.045 4      5024.992          24.875    24638602.360   100890842.899 4      3915.578          25.000
R12  21185682.060   113170118.587 8      3271.417          48.375    21185682.580   113170118.590 7      3271.417          46.875    21185700.220    88021273.298 8      2544.436          49.125    21185700.600    88021274.300 8      2544.436          49.625
R17  20712537.160   110836973.204 7         3.928          47.437    20712537.300   110836973.211 7         3.928          46.500    20712554.360    86206600.016 8         3.055          49.187    20712553.780    86206599.018 8         3.055          49.375
G05  22046153.380   115853330.436 7      5111.359          45.687    22046152.940   115853330.438 7      5111.359          44.562    22046161.100    90275342.009 7      3982.877          44.312    22046162.000    90275352.013 7      3982.877          46.875
G07  23160903.400   121711358.396 7       234.793          44.437    23160901.920   121711358.398 7       234.793          42.062    23160914.160    94840043.122 6       182.955          41.812    23160914.660    94840078.125 7       182.955          46.250
> 2024 10 07 12 01 13.0000000  0 14
G11  20829682.600   109460715.011 7      1656.188          47.937    20829681.520   109460715.021 6      1656.188          40.312    20829689.920    85294084.733 6      1290.536          39.750    20829690.260    85294106.731 8      1290.536          52.562
G13  21260321.800   111723746.107 7      4024.574          46.625    21260320.280   111723746.122 5      4024.574          35.812    21260329.400    87057490.520 5      3136.032          35.812
G20  20496812.400   107711473.955 7      3940.747          47.500    20496810.520   107711473.955 6      3940.747          40.500    20496817.960    83931037.368 6      3070.712          40.187
R03  21565321.000   115440839.233 7      3833.174          45.000    21565321.020   115440839.275 7      3833.174          44.437    21565336.540    89787391.530 7      2981.358          47.125    21565336.600    89787392.533 7      2981.358          47.125
R02  21051918.800   112337068.329 8      1973.714          48.187    21051918.500   112337068.330 7      1973.714          46.625    21051932.960    87373334.804 8      1535.111          48.875    21051933.160    87373335.807 8      1535.111          49.000
R18  21056071.980   112398737.264 7      3490.102          47.875    21056073.460   112398737.265 7      3490.102          46.875    21056088.380    87421303.330 8      2714.523          51.062    21056087.060    87421300.331 8      2714.523          50.937
G30  21085728.800   110806251.768 8      1743.502          49.812    21085728.040   110806251.770 8      1743.502          49.437    21085738.520    86342574.100 8      1358.573          49.812    21085739.300    86342577.103 8      1358.573          49.562
G06  22627178.240   118906618.921 7      -626.335          44.000    22627177.720   118906618.931 7      -626.335          42.312    22627196.120    92654578.773 7      -488.053          42.062    22627197.000    92654583.769 7      -488.053          47.187
R13  21565819.660   115160250.638 6      6058.485          40.500    21565817.540   115160250.639 6      6058.485          40.687
G22  24637617.660   129471553.994 6      5025.302          40.625    24637616.280   129471553.999 4      5025.302          24.875    24637646.100   100886927.269 4      3915.820          25.000
R12  21185069.760   113166847.547 7      3270.770          47.937    21185070.600   113166847.553 7      3270.770          47.562    21185087.960    88018729.158 8      2543.932          49.375    21185088.300    88018730.160 8      2543.932          50.000
R17  20712536.880   110836969.670 7         3.386          47.187    20712536.700   110836969.679 7         3.386          46.812    20712553.420    86206597.257 8         2.633          49.000    20712553.300    86206596.258 8         2.633          49.437
G05  22045180.600   115848219.236 7      5111.220          45.812    22045180.180   115848219.235 7      5111.220          44.375    22045188.640    90271359.252 7      3982.769          45.125    22045189.240    90271369.254 7      3982.769          47.125
G07  23160858.560   121711123.880 7       234.545          44.375    23160857.300   121711123.887 6       234.545          41.875    23160869.380    94839860.378 6       182.762          41.750    23160870.200    94839895.379 7       182.762          45.937
> 2024 10 07 12 01 14.0000000  0 14
G11  20829367.520   109459059.222 8      1655.265          48.187    20829366.540   109459059.230 6      1655.265          39.875    20829374.720    85292794.502 6      1289.817          39.625    20829375.040    85292816.498 8      1289.817          52.750
G13  21259555.740   111719721.780 7      4024.033          47.187    21259554.400   111719721.798 5      4024.033          35.687    21259563.500    87054354.682 5      3135.610          35.500
G20  20496062.520   107707533.517 7      3940.108          47.625    20496060.700   107707533.524 6      3940.108          40.625    20496068.220    83927966.896 6      3070.214          40.250
R03  21564604.880   115437006.242 7      3832.773          45.062    21564604.300   115437006.270 7      3832.773          44.437    21564620.100    89784410.316 7      2981.045          46.625    21564620.400    89784411.326 7      2981.045          46.937
R02  21051548.620   112335094.677 7      1973.492          47.875    21051549.380   112335094.678 7      1973.492          47.375    21051562.940    87371799.733 8      1534.938          49.187    21051563.220    87371800.738 8      1534.938          49.500
R18  21055418.320   112395247.615 7      3488.975          47.812    21055419.840   112395247.618 7      3488.975          47.250    21055434.560    87418589.152 8      2713.647          50.250    21055433.420    87418586.153 8      2713.647          51.250
G30  21085397.220   110804508.620 8      1742.748          49.562    21085396.360   110804508.623 8      1742.748          49.625    21085406.840    86341215.799 8      1357.985          49.750    21085407.380    86341218.806 8      1357.985          49.687
G06  22627297.540   118907245.523 7      -627.016          43.375    22627297.000   118907245.534 7      -627.016          42.437    22627315.440    92655067.015 7      -488.584          42.250    22627316.280    92655072.010 7      -488.584          46.500
R13  21564684.800   115154192.336 6      6057.947          40.437    21564682.720   115154192.345 6      6057.947          40.687
G22  24636661.400   129466528.767 6      5025.100          40.937    24636659.960   129466528.772 4      5025.100          24.687    24636689.880   100883011.499 4      3915.663          25.000
R12  21184457.520   113163577.255 8      3269.727          48.125    21184458.380   113163577.261 7      3269.727          47.750    21184475.820    88016185.596 8      2543.121          50.000    21184476.100    88016186.598 8      2543.121          50.062
R17  20712536.520   110836966.732 7         2.435          47.437    20712536.140   110836966.744 7         2.435          46.875    20712552.720    86206594.966 8         1.894          49.437    20712552.620    86206593.967 8         1.894          49.312
G05  22044208.180   115843108.083 7      5110.846          46.375    22044207.580   115843108.091 7      5110.846          44.937    22044215.920    90267376.542 7      3982.477          44.750    22044216.720    90267386.548 7      3982.477          47.250
G07  23160813.940   121710889.631 7       233.917          44.375    23160812.480   121710889.636 6       233.917          41.875    23160824.760    94839677.838 6       182.273          41.625    23160825.520    94839712.851 7       182.273          46.187
> 2024 10 07 12 01 15.0000000  0 14
G11  20829052.320   109457403.970 7      1654.949          47.687    20829051.660   109457403.973 6      1654.949          39.750    20829059.740    85291504.685 6      1289.570          39.125    20829060.200    85291526.685 8      1289.570          52.562
G13  21258790.040   111715697.734 7      4023.847          45.500    21258788.440   111715697.749 5      4023.847          35.562    21258797.820    87051219.066 5      3135.465          35.500
G20  20495312.640   107703593.354 8      3939.986          48.000    20495310.880   107703593.362 6      3939.986          40.312    20495318.400    83924896.640 6      3070.119          39.875
R03  21563889.080   115433173.173 7      3833.223          43.875    21563887.740   115433173.206 7      3833.223          44.187    21563904.100    89781429.040 7      2981.396          46.500    21563904.400    89781430.046 7      2981.396          46.187
R02  21051179.080   112333121.012 8      1973.679          48.250    21051179.420   112333121.018 7      1973.679          47.187    21051193.440    87370264.660 8      1535.084          48.812    21051193.300    87370265.663 8      1535.084          49.125
R18  21054764.900   112391758.752 7      3488.436          47.062    21054765.560   112391758.756 7      3488.436          47.312    21054780.860    87415875.592 8      2713.228          50.187    21054779.940    87415872.596 8      2713.228          51.250
G30  21085065.640   110802765.969 8      1742.378          50.062    21085064.660   110802765.971 8      1742.378          50.187    21085075.140    86339857.891 8      1357.697          49.750    21085075.760    86339860.896 8      1357.697          49.250
G06  22627416.640   118907872.289 7      -626.951          43.437    22627416.340   118907872.296 7      -626.951          42.875    22627434.720    92655555.393 7      -488.533          42.375    22627435.800    92655560.391 7      -488.533          46.500
R13  21563550.260   115148134.353 6      6057.731          40.437    21563548.440   115148134.365 6      6057.731          40.375
G22  24635705.060   129461503.319 6      5025.540          40.687    24635703.440   129461503.324 4      5025.540          24.687    24635733.580   100879095.557 4      3916.005          25.000
R12  21183845.540   113160307.708 8      3269.170          48.062    21183846.320   113160307.709 7      3269.170          47.562    21183863.760    88013642.617 8      2542.688          49.375    21183864.140    88013643.617 8      2542.688          50.187
R17  20712535.820   110836964.337 7         2.142          47.687    20712535.900   110836964.357 7         2.142          46.062    20712552.200    86206593.101 8         1.666          49.687    20712552.280    86206592.107 8         1.666          49.000
G05  22043235.460   115837996.988 7      5110.978          46.187    22043234.980   115837996.996 7      5110.978          45.000    22043243.240    90263393.876 7      3982.581          44.375    22043243.780    90263403.876 7      3982.581          47.125
G07  23160769.380   121710655.598 7       233.921          43.812    23160767.940   121710655.603 7       233.921          42.187    23160780.500    94839495.471 6       182.276          41.750    23160780.820    94839530.482 7       182.276          46.500
> 2024 10 07 12 01 16.0000000  0 14
G11  20828737.460   109455749.191 8      1654.483          48.187    20828736.900   109455749.193 6      1654.483          40.562    20828744.880    85290215.245 6      1289.207          40.000    20828745.360    85290237.241 8      1289.207          52.375
G13  21258024.320   111711673.853 7      4023.603          44.375    21258022.420   111711673.874 5      4023.603          35.562    21258032.160    87048083.577 5      3135.275          35.312
G20  20494562.940   107699653.363 7      3939.809          47.312    20494561.040   107699653.368 6      3939.809          40.625    20494568.720    83921826.514 6      3069.981          40.062
R03  21563173.060   115429340.066 7      3833.111          44.187    21563171.580   115429340.089 7      3833.111          43.687    21563187.620    89778447.725 7      2981.309          47.062    21563188.240    89778448.731 7      2981.309          46.437
R02  21050809.200   112331147.267 8      1973.621          48.812    21050809.020   112331147.268 7      1973.621          46.812    21050823.920    87368729.514 8      1535.039          49.437    21050823.780    87368730.520 8      1535.039          49.687
R18  21054111.320   112388270.621 7      3487.644          47.312    21054112.500   112388270.622 7      3487.644          46.812    21054127.620    87413162.601 8      2712.612          50.562    21054126.380    87413159.601 8      2712.612          51.375
G30  21084733.920   110801023.696 8      1741.934          49.812    21084733.080   110801023.696 8      1741.934          49.625    21084743.700    86338500.271 8      1357.351          49.312    21084744.240    86338503.279 8      1357.351          49.812
G06  22627536.220   118908499.144 7      -626.947          43.687    22627535.840   118908499.154 7      -626.947          43.000    22627554.180    92656043.837 7      -488.530          42.687    22627555.100    92656048.835 7      -488.530          46.750
R13  21562415.600   115142076.558 6      6057.475          40.437    21562413.520   115142076.577 6      6057.475          40.375
G22  24634748.440   129456477.576 6      5025.784          40.187    24634747.040   129456477.578 4      5025.784          24.687    24634777.280   100875179.390 4      3916.195          25.000
R12  21183233.640   113157038.811 8      3268.456          48.375    21183234.080   113157038.812 8      3268.456          48.062    21183252.060    88011100.143 8      2542.133          49.812    21183252.100    88011101.145 8      2542.133          50.250
R17  20712535.260   110836962.403 7         1.576          47.250    20712535.260   110836962.415 7         1.576          47.375    20712551.900    86206591.582 8         1.226          49.187    20712551.860    86206590.586 8         1.226          49.500
G05  22042262.700   115832885.838 7      5111.041          46.625    22042262.460   115832885.846 7      5111.041          45.125    22042270.620    90259411.160 7      3982.630          44.937    22042271.080    90259421.168 7      3982.630          46.687
G07  23160725.220   121710421.736 7       233.574          44.687    23160723.540   121710421.741 7       233.574          42.187    23160736.160    94839313.236 7       182.006          42.000    23160736.420    94839348.243 7       182.006          46.437
> 2024 10 07 12 01 17.0000000  0 14
G11  20828422.580   109454095.003 8      1653.869          49.125    20828422.360   109454095.006 6      1653.869          41.062    20828430.220    85288926.267 6      1288.729          40.625    20828430.520    85288948.267 8      1288.729          52.312
G13  21257258.580   111707650.241 7      4023.507          45.062    21257256.700   111707650.259 5      4023.507          35.062    21257266.400    87044948.296 5      3135.200          34.750
G20  20493812.980   107695713.689 7      3939.434          46.812    20493811.420   107695713.691 6      3939.434          40.437    20493819.040    83918756.640 6      3069.689          40.062
R03  21562456.600   115425506.943 7      3833.007          44.187    21562455.140   115425506.964 7      3833.007          43.687    21562471.300    89775466.418 7      2981.228          46.812    21562471.940    89775467.421 7      2981.228          46.375
R02  21050439.400   112329173.519 7      1973.673          47.375    21050439.080   112329173.520 7      1973.673          47.125    21050454.280    87367194.379 8      1535.079          49.812    21050454.100    87367195.382 8      1535.079          49.312
R18  21053457.820   112384783.296 7      3486.880          47.250    21053458.760   112384783.300 7      3486.880          47.562    21053474.480    87410450.244 8      2712.018          50.812    21053473.220    87410447.247 8      2712.018          51.187
G30  21084402.420   110799281.915 8      1741.496          49.812    21084401.640   110799281.920 8      1741.496          49.937    21084412.180    86337143.041 8      1357.010          50.062    21084413.060    86337146.049 8      1357.010          49.625
G06  22627655.640   118909126.232 7      -627.179          44.000    22627655.080   118909126.240 7      -627.179          43.187    22627673.660    92656532.459 7      -488.711          42.625    22627674.500    92656537.453 7      -488.711          47.125
R13  21561281.600   115136019.117 6      6057.264          40.000    21561279.580   115136019.118 6      6057.264          40.375
G22  24633792.240   129451451.660 6      5025.967          39.937    24633790.720   129451451.657 4      5025.967          24.687    24633820.960   100871263.083 4      3916.338          25.000
R12  21182621.980   113153770.722 8      3267.652          48.187    21182622.360   113153770.718 7      3267.652          47.937    21182640.080    88008558.290 8      2541.507          50.000    21182640.460    88008559.294 8      2541.507          50.125
R17  20712534.980   110836961.017 7         1.097          47.437    20712535.060   110836961.032 7         1.097          46.875    20712551.700    86206590.496 8         0.853          48.937    20712551.520    86206589.497 8         0.853          49.687
G05  22041290.360   115827774.765 7      5111.006          45.812    22041289.700   115827774.772 7      5111.006          44.937    22041298.000    90255428.513 7      3982.602          44.562    22041298.540    90255438.521 7      3982.602          46.750
G07  23160680.680   121710188.110 7       233.350          44.000    23160678.940   121710188.113 6       233.350          41.875    23160691.680    94839131.182 6       181.831          41.875    23160691.840    94839166.193 7       181.831          46.125
> 2024 10 07 12 01 18.0000000  0 14
G11  20828108.100   109452441.522 7      1653.234          47.562    20828107.700   109452441.527 6      1653.234          40.687    20828115.740    85287637.834 6      1288.234          40.062    20828115.840    85287659.830 8      1288.234          52.687
G13  21256493.220   111703627.075 7      4023.105          45.875    21256490.960   111703627.093 5      4023.105          34.937    21256500.520    87041813.360 5      3134.887          34.750
G20  20493063.500   107691774.414 7      3939.160          47.437    20493061.860   107691774.419 6      3939.160          40.625    20493069.380    83915687.072 6      3069.475          40.500
R03  21561740.600   115421673.936 7      3833.103          43.687    21561738.900   115421673.962 7      3833.103          43.000    21561755.060    89772485.188 7      2981.302          46.812    21561755.960    89772486.202 7      2981.302          46.500
R02  21050069.640   112327199.907 8      1973.663          48.125    21050069.340   112327199.911 7      1973.663          47.687    21050084.400    87365659.341 8      1535.071          49.625    21050084.200    87365660.347 8      1535.071          50.250
R18  21052804.860   112381296.910 7      3485.993          47.125    21052805.700   112381296.914 7      3485.993          47.250    21052821.300    87407738.615 8      2711.328          50.687    21052820.120    87407735.620 8      2711.328          51.312
G30  21084071.260   110797540.767 8      1740.950          49.750    21084070.220   110797540.769 8      1740.950          49.937    21084080.900    86335786.300 8      1356.584          49.937    21084081.340    86335789.308 8      1356.584          49.875
G06  22627775.000   118909753.665 7      -627.476          44.625    22627774.640   118909753.670 7      -627.476          43.375    22627793.240    92657021.349 7      -488.943          43.437    22627793.960    92657026.349 7      -488.943          47.187
R13  21560147.600   115129962.163 6      6056.921          40.000    21560144.560   115129962.158 6      6056.921          40.000
G22  24632835.760   129446425.652 6      5026.276          40.750    24632834.160   129446425.647 4      5026.276          24.687    24632864.680   100867346.705 4      3916.579          25.000
R12  21182010.100   113150503.480 8      3266.856          48.187    21182010.480   113150503.476 7      3266.856          47.562    21182028.520    88006017.106 8      2540.888          49.812    21182028.760    88006018.110 8      2540.888          50.062
R17  20712534.980   110836960.353 7         0.396          46.750    20712534.940   110836960.368 7         0.396          46.062    20712551.500    86206589.969 8         0.308          49.187    20712551.400    86206588.971 8         0.308          48.937
G05  22040317.680   115822663.906 7      5110.808          46.500    22040317.060   115822663.908 7      5110.808          45.125    22040325.340    90251446.022 7      3982.448          45.125    22040325.900    90251456.020 7      3982.448          46.437
G07  23160636.160   121709954.850 7       233.162          44.687    23160634.620   121709954.852 7       233.162          42.500    23160647.500    94838949.415 7       181.685          42.187    23160647.380    94838984.426 7       181.685          46.375
> 2024 10 07 12 01 19.0000000  0 14
G11  20827793.500   109450788.611 8      1652.538          48.625    20827793.240   109450788.616 6      1652.538          40.437    20827801.160    85286349.848 6      1287.692          40.312    20827801.560    85286371.843 8      1287.692          52.812
G13  21255727.600   111699604.167 7      4022.667          45.625    21255725.200   111699604.190 5      4022.667          34.937    21255734.920    87038678.630 5      3134.546          35.062
G20  20492314.020   107687835.426 7      3938.764          47.250    20492312.320   107687835.431 6      3938.764          41.062    20492319.780    83912617.731 6      3069.166          40.625
R03  21561024.580   115417840.958 7      3832.938          44.000    21561023.180   115417840.978 7      3832.938          43.125    21561039.440    89769503.985 7      2981.174          46.750    21561040.000    89769504.990 7      2981.174          46.750
R02  21049699.880   112325226.250 8      1973.619          48.500    21049699.420   112325226.253 7      1973.619          47.562    21049714.380    87364124.266 8      1535.037          49.312    21049714.240    87364125.270 8      1535.037          50.312
R18  21052151.880   112377811.318 7      3485.144          47.812    21052152.680   112377811.326 7      3485.144          46.875    21052168.400    87405027.600 8      2710.667          50.937    21052167.220    87405024.601 8      2710.667          51.687
G30  21083740.120   110795800.112 8      1740.357          49.250    21083739.060   110795800.117 8      1740.357          49.875    21083749.680    86334429.942 8      1356.122          49.937    21083750.380    86334432.952 8      1356.122          49.312
G06  22627894.700   118910381.285 7      -627.789          44.312    22627894.100   118910381.292 7      -627.789          43.437    22627912.600    92657510.383 7      -489.186          43.500    22627913.320    92657515.377 7      -489.186          47.375
R13  21559013.260   115123905.555 6      6056.374          39.937    21559010.660   115123905.545 6      6056.374          40.000
G22  24631879.240   129441399.487 6      5026.247          40.937    24631877.920   129441399.481 4      5026.247          24.687    24631908.100   100863430.209 4      3916.556          24.750
R12  21181398.480   113147236.976 7      3266.041          47.625    21181399.180   113147236.977 8      3266.041          48.000    21181417.200    88003476.494 8      2540.254          49.562    21181417.340    88003477.496 8      2540.254          49.812
R17  20712534.800   110836960.243 7        -0.339          47.875    20712535.200   110836960.258 7        -0.339          46.875    20712551.700    86206589.880 8        -0.263          48.937    20712551.140    86206588.879 8        -0.263          49.312
G05  22039345.400   115817553.085 7      5110.610          46.062    22039344.360   115817553.090 7      5110.610          45.000    22039352.900    90247463.568 7      3982.294          44.937    22039353.480    90247473.578 7      3982.294          46.375
G07  23160591.780   121709721.828 7       232.874          43.937    23160590.280   121709721.836 7       232.874          42.312    23160603.060    94838767.839 6       181.461          41.937    23160602.860    94838802.848 7       181.461          46.125
> 2024 10 07 12 01 20.0000000  0 14
G11  20827479.340   109449136.525 8      1651.680          48.375    20827478.860   109449136.530 6      1651.680          40.375    20827486.820    85285062.504 6      1287.023          39.687    20827487.100    85285084.502 8      1287.023          52.250
G13  21254962.180   111695581.773 7      4022.346          45.250    21254959.580   111695581.794 5      4022.346          34.750    21254969.660    87035544.300 5      3134.295          34.500
G20  20491564.660   107683896.974 7      3938.304          46.375    20491562.720   107683896.979 6      3938.304          40.437    20491570.360    83909548.807 6      3068.808          40.000
R03  21560309.060   115414008.189 7      3832.848          43.562    21560307.040   115414008.212 7      3832.848          43.125    21560323.260    89766522.940 7      2981.104          46.687    21560323.800    89766523.947 7      2981.104          46.625
R02  21049329.840   112323252.750 8      1973.524          48.312    21049329.300   112323252.751 7      1973.524          46.562    21049344.420    87362589.318 8      1534.963          49.125    21049344.500    87362590.323 8      1534.963          50.187
R18  21051499.060   112374326.814 7      3484.054          47.312    21051499.520   112374326.815 7      3484.054          47.250    21051515.480    87402317.420 8      2709.820          50.562    21051514.360    87402314.429 8      2709.820          51.125
G30  21083408.920   110794060.186 8      1739.686          48.937    21083407.920   110794060.188 8      1739.686          49.437    21083418.560    86333074.157 8      1355.599          49.437    21083419.400    86333077.165 8      1355.599          49.687
G06  22628014.040   118911009.340 7      -628.124          43.937    22628013.680   118911009.348 7      -628.124          43.250    22628032.140    92657999.767 7      -489.447          42.875    22628033.040    92658004.763 7      -489.447          47.125
R13  21557879.140   115117849.540 6      6055.937          39.937    21557876.480   115117849.533 6      6055.937          40.000
G22  24630922.760   129436373.358 6      5026.094          40.375    24630921.460   129436373.358 4      5026.094          24.687    24630951.620   100859513.741 4      3916.437          24.750
R12  21180787.120   113143971.462 7      3265.134          47.625    21180787.740   113143971.461 7      3265.134          47.750    21180805.660    88000936.660 8      2539.548          49.437    21180806.060    88000937.662 8      2539.548          49.625
R17  20712535.120   110836960.886 7        -0.984          46.625    20712534.740   110836960.903 7        -0.984          46.812    20712551.740    86206590.371 8        -0.766          48.375    20712551.580    86206589.370 8        -0.766          48.187
G05  22038372.920   115812442.563 7      5110.456          45.812    22038371.640   115812442.570 7      5110.456          45.062    22038380.480    90243481.345 7      3982.174          45.000    22038380.960    90243491.351 7      3982.174          46.750
G07  23160547.720   121709489.306 7       232.391          44.187    23160546.180   121709489.314 7       232.391          42.625    23160558.800    94838586.647 7       181.084          42.062    23160558.940    94838621.656 7       181.084          46.875
> 2024 10 07 12 01 21.0000000  0 14
G11  20827165.020   109447485.065 8      1651.244          48.500    20827164.560   109447485.072 6      1651.244          40.437    20827172.560    85283775.647 6      1286.683          40.000    20827172.740    85283797.643 8      1286.683          52.000
G13  21254196.560   111691559.777 7      4021.884          45.625    21254194.020   111691559.797 5      4021.884          34.125    21254204.340    87032410.279 5      3133.935          34.500
G20  20490815.320   107679958.890 7      3937.976          47.062    20490813.360   107679958.895 6      3937.976          41.000    20490820.960    83906480.170 6      3068.553          40.437
R03  21559592.600   115410175.494 7      3832.898          43.562    21559591.460   115410175.512 7      3832.898          43.375    21559607.400    89763541.949 7      2981.143          46.187    21559608.060    89763542.953 7      2981.143          46.500
R02  21048960.160   112321279.261 7      1973.517          47.375    21048959.560   112321279.265 7      1973.517          47.000    21048974.620    87361054.378 8      1534.958          49.187    21048974.680    87361055.383 8      1534.958          50.125
R18  21050846.500   112370843.145 7      3483.417          47.187    21050846.580   112370843.151 7      3483.417          47.062    21050862.700    87399607.908 8      2709.325          50.937    21050861.740    87399604.912 8      2709.325          51.625
G30  21083077.980   110792320.843 8      1739.212          49.437    21083076.700   110792320.842 8      1739.212          49.687    21083087.600    86331718.817 8      1355.230          49.562    21083088.240    86331721.824 8      1355.230          49.625
G06  22628133.740   118911637.708 7      -628.514          45.062    22628133.660   118911637.716 7      -628.514          43.812    22628152.000    92658489.392 7      -489.751          43.687    22628152.740    92658494.390 7      -489.751          47.562
R13  21556745.440   115111793.950 6      6055.443          40.187    21556742.620   115111793.965 6      6055.443          40.000
G22  24629966.600   129431347.124 6      5026.356          40.875    24629965.080   129431347.126 4      5026.356          24.687    24629995.160   100855597.189 4      3916.641          24.750
R12  21180175.980   113140706.843 8      3264.316          48.250    21180176.360   113140706.844 7      3264.316          47.750    21180194.780    87998397.508 8      2538.912          49.500    21180194.860    87998398.510 8      2538.912          50.062
R17  20712535.320   110836962.162 7        -1.440          46.187    20712535.240   110836962.177 7        -1.440          46.437    20712552.080    86206591.357 8        -1.120          48.937    20712551.760    86206590.357 8        -1.120          49.500
G05  22037400.240   115807332.204 7      5110.394          46.562    22037399.360   115807332.211 7      5110.394          44.875    22037407.940    90239499.247 7      3982.125          44.750    22037408.320    90239509.253 7      3982.125          47.062
G07  23160503.460   121709257.115 7       232.174          44.375    23160501.960   121709257.117 7       232.174          42.312    23160514.760    94838405.705 7       180.915          42.000    23160514.880    94838440.714 7       180.915          46.562
> 2024 10 07 12 01 22.0000000  0 14
G11  20826850.820   109445834.300 8      1650.352          48.562    20826850.420   109445834.311 6      1650.352          40.437    20826858.460    85282489.335 6      1285.989          39.875    20826858.620    85282511.333 8      1285.989          52.875
G13  21253431.480   111687538.124 7      4021.438          43.875    21253428.540   111687538.142 5      4021.438          34.125    21253439.140    87029276.524 5      3133.588          34.000
G20  20490065.840   107676021.182 7      3937.457          47.250    20490064.080   107676021.187 6      3937.457          40.625    20490071.480    83903411.824 6      3068.149          40.312
R03  21558877.220   115406342.846 7      3832.571          44.125    21558874.400   115406342.866 7      3832.571          43.375    21558891.440    89760561.010 7      2980.889          46.812    21558892.000    89760562.014 7      2980.889          47.062
R02  21048590.340   112319305.785 7      1973.402          47.687    21048589.400   112319305.789 7      1973.402          46.937    21048604.820    87359519.452 8      1534.868          49.000    21048604.660    87359520.456 8      1534.868          49.437
R18  21050193.960   112367360.430 7      3482.281          47.937    21050194.320   112367360.425 7      3482.281          46.875    21050210.200    87396899.129 8      2708.441          50.750    21050209.400    87396896.135 8      2708.441          50.750
G30  21082747.120   110790582.088 8      1738.458          48.937    21082745.980   110790582.085 8      1738.458          49.375    21082756.640    86330363.945 8      1354.643          49.312    21082757.460    86330366.951 8      1354.643          49.312
G06  22628253.240   118912266.329 7      -628.790          44.187    22628253.260   118912266.342 7      -628.790          44.375    22628271.800    92658979.212 7      -489.966          44.062    22628272.360    92658984.208 7      -489.966          47.250
R13  21555610.900   115105738.755 6      6054.950          40.187    21555608.280   115105738.772 6      6054.950          40.000
G22  24629010.540   129426320.780 7      5026.357          42.125    24629008.600   129426320.780 4      5026.357          24.875    24629038.480   100851680.551 4      3916.642          24.750
R12  21179565.280   113137443.095 8      3263.320          48.125    21179565.480   113137443.094 8      3263.320          48.062    21179583.900    87995859.037 8      2538.138          49.500    21179584.060    87995860.035 8      2538.138          50.250
R17  20712535.780   110836964.123 7        -2.323          46.937    20712535.460   110836964.143 7        -2.323          46.312    20712552.420    86206592.881 8        -1.806          49.187    20712551.860    86206591.880 8        -1.806          49.062
G05  22036427.820   115802221.992 7      5110.119          47.312    22036426.860   115802221.999 7      5110.119          44.687    22036435.460    90235517.268 7      3981.911          44.500    22036436.140    90235527.274 7      3981.911          46.937
G07  23160459.280   121709025.258 7       231.584          43.875    23160457.720   121709025.263 7       231.584          42.250    23160470.500    94838225.037 6       180.455          41.875    23160471.040    94838260.044 7       180.455          47.000
> 2024 10 07 12 01 23.0000000  0 14
G11  20826537.000   109444184.327 8      1649.532          48.687    20826536.400   109444184.334 6      1649.532          40.625    20826544.540    85281203.636 6      1285.350          40.125    20826544.800    85281225.635 8      1285.350          52.437
G13  21252666.560   111683517.005 7      4020.855          44.812    21252663.140   111683517.018 5      4020.855          33.875    21252673.940    87026143.186 5      3133.134          34.000
G20  20489316.520   107672083.986 7      3936.930          47.000    20489314.820   107672083.991 6      3936.930          40.625    20489322.280    83900343.881 6      3067.738          40.437
R03  21558161.020   115402510.411 7      3832.254          42.812    21558158.120   115402510.426 7      3832.254          43.187    21558175.720    89757580.234 7      2980.642          46.500    21558176.260    89757581.240 7      2980.642          47.000
R02  21048220.240   112317332.574 7      1972.949          47.812    21048219.340   112317332.572 7      1972.949          46.750    21048235.100    87357984.734 8      1534.516          49.187    21048235.160    87357985.738 8      1534.516          49.750
R18  21049541.660   112363878.760 7      3481.130          47.312    21049542.160   112363878.753 7      3481.130          46.812    21049557.940    87394191.160 8      2707.546          50.625    21049557.080    87394188.163 8      2707.546          50.687
G30  21082416.380   110788844.053 8      1737.592          49.250    21082415.240   110788844.056 8      1737.592          50.000    21082426.000    86329009.636 8      1353.968          49.812    21082426.740    86329012.644 8      1353.968          49.750
G06  22628373.000   118912895.433 7      -629.378          44.500    22628373.120   118912895.440 7      -629.378          44.312    22628391.640    92659469.404 7      -490.424          44.000    22628391.920    92659474.400 7      -490.424          47.625
R13  21554477.180   115099684.169 6      6054.221          40.375    21554474.960   115099684.175 6      6054.221          39.812
G22  24628053.920   129421294.467 6      5026.186          41.187    24628052.120   129421294.467 4      5026.186          24.875    24628082.040   100847763.937 4      3916.508          24.750
R12  21178954.260   113134180.311 7      3262.271          47.437    21178954.680   113134180.315 8      3262.271          48.062    21178972.900    87993321.321 8      2537.322          49.437    21178973.180    87993322.318 8      2537.322          50.000
R17  20712536.160   110836966.911 7        -3.195          47.187    20712535.740   110836966.934 7        -3.195          46.500    20712552.980    86206595.041 8        -2.485          48.625    20712552.720    86206594.046 8        -2.485          48.750
G05  22035455.360   115797112.098 7      5109.688          46.437    22035454.420   115797112.105 7      5109.688          45.062    22035463.140    90231535.539 7      3981.575          45.125    22035463.660    90231545.549 7      3981.575          46.812
G07  23160415.240   121708793.873 7       231.082          42.625    23160413.740   121708793.875 7       231.082          42.437    23160426.460    94838044.733 6       180.064          41.750    23160426.960    94838079.744 7       180.064          46.812
> 2024 10 07 12 01 24.0000000  0 14
G11  20826223.240   109442534.926 8      1649.224          48.187    20826222.660   109442534.931 6      1649.224          40.937    20826230.880    85279918.382 6      1285.109          40.375    20826230.980    85279940.382 8      1285.109          52.625
G13  21251901.280   111679496.133 7      4020.862          44.812    21251898.120   111679496.149 5      4020.862          33.875    21251908.780    87023010.041 5      3133.139          33.812
G20  20488567.560   107668147.079 7      3936.914          46.625    20488565.780   107668147.084 6      3936.914          40.250    20488573.200    83897276.157 6      3067.725          39.937
R03  21557445.300   115398677.939 7      3832.609          42.812    21557442.400   115398677.938 7      3832.609          43.187    21557459.820    89754599.414 7      2980.918          47.125    21557460.140    89754600.416 7      2980.918          47.062
R02  21047850.520   112315359.346 8      1973.345          48.187    21047849.640   112315359.344 7      1973.345          46.937    21047865.340    87356449.996 8      1534.824          49.687    21047865.320    87356451.005 8      1534.824          50.187
R18  21048889.620   112360397.878 7      3480.634          45.625    21048889.600   112360397.879 7      3480.634          47.000    21048905.920    87391483.812 8      2707.160          50.375    21048904.840    87391480.815 8      2707.160          50.500
G30  21082085.620   110787106.505 8      1737.376          49.687    21082084.560   110787106.510 8      1737.376          49.250    21082095.420    86327655.704 8      1353.800          49.562    21082096.200    86327658.708 8      1353.800          49.437
G06  22628492.960   118913524.676 7      -629.187          44.937    22628492.920   118913524.686 7      -629.187          44.375    22628511.420    92659959.709 7      -490.276          44.000    22628511.820    92659964.711 7      -490.276          47.812
R13  21553343.500   115093629.831 6      6054.249          40.375    21553340.980   115093629.829 6      6054.249          39.812
G22  24627097.580   129416267.934 6      5026.802          41.250    24627095.640   129416267.934 4      5026.802          24.875    24627125.580   100843847.152 4      3916.988          24.750
R12  21178343.500   113130918.219 8      3261.838          48.125    21178344.220   113130918.228 8      3261.838          48.000    21178362.440    87990784.146 8      2536.985          49.312    21178362.280    87990785.144 8      2536.985          50.437
R17  20712536.640   110836970.247 7        -3.517          46.937    20712536.120   110836970.268 7        -3.517          46.375    20712553.460    86206597.625 8        -2.735          49.062    20712553.360    86206596.625 8        -2.735          48.875
G05  22034483.280   115792002.227 7      5109.952          47.062    22034482.060   115792002.237 7      5109.952          45.437    22034490.740    90227553.828 7      3981.781          45.437    22034491.340    90227563.842 7      3981.781          46.812
G07  23160371.240   121708562.717 7       231.175          43.187    23160369.880   121708562.720 7       231.175          42.250    23160382.280    94837864.603 7       180.137          42.187    23160382.880    94837899.616 7       180.137          46.125
> 2024 10 07 12 01 25.0000000  0 14
G11  20825909.580   109440886.191 7      1648.323          47.937    20825908.860   109440886.195 6      1648.323          40.687    20825917.100    85278633.649 6      1284.408          40.312    20825917.260    85278655.645 8      1284.408          52.937
G13  21251135.840   111675475.635 7      4020.202          44.750    21251133.160   111675475.647 5      4020.202          34.062    21251143.720    87019877.189 5      3132.625          33.812
G20  20487818.360   107664210.545 7      3936.249          47.062    20487816.520   107664210.550 6      3936.249          40.875    20487824.100    83894208.732 6      3067.207          40.375
R03  21556729.080   115394845.549 7      3832.200          43.375    21556726.040   115394845.548 7      3832.200          43.062    21556744.760    89751618.673 7      2980.600          46.500    21556744.380    89751619.683 7      2980.600          46.500
R02  21047480.980   112313386.281 7      1972.926          47.187    21047479.800   112313386.293 7      1972.926          46.875    21047495.740    87354915.387 8      1534.498          49.812    21047495.680    87354916.397 8      1534.498          49.750
R18  21048237.600   112356917.898 7      3479.392          46.562    21048237.700   112356917.899 7      3479.392          47.000    21048253.620    87388777.163 8      2706.194          50.625    21048253.020    87388774.166 8      2706.194          50.625
G30  21081755.240   110785369.526 8      1736.570          49.562    21081754.120   110785369.531 8      1736.570          49.437    21081764.940    86326302.215 8      1353.171          49.875    21081765.520    86326305.223 8      1353.171          49.125
G06  22628612.980   118914154.256 7      -629.875          45.062    22628613.080   118914154.268 7      -629.875          44.937    22628631.400    92660450.274 7      -490.812          44.812    22628631.760    92660455.276 8      -490.812          48.437
R13  21552209.600   115087575.926 6      6053.615          40.687    21552207.400   115087575.921 6      6053.615          40.625
G22  24626140.720   129411241.335 6      5026.429          40.750    24626139.060   129411241.337 4      5026.429          24.875    24626169.200   100839930.315 4      3916.698          24.750
R12  21177733.280   113127657.011 7      3260.679          47.875    21177733.720   113127657.012 7      3260.679          47.250    21177751.800    87988247.636 8      2536.083          49.437    21177752.080    87988248.632 8      2536.083          50.062
R17  20712537.380   110836974.215 7        -4.513          47.000    20712537.020   110836974.244 7        -4.513          46.687    20712554.160    86206600.711 8        -3.510          48.875    20712554.100    86206599.713 8        -3.510          49.125
G05  22033510.840   115786892.517 7      5109.572          46.562    22033509.760   115786892.527 7      5109.572          45.750    22033518.500    90223572.233 7      3981.485          45.312    22033518.980    90223582.243 7      3981.485          46.562
G07  23160327.680   121708331.914 7       230.540          44.687    23160326.240   121708331.916 7       230.540          42.312    23160338.480    94837684.750 7       179.642          42.187    23160339.000    94837719.755 7       179.642          46.312
> 2024 10 07 12 01 26.0000000  0 14
G11  20825595.820   109439238.080 8      1647.634          48.125    20825595.280   109439238.085 6      1647.634          41.000    20825603.460    85277349.405 6      1283.870          40.375    20825603.500    85277371.403 8      1283.870          52.562
G13  21250370.800   111671455.482 7      4019.843          44.687    21250367.960   111671455.495 5      4019.843          34.062    21250378.560    87016744.605 5      3132.345          34.000
G20  20487069.620   107660274.368 7      3935.819          47.125    20487067.380   107660274.376 6      3935.819          40.437    20487075.040    83891141.579 6      3066.872          40.062
R03  21556012.880   115391013.206 7      3832.262          43.375    21556009.720   115391013.215 7      3832.262          42.437    21556027.620    89748637.970 7      2980.648          46.812    21556028.480    89748638.967 7      2980.648          46.312
R02  21047111.360   112311413.275 7      1972.827          47.437    21047109.960   112311413.284 7      1972.827          46.812    21047126.060    87353380.833 8      1534.421          49.625    21047126.000    87353381.839 8      1534.421          49.375
R18  21047586.000   112353438.770 7      3478.566          47.437    21047586.220   112353438.765 7      3478.566          47.437    21047601.780    87386071.168 8      2705.551          50.375    21047601.320    87386068.173 8      2705.551          50.687
G30  21081424.580   110783633.102 8      1736.044          49.625    21081423.620   110783633.107 8      1736.044          49.812    21081434.320    86324949.151 8      1352.761          49.687    21081435.100    86324952.161 8      1352.761          48.875
G06  22628732.800   118914784.058 7      -630.040          44.750    22628732.840   118914784.069 7      -630.040          45.312    22628751.020    92660941.013 7      -490.940          44.875    22628751.620    92660946.017 7      -490.940          47.687
R13  21551075.940   115081522.426 6      6053.162          40.687    21551074.000   115081522.419 6      6053.162          40.625
G22  24625184.280   129406214.544 6      5026.887          40.812    24625182.440   129406214.549 4      5026.887          24.875    24625212.560   100836013.329 4      3917.055          25.187
R12  21177122.920   113124396.641 8      3259.811          48.062    21177123.380   113124396.640 7      3259.811          47.812    21177141.360    87985711.787 8      2535.409          49.187    21177141.480    87985712.785 8      2535.409          49.812
R17  20712538.160   110836978.799 7        -5.006          47.062    20712538.080   110836978.822 7        -5.006          46.312    20712554.580    86206604.260 8        -3.894          48.562    20712554.860    86206603.259 8        -3.894          48.312
G05  22032538.660   115781782.933 7      5109.453          46.625    22032537.340   115781782.938 7      5109.453          44.937    22032546.060    90219590.741 7      3981.392          45.062    22032546.840    90219600.753 7      3981.392          46.312
G07  23160283.780   121708101.383 7       230.205          43.812    23160282.100   121708101.396 7       230.205          42.000    23160294.820    94837505.114 7       179.380          42.062    23160295.380    94837540.133 7       179.380          46.562
> 2024 10 07 12 01 27.0000000  0 14
G11  20825282.080   109437590.671 8      1647.181          49.062    20825281.800   109437590.679 6      1647.181          40.875    20825289.720    85276065.702 6      1283.517          40.375    20825289.860    85276087.697 8      1283.517          52.687
G13  21249605.840   111667435.746 7      4019.661          44.250    21249602.960   111667435.750 5      4019.661          33.875    21249613.640    87013612.340 5      3132.203          33.750
G20  20486320.580   107656338.588 7      3935.738          47.000    20486318.320   107656338.593 6      3935.738          40.187    20486326.100    83888074.738 6      3066.809          40.000
R03  21555296.820   115387181.057 7      3832.183          43.812    21555294.540   115387181.059 7      3832.183          42.437    21555312.300    89745657.412 7      2980.587          46.750    21555312.700    89745658.413 7      2980.587          46.375
R02  21046741.020   112309440.341 7      1973.093          47.187    21046740.300   112309440.342 7      1973.093          46.500    21046756.020    87351846.308 8      1534.628          49.500    21046756.360    87351847.316 8      1534.628          49.625
R18  21046934.540   112349960.613 7      3477.796          46.375    21046934.460   112349960.603 7      3477.796          46.750    21046950.060    87383365.924 8      2704.952          50.312    21046949.700    87383362.927 8      2704.952          50.875
G30  21081094.380   110781897.309 8      1735.612          49.312    21081093.320   110781897.309 8      1735.612          49.000    21081104.000    86323596.580 8      1352.425          49.000    21081104.880    86323599.584 8      1352.425          49.437
G06  22628852.860   118915414.229 7      -630.240          44.812    22628852.880   118915414.234 7      -630.240          44.625    22628871.020    92661432.035 7      -491.096          44.125    22628871.520    92661437.031 8      -491.096          48.187
R13  21549942.100   115075469.410 6      6052.942          41.375    21549940.800   115075469.403 6      6052.942          41.062
G22  24624227.720   129401187.735 6      5027.102          40.125    24624226.000   129401187.742 4      5027.102          24.875    24624256.080   100832096.327 4      3917.222          25.187
R12  21176512.880   113121137.188 8      3259.118          48.500    21176513.420   113121137.189 8      3259.118          48.562    21176531.380    87983176.663 8      2534.870          49.187    21176531.440    87983177.663 8      2534.870          49.750
R17  20712539.320   110836984.115 7        -5.493          46.875    20712539.220   110836984.130 7        -5.493          46.312    20712556.180    86206608.376 8        -4.272          48.812    20712555.960    86206607.369 8        -4.272          48.250
G05  22031565.920   115776673.536 7      5109.476          46.875    22031565.000   115776673.538 7      5109.476          45.250    22031573.820    90215609.393 7      3981.410          45.062    22031574.200    90215619.403 7      3981.410          46.875
G07  23160239.880   121707871.276 7       230.020          43.187    23160238.120   121707871.280 7       230.020          42.062    23160250.980    94837325.801 7       179.237          42.000    23160251.100    94837360.810 7       179.237          46.687
> 2024 10 07 12 01 28.0000000  0 14
G11  20824968.780   109435943.693 8      1646.679          48.125    20824968.460   109435943.703 6      1646.679          40.125    20824976.480    85274782.340 6      1283.126          39.562    20824976.600    85274804.336 8      1283.126          52.625
G13  21248840.600   111663416.124 7      4019.535          44.562    21248838.200   111663416.134 5      4019.535          34.062    21248848.800    87010480.172 5      3132.106          33.750
G20  20485571.400   107652402.971 7      3935.458          46.687    20485569.520   107652402.976 6      3935.458          40.250    20485577.160    83885008.019 6      3066.591          39.937
R03  21554581.160   115383348.733 7      3832.325          43.812    21554578.700   115383348.726 7      3832.325          42.687    21554596.200    89742676.709 7      2980.697          47.000    21554596.380    89742677.706 7      2980.697          46.937
R02  21046371.320   112307467.143 7      1973.234          47.250    21046370.140   112307467.154 7      1973.234          46.875    21046386.640    87350311.621 8      1534.738          49.125    21046386.200    87350312.627 8      1534.738          50.062
R18  21046283.240   112346483.110 7      3477.123          46.125    21046283.300   112346483.108 7      3477.123          46.312    21046298.200    87380661.206 8      2704.429          50.312    21046297.640    87380658.211 8      2704.429          50.375
G30  21080764.140   110780161.857 8      1735.235          48.875    21080763.300   110780161.857 8      1735.235          48.812    21080773.780    86322244.284 8      1352.131          49.250    21080774.560    86322247.290 8      1352.131          49.187
G06  22628972.680   118916044.431 7      -630.354          45.250    22628972.600   118916044.436 7      -630.354          44.750    22628990.960    92661923.091 7      -491.185          44.562    22628991.940    92661928.087 7      -491.185          47.562
R13  21548809.120   115069416.591 6      6052.770          41.687    21548807.560   115069416.584 6      6052.770          41.062
G22  24623271.120   129396160.573 6      5027.253          41.250    24623269.280   129396160.576 4      5027.253          25.187    24623299.420   100828179.056 4      3917.340          25.187
R12  21175902.860   113117878.325 8      3258.555          48.187    21175903.160   113117878.326 8      3258.555          48.125    21175921.160    87980641.990 8      2534.432          49.062    21175920.920    87980642.992 8      2534.432          49.812
R17  20712540.700   110836989.830 7        -5.906          46.125    20712540.280   110836989.850 7        -5.906          46.187    20712556.860    86206612.825 8        -4.594          48.812    20712557.080    86206611.827 8        -4.594          49.125
G05  22030593.760   115771564.057 7      5109.474          45.875    22030592.640   115771564.062 7      5109.474          45.062    22030601.400    90211627.989 7      3981.409          45.250    22030601.840    90211637.997 7      3981.409          46.875
G07  23160195.980   121707641.231 7       229.967          43.125    23160194.400   121707641.233 7       229.967          42.000    23160207.040    94837146.535 6       179.195          41.750    23160207.700    94837181.540 7       179.195          46.500
> 2024 10 07 12 01 29.0000000  0 14
G11  20824655.520   109434297.356 8      1645.891          48.000    20824655.100   109434297.361 6      1645.891          39.812    20824662.880    85273499.470 6      1282.513          39.750    20824663.480    85273521.465 8      1282.513          52.687
G13  21248075.820   111659396.871 7      4018.825          45.125    21248073.300   111659396.884 5      4018.825          34.062    21248084.060    87007348.288 5      3131.552          33.875
G20  20484822.680   107648467.693 7      3934.941          47.500    20484820.560   107648467.696 6      3934.941          40.562    20484828.140    83881941.565 6      3066.187          40.312
R03  21553864.980   115379516.432 7      3832.034          43.500    21553863.160   115379516.423 7      3832.034          42.687    21553880.360    89739696.036 7      2980.471          46.687    21553880.600    89739697.034 7      2980.471          46.187
R02  21046001.840   112305493.947 7      1973.036          47.500    21046000.320   112305493.956 7      1973.036          46.750    21046016.840    87348776.899 8      1534.584          49.937    21046016.480    87348777.907 8      1534.584          50.562
R18  21045631.900   112343006.490 7      3475.975          47.562    21045632.060   112343006.491 7      3475.975          46.875    21045646.680    87377957.170 8      2703.536          50.000    21045646.620    87377954.178 8      2703.536          50.687
G30  21080434.080   110778426.965 8      1734.380          49.875    21080433.080   110778426.970 8      1734.380          49.437    21080443.740    86320892.418 8      1351.465          49.562    21080444.400    86320895.424 8      1351.465          49.562
G06  22629092.740   118916674.907 7      -630.817          46.375    22629092.700   118916674.912 7      -630.817          45.375    22629111.040    92662414.353 7      -491.546          44.937    22629111.780    92662419.351 8      -491.546          48.250
R13  21547675.720   115063364.173 6      6052.059          41.687    21547674.720   115063364.171 6      6052.059          41.000
G22  24622314.240   129391133.307 6      5027.072          41.812    24622312.440   129391133.314 4      5027.072          25.187    24622342.820   100824261.699 4      3917.199          25.187
R12  21175292.820   113114620.258 8      3257.473          48.875    21175293.460   113114620.256 8      3257.473          48.000    21175311.580    87978107.944 8      2533.590          49.687    21175311.500    87978108.944 8      2533.590          49.687
R17  20712541.800   110836996.193 7        -6.808          46.562    20712541.680   110836996.208 7        -6.808          46.125    20712558.180    86206617.757 8        -5.295          48.437    20712558.160    86206616.759 8        -5.295          48.437
G05  22029621.660   115766454.736 7      5109.069          47.125    22029620.340   115766454.738 7      5109.069          45.125    22029629.120    90207646.697 7      3981.092          45.750    22029629.540    90207656.707 7      3981.092          46.187
G07  23160152.320   121707411.499 7       229.518          43.625    23160150.840   121707411.499 7       229.518          42.375    23160163.440    94836967.516 6       178.845          41.875    23160163.920    94837002.531 7       178.845          46.562
> 2024 10 07 12 01 30.0000000  0 14
G11  20824342.340   109432651.731 8      1645.344          48.375    20824341.900   109432651.733 6      1645.344          40.500    20824349.640    85272217.161 6      1282.086          40.125    20824350.180    85272239.158 8      1282.086          52.687
G13  21247311.180   111655378.017 7      4018.730          44.187    21247308.660   111655378.027 5      4018.730          34.250    21247319.340    87004216.718 5      3131.478          33.875
G20  20484073.820   107644532.852 7      3934.675          46.750    20484071.840   107644532.854 6      3934.675          40.812    20484079.500    83878875.450 6      3065.980          40.437
R03  21553149.120   115375684.230 7      3832.199          44.375    21553147.140   115375684.218 7      3832.199          42.687    21553165.000    89736715.437 7      2980.599          46.375    21553164.500    89736716.436 7      2980.599          46.687
R02  21045631.860   112303520.842 7      1973.006          47.187    21045630.560   112303520.851 7      1973.006          46.812    21045646.940    87347242.254 8      1534.560          49.000    21045646.920    87347243.263 8      1534.560          49.375
R18  21044980.700   112339530.781 7      3475.283          46.937    21044981.020   112339530.792 7      3475.283          47.000    21044995.460    87375253.845 8      2702.998          49.062    21044995.260    87375250.848 8      2702.998          49.500
G30  21080104.020   110776692.703 8      1734.012          49.125    21080103.100   110776692.703 8      1734.012          49.062    21080113.680    86319541.040 8      1351.178          49.000    21080114.440    86319544.048 8      1351.178          49.625
G06  22629212.800   118917305.711 7      -630.891          44.750    22629212.820   118917305.716 7      -630.891          44.750    22629231.120    92662905.874 7      -491.604          44.875    22629231.860    92662910.880 7      -491.604          47.937
R13  21546542.240   115057312.232 6      6051.808          41.937    21546541.820   115057312.225 6      6051.808          41.000
G22  24621357.620   129386105.943 6      5027.457          41.125    24621355.880   129386105.951 4      5027.457          25.187    24621386.120   100820344.271 4      3917.499          25.187
R12  21174683.240   113111363.096 8      3256.748          48.000    21174683.680   113111363.095 8      3256.748          48.375    21174701.620    87975574.596 8      2533.026          49.000    21174701.740    87975575.596 8      2533.026          49.250
R17  20712543.160   110837003.222 7        -7.319          46.562    20712542.460   110837003.250 7        -7.319          47.375    20712559.520    86206623.230 8        -5.692          48.562    20712559.560    86206622.236 8        -5.692          48.562
G05  22028649.520   115761345.585 7      5109.089          46.250    22028648.140   115761345.588 7      5109.089          45.812    22028656.820    90203665.541 7      3981.108          45.625    22028657.300    90203675.547 7      3981.108          46.250
G07  23160108.580   121707182.183 7       229.032          43.562    23160107.140   121707182.188 7       229.032          42.437    23160119.640    94836788.825 6       178.467          41.437    23160120.340    94836823.832 7       178.467          46.312
> 2024 10 07 12 01 31.0000000  0 14
G11  20824029.240   109431006.766 8      1644.782          48.437    20824028.960   109431006.773 6      1644.782          40.812    20824036.900    85270935.370 6      1281.648          40.375    20824037.280    85270957.363 8      1281.648          52.812
G13  21246546.620   111651359.557 7      4018.332          45.000    21246544.040   111651359.567 5      4018.332          34.250    21246554.760    87001085.454 5      3131.168          34.250
G20  20483325.380   107640598.372 7      3934.421          47.312    20483323.340   107640598.377 6      3934.421          40.562    20483330.760    83875809.622 6      3065.782          40.250
R03  21552433.460   115371852.063 7      3832.279          44.187    21552430.860   115371852.064 7      3832.279          43.062    21552449.200    89733734.877 7      2980.662          47.062    21552448.900    89733735.881 7      2980.662          47.000
R02  21045262.420   112301547.788 7      1973.127          47.437    21045260.980   112301547.792 7      1973.127          46.500    21045277.280    87345707.652 8      1534.655          49.625    21045277.240    87345708.659 8      1534.655          50.000
R18  21044329.700   112336055.960 7      3474.562          46.187    21044330.380   112336055.969 7      3474.562          47.125    21044344.040    87372551.198 8      2702.437          49.812    21044344.100    87372548.202 8      2702.437          50.125
G30  21079774.100   110774959.015 8      1733.579          49.625    21079773.120   110774959.014 8      1733.579          49.875    21079783.740    86318190.113 8      1350.841          49.562    21079784.520    86318193.121 8      1350.841          48.937
G06  22629332.640   118917936.833 7      -631.175          45.750    22629332.920   118917936.840 7      -631.175          45.250    22629351.240    92663397.639 7      -491.825          45.125    22629352.000    92663402.635 8      -491.825          48.375
R13  21545409.100   115051260.692 7      6051.513          42.500    21545408.380   115051260.685 6      6051.513          41.437
G22  24620400.840   129381078.501 6      5027.774          40.437    24620399.120   129381078.511 4      5027.774          25.187    24620429.540   100816426.777 4      3917.746          25.187
R12  21174073.460   113108106.792 7      3256.017          47.937    21174074.520   113108106.793 8      3256.017          48.250    21174091.980    87973041.925 8      2532.458          49.125    21174092.140    87973042.927 8      2532.458          49.375
R17  20712544.560   110837010.882 7        -7.795          46.687    20712544.060   110837010.899 7        -7.795          46.562    20712560.980    86206629.172 8        -6.063          48.562    20712561.000    86206628.175 8        -6.063          49.125
G05  22027677.220   115756236.595 7      5109.000          46.812    22027675.920   115756236.597 7      5109.000          45.437    22027684.420    90199684.514 7      3981.039          45.500    22027685.020    90199694.518 7      3981.039          46.437
G07  23160064.980   121706953.147 7       229.048          42.812    23160063.480   121706953.150 6       229.048          41.750    23160075.980    94836610.352 6       178.479          41.625    23160076.540    94836645.365 7       178.479          46.500
> 2024 10 07 12 01 32.0000000  0 14
G11  20823716.340   109429362.200 8      1644.298          48.187    20823716.080   109429362.205 6      1644.298          40.562    20823723.880    85269653.881 6      1281.271          40.187    20823724.380    85269675.875 8      1281.271          53.000
G13  21245781.760   111647341.163 7      4018.249          44.375    21245779.380   111647341.173 5      4018.249          34.687    21245790.060    86997954.236 5      3131.103          34.375
G20  20482576.580   107636664.004 7      3934.222          47.625    20482574.560   107636664.008 6      3934.222          40.187    20482582.120    83872743.882 6      3065.628          40.187
R03  21551717.720   115368019.703 7      3832.378          44.187    21551715.140   115368019.702 7      3832.378          43.062    21551733.560    89730754.151 7      2980.739          47.500    21551733.220    89730755.157 7      2980.739          47.625
R02  21044892.460   112299574.609 7      1973.024          47.125    21044890.820   112299574.609 7      1973.024          46.125    21044907.140    87344172.957 8      1534.574          49.625    21044907.400    87344173.964 8      1534.574          50.375
R18  21043678.840   112332581.799 7      3473.715          47.125    21043679.700   112332581.802 7      3473.715          47.250    21043692.900    87369849.071 8      2701.778          49.875    21043693.280    87369846.080 8      2701.778          49.687
G30  21079444.240   110773225.654 8      1733.089          50.062    21079443.400   110773225.657 8      1733.089          50.062    21079453.760    86316839.447 8      1350.459          50.250    21079454.720    86316842.451 8      1350.459          48.687
G06  22629452.700   118918567.965 7      -631.259          45.812    22629453.040   118918567.967 7      -631.259          45.062    22629471.160    92663889.408 7      -491.890          45.187    22629472.120    92663894.410 8      -491.890          48.437
R13  21544275.900   115045209.275 7      6051.297          42.500    21544275.600   115045209.274 6      6051.297          41.437
G22  24619443.940   129376050.693 6      5027.840          40.187    24619442.460   129376050.706 4      5027.840          25.187    24619472.820   100812508.999 4      3917.797          25.187
R12  21173464.000   113104851.105 7      3255.208          47.812    21173465.040   113104851.114 7      3255.208          47.250    21173482.580    87970509.728 8      2531.828          49.312    21173482.660    87970510.732 8      2531.828          50.125
R17  20712545.880   110837018.927 8        -8.360          48.062    20712545.880   110837018.940 7        -8.360          46.875    20712562.640    86206635.413 8        -6.502          49.375    20712562.460    86206634.412 8        -6.502          48.875
G05  22026704.800   115751127.489 7      5108.965          46.812    22026703.700   115751127.494 7      5108.965          45.437    22026712.220    90195703.399 7      3981.011          45.500    22026712.780    90195713.405 7      3981.011          46.625
G07  23160021.080   121706724.193 7       228.902          43.812    23160020.420   121706724.196 7       228.902          42.437    23160032.460    94836431.934 7       178.365          42.375    23160032.960    94836466.939 7       178.365          46.750
> 2024 10 07 12 01 33.0000000  0 14
G11  20823403.680   109427718.180 8      1643.675          48.187    20823403.080   109427718.185 6      1643.675          40.875    20823410.880    85268372.825 6      1280.786          40.312    20823411.580    85268394.821 8      1280.786          52.687
G13  21245017.320   111643323.039 7      4018.016          45.062    21245014.700   111643323.046 5      4018.016          34.437    21245025.500    86994823.235 5      3130.921          34.375
G20  20481827.800   107632729.903 7      3933.936          46.625    20481825.980   107632729.902 6      3933.936          40.312    20481833.540    83869678.347 6      3065.405          40.000
R03  21551001.820   115364187.322 7      3832.415          44.625    21550999.740   115364187.323 7      3832.415          42.750    21551017.440    89727773.412 7      2980.767          47.125    21551017.040    89727774.422 7      2980.767          47.062
R02  21044522.720   112297601.384 7      1973.139          46.687    21044520.580   112297601.390 7      1973.139          46.250    21044537.480    87342638.226 8      1534.664          49.375    21044537.780    87342639.236 8      1534.664          50.000
R18  21043028.340   112329108.433 7      3472.900          47.312    21043029.120   112329108.436 7      3472.900          47.625    21043041.980    87367147.566 8      2701.144          49.312    21043042.200    87367144.569 8      2701.144          49.500
G30  21079114.560   110771492.751 8      1732.610          49.250    21079113.560   110771492.756 8      1732.610          49.500    21079124.080    86315489.133 8      1350.086          49.687    21079124.740    86315492.137 8      1350.086          49.437
G06  22629573.200   118919199.287 7      -631.557          45.875    22629573.220   118919199.292 7      -631.557          45.437    22629591.220    92664381.332 7      -492.122          45.312    22629592.200    92664386.328 7      -492.122          47.937
R13  21543142.320   115039158.171 7      6050.886          42.687    21543142.740   115039158.174 6      6050.886          41.937
G22  24618487.060   129371022.672 6      5028.102          39.687    24618485.380   129371022.685 4      5028.102          25.187    24618515.900   100808591.057 4      3918.002          24.937
R12  21172854.680   113101596.125 8      3254.489          48.187    21172855.920   113101596.137 8      3254.489          48.187    21172873.140    87967978.077 8      2531.269          49.000    21172873.140    87967979.081 8      2531.269          49.437
R17  20712547.540   110837027.497 7        -8.976          46.937    20712547.220   110837027.515 7        -8.976          46.437    20712564.480    86206642.078 8        -6.981          48.562    20712564.100    86206641.079 8        -6.981          49.562
G05  22025732.680   115746018.423 7      5108.964          46.062    22025731.340   115746018.433 7      5108.964          45.812    22025739.840    90191722.316 7      3981.011          45.625    22025740.640    90191732.320 7      3981.011          46.562
G07  23159977.720   121706495.471 7       228.528          43.750    23159976.840   121706495.473 7       228.528          42.750    23159988.900    94836253.704 7       178.074          42.250    23159989.440    94836288.711 7       178.074          46.250
> 2024 10 07 12 01 34.0000000  0 14
G11  20823090.960   109426074.797 8      1643.120          48.750    20823090.360   109426074.802 6      1643.120          40.875    20823098.180    85267092.262 6      1280.354          40.000    20823098.820    85267114.260 8      1280.354          52.812
G13  21244252.800   111639305.278 7      4017.668          43.750    21244250.360   111639305.283 5      4017.668          34.437    21244260.960    86991692.512 5      3130.651          34.375
G20  20481079.340   107628796.157 7      3933.692          47.000    20481077.360   107628796.159 6      3933.692          40.312    20481084.920    83866613.086 6      3065.215          39.812
R03  21550285.680   115360355.037 7      3832.358          45.000    21550283.960   115360355.041 7      3832.358          42.750    21550301.260    89724792.746 7      2980.723          47.312    21550301.400    89724793.750 7      2980.723          46.750
R02  21044152.620   112295628.231 7      1973.282          47.875    21044151.440   112295628.234 7      1973.282          47.000    21044168.060    87341103.537 8      1534.775          50.000    21044167.700    87341104.545 8      1534.775          49.750
R18  21042377.720   112325635.945 7      3472.117          47.125    21042378.360   112325635.956 7      3472.117          46.937    21042391.480    87364446.750 8      2700.535          49.750    21042391.740    87364443.758 8      2700.535          49.250
G30  21078784.940   110769760.403 8      1732.178          49.312    21078783.920   110769760.410 8      1732.178          49.750    21078794.300    86314139.249 8      1349.749          49.375    21078795.340    86314142.253 8      1349.749          48.750
G06  22629693.340   118919830.842 7      -631.587          46.312    22629693.560   118919830.850 7      -631.587          45.500    22629711.460    92664873.435 7      -492.145          45.062    22629712.580    92664878.437 8      -492.145          48.500
R13  21542009.200   115033107.459 7      6050.526          43.187    21542009.460   115033107.470 6      6050.526          41.937
G22  24617530.300   129365994.513 6      5028.307          41.687    24617528.760   129365994.520 4      5028.307          25.187    24617559.280   100804673.002 4      3918.161          24.937
R12  21172245.480   113098341.939 7      3253.911          47.687    21172246.780   113098341.942 8      3253.911          48.250    21172263.840    87965447.043 8      2530.820          49.250    21172263.940    87965448.047 8      2530.820          49.875
R17  20712549.540   110837036.733 7        -9.485          47.062    20712549.020   110837036.756 7        -9.485          46.125    20712566.260    86206649.249 8        -7.378          48.937    20712565.680    86206648.246 8        -7.378          49.250
G05  22024760.520   115740909.491 7      5108.972          46.500    22024759.300   115740909.498 7      5108.972          45.187    22024767.620    90187741.328 7      3981.017          45.187    22024768.440    90187751.334 7      3981.017          46.437
G07  23159934.540   121706267.029 7       228.440          43.750    23159933.360   121706267.034 7       228.440          42.750    23159945.680    94836075.694 7       178.005          42.812    23159946.300    94836110.699 7       178.005          46.625
> 2024 10 07 12 01 35.0000000  0 14
G11  20822778.320   109424431.839 8      1642.791          48.812    20822777.640   109424431.841 6      1642.791          40.250    20822785.700    85265812.031 6      1280.097          40.062    20822786.240    85265834.027 8      1280.097          52.937
G13  21243488.060   111635287.635 7      4017.614          44.937    21243485.940   111635287.640 5      4017.614          34.625    21243496.540    86988561.885 5      3130.609          34.375
G20  20480330.940   107624862.565 7      3933.477          46.750    20480328.820   107624862.570 6      3933.477          40.500    20480336.440    83863547.952 6      3065.047          40.125
R03  21549569.440   115356522.600 7      3832.479          45.125    21549568.080   115356522.615 7      3832.479          43.250    21549585.180    89721811.968 7      2980.817          47.312    21549585.620    89721812.969 7      2980.817          46.750
R02  21043782.960   112293654.870 7      1973.438          47.625    21043781.460   112293654.881 7      1973.438          46.562    21043797.920    87339568.709 8      1534.896          49.562    21043797.880    87339569.717 8      1534.896          49.812
R18  21041726.960   112322164.100 7      3471.573          47.187    21041728.400   112322164.114 7      3471.573          47.375    21041740.900    87361746.425 8      2700.112          49.000    21041741.140    87361743.432 8      2700.112          49.125
G30  21078455.340   110768028.411 8      1731.886          48.812    21078454.300   110768028.421 8      1731.886          49.937    21078464.840    86312789.645 8      1349.522          50.000    21078465.600    86312792.649 8      1349.522          49.375
G06  22629813.780   118920462.471 7      -631.602          46.375    22629813.860   118920462.473 7      -631.602          45.562    22629831.700    92665365.599 7      -492.157          45.562    22629832.720    92665370.603 8      -492.157          48.125
R13  21540875.840   115027056.947 7      6050.527          42.937    21540876.960   115027056.958 7      6050.527          42.437
G22  24616573.640   129360965.987 6      5028.724          40.187    24616571.940   129360965.995 4      5028.724          25.187    24616602.400   100800754.665 4      3918.487          24.937
R12  21171636.440   113095088.351 8      3253.283          48.812    21171637.820   113095088.357 8      3253.283          48.312    21171655.060    87962916.479 8      2530.331          49.562    21171654.820    87962917.485 8      2530.331          49.875
R17  20712551.220   110837046.395 7        -9.793          46.250    20712550.980   110837046.418 7        -9.793          45.875    20712568.000    86206656.751 8        -7.617          48.875    20712567.640    86206655.751 8        -7.617          48.937
G05  22023788.500   115735800.477 7      5109.078          46.375    22023787.160   115735800.482 7      5109.078          46.187    22023795.160    90183760.276 7      3981.100          45.750    22023795.900    90183770.276 7      3981.100          46.000
G07  23159891.020   121706038.703 7       228.278          43.937    23159889.540   121706038.713 7       228.278          42.812    23159902.020    94835897.775 7       177.879          42.187    23159902.200    94835932.788 7       177.879          46.562
> 2024 10 07 12 01 36.0000000  0 14
G11  20822465.600   109422789.525 8      1641.881          48.750    20822465.220   109422789.530 6      1641.881          40.500    20822473.120    85264532.302 6      1279.388          40.000    20822473.740    85264554.295 8      1279.388          53.187
G13  21242723.720   111631270.342 7      4016.992          44.937    21242721.480   111631270.349 5      4016.992          34.625    21242731.940    86985431.527 5      3130.123          34.562
G20  20479582.320   107620929.303 7      3932.927          46.687    20479580.380   107620929.308 6      3932.927          40.687    20479588.120    83860483.077 6      3064.618          40.500
R03  21548853.440   115352690.210 7      3832.274          44.500    21548852.400   115352690.223 7      3832.274          43.187    21548869.200    89718831.218 7      2980.657          47.000    21548869.360    89718832.228 7      2980.657          46.687
R02  21043413.340   112291681.522 7      1973.210          46.812    21043411.900   112291681.520 7      1973.210          46.812    21043428.060    87338033.869 8      1534.719          49.125    21043428.180    87338034.876 8      1534.719          50.062
R18  21041076.900   112318693.142 7      3470.355          46.812    21041078.500   112318693.156 7      3470.355          47.937    21041090.580    87359046.788 8      2699.165          48.625    21041090.900    87359043.794 8      2699.165          49.187
G30  21078125.780   110766296.979 8      1731.077          48.812    21078124.840   110766296.984 8      1731.077          49.312    21078135.360    86311440.473 8      1348.891          49.437    21078135.960    86311443.475 8      1348.891          49.375
G06  22629933.900   118921094.373 7      -632.145          44.812    22629933.900   118921094.376 7      -632.145          46.000    22629952.180    92665857.972 7      -492.581          45.812    22629953.140    92665862.974 8      -492.581          48.812
R13  21539743.200   115021006.867 7      6049.737          42.937    21539744.020   115021006.871 7      6049.737          42.812
G22  24615616.720   129355937.384 6      5028.500          40.687    24615614.920   129355937.391 4      5028.500          24.750    24615645.480   100796836.268 4      3918.312          24.937
R12  21171027.300   113091835.601 8      3252.203          48.500    21171028.960   113091835.602 7      3252.203          47.875    21171045.880    87960386.559 8      2529.491          49.062    21171045.960    87960387.563 8      2529.491          49.750
R17  20712553.000   110837056.672 7       -10.753          46.562    20712552.720   110837056.690 7       -10.753          46.562    20712569.840    86206664.738 8        -8.363          48.812    20712569.520    86206663.736 8        -8.363          48.937
G05  22022816.160   115730691.589 7      5108.706          47.062    22022814.800   115730691.594 7      5108.706          45.875    22022823.000    90179779.329 7      3980.810          45.500    22022824.040    90179789.329 7      3980.810          46.000
G07  23159847.780   121705810.700 7       227.620          43.750    23159846.140   121705810.707 7       227.620          42.500    23159858.660    94835720.100 7       177.367          42.000    23159858.920    94835755.105 7       177.367          46.750
> 2024 10 07 12 01 37.0000000  0 14
G11  20822153.280   109421147.833 8      1641.487          48.937    20822152.780   109421147.835 6      1641.487          40.250    20822160.780    85263253.058 6      1279.081          39.625    20822161.240    85263275.049 8      1279.081          52.500
G13  21241959.080   111627253.372 7      4016.853          45.312    21241957.120   111627253.379 5      4016.853          34.625    21241967.400    86982301.426 5      3130.015          34.500
G20  20478834.260   107616996.387 7      3932.784          46.625    20478831.960   107616996.392 6      3932.784          40.437    20478839.520    83857418.465 6      3064.507          40.125
R03  21548137.540   115348857.894 7      3832.392          44.625    21548136.620   115348857.900 7      3832.392          43.187    21548152.860    89715850.525 7      2980.749          46.375    21548153.380    89715851.527 7      2980.749          46.062
R02  21043043.800   112289708.164 7      1973.429          47.625    21043042.120   112289708.162 7      1973.429          46.375    21043058.260    87336499.030 8      1534.889          49.875    21043058.160    87336500.038 8      1534.889          49.875
R18  21040426.620   112315222.989 8      3469.884          48.000    21040428.240   112315223.003 7      3469.884          47.312    21040440.100    87356347.783 8      2698.799          48.562    21040440.720    87356344.796 8      2698.799          49.187
G30  21077796.480   110764566.094 8      1730.644          49.812    21077795.640   110764566.097 8      1730.644          49.437    21077806.040    86310091.734 8      1348.554          49.937    21077806.640    86310094.738 8      1348.554          49.437
G06  22630054.280   118921726.525 7      -632.181          45.500    22630054.220   118921726.527 7      -632.181          46.000    22630072.380    92666350.537 7      -492.608          45.875    22630073.620    92666355.543 8      -492.608          48.000
R13  21538610.980   115014957.135 7      6049.673          42.812    21538611.120   115014957.141 7      6049.673          42.812
G22  24614659.560   129350908.606 6      5028.957          40.625    24614658.080   129350908.614 4      5028.957          24.750    24614688.480   100792917.732 4      3918.668          24.937
R12  21170418.760   113088583.675 8      3251.541          49.250    21170419.900   113088583.681 8      3251.541          48.250    21170437.260    87957857.288 8      2528.977          49.125    21170437.020    87957858.295 8      2528.977          50.062
R17  20712554.840   110837067.503 7       -11.072          47.375    20712554.980   110837067.528 7       -11.072          46.312    20712572.060    86206673.162 8        -8.612          49.250    20712571.440    86206672.155 8        -8.612          48.812
G05  22021843.820   115725582.830 7      5108.762          47.500    22021842.740   115725582.835 7      5108.762          46.625    22021850.740    90175798.482 7      3980.853          46.625    22021851.620    90175808.480 7      3980.853          46.187
G07  23159804.380   121705582.949 7       227.730          44.062    23159803.060   121705582.954 7       227.730          42.687    23159815.240    94835542.626 7       177.452          42.437    23159815.500    94835577.627 7       177.452          46.687
> 2024 10 07 12 01 38.0000000  0 14
G11  20821841.160   109419506.609 8      1640.956          48.500    20821840.460   109419506.609 6      1640.956          40.687    20821848.400    85261974.174 6      1278.667          40.062    20821848.920    85261996.169 8      1278.667          52.750
G13  21241194.900   111623236.572 7      4016.723          45.437    21241192.900   111623236.583 5      4016.723          34.437    21241203.020    86979171.455 5      3129.914          34.500
G20  20478085.780   107613063.655 7      3932.649          47.875    20478083.680   107613063.655 6      3932.649          40.500    20478091.420    83854353.992 6      3064.402          40.250
R03  21547421.480   115345025.419 7      3832.536          45.000    21547420.240   115345025.428 7      3832.536          43.562    21547436.140    89712869.712 7      2980.861          46.500    21547437.340    89712870.707 7      2980.861          45.375
R02  21042673.700   112287734.688 8      1973.528          48.000    21042672.620   112287734.683 7      1973.528          46.375    21042688.280    87334964.094 8      1534.966          49.562    21042688.580    87334965.104 8      1534.966          49.437
R18  21039777.120   112311753.571 7      3469.138          47.812    21039778.420   112311753.588 7      3469.138          47.812    21039790.200    87353649.346 8      2698.218          48.812    21039791.000    87353646.358 8      2698.218          49.375
G30  21077467.060   110762835.582 8      1730.249          48.750    21077466.100   110762835.587 8      1730.249          49.750    21077476.660    86308743.279 8      1348.246          49.812    21077477.380    86308746.278 8      1348.246          48.875
G06  22630174.540   118922358.761 7      -632.270          45.437    22630174.400   118922358.763 7      -632.270          46.000    22630192.700    92666843.172 7      -492.678          45.687    22630193.560    92666848.178 8      -492.678          48.625
R13  21537478.140   115008907.643 7      6049.333          42.125    21537478.300   115008907.655 7      6049.333          42.500
G22  24613702.500   129345879.537 6      5029.275          40.375    24613701.120   129345879.542 4      5029.275          24.750    24613731.600   100788998.969 4      3918.915          24.937
R12  21169810.340   113085332.410 8      3250.930          48.062    21169811.340   113085332.417 8      3250.930          48.250    21169828.460    87955328.523 8      2528.501          49.562    21169828.440    87955329.527 8      2528.501          49.375
R17  20712557.240   110837078.791 7       -11.481          47.750    20712557.580   110837078.803 7       -11.481          46.750    20712573.880    86206681.913 8        -8.930          48.812    20712573.520    86206680.908 8        -8.930          49.500
G05  22020871.800   115720474.008 7      5108.839          47.250    22020870.680   115720474.008 7      5108.839          45.625    22020878.700    90171817.576 7      3980.914          45.750    22020879.600    90171827.565 7      3980.914          46.062
G07  23159761.240   121705355.370 7       227.418          44.125    23159759.560   121705355.372 7       227.418          42.437    23159772.160    94835365.287 7       177.209          42.250    23159772.500    94835400.298 7       177.209          46.687
> 2024 10 07 12 01 39.0000000  0 14
G11  20821528.880   109417866.148 8      1640.149          48.312    20821528.220   109417866.150 6      1640.149          40.437    20821536.200    85260695.890 6      1278.038          40.000    20821536.640    85260717.883 8      1278.038          52.937
G13  21240430.820   111619220.262 7      4016.244          44.312    21240428.640   111619220.272 5      4016.244          34.437    21240438.780    86976041.858 5      3129.541          34.250
G20  20477337.280   107609131.401 7      3932.053          47.375    20477335.220   107609131.406 6      3932.053          40.187    20477343.060    83851289.902 6      3063.937          39.875
R03  21546705.660   115341193.112 7      3832.307          44.875    21546704.560   115341193.119 7      3832.307          43.812    21546720.500    89709889.035 7      2980.683          46.687    21546721.100    89709890.045 7      2980.683          45.312
R02  21042304.180   112285761.391 7      1973.291          47.687    21042302.640   112285761.389 7      1973.291          46.812    21042318.400    87333429.310 8      1534.782          49.500    21042318.680    87333430.317 8      1534.782          50.062
R18  21039127.300   112308285.193 8      3468.006          48.312    21039129.180   112308285.207 7      3468.006          47.687    21039140.600    87350951.717 8      2697.338          48.562    21039141.040    87350948.724 8      2697.338          49.312
G30  21077137.920   110761105.748 8      1729.609          48.625    21077137.000   110761105.748 8      1729.609          49.187    21077147.500    86307395.352 8      1347.747          49.625    21077148.420    86307398.356 8      1347.747          48.687
G06  22630295.200   118922991.389 7      -632.710          45.937    22630295.100   118922991.399 7      -632.710          45.875    22630313.080    92667336.119 7      -493.021          45.500    22630314.100    92667341.125 8      -493.021          48.625
R13  21536345.340   115002858.685 7      6048.659          43.062    21536345.420   115002858.713 7      6048.659          42.750
G22  24612745.540   129340850.455 6      5029.132          40.625    24612744.100   129340850.463 4      5029.132          24.750    24612774.580   100785080.201 4      3918.804          24.937
R12  21169201.920   113082082.078 8      3249.972          48.062    21169202.780   113082082.076 8      3249.972          48.250    21169220.100    87952800.487 8      2527.756          48.875    21169219.840    87952801.489 8      2527.756          49.750
R17  20712559.600   110837090.829 7       -12.285          46.562    20712559.460   110837090.833 7       -12.285          46.500    20712576.060    86206691.267 8        -9.555          48.750    20712575.820    86206690.262 8        -9.555          49.062
G05  22019899.600   115715365.441 7      5108.520          47.812    22019898.620   115715365.446 7      5108.520          45.812    22019906.680    90167836.878 7      3980.665          46.062    22019907.420    90167846.874 7      3980.665          46.375
G07  23159717.900   121705128.207 7       226.986          43.312    23159716.300   121705128.212 7       226.986          42.125    23159728.840    94835188.272 7       176.872          42.250    23159729.340    94835223.273 7       176.872          46.562
> 2024 10 07 12 01 40.0000000  0 14
G11  20821216.780   109416226.309 8      1639.540          48.125    20821216.160   109416226.311 6      1639.540          40.250    20821224.220    85259418.085 6      1277.564          39.875    20821224.680    85259440.077 8      1277.564          52.437
G13  21239666.340   111615204.280 7      4015.806          45.500    21239664.480   111615204.287 5      4015.806          34.625    21239674.600    86972912.523 5      3129.199          34.187
G20  20476589.200   107605199.487 7      3931.707          46.562    20476587.180   107605199.491 6      3931.707          40.687    20476594.900    83848226.071 6      3063.668          40.375
R03  21545989.320   115337360.833 7      3832.211          44.875    21545989.160   115337360.840 7      3832.211          43.812    21546004.540    89706908.371 7      2980.609          45.812    21546005.180    89706909.379 7      2980.609          45.250
R02  21041934.300   112283788.113 7      1973.170          47.625    21041933.260   112283788.116 7      1973.170          47.125    21041948.520    87331894.527 8      1534.688          49.062    21041948.800    87331895.539 8      1534.688          48.812
R18  21038477.760   112304817.672 7      3467.124          47.937    21038479.320   112304817.689 7      3467.124          47.562    21038490.980    87348254.752 8      2696.652          48.312    21038491.380    87348251.758 8      2696.652          48.187
G30  21076808.760   110759376.476 8      1728.981          48.937    21076807.860   110759376.476 8      1728.981          49.000    21076818.580    86306047.863 8      1347.258          48.937    21076819.220    86306050.865 8      1347.258          48.375
G06  22630415.560   118923624.287 7      -633.010          46.437    22630415.540   118923624.289 7      -633.010          45.750    22630433.620    92667829.265 7      -493.254          45.625    22630434.380    92667834.270 7      -493.254          47.750
R13  21535212.340   114996810.085 7      6048.363          42.187    21535212.680   114996810.110 7      6048.363          42.750
G22  24611788.480   129335821.239 6      5029.420          39.812    24611787.060   129335821.244 4      5029.420          24.750    24611817.680   100781161.330 4      3919.028          24.750
R12  21168593.540   113078832.542 7      3249.086          47.562    21168594.540   113078832.546 8      3249.086          48.187    21168611.800    87950273.070 8      2527.067          49.125    21168611.620    87950274.074 8      2527.067          49.375
R17  20712561.780   110837103.495 7       -13.018          46.937    20712562.040   110837103.510 7       -13.018          46.250    20712578.260    86206701.117 8       -10.125          48.500    20712577.980    86206700.110 8       -10.125          48.000
G05  22018927.540   115710257.008 7      5108.308          47.625    22018926.660   115710257.013 7      5108.308          45.812    22018934.580    90163856.283 7      3980.500          46.062    22018935.400    90163866.270 7      3980.500          46.250
G07  23159674.680   121704901.337 7       226.673          43.500    23159673.020   121704901.339 7       226.673          42.187    23159685.660    94835011.486 7       176.628          42.250    23159686.000    94835046.497 7       176.628          46.375
> 2024 10 07 12 01 41.0000000  0 14
G11  20820904.940   109414587.184 8      1638.761          48.562    20820904.200   109414587.184 6      1638.761          40.875    20820912.260    85258140.837 6      1276.956          40.437    20820912.760    85258162.824 8      1276.956          52.812
G13  21238902.200   111611188.705 7      4015.376          45.250    21238900.300   111611188.712 5      4015.376          34.187    21238910.380    86969783.508 5      3128.864          34.187
G20  20475840.780   107601268.005 7      3931.207          46.750    20475838.880   107601268.010 6      3931.207          40.312    20475846.780    83845162.575 6      3063.278          40.000
R03  21545273.420   115333528.698 7      3831.963          45.250    21545273.180   115333528.708 7      3831.963          44.000    21545289.120    89703927.822 7      2980.416          46.312    21545289.420    89703928.836 7      2980.416          45.000
R02  21041564.780   112281814.941 7      1973.021          47.937    21041563.660   112281814.934 7      1973.021          47.312    21041578.460    87330359.830 8      1534.572          49.312    21041578.720    87330360.835 8      1534.572          49.500
R18  21037828.420   112301351.078 8      3466.097          48.000    21037830.000   112301351.084 8      3466.097          48.187    21037840.840    87345558.510 8      2695.854          48.625    21037841.820    87345555.517 8      2695.854          48.062
G30  21076479.740   110757647.816 8      1728.326          49.187    21076478.880   110757647.819 8      1728.326          49.875    21076489.600    86304700.858 8      1346.748          49.125    21076490.340    86304703.857 8      1346.748          49.000
G06  22630536.060   118924257.500 7      -633.371          45.687    22630536.000   118924257.502 7      -633.371          45.625    22630554.140    92668322.660 7      -493.536          45.812    22630554.840    92668327.662 8      -493.536          48.062
R13  21534079.580   114990761.960 7      6047.883          42.187    21534079.880   114990761.988 7      6047.883          42.187
G22  24610831.300   129330791.934 6      5029.201          39.937    24610829.920   129330791.944 4      5029.201          24.750    24610860.500   100777242.386 4      3918.858          24.750
R12  21167985.540   113075583.908 8      3248.137          48.125    21167986.060   113075583.915 8      3248.137          48.187    21168003.460    87947746.368 8      2526.329          49.375    21168003.220    87947747.372 8      2526.329          49.562
R17  20712564.100   110837116.870 7       -13.767          47.250    20712564.480   110837116.885 7       -13.767          46.750    20712580.900    86206711.513 8       -10.707          48.750    20712580.360    86206710.504 8       -10.707          48.687
G05  22017955.440   115705148.751 8      5108.125          48.062    22017954.680   115705148.756 7      5108.125          46.250    22017962.420    90159875.821 7      3980.357          46.500    22017963.320    90159885.804 7      3980.357          46.562
G07  23159631.260   121704674.848 7       226.337          43.812    23159629.880   121704674.853 7       226.337          42.250    23159642.600    94834834.992 6       176.367          41.812    23159642.940    94834870.003 7       176.367          46.875
> 2024 10 07 12 01 42.0000000  0 14
G11  20820592.980   109412948.664 8      1638.217          48.437    20820592.340   109412948.669 6      1638.217          39.625    20820600.200    85256864.068 6      1276.533          38.937    20820600.840    85256886.060 8      1276.533          52.125
G13  21238138.000   111607173.458 7      4015.109          46.312    21238136.300   111607173.460 5      4015.109          34.187    21238146.180    86966654.743 5      3128.657          34.375
G20  20475092.480   107597336.837 7      3930.995          47.312    20475090.680   107597336.842 6      3930.995          40.625    20475098.740    83842099.325 6      3063.113          40.062
R03  21544557.820   115329696.569 7      3832.192          45.437    21544557.760   115329696.573 7      3832.192          44.000    21544572.680    89700947.268 7      2980.593          46.437    21544573.760    89700948.282 7      2980.593          45.562
R02  21041194.820   112279841.775 7      1973.110          47.437    21041193.500   112279841.768 7      1973.110          46.687    21041208.640    87328825.149 8      1534.641          49.312    21041208.900    87328826.161 8      1534.641          49.250
R18  21037179.380   112297885.308 8      3465.379          48.312    21037180.740   112297885.324 7      3465.379          47.687    21037191.760    87342862.917 8      2695.295          48.687    21037192.680    87342859.925 8      2695.295          48.250
G30  21076151.020   110755919.693 8      1727.898          49.312    21076150.180   110755919.698 8      1727.898          49.562    21076160.660    86303354.268 8      1346.414          49.812    21076161.420    86303357.274 8      1346.414          48.687
G06  22630656.500   118924890.966 7      -633.571          46.750    22630656.420   118924890.971 7      -633.571          45.312    22630674.600    92668816.257 7      -493.692          44.937    22630675.560    92668821.266 8      -493.692          48.437
R13  21532947.220   114984714.196 7      6047.641          42.812    21532947.660   114984714.218 7      6047.641          42.187
G22  24609874.460   129325762.521 6      5029.613          40.125    24609872.900   129325762.536 4      5029.613          24.750    24609903.580   100773323.363 4      3919.179          24.750
R12  21167377.620   113072336.092 7      3247.512          47.875    21167378.040   113072336.099 8      3247.512          48.250    21167395.540    87945220.299 8      2525.843          49.625    21167395.180    87945221.301 8      2525.843          49.812
R17  20712566.940   110837130.832 7       -14.210          47.500    20712566.940   110837130.849 7       -14.210          46.375    20712583.340    86206722.364 8       -11.052          49.062    20712583.340    86206721.357 8       -11.052          48.562
G05  22016983.320   115700040.607 7      5108.147          47.875    22016982.700   115700040.614 7      5108.147          46.500    22016990.580    90155895.457 7      3980.375          46.312    22016991.540    90155905.451 7      3980.375          46.437
G07  23159588.200   121704448.650 7       226.016          43.500    23159586.720   121704448.657 7       226.016          42.000    23159599.400    94834658.726 6       176.116          41.812    23159599.620    94834693.741 7       176.116          46.437
> 2024 10 07 12 01 43.0000000  0 14
G11  20820281.460   109411310.827 7      1637.347          47.937    20820280.600   109411310.832 6      1637.347          40.562    20820288.400    85255587.832 6      1275.855          40.125    20820289.000    85255609.821 8      1275.855          52.312
G13  21237374.220   111603158.566 7      4014.558          45.875    21237372.080   111603158.571 5      4014.558          34.812    21237382.280    86963526.260 5      3128.227          34.375
G20  20474344.380   107593406.062 7      3930.460          47.187    20474342.800   107593406.065 6      3930.460          40.875    20474350.760    83839036.381 6      3062.696          40.125
R03  21543842.180   115325864.541 7      3831.840          46.500    21543842.440   115325864.556 7      3831.840          44.375    21543856.200    89697966.809 7      2980.320          46.000    21543857.480    89697967.812 7      2980.320          45.312
R02  21040825.280   112277868.707 8      1972.923          48.125    21040823.780   112277868.703 7      1972.923          46.437    21040839.260    87327290.531 8      1534.496          49.187    21040839.180    87327291.540 8      1534.496          49.750
R18  21036530.280   112294420.477 8      3464.287          48.687    21036531.540   112294420.491 7      3464.287          47.750    21036542.620    87340168.045 8      2694.445          48.125    21036543.460    87340165.050 8      2694.445          48.125
G30  21075822.400   110754192.163 8      1727.135          49.750    21075821.480   110754192.163 8      1727.135          49.687    21075831.860    86302008.135 8      1345.820          49.937    21075832.500    86302011.134 8      1345.820          48.625
G06  22630777.200   118925524.747 7      -634.137          45.562    22630777.080   118925524.751 7      -634.137          45.562    22630795.060    92669310.098 7      -494.133          45.437    22630796.300    92669315.102 8      -494.133          48.375
R13  21531814.480   114978666.877 7      6046.951          42.562    21531814.840   114978666.910 7      6046.951          42.500
G22  24608917.340   129320733.013 6      5029.527          40.312    24608916.000   129320733.031 4      5029.527          24.687    24608946.420   100769404.262 4      3919.112          24.750
R12  21166769.580   113069089.160 7      3246.374          47.812    21166769.840   113069089.166 7      3246.374          47.875    21166787.680    87942694.907 8      2524.958          49.500    21166787.660    87942695.909 8      2524.958          49.875
R17  20712569.600   110837145.435 7       -14.973          47.625    20712569.600   110837145.455 7       -14.973          46.375    20712586.300    86206733.710 8       -11.646          48.437    20712585.980    86206732.705 8       -11.646          48.562
G05  22016011.360   115694932.639 8      5107.761          48.312    22016010.680   115694932.644 7      5107.761          46.125    22016018.520    90151915.226 7      3980.074          46.437    22016019.220    90151925.212 7      3980.074          46.625
G07  23159545.420   121704222.781 7       225.576          42.125    23159543.680   121704222.786 7       225.576          42.062    23159556.300    94834482.720 6       175.773          41.500    23159556.860    94834517.729 7       175.773          46.375
> 2024 10 07 12 01 44.0000000  0 14
G11  20819969.860   109409673.553 7      1637.055          47.750    20819969.060   109409673.555 6      1637.055          40.312    20819976.860    85254312.023 6      1275.627          39.625    20819977.560    85254334.019 8      1275.627          52.625
G13  21236610.120   111599143.956 7      4014.600          44.625    21236608.260   111599143.961 5      4014.600          34.812    21236618.380    86960397.996 5      3128.260          33.875
G20  20473596.760   107589475.564 7      3930.499          47.812    20473594.940   107589475.566 6      3930.499          40.687    20473602.900    83835973.653 6      3062.726          40.250
R03  21543126.400   115322032.491 7      3832.137          45.812    21543127.060   115322032.509 7      3832.137          44.375    21543140.720    89694986.317 7      2980.551          45.812    21543141.560    89694987.331 7      2980.551          45.250
R02  21040455.540   112275895.619 7      1973.191          47.750    21040454.320   112275895.619 7      1973.191          46.750    21040469.400    87325755.906 8      1534.704          49.500    21040469.500    87325756.914 8      1534.704          49.812
R18  21035881.600   112290956.439 7      3463.769          47.375    21035882.120   112290956.462 7      3463.769          47.250    21035893.820    87337473.800 8      2694.042          48.187    21035894.540    87337470.803 8      2694.042          48.687
G30  21075493.860   110752465.111 8      1726.907          49.187    21075492.760   110752465.114 8      1726.907          49.750    21075503.300    86300662.382 8      1345.642          49.500    21075504.040    86300665.386 8      1345.642          48.625
G06  22630898.000   118926158.696 7      -633.961          45.187    22630897.620   118926158.698 7      -633.961          45.375    22630915.840    92669804.062 7      -493.996          45.375    22630917.000    92669809.064 8      -493.996          48.000
R13  21530682.300   114972619.892 7      6046.892          42.562    21530682.180   114972619.930 7      6046.892          42.062
G22  24607960.300   129315703.279 6      5030.055          40.437    24607958.880   129315703.289 4      5030.055          24.687    24607989.360   100765484.981 4      3919.523          24.750
R12  21166161.940   113065842.960 7      3245.947          47.562    21166162.080   113065842.963 7      3245.947          46.625    21166180.100    87940170.078 8      2524.625          49.625    21166180.000    87940171.080 8      2524.625          50.187
R17  20712572.420   110837160.622 7       -15.358          46.750    20712572.640   110837160.637 7       -15.358          46.312    20712589.220    86206745.509 8       -11.945          49.187    20712588.840    86206744.502 8       -11.945          48.812
G05  22015039.500   115689824.723 7      5107.992          47.375    22015038.660   115689824.728 7      5107.992          46.062    22015046.680    90147935.028 7      3980.254          46.687    22015047.440    90147945.014 7      3980.254          46.687
G07  23159502.620   121703997.143 7       225.710          43.062    23159500.720   121703997.142 7       225.710          42.000    23159513.540    94834306.888 6       175.878          41.375    23159513.840    94834341.907 7       175.878          46.437
> 2024 10 07 12 01 45.0000000  0 14
G11  20819658.340   109408036.851 8      1636.596          48.687    20819657.680   109408036.853 6      1636.596          40.312    20819665.460    85253036.665 6      1275.270          39.812    20819666.140    85253058.654 8      1275.270          52.437
G13  21235846.180   111595129.639 7      4014.385          44.875    21235844.320   111595129.642 5      4014.385          34.250    21235854.420    86957269.961 5      3128.092          34.000
G20  20472848.740   107585545.365 7      3930.322          46.437    20472846.820   107585545.370 6      3930.322          40.437    20472855.020    83832911.158 6      3062.588          40.375
R03  21542410.720   115318200.418 7      3832.350          45.312    21542410.780   115318200.441 7      3832.350          44.062    21542424.860    89692005.822 7      2980.716          45.875    21542425.700    89692006.830 7      2980.716          45.687
R02  21040085.700   112273922.482 7      1973.377          47.500    21040084.340   112273922.480 7      1973.377          46.437    21040099.540    87324221.238 8      1534.849          49.687    21040099.920    87324222.243 8      1534.849          49.250
R18  21035232.800   112287493.224 7      3462.996          47.687    21035233.500   112287493.241 7      3462.996          47.125    21035245.200    87334780.185 8      2693.441          48.437    21035245.700    87334777.189 8      2693.441          48.625
G30  21075165.340   110750738.564 8      1726.448          49.312    21075164.280   110750738.569 8      1726.448          49.312    21075174.760    86299317.019 8      1345.285          49.312    21075175.360    86299320.022 8      1345.285          48.812
G06  22631018.460   118926792.847 7      -634.027          46.000    22631018.320   118926792.844 7      -634.027          45.812    22631036.460    92670298.186 7      -494.047          45.562    22631037.900    92670303.192 8      -494.047          48.750
R13  21529549.920   114966573.262 7      6046.645          42.125    21529549.980   114966573.290 7      6046.645          42.062
G22  24607003.140   129310673.383 6      5030.337          40.000    24607001.660   129310673.395 4      5030.337          24.687    24607032.280   100761565.575 4      3919.743          24.750
R12  21165554.700   113062597.489 8      3245.308          48.062    21165554.500   113062597.482 7      3245.308          47.750    21165572.340    87937645.815 8      2524.129          49.437    21165572.160    87937646.819 8      2524.129          49.562
R17  20712575.420   110837176.368 7       -15.839          47.000    20712575.580   110837176.380 7       -15.839          46.250    20712592.340    86206757.745 8       -12.319          49.062    20712592.160    86206756.741 8       -12.319          49.625
G05  22014067.600   115684716.866 7      5108.046          47.687    22014066.560   115684716.871 7      5108.046          45.812    22014075.000    90143954.877 7      3980.295          46.062    22014075.460    90143964.863 7      3980.295          46.875
G07  23159459.680   121703771.762 7       225.512          43.062    23159458.000   121703771.764 7       225.512          42.375    23159470.560    94834131.262 7       175.724          42.000    23159470.800    94834166.271 7       175.724          46.562
> 2024 10 07 12 01 46.0000000  0 14
G11  20819346.980   109406400.753 8      1635.960          48.500    20819346.380   109406400.753 6      1635.960          40.375    20819354.060    85251761.777 6      1274.774          40.125    20819354.660    85251783.773 8      1274.774          51.937
G13  21235082.520   111591115.633 7      4014.023          45.562    21235080.440   111591115.635 5      4014.023          34.187    21235090.700    86954142.168 5      3127.810          34.000
G20  20472101.220   107581615.497 7      3929.886          47.187    20472098.880   107581615.502 6      3929.886          40.687    20472107.020    83829848.920 6      3062.249          40.437
R03  21541694.480   115314368.404 7      3832.211          45.500    21541694.580   115314368.418 7      3832.211          44.250    21541709.060    89689025.354 7      2980.609          46.062    21541709.760    89689026.358 7      2980.609          45.375
R02  21039716.060   112271949.353 7      1973.223          47.250    21039714.460   112271949.348 7      1973.223          47.000    21039729.620    87322686.574 8      1534.729          49.250    21039729.980    87322687.579 8      1534.729          49.562
R18  21034584.060   112284030.833 7      3462.171          47.750    21034584.560   112284030.852 7      3462.171          47.312    21034596.460    87332087.223 8      2692.800          48.625    21034596.920    87332084.224 8      2692.800          48.312
G30  21074836.880   110749012.535 8      1725.857          49.125    21074835.820   110749012.542 8      1725.857          49.187    21074846.280    86297972.063 8      1344.823          49.375    21074846.880    86297975.062 8      1344.823          48.562
G06  22631139.380   118927427.243 7      -634.316          45.750    22631139.000   118927427.242 7      -634.316          46.062    22631157.240    92670792.503 7      -494.272          45.937    22631158.340    92670797.508 8      -494.272          48.250
R13  21528417.240   114960526.977 6      6046.280          41.875    21528417.220   114960527.002 6      6046.280          41.562
G22  24606045.920   129305643.328 6      5030.198          40.000    24606044.600   129305643.341 4      5030.198          24.687    24606075.000   100757646.042 4      3919.635          24.750
R12  21164947.040   113059352.781 8      3244.362          48.125    21164947.000   113059352.793 7      3244.362          47.375    21164964.920    87935122.172 8      2523.393          48.812    21164965.100    87935123.174 8      2523.393          49.687
R17  20712578.380   110837192.702 7       -16.611          47.437    20712578.320   110837192.722 7       -16.611          46.312    20712595.040    86206770.450 8       -12.920          48.812    20712595.160    86206769.449 8       -12.920          49.062
G05  22013095.420   115679609.131 8      5107.823          48.000    22013094.580   115679609.139 7      5107.823          46.437    22013103.160    90139974.827 7      3980.122          46.562    22013103.580    90139984.814 7      3980.122          46.937
G07  23159416.960   121703546.668 7       225.131          42.625    23159415.080   121703546.670 6       225.131          41.937    23159427.780    94833955.858 7       175.426          42.000    23159427.980    94833990.877 7       175.426          46.750
> 2024 10 07 12 01 47.0000000  0 14
G11  20819035.840   109404765.252 8      1635.194          48.125    20819035.020   109404765.260 6      1635.194          40.500    20819042.860    85250487.363 6      1274.177          39.875    20819043.380    85250509.359 8      1274.177          52.312
G13  21234318.660   111587101.934 7      4013.557          45.125    21234316.620   111587101.942 5      4013.557          34.187    21234326.820    86951014.615 5      3127.447          34.250
G20  20471353.260   107577685.929 7      3929.491          46.812    20471351.080   107577685.931 6      3929.491          40.875    20471359.380    83826786.918 6      3061.941          40.312
R03  21540978.660   115310536.384 7      3832.081          45.312    21540978.680   115310536.396 7      3832.081          44.250    21540993.040    89686044.894 7      2980.508          45.625    21540993.900    89686045.910 7      2980.508          45.312
R02  21039346.220   112269976.157 7      1973.237          47.312    21039344.440   112269976.153 7      1973.237          46.437    21039359.900    87321151.864 8      1534.740          49.187    21039360.380    87321152.872 8      1534.740          49.625
R18  21033935.280   112280569.288 8      3461.195          48.125    21033936.100   112280569.302 7      3461.195          47.187    21033948.360    87329394.900 8      2692.041          48.750    21033948.520    87329391.901 8      2692.041          48.937
G30  21074508.400   110747287.010 8      1725.337          48.312    21074507.540   110747287.012 8      1725.337          49.937    21074517.920    86296627.493 8      1344.418          49.812    21074518.560    86296630.493 8      1344.418          48.937
G06  22631259.980   118928061.849 7      -634.687          45.687    22631259.800   118928061.848 7      -634.687          45.687    22631278.120    92671286.991 7      -494.561          45.437    22631279.040    92671291.998 8      -494.561          48.437
R13  21527285.500   114954481.028 6      6045.877          41.875    21527284.600   114954481.056 6      6045.877          41.562
G22  24605089.220   129300613.061 6      5030.515          39.625    24605087.240   129300613.074 4      5030.515          24.687    24605117.820   100753726.349 4      3919.882          24.750
R12  21164339.420   113056108.875 8      3243.533          48.250    21164339.900   113056108.884 7      3243.533          47.687    21164357.760    87932599.134 8      2522.748          49.687    21164357.620    87932600.136 8      2522.748          49.750
R17  20712581.740   110837209.583 7       -17.122          47.312    20712581.560   110837209.600 7       -17.122          46.562    20712598.300    86206783.571 8       -13.317          48.562    20712598.300    86206782.564 8       -13.317          49.187
G05  22012123.660   115674501.466 7      5107.720          47.875    22012122.620   115674501.476 7      5107.720          46.125    22012131.400    90135994.831 7      3980.041          46.437    22012132.000    90136004.819 7      3980.041          47.000
G07  23159374.400   121703321.815 7       224.814          42.687    23159372.460   121703321.820 7       224.814          42.312    23159384.960    94833780.642 7       175.180          42.125    23159385.600    94833815.647 7       175.180          46.687
> 2024 10 07 12 01 48.0000000  0 14
G11  20818724.720   109403130.290 7      1634.814          47.250    20818723.920   109403130.295 6      1634.814          40.875    20818731.780    85249213.360 6      1273.881          40.437    20818732.440    85249235.358 8      1273.881          52.562
G13  21233555.000   111583088.482 7      4013.417          45.125    21233552.960   111583088.490 5      4013.417          34.375    21233563.200    86947887.249 5      3127.338          34.250
G20  20470605.720   107573756.631 7      3929.251          46.187    20470603.420   107573756.638 6      3929.251          40.375    20470611.680    83823725.128 6      3061.754          39.687
R03  21540262.880   115306704.302 7      3832.227          45.875    21540262.980   115306704.325 7      3832.227          44.125    21540276.980    89683064.393 7      2980.621          45.687    21540277.940    89683065.405 7      2980.621          45.500
R02  21038976.660   112268002.956 7      1973.275          47.375    21038974.900   112268002.944 7      1973.275          46.250    21038990.300    87319617.150 8      1534.770          48.875    21038990.500    87319618.158 8      1534.770          49.500
R18  21033287.060   112277108.546 7      3460.408          47.750    21033287.820   112277108.558 7      3460.408          47.750    21033300.120    87326703.210 8      2691.428          49.187    21033300.280    87326700.211 8      2691.428          48.875
G30  21074180.160   110745561.960 8      1724.904          49.187    21074179.240   110745561.962 8      1724.904          50.062    21074189.620    86295283.297 8      1344.081          50.250    21074190.340    86295286.301 8      1344.081          49.000
G06  22631381.020   118928696.633 7      -634.775          45.750    22631380.740   118928696.638 7      -634.775          45.562    22631398.880    92671781.606 7      -494.630          45.562    22631400.040    92671786.610 8      -494.630          48.125
R13  21526153.560   114948435.432 6      6045.505          41.562    21526152.180   114948435.457 6      6045.505          41.812
G22  24604131.760   129295582.626 6      5030.680          39.250    24604130.140   129295582.641 4      5030.680          24.687    24604160.620   100749806.525 4      3920.010          25.000
R12  21163732.360   113052865.755 7      3242.886          47.937    21163732.700   113052865.756 7      3242.886          47.625    21163750.580    87930076.701 8      2522.245          49.187    21163750.580    87930077.705 8      2522.245          49.750
R17  20712585.220   110837226.990 7       -17.562          47.562    20712584.800   110837227.005 7       -17.562          46.500    20712601.440    86206797.100 8       -13.659          48.562    20712601.360    86206796.101 8       -13.659          49.062
G05  22011151.600   115669393.857 7      5107.664          47.937    22011150.600   115669393.860 7      5107.664          46.312    22011159.540    90132014.875 7      3979.998          46.437    22011160.100    90132024.867 7      3979.998          47.562
G07  23159331.600   121703097.205 7       224.558          43.187    23159329.880   121703097.207 7       224.558          42.437    23159342.220    94833605.611 7       174.980          42.687    23159342.640    94833640.620 7       174.980          46.625
> 2024 10 07 12 01 49.0000000  0 14
G11  20818413.620   109401495.850 8      1634.112          48.500    20818412.860   109401495.853 6      1634.112          40.500    20818420.840    85247939.761 6      1273.334          40.187    20818421.380    85247961.761 8      1273.334          52.375
G13  21232791.260   111579075.246 7      4013.064          44.750    21232789.040   111579075.248 5      4013.064          34.250    21232799.600    86944760.054 5      3127.063          34.250
G20  20469858.060   107569827.551 7      3928.903          46.687    20469855.760   107569827.559 6      3928.903          40.000    20469864.020    83820663.507 6      3061.483          40.062
R03  21539547.080   115302872.149 7      3832.108          46.062    21539547.500   115302872.164 7      3832.108          44.125    21539561.320    89680083.825 7      2980.528          45.687    21539561.620    89680084.830 7      2980.528          44.687
R02  21038606.460   112266029.657 7      1973.288          47.562    21038605.020   112266029.647 7      1973.288          47.062    21038620.400    87318082.355 8      1534.780          49.437    21038620.900    87318083.365 8      1534.780          50.125
R18  21032639.000   112273648.523 7      3459.557          47.000    21032639.580   112273648.534 7      3459.557          47.437    21032652.360    87324012.076 8      2690.767          49.062    21032651.980    87324009.078 8      2690.767          49.500
G30  21073852.020   110743837.323 8      1724.367          49.062    21073851.020   110743837.328 8      1724.367          50.062    21073861.420    86293939.422 8      1343.662          50.062    21073862.200    86293942.428 8      1343.662          48.937
G06  22631501.700   118929331.549 7      -635.063          46.125    22631501.440   118929331.554 7      -635.063          45.500    22631519.720    92672276.330 7      -494.854          45.625    22631520.900    92672281.332 8      -494.854          48.687
R13  21525020.940   114942390.057 6      6045.206          41.562    21525019.820   114942390.087 6      6045.206          41.812
G22  24603174.360   129290551.865 6      5031.080          39.125    24603172.980   129290551.878 4      5031.080          24.687    24603203.300   100745886.445 4      3920.322          25.000
R12  21163125.680   113049623.307 8      3242.030          48.625    21163125.520   113049623.311 7      3242.030          47.687    21163143.500    87927554.803 8      2521.579          49.375    21163143.760    87927555.805 8      2521.579          49.812
R17  20712588.260   110837244.885 7       -18.193          46.750    20712587.620   110837244.899 7       -18.193          46.062    20712604.980    86206811.009 8       -14.150          49.125    20712604.580    86206810.009 8       -14.150          49.187
G05  22010179.600   115664286.220 7      5107.589          47.437    22010178.620   115664286.228 7      5107.589          46.437    22010187.880    90128034.904 7      3979.939          46.062    22010188.340    90128044.894 7      3979.939          47.437
G07  23159288.900   121702872.741 7       224.246          44.187    23159287.380   121702872.746 7       224.246          42.500    23159299.600    94833430.700 7       174.737          42.125    23159299.840    94833465.709 7       174.737          46.812
> 2024 10 07 12 01 50.0000000  0 14
G11  20818102.700   109399862.007 8      1633.485          48.187    20818101.960   109399862.012 6      1633.485          40.187    20818110.020    85246666.638 6      1272.845          39.812    20818110.460    85246688.640 8      1272.845          51.562
G13  21232027.560   111575062.320 7      4012.761          44.625    21232025.320   111575062.327 5      4012.761          34.250    21232035.960    86941633.105 5      3126.827          34.437
G20  20469110.420   107565898.803 7      3928.583          47.125    20469108.120   107565898.810 6      3928.583          40.562    20469116.400    83817602.143 6      3061.234          40.312
R03  21538831.140   115299039.995 7      3832.201          45.937    21538831.000   115299040.010 7      3832.201          44.312    21538845.300    89677103.252 7      2980.600          45.875    21538845.840    89677104.254 7      2980.600          45.250
R02  21038236.440   112264056.394 7      1973.273          47.250    21038235.160   112264056.390 7      1973.273          46.250    21038250.480    87316547.596 8      1534.768          49.750    21038251.000    87316548.609 8      1534.768          49.687
R18  21031991.080   112270189.332 7      3458.779          47.437    21031991.620   112270189.346 7      3458.779          47.437    21032004.560    87321321.605 8      2690.161          49.187    21032004.200    87321318.606 8      2690.161          49.375
G30  21073523.960   110742113.220 8      1723.874          48.750    21073522.980   110742113.230 8      1723.874          49.062    21073533.240    86292595.967 8      1343.279          49.562    21073534.000    86292598.971 8      1343.279          48.500
G06  22631622.620   118929966.694 7      -635.222          46.250    22631622.360   118929966.696 7      -635.222          44.875    22631640.500    92672771.231 7      -494.978          44.812    22631641.280    92672776.237 8      -494.978          48.312
R13  21523888.960   114936345.074 6      6044.784          41.562    21523887.800   114936345.102 6      6044.784          41.625
G22  24602217.120   129285521.030 6      5030.862          39.750    24602215.640   129285521.046 4      5030.862          25.250    24602246.020   100741966.313 4      3920.152          25.000
R12  21162518.980   113046381.629 7      3241.333          47.500    21162518.680   113046381.627 7      3241.333          47.562    21162536.660    87925033.496 8      2521.037          49.062    21162536.860    87925034.504 8      2521.037          50.062
R17  20712591.840   110837263.408 7       -18.794          46.375    20712591.340   110837263.423 7       -18.794          46.187    20712608.280    86206825.408 8       -14.617          48.750    20712608.360    86206824.405 8       -14.617          48.625
G05  22009207.640   115659178.691 8      5107.518          48.000    22009206.680   115659178.701 7      5107.518          46.250    22009215.860    90124055.015 7      3979.884          46.875    22009216.520    90124065.011 7      3979.884          46.750
G07  23159246.100   121702648.559 7       224.005          43.250    23159244.840   121702648.563 7       224.005          42.062    23159256.980    94833256.008 7       174.549          42.062    23159257.280    94833291.007 7       174.549          46.562
> 2024 10 07 12 01 51.0000000  0 14
G11  20817791.860   109398228.908 7      1632.687          47.875    20817791.260   109398228.913 6      1632.687          40.562    20817799.220    85245394.087 6      1272.224          40.375    20817799.860    85245416.087 8      1272.224          52.687
G13  21231263.920   111571049.864 7      4012.200          45.937    21231261.720   111571049.863 5      4012.200          34.437    21231272.380    86938506.516 5      3126.389          34.437
G20  20468362.680   107561970.514 7      3927.967          46.875    20468360.640   107561970.524 6      3927.967          40.250    20468368.880    83814541.136 6      3060.754          40.000
R03  21538115.300   115295208.026 7      3831.753          45.437    21538114.980   115295208.036 7      3831.753          44.500    21538129.900    89674122.830 7      2980.253          45.562    21538130.120    89674123.833 7      2980.253          45.312
R02  21037866.700   112262083.273 7      1973.043          47.812    21037865.860   112262083.269 7      1973.043          47.000    21037880.700    87315012.934 8      1534.589          49.375    21037881.380    87315013.943 8      1534.589          49.500
R18  21031343.180   112266731.166 7      3457.583          47.937    21031343.660   112266731.172 7      3457.583          47.812    21031356.900    87318631.912 8      2689.231          49.187    21031356.580    87318628.913 8      2689.231          49.875
G30  21073195.900   110740389.789 8      1723.047          50.062    21073195.000   110740389.799 8      1723.047          49.375    21073205.340    86291253.029 8      1342.634          49.562    21073205.860    86291256.031 8      1342.634          48.875
G06  22631743.460   118930602.233 7      -635.748          45.375    22631743.160   118930602.232 7      -635.748          45.375    22631761.700    92673266.440 7      -495.388          45.187    22631762.460    92673271.440 8      -495.388          48.000
R13  21522756.720   114930300.591 6      6044.156          41.187    21522755.420   114930300.627 6      6044.156          41.625
G22  24601259.980   129280490.164 6      5030.728          39.750    24601258.200   129280490.182 4      5030.728          25.250    24601288.800   100738046.151 4      3920.048          25.000
R12  21161912.140   113043140.896 7      3240.180          47.812    21161912.340   113043140.897 7      3240.180          47.812    21161929.800    87922512.932 8      2520.140          49.062    21161930.020    87922513.940 8      2520.140          49.562
R17  20712595.100   110837282.693 7       -19.694          47.500    20712594.700   110837282.706 7       -19.694          46.625    20712612.060    86206840.397 8       -15.318          49.000    20712611.840    86206839.397 8       -15.318          48.875
G05  22008235.680   115654071.393 7      5107.104          47.375    22008234.800   115654071.398 7      5107.104          46.125    22008244.200    90120075.303 7      3979.562          46.312    22008244.440    90120085.296 7      3979.562          47.437
G07  23159203.600   121702424.794 7       223.467          43.687    23159201.900   121702424.801 7       223.467          42.875    23159214.560    94833081.640 7       174.130          42.500    23159214.740    94833116.647 7       174.130          46.875
> 2024 10 07 12 01 52.0000000  0 14
G11  20817481.360   109396596.292 7      1632.310          47.062    20817480.760   109396596.294 6      1632.310          40.125    20817488.500    85244121.913 6      1271.930          40.062    20817488.960    85244143.917 8      1271.930          52.625
G13  21230500.420   111567037.565 7      4012.241          45.500    21230498.340   111567037.565 5      4012.241          34.437    21230508.980    86935380.051 5      3126.422          34.375
G20  20467615.280   107558042.398 7      3928.027          47.312    20467612.920   107558042.406 6      3928.027          40.437    20467621.400    83811480.267 6      3060.801          39.875
R03  21537399.440   115291375.880 7      3832.168          45.187    21537398.900   115291375.898 7      3832.168          44.437    21537414.540    89671142.287 7      2980.575          46.125    21537414.460    89671143.288 7      2980.575          45.562
R02  21037496.840   112260109.987 7      1973.410          47.500    21037496.180   112260109.980 7      1973.410          46.937    21037511.000    87313478.156 8      1534.874          49.437    21037511.300    87313479.167 8      1534.874          49.312
R18  21030695.360   112263273.676 7      3457.070          47.312    21030696.040   112263273.682 7      3457.070          47.437    21030709.180    87315942.755 8      2688.833          49.375    21030708.880    87315939.758 8      2688.833          49.687
G30  21072867.980   110738666.739 8      1722.798          49.500    21072867.060   110738666.744 8      1722.798          49.562    21072877.500    86289910.393 8      1342.440          49.437    21072878.040    86289913.395 8      1342.440          49.000
G06  22631864.480   118931237.861 7      -635.703          45.750    22631864.020   118931237.863 7      -635.703          45.562    22631882.480    92673761.724 7      -495.353          45.500    22631883.420    92673766.724 8      -495.353          48.125
R13  21521624.400   114924256.359 6      6044.088          41.187    21521623.780   114924256.395 6      6044.088          41.312
G22  24600302.420   129275458.975 6      5031.289          39.625    24600300.680   129275458.990 4      5031.289          25.250    24600331.200   100734125.733 4      3920.485          25.000
R12  21161305.580   113039900.809 8      3239.689          48.687    21161305.880   113039900.818 8      3239.689          48.312    21161323.500    87919992.869 8      2519.758          49.250    21161323.560    87919993.877 8      2519.758          49.375
R17  20712598.880   110837302.405 7       -19.876          46.812    20712598.720   110837302.411 7       -19.876          46.125    20712615.920    86206855.720 8       -15.459          48.687    20712615.460    86206854.715 8       -15.459          49.000
G05  22007263.700   115648964.051 7      5107.313          47.812    22007262.960   115648964.053 7      5107.313          46.812    22007272.300    90116095.553 7      3979.724          46.937    22007272.680    90116105.553 8      3979.724          48.000
G07  23159160.720   121702201.161 7       223.498          43.625    23159158.860   121702201.173 7       223.498          42.375    23159171.960    94832907.378 7       174.154          42.000    23159171.960    94832942.391 7       174.154          46.562
> 2024 10 07 12 01 53.0000000  0 14
G11  20817170.740   109394964.298 7      1631.517          47.937    20817170.160   109394964.303 6      1631.517          40.875    20817177.880    85242850.226 6      1271.312          40.312    20817178.280    85242872.227 8      1271.312          52.437
G13  21229737.020   111563025.640 7      4011.679          44.875    21229734.880   111563025.637 5      4011.679          34.500    21229745.380    86932253.878 5      3125.983          34.312
G20  20466867.880   107554114.656 7      3927.467          47.625    20466865.660   107554114.661 6      3927.467          40.312    20466874.020    83808419.685 6      3060.364          39.937
R03  21536683.240   115287543.844 7      3831.862          45.812    21536683.180   115287543.859 7      3831.862          44.187    21536698.660    89668161.810 7      2980.337          45.937    21536698.700    89668162.820 7      2980.337          45.875
R02  21037127.300   112258136.714 8      1973.134          48.000    21037126.400   112258136.715 7      1973.134          47.250    21037141.360    87311943.388 8      1534.660          49.687    21037141.400    87311944.395 8      1534.660          49.625
R18  21030047.560   112259817.063 7      3456.130          47.062    21030048.600   112259817.067 7      3456.130          47.937    21030062.060    87313254.272 8      2688.101          49.562    21030061.540    87313251.276 8      2688.101          49.812
G30  21072540.180   110736944.251 8      1722.148          48.750    21072539.360   110736944.256 8      1722.148          49.187    21072549.740    86288568.191 8      1341.934          49.562    21072550.300    86288571.193 8      1341.934          49.125
G06  22631985.420   118931873.754 7      -636.158          45.750    22631985.000   118931873.757 7      -636.158          45.125    22632003.420    92674257.203 7      -495.707          44.875    22632004.560    92674262.205 7      -495.707          47.937
R13  21520492.980   114918212.549 6      6043.446          41.500    21520491.900   114918212.582 6      6043.446          41.312
G22  24599344.980   129270427.659 6      5031.156          38.375    24599343.120   129270427.672 4      5031.156          25.250    24599373.680   100730205.226 4      3920.381          25.000
R12  21160699.060   113036661.569 8      3238.718          48.562    21160699.620   113036661.573 7      3238.718          47.750    21160716.940    87917473.460 8      2519.003          49.500    21160717.200    87917474.466 8      2519.003          49.812
R17  20712601.980   110837322.712 7       -20.732          46.250    20712602.320   110837322.725 7       -20.732          45.812    20712620.080    86206871.511 8       -16.125          48.875    20712619.160    86206870.508 8       -16.125          49.375
G05  22006291.700   115643856.839 7      5107.034          47.500    22006291.060   115643856.844 7      5107.034          46.750    22006300.380    90112115.916 7      3979.507          47.125    22006300.520    90112125.916 7      3979.507          47.500
G07  23159118.340   121701977.843 7       223.044          43.500    23159116.780   121701977.850 7       223.044          42.500    23159129.340    94832733.358 6       173.800          41.875    23159129.700    94832768.365 7       173.800          46.562
> 2024 10 07 12 01 54.0000000  0 14
G11  20816860.320   109393332.812 7      1631.261          47.812    20816859.560   109393332.815 6      1631.261          40.625    20816867.560    85241578.934 6      1271.112          40.187    20816867.900    85241600.937 8      1271.112          52.750
G13  21228973.680   111559013.919 7      4011.514          45.625    21228971.440   111559013.914 5      4011.514          34.250    21228981.780    86929127.868 5      3125.855          34.312
G20  20466120.460   107550187.127 7      3927.384          47.437    20466118.260   107550187.134 6      3927.384          40.812    20466126.720    83805359.274 6      3060.299          40.875
R03  21535967.900   115283711.728 7      3832.099          46.312    21535967.680   115283711.741 7      3832.099          44.187    21535983.240    89665181.273 7      2980.521          46.312    21535982.940    89665182.273 7      2980.521          46.375
R02  21036757.300   112256163.313 7      1973.407          47.750    21036756.580   112256163.314 7      1973.407          47.062    21036771.540    87310408.516 8      1534.872          49.250    21036771.660    87310409.528 8      1534.872          49.937
R18  21029400.660   112256361.190 7      3455.406          47.312    21029401.120   112256361.196 8      3455.406          48.125    21029414.780    87310566.377 8      2687.538          49.875    21029414.180    87310563.385 8      2687.538          49.750
G30  21072212.580   110735222.192 8      1721.834          48.562    21072211.680   110735222.199 8      1721.834          49.312    21072222.040    86287226.331 8      1341.689          49.812    21072222.440    86287229.332 8      1341.689          49.000
G06  22632106.400   118932509.779 7      -636.189          44.812    22632106.080   118932509.784 7      -636.189          45.125    22632124.460    92674752.788 7      -495.731          45.062    22632125.680    92674757.790 7      -495.731          47.875
R13  21519360.900   114912168.990 6      6043.403          41.500    21519359.760   114912169.015 6      6043.403          41.312
G22  24598387.140   129265396.094 6      5031.715          38.437    24598385.840   129265396.107 4      5031.715          25.250    24598416.120   100726284.522 4      3920.817          25.000
R12  21160092.700   113033423.029 8      3238.149          48.437    21160093.140   113033423.027 8      3238.149          48.062    21160110.760    87914954.591 8      2518.560          48.812    21160110.880    87914955.599 8      2518.560          49.437
R17  20712606.320   110837343.502 7       -21.044          47.000    20712606.440   110837343.514 7       -21.044          45.687    20712623.680    86206887.670 8       -16.368          48.312    20712623.500    86206886.665 8       -16.368          48.875
G05  22005320.220   115638749.631 7      5107.161          47.312    22005319.100   115638749.638 7      5107.161          46.625    22005328.700    90108136.281 7      3979.606          46.562    22005328.700    90108146.285 7      3979.606          47.937
G07  23159075.980   121701754.701 7       222.962          43.562    23159074.300   121701754.711 7       222.962          42.375    23159087.040    94832559.475 7       173.737          42.312    23159087.460    94832594.480 7       173.737          46.937
> 2024 10 07 12 01 55.0000000  0 14
G11  20816550.120   109391702.104 7      1630.355          47.625    20816549.080   109391702.106 6      1630.355          40.625    20816557.200    85240308.248 6      1270.406          40.250    20816557.760    85240330.249 8      1270.406          53.375
G13  21228210.340   111555002.659 7      4011.007          45.812    21228208.320   111555002.653 5      4011.007          34.250    21228218.600    86926002.211 5      3125.460          34.187
G20  20465373.100   107546260.081 7      3926.893          46.812    20465370.940   107546260.086 6      3926.893          40.375    20465379.380    83802299.234 6      3059.917          40.000
R03  21535252.080   115279879.797 7      3831.816          45.937    21535252.260   115279879.814 7      3831.816          44.875    21535267.960    89662200.884 7      2980.301          46.437    21535267.200    89662201.888 7      2980.301          46.687
R02  21036387.500   112254190.096 8      1973.172          48.437    21036387.100   112254190.092 7      1973.172          47.062    21036401.460    87308873.784 8      1534.689          49.562    21036402.200    87308874.795 8      1534.689          49.625
R18  21028753.040   112252906.320 7      3454.352          47.500    21028754.140   112252906.329 8      3454.352          48.125    21028767.640    87307879.256 8      2686.718          50.062    21028766.820    87307876.266 8      2686.718          50.000
G30  21071885.000   110733500.808 8      1721.071          48.625    21071884.060   110733500.815 8      1721.071          49.500    21071894.640    86285884.988 8      1341.094          49.625    21071895.200    86285887.988 8      1341.094          49.250
G06  22632227.500   118933146.174 7      -636.530          45.187    22632227.080   118933146.179 7      -636.530          45.375    22632245.560    92675248.671 7      -495.997          44.875    22632246.460    92675253.668 8      -495.997          48.500
R13  21518229.200   114906125.954 6      6042.881          41.062    21518228.180   114906125.984 6      6042.881          41.312
G22  24597429.840   129260364.516 6      5031.642          39.375    24597428.420   129260364.531 4      5031.642          25.250    24597458.880   100722363.805 4      3920.760          24.937
R12  21159486.500   113030185.418 8      3237.194          48.187    21159487.100   113030185.420 7      3237.194          47.812    21159504.460    87912436.448 8      2517.817          48.875    21159504.600    87912437.456 8      2517.817          49.750
R17  20712610.220   110837365.048 7       -21.852          46.187    20712609.520   110837365.058 7       -21.852          45.937    20712627.520    86206904.422 8       -16.996          48.312    20712627.460    86206903.415 8       -16.996          49.062
G05  22004348.240   115633642.692 8      5106.809          48.187    22004347.320   115633642.700 7      5106.809          46.500    22004356.900    90104156.849 7      3979.332          47.062    22004356.880    90104166.849 7      3979.332          47.687
G07  23159033.500   121701531.992 7       222.524          43.687    23159031.820   121701531.995 7       222.524          42.562    23159044.740    94832385.922 6       173.396          41.750    23159045.280    94832420.927 7       173.396          46.500
> 2024 10 07 12 01 56.0000000  0 14
G11  20816239.940   109390071.808 7      1630.012          47.562    20816238.960   109390071.810 6      1630.012          40.437    20816246.880    85239037.881 6      1270.140          39.562    20816247.360    85239059.885 8      1270.140          52.750
G13  21227447.040   111550991.527 7      4010.984          46.187    21227445.240   111550991.522 5      4010.984          34.625    21227455.260    86922876.655 5      3125.442          34.312
G20  20464625.920   107542333.179 8      3926.803          48.000    20464623.780   107542333.187 6      3926.803          40.500    20464632.100    83799239.307 6      3059.846          40.000
R03  21534536.040   115276047.713 7      3832.073          47.312    21534536.740   115276047.736 7      3832.073          45.250    21534552.080    89659220.381 7      2980.501          46.437    21534551.580    89659221.388 7      2980.501          45.812
R02  21036017.880   112252216.735 8      1973.390          48.562    21036017.380   112252216.723 7      1973.390          47.812    21036031.780    87307338.933 8      1534.859          49.062    21036032.200    87307339.942 8      1534.859          48.500
R18  21028106.080   112249452.110 8      3453.852          49.250    21028107.060   112249452.116 8      3453.852          48.187    21028120.620    87305192.650 8      2686.329          49.937    21028120.140    87305189.660 8      2686.329          49.625
G30  21071557.460   110731779.776 8      1720.807          49.125    21071556.640   110731779.778 8      1720.807          50.437    21071567.040    86284543.918 8      1340.889          50.375    21071567.760    86284546.922 8      1340.889          49.375
G06  22632348.640   118933782.651 7      -636.598          45.375    22632348.400   118933782.656 7      -636.598          45.437    22632366.700    92675744.606 7      -496.050          45.187    22632367.840    92675749.604 8      -496.050          48.375
R13  21517097.080   114900083.161 6      6042.554          41.062    21517095.940   114900083.183 6      6042.554          41.125
G22  24596471.940   129255332.615 6      5032.002          38.687    24596470.720   129255332.630 4      5032.002          24.812    24596501.280   100718442.837 4      3921.040          24.937
R12  21158880.480   113026948.411 8      3236.640          49.125    21158881.240   113026948.415 8      3236.640          48.875    21158898.700    87909918.784 8      2517.386          48.875    21158898.560    87909919.786 8      2517.386          49.437
R17  20712614.300   110837387.020 7       -22.290          46.812    20712614.140   110837387.035 7       -22.290          46.625    20712632.140    86206921.503 8       -17.337          48.500    20712631.600    86206920.498 8       -17.337          49.687
G05  22003376.660   115628535.665 8      5107.030          48.937    22003375.500   115628535.665 7      5107.030          46.812    22003385.240    90100177.345 7      3979.504          46.750    22003385.220    90100187.343 7      3979.504          47.625
G07  23158991.440   121701309.363 7       222.400          43.625    23158989.380   121701309.373 7       222.400          42.125    23159002.280    94832212.448 7       173.299          42.125    23159002.660    94832247.461 7       173.299          46.562
> 2024 10 07 12 01 57.0000000  0 14
G11  20815929.540   109388442.185 7      1629.157          46.687    20815928.840   109388442.189 6      1629.157          40.500    20815936.860    85237768.040 6      1269.473          40.000    20815937.560    85237790.040 8      1269.473          52.250
G13  21226683.840   111546980.779 7      4010.419          46.312    21226682.340   111546980.773 5      4010.419          35.000    21226692.120    86919751.401 5      3125.002          34.312
G20  20463878.680   107538406.661 7      3926.243          46.375    20463876.440   107538406.666 6      3926.243          40.312    20463884.920    83796179.683 6      3059.410          39.875
R03  21533820.300   115272215.733 7      3831.756          47.437    21533821.120   115272215.759 7      3831.756          45.937    21533836.200    89656239.952 7      2980.254          46.375    21533835.860    89656240.956 7      2980.254          46.562
R02  21035647.880   112250243.436 8      1973.118          48.250    21035647.780   112250243.426 7      1973.118          46.937    21035661.980    87305804.136 8      1534.647          49.312    21035662.640    87305805.143 8      1534.647          49.375
R18  21027459.060   112245998.804 8      3452.726          49.250    21027460.180   112245998.811 8      3452.726          48.312    21027473.340    87302506.748 8      2685.453          49.812    21027472.840    87302503.758 8      2685.453          49.937
G30  21071229.940   110730059.332 8      1719.986          49.375    21071229.220   110730059.340 8      1719.986          50.312    21071239.640    86283203.311 8      1340.249          49.875    21071240.260    86283206.315 8      1340.249          49.437
G06  22632469.860   118934419.399 7      -637.026          44.937    22632469.500   118934419.401 7      -637.026          45.500    22632488.000    92676240.756 7      -496.384          45.062    22632488.700    92676245.760 8      -496.384          48.125
R13  21515966.040   114894040.741 6      6042.125          41.625    21515964.520   114894040.761 6      6042.125          41.125
G22  24595514.560   129250300.613 6      5032.163          38.687    24595513.100   129250300.626 4      5032.163          24.812    24595543.700   100714521.789 4      3921.166          24.937
R12  21158274.940   113023712.291 8      3235.535          49.187    21158275.460   113023712.292 8      3235.535          48.562    21158292.900    87907401.801 8      2516.528          49.125    21158292.960    87907402.801 8      2516.528          49.062
R17  20712618.540   110837409.648 7       -23.150          47.437    20712618.260   110837409.666 7       -23.150          47.437    20712636.100    86206939.092 8       -18.006          48.437    20712635.800    86206938.087 8       -18.006          48.875
G05  22002404.520   115623428.795 7      5106.669          46.625    22002403.660   115623428.798 7      5106.669          46.687    22002413.360    90096197.972 7      3979.222          46.687    22002413.440    90096207.974 7      3979.222          47.687
G07  23158948.880   121701087.077 7       221.976          42.812    23158947.180   121701087.080 7       221.976          42.625    23158959.980    94832039.227 7       172.968          42.000    23158960.320    94832074.240 7       172.968          46.625
> 2024 10 07 12 01 58.0000000  0 14
G11  20815619.840   109386813.216 7      1628.640          46.812    20815618.860   109386813.220 6      1628.640          40.750    20815626.860    85236498.712 6      1269.070          40.000    20815627.500    85236520.712 8      1269.070          52.937
G13  21225920.800   111542970.391 7      4010.300          46.500    21225919.240   111542970.383 5      4010.300          35.000    21225928.620    86916626.425 5      3124.909          35.125
G20  20463131.620   107534480.517 7      3926.035          45.937    20463129.440   107534480.524 6      3926.035          40.875    20463137.720    83793120.351 6      3059.248          40.250
R03  21533104.200   115268383.783 7      3832.035          47.812    21533105.740   115268383.808 7      3832.035          46.562    21533120.160    89653259.546 7      2980.472          46.625    21533120.080    89653260.552 7      2980.472          46.750
R02  21035278.060   112248270.173 8      1973.348          48.437    21035278.040   112248270.166 7      1973.348          47.500    21035292.400    87304269.378 8      1534.826          49.687    21035292.700    87304270.386 8      1534.826          49.875
R18  21026812.020   112242546.404 8      3452.029          49.562    21026813.160   112242546.404 8      3452.029          48.312    21026826.800    87299821.543 8      2684.912          49.625    21026826.260    87299818.553 8      2684.912          50.437
G30  21070902.520   110728339.446 8      1719.698          49.062    21070901.860   110728339.448 8      1719.698          49.625    21070912.240    86281863.140 8      1340.025          49.062    21070912.980    86281866.141 8      1340.025          49.125
G06  22632591.080   118935056.453 7      -637.170          45.187    22632590.820   118935056.453 7      -637.170          45.250    22632609.140    92676737.146 7      -496.496          45.000    22632609.960    92676742.146 7      -496.496          47.937
R13  21514835.060   114887998.760 6      6041.760          41.625    21514832.500   114887998.782 6      6041.760          41.312
G22  24594556.980   129245268.491 6      5032.370          37.875    24594555.460   129245268.501 4      5032.370          24.812    24594586.040   100710600.651 4      3921.327          24.937
R12  21157669.300   113020477.012 8      3234.922          49.187    21157669.680   113020477.013 8      3234.922          48.875    21157687.080    87904885.473 8      2516.051          48.937    21157687.360    87904886.473 8      2516.051          50.312
R17  20712622.740   110837432.923 7       -23.495          47.812    20712622.660   110837432.938 7       -23.495          46.687    20712640.600    86206957.184 8       -18.274          48.437    20712639.920    86206956.178 8       -18.274          49.000
G05  22001432.940   115618322.062 7      5106.742          46.812    22001431.960   115618322.067 7      5106.742          46.562    22001441.600    90092218.706 7      3979.280          46.937    22001441.960    90092228.705 7      3979.280          47.312
G07  23158906.620   121700865.126 7       221.790          42.000    23158905.000   121700865.128 7       221.790          42.500    23158917.800    94831866.271 6       172.823          41.812    23158917.940    94831901.282 7       172.823          46.625
> 2024 10 07 12 01 59.0000000  0 14
G11  20815309.820   109385184.688 7      1628.347          46.500    20815308.920   109385184.688 6      1628.347          40.312    20815317.100    85235229.723 6      1268.842          39.937    20815317.640    85235251.729 8      1268.842          52.375
G13  21225157.820   111538960.165 7      4010.207          46.750    21225156.280   111538960.152 5      4010.207          35.250    21225165.500    86913501.579 5      3124.837          35.250
G20  20462384.540   107530554.548 7      3925.882          46.937    20462382.240   107530554.553 6      3925.882          40.562    20462390.700    83790061.153 6      3059.129          40.312
R03  21532388.620   115264551.696 7      3832.219          46.750    21532390.260   115264551.719 7      3832.219          45.375    21532404.480    89650279.032 7      2980.615          46.687    21532404.420    89650280.034 7      2980.615          46.125
R02  21034908.420   112246296.802 8      1973.566          48.000    21034908.360   112246296.794 7      1973.566          46.937    21034922.620    87302734.525 8      1534.996          49.562    21034922.720    87302735.531 8      1534.996          49.625
R18  21026165.500   112239094.675 7      3451.450          46.625    21026166.620   112239094.676 7      3451.450          47.687    21026179.960    87297136.864 8      2684.461          49.562    21026179.580    87297133.869 8      2684.461          50.000
G30  21070575.400   110726619.940 8      1719.319          48.687    21070574.780   110726619.948 8      1719.319          49.375    21070585.060    86280523.267 8      1339.729          49.687    21070585.720    86280526.265 8      1339.729          48.937
G06  22632712.100   118935693.561 7      -637.101          45.312    22632712.160   118935693.563 7      -637.101          44.812    22632730.560    92677233.575 7      -496.442          44.750    22632731.500    92677238.577 8      -496.442          48.000
R13  21513703.780   114881956.971 6      6041.779          41.125    21513701.300   114881956.972 6      6041.779          41.312
G22  24593599.800   129240236.109 6      5032.488          38.812    24593597.920   129240236.122 4      5032.488          24.812    24593628.480   100706679.308 4      3921.419          24.937
R12  21157063.780   113017242.348 8      3234.387          48.062    21157064.200   113017242.343 7      3234.387          47.875    21157081.380    87902369.623 8      2515.634          49.062    21157081.820    87902370.627 8      2515.634          49.562
R17  20712627.420   110837456.610 7       -23.769          46.375    20712627.120   110837456.620 7       -23.769          45.625    20712644.880    86206975.595 8       -18.487          48.500    20712644.200    86206974.590 8       -18.487          48.812
G05  22000461.180   115613215.284 7      5106.828          47.562    22000460.080   115613215.287 7      5106.828          46.875    22000469.800    90088239.402 7      3979.346          46.812    22000470.160    90088249.404 7      3979.346          47.812
G07  23158864.240   121700643.276 7       221.786          43.312    23158862.660   121700643.279 7       221.786          42.687    23158875.460    94831693.397 7       172.821          42.062    23158875.900    94831728.406 7       172.821          46.812
> 2024 10 07 12 02  0.0000000  0 14
G11  20814999.980   109383556.728 7      1627.641          46.750    20814999.100   109383556.728 6      1627.641          40.625    20815007.340    85233961.179 6      1268.292          39.937    20815007.980    85233983.187 8      1268.292          51.812
G13  21224394.900   111534950.200 7      4009.798          46.812    21224393.480   111534950.189 5      4009.798          35.937    21224402.560    86910376.933 5      3124.518          35.437
G20  20461637.440   107526628.853 7      3925.434          46.437    20461635.340   107526628.855 6      3925.434          40.125    20461643.620    83787002.167 6      3058.780          40.187
R03  21531672.800   115260719.561 7      3832.074          46.562    21531674.460   115260719.595 7      3832.074          45.500    21531688.000    89647298.487 7      2980.502          46.000    21531688.480    89647299.495 7      2980.502          45.750
R02  21034538.580   112244323.387 8      1973.341          48.500    21034538.940   112244323.377 7      1973.341          46.875    21034552.940    87301199.645 8      1534.821          49.000    21034553.040    87301200.655 8      1534.821          49.187
R18  21025519.000   112235643.777 7      3450.445          47.875    21025519.900   112235643.784 7      3450.445          47.625    21025533.560    87294452.830 8      2683.679          49.187    21025533.420    87294449.844 8      2683.679          49.812
G30  21070248.200   110724900.905 8      1718.759          48.250    21070247.560   110724900.913 8      1718.759          48.750    21070257.920    86279183.759 8      1339.293          49.187    21070258.800    86279186.759 8      1339.293          48.625
G06  22632833.400   118936330.870 7      -637.481          44.562    22632833.140   118936330.867 7      -637.481          44.687    22632851.540    92677730.162 7      -496.738          44.187    22632852.840    92677735.164 8      -496.738          48.187
R13  21512572.100   114875915.489 6      6041.272          41.125    21512569.500   114875915.503 6      6041.272          41.312
G22  24592642.120   129235203.485 6      5032.589          38.812    24592640.440   129235203.498 4      5032.589          24.812    24592670.800   100702757.782 4      3921.498          24.937
R12  21156458.440   113014008.423 7      3233.394          47.625    21156458.720   113014008.419 7      3233.394          47.750    21156476.100    87899854.359 8      2514.862          49.000    21156476.320    87899855.363 8      2514.862          49.125
R17  20712631.860   110837480.848 7       -24.620          46.250    20712631.220   110837480.855 7       -24.620          45.375    20712649.480    86206994.433 8       -19.149          48.375    20712649.060    86206993.426 8       -19.149          48.500
G05  21999489.220   115608108.559 8      5106.612          48.062    21999488.380   115608108.564 7      5106.612          46.625    21999498.040    90084260.140 7      3979.178          46.562    21999498.160    90084270.148 7      3979.178          47.437
G07  23158821.860   121700421.682 7       221.384          44.375    23158820.580   121700421.684 6       221.384          41.875    23158833.500    94831520.714 7       172.507          42.062    23158833.720    94831555.721 7       172.507          46.812
> 2024 10 07 12 02  1.0000000  0 14
G11  20814690.420   109381929.454 7      1627.013          46.750    20814689.460   109381929.451 6      1627.013          40.187    20814697.740    85232693.167 6      1267.802          39.812    20814698.100    85232715.171 8      1267.802          51.937
G13  21223632.000   111530940.642 7      4009.426          46.687    21223630.740   111530940.632 5      4009.426          35.187    21223639.560    86907252.602 5      3124.228          35.437
G20  20460890.560   107522703.543 7      3925.261          47.000    20460888.360   107522703.546 6      3925.261          40.375    20460896.660    83783943.483 6      3058.645          40.125
R03  21530957.160   115256887.501 7      3832.205          46.687    21530958.380   115256887.529 7      3832.205          45.562    21530972.440    89644317.992 7      2980.604          46.312    21530972.620    89644319.004 7      2980.604          46.125
R02  21034169.020   112242350.023 8      1973.413          48.500    21034168.860   112242350.019 7      1973.413          46.500    21034182.820    87299664.809 8      1534.877          49.562    21034183.020    87299665.816 8      1534.877          49.562
R18  21024872.860   112232193.768 7      3449.732          47.375    21024873.380   112232193.772 7      3449.732          47.312    21024887.220    87291769.487 8      2683.125          49.750    21024887.160    87291766.499 8      2683.125          50.125
G30  21069921.240   110723182.472 8      1718.306          48.500    21069920.580   110723182.474 8      1718.306          48.937    21069931.180    86277844.712 8      1338.940          49.250    21069931.660    86277847.714 8      1338.940          49.062
G06  22632954.760   118936968.472 7      -637.632          45.625    22632954.560   118936968.469 7      -637.632          44.687    22632973.000    92678226.971 7      -496.856          44.625    22632974.000    92678231.978 8      -496.856          48.250
R13  21511440.860   114869874.469 6      6040.967          41.125    21511438.180   114869874.491 6      6040.967          39.937
G22  24591683.880   129230170.748 6      5033.114          39.062    24591682.840   129230170.758 4      5033.114          24.812    24591713.120   100698836.161 4      3921.907          24.937
R12  21155853.160   113010775.361 7      3232.763          46.687    21155853.460   113010775.359 8      3232.763          48.000    21155870.940    87897339.751 8      2514.371          48.125    21155870.820    87897340.755 8      2514.371          49.250
R17  20712636.420   110837505.718 7       -25.114          45.875    20712635.900   110837505.730 7       -25.114          45.250    20712654.320    86207013.778 8       -19.533          48.500    20712653.480    86207012.773 8       -19.533          48.562
G05  21998517.680   115603002.015 8      5106.553          48.500    21998516.960   115603002.017 7      5106.553          46.625    21998526.080    90080281.019 7      3979.132          46.875    21998526.680    90080291.021 7      3979.132          47.687
G07  23158779.760   121700200.408 7       221.176          42.875    23158778.520   121700200.418 7       221.176          42.437    23158791.300    94831348.297 7       172.345          42.062    23158791.360    94831383.306 7       172.345          46.437
