     3.05           OBSERVATION DATA    MIXED               RINEX VERSION / TYPE
TPS2RIN 1.0.28.3459 TB                  20241015 082515 UTC PGM / RUN BY / DATE
Win64 build Jun 01, 2022 (c) Topcon Positioning Systems     COMMENT
Insert your comment here                                    COMMENT
SRC: 20241007_GUI30.tps                                     COMMENT
OPT: -v 3.05 -S                                             COMMENT
OPT: -p \Users\Thomas\Travaux\Projets\Volcano\Software\GPS\TCOMMENT
TB                  CSIC                                    OBSERVER / AGENCY
O0M3X53SBGM         TPS HIPER_SR        4.8 HSR Jul,08,2022 REC # / TYPE / VERS
FW: 4.8 HSR Jul,08,2022 p3                                  COMMENT
SN: HiPer SR 1212-12575                                     COMMENT
0001                HYPER SR                                ANT # / TYPE
        1.8000        0.0000        0.0000                  ANTENNA: DELTA H/E/N
Marker                                                      MARKER NAME
000                                                         MARKER NUMBER
GEODETIC                                                    MARKER TYPE
  5389892.9666 -1596120.0247  3008262.5973                  APPROX POSITION XYZ
  2024    10     7    10    23   48.0000000     GPS         TIME OF FIRST OBS
  2024    10     7    10    38   47.0000000     GPS         TIME OF LAST OBS
     1.000                                                  INTERVAL
   900 EPOCHS                                               COMMENT
G   16 C1C L1C D1C S1C C1W L1W D1W S1W C2W L2W D2W S2W C2X  SYS / # / OBS TYPES
       L2X D2X S2X                                          SYS / # / OBS TYPES
R   16 C1C L1C D1C S1C C1P L1P D1P S1P C2P L2P D2P S2P C2C  SYS / # / OBS TYPES
       L2C D2C S2C                                          SYS / # / OBS TYPES
    20                                                      # OF SATELLITES
   G04   476   476   476   476   476   476   476   476   476PRN / # OF OBS
         476   476   476   476   476   476   476            PRN / # OF OBS
   G05   900   900   900   900   900   900   900   900   900PRN / # OF OBS
         900   900   900   900   900   900   900            PRN / # OF OBS
   G06   900   900   900   900   900   900   900   900   900PRN / # OF OBS
         900   900   900   900   900   900   900            PRN / # OF OBS
   G07   900   900   900   900   900   900   900   900   900PRN / # OF OBS
         900   900   900   900   900   900   900            PRN / # OF OBS
   G09   900   900   900   900   900   900   900   900   900PRN / # OF OBS
         900   900   900   900   900   900   900            PRN / # OF OBS
   G11   900   900   900   900   900   900   900   900   900PRN / # OF OBS
         900   900   900   900   900   900   900            PRN / # OF OBS
   G13   678   678   678   678   676   676   676   676   676PRN / # OF OBS
         676   676   676     0     0     0     0            PRN / # OF OBS
   G17   719   719   719   719   716   716   716   716   718PRN / # OF OBS
         718   718   718   719   719   719   719            PRN / # OF OBS
   G19   900   900   900   900   900   900   900   900   900PRN / # OF OBS
         900   900   900     0     0     0     0            PRN / # OF OBS
   G20   900   900   900   900   900   900   900   900   900PRN / # OF OBS
         900   900   900     0     0     0     0            PRN / # OF OBS
   G30   900   900   900   900   900   900   900   900   900PRN / # OF OBS
         900   900   900   900   900   900   900            PRN / # OF OBS
   R01   900   900   900   900   900   900   900   900   900PRN / # OF OBS
         900   900   900   900   900   900   900            PRN / # OF OBS
   R02   900   900   900   900   900   900   900   900   900PRN / # OF OBS
         900   900   900   900   900   900   900            PRN / # OF OBS
   R03   900   900   900   900   900   900   900   900   900PRN / # OF OBS
         900   900   900   900   900   900   900            PRN / # OF OBS
   R11   900   900   900   900   900   900   900   900   900PRN / # OF OBS
         900   900   900   900   900   900   900            PRN / # OF OBS
   R12   900   900   900   900   900   900   900   900   900PRN / # OF OBS
         900   900   900   900   900   900   900            PRN / # OF OBS
   R17   900   900   900   900   900   900   900   900   900PRN / # OF OBS
         900   900   900   900   900   900   900            PRN / # OF OBS
   R18   900   900   900   900   900   900   900   900   900PRN / # OF OBS
         900   900   900   900   900   900   900            PRN / # OF OBS
   R23   563   563   563   563   563   563   563   563     0PRN / # OF OBS
           0     0     0     0     0     0     0            PRN / # OF OBS
   R24   900   900   900   900   900   900   900   900   900PRN / # OF OBS
         900   900   900   900   900   900   900            PRN / # OF OBS
G L1C                                                       SYS / PHASE SHIFT
G L1W -0.25000                                              SYS / PHASE SHIFT
G L2W  0.00000                                              SYS / PHASE SHIFT
G L2X  0.25000                                              SYS / PHASE SHIFT
R L1C                                                       SYS / PHASE SHIFT
R L1P -0.25000                                              SYS / PHASE SHIFT
R L2P -0.25000                                              SYS / PHASE SHIFT
R L2C                                                       SYS / PHASE SHIFT
  9 R01  1 R02 -4 R03  5 R11  0 R12 -1 R17  4 R18 -3 R23  3 GLONASS SLOT / FRQ #
    R24  2                                                  GLONASS SLOT / FRQ #
                                                            GLONASS COD/PHS/BIS
               *** Undefined LeapSeconds ***                COMMENT
                                                            END OF HEADER
> 2024 10 07 10 23 48.0000000  0 19
R23  23691166.160   126731729.889 6     -1771.150          37.312    23691165.940   126731729.875 6     -1771.150          37.125
G09  21973099.140   115469411.276 7        56.261          45.062    21973098.280   115469411.275 7        56.261          46.187    21973109.820    89976201.877 7        43.840          46.187    21973109.320    89976201.881 7        43.840          47.500
R02  20441656.620   109080598.494 8      2675.274          49.187    20441656.380   109080598.497 8      2675.274          48.125    20441667.460    84840510.482 8      2080.769          49.125    20441667.720    84840511.479 8      2080.769          49.312
G30  21851876.780   114832391.204 7      4878.323          46.937    21851875.620   114832391.207 7      4878.323          46.875    21851887.900    89479833.114 7      3801.290          46.812    21851888.780    89479842.113 8      3801.290          48.062
G19  22805292.840   119842612.511 7      -476.259          43.812    22805291.200   119842612.511 5      -476.259          35.000    22805303.480    93383853.604 5      -371.111          34.937
G04  24786890.080   130255967.027 6      -510.343          38.625    24786889.960   130255967.029 3      -510.343          23.312    24786910.080   101498185.583 3      -397.670          23.375    24786909.920   101498225.520 6      -397.670          41.687
R03  23117690.140   123750813.526 6      4762.212          40.937    23117691.440   123750813.546 6      4762.212          40.062    23117710.840    96250714.478 7      3703.942          44.500    23117710.900    96250714.482 7      3703.942          44.250
G07  21798115.900   114549825.230 7      2965.246          46.562    21798114.100   114549825.235 7      2965.246          46.000    21798123.320    89259612.511 7      2310.581          45.812    21798123.320    89259667.515 7      2310.581          47.937
G05  24799427.280   130321870.882 7      5086.041          43.750    24799426.100   130321870.886 6      5086.041          39.000    24799440.220   101549550.220 6      3963.149          39.125    24799440.820   101549560.216 7      3963.149          42.375
R12  23641902.160   126290818.368 6      5886.041          41.625    23641901.540   126290818.377 7      5886.041          42.312    23641935.320    98226333.034 7      4578.032          44.312    23641935.520    98226335.038 7      4578.032          45.250
G11  21669823.580   113875695.000 7      5005.103          46.750    21669822.340   113875695.002 6      5005.103          38.562    21669829.100    88734327.083 6      3900.081          38.437    21669829.940    88734334.087 8      3900.081          50.000
R17  20297440.400   108615709.796 7      4894.540          47.687    20297443.060   108615709.818 7      4894.540          46.187    20297456.120    84478944.158 8      3806.864          50.250    20297455.060    84478941.160 8      3806.864          50.437
R24  19698105.960   105334612.120 7       549.311          47.500    19698105.600   105334612.119 7       549.311          46.562    19698118.360    81926972.015 8       427.242          49.187    19698118.400    81926974.020 8       427.242          49.125
G17  24085692.640   126571142.034 6      -325.351          39.062    24085691.200   126571142.039 5      -325.351          34.812    24085710.300    98626915.966 5      -253.520          34.750    24085711.020    98626920.937 6      -253.520          41.875
R11  23192855.080   123935601.975 7      3986.925          42.937    23192855.400   123935601.984 6      3986.925          41.625    23192878.260    96394442.127 7      3100.942          46.562    23192878.140    96394443.128 7      3100.942          46.937
G20  22536949.580   118432474.509 7      4807.238          43.062    22536947.620   118432474.517 5      4807.238          30.312    22536955.740    92285080.214 5      3745.899          30.312
R01  21179935.560   113218873.959 7       590.863          43.750    21179935.160   113218873.966 7       590.863          43.125    21179950.340    88059191.024 7       459.560          42.937    21179949.620    88059192.025 7       459.560          42.562
R18  24103346.400   128665302.164 6      6859.212          41.625    24103346.760   128665302.162 6      6859.212          41.875    24103362.680   100073076.015 7      5334.942          43.625    24103362.860   100073073.021 7      5334.942          43.625
G06  20304748.960   106702171.882 8      2202.392          48.250    20304748.080   106702171.884 8      2202.392          49.937    20304757.060    83144577.716 8      1716.150          50.312    20304757.840    83144590.717 8      1716.150          52.125
> 2024 10 07 10 23 49.0000000  0 19
R23  23691498.140   126733501.113 6     -1771.172          37.312    23691496.280   126733501.103 6     -1771.172          37.125
G09  21973088.400   115469355.068 7        55.991          45.750    21973087.620   115469355.073 7        55.991          45.812    21973099.100    89976158.079 7        43.629          45.625    21973098.580    89976158.081 7        43.629          47.812
R02  20441155.560   109077923.402 8      2674.840          49.125    20441155.260   109077923.403 7      2674.840          47.375    20441166.140    84838429.849 8      2080.431          49.250    20441166.580    84838430.848 8      2080.431          49.000
G30  21850948.460   114827513.065 7      4877.863          46.750    21850947.360   114827513.068 7      4877.863          46.312    21850959.660    89476031.973 7      3800.932          46.937    21850960.360    89476040.976 8      3800.932          48.375
G19  22805383.460   119843088.736 7      -476.277          43.250    22805381.660   119843088.738 5      -476.277          34.562    22805394.060    93384224.682 5      -371.125          34.562
G04  24786987.300   130256477.438 6      -510.681          38.312    24786987.060   130256477.446 3      -510.681          23.312    24787007.280   101498583.290 3      -397.934          23.375    24787007.420   101498623.237 6      -397.934          41.812
R03  23116800.660   123746051.446 6      4761.836          40.937    23116801.600   123746051.469 6      4761.836          40.062    23116821.040    96247010.649 7      3703.650          44.125    23116821.220    96247010.653 7      3703.650          44.000
G07  21797551.700   114546860.266 7      2964.599          46.375    21797549.900   114546860.276 7      2964.599          45.812    21797559.140    89257302.151 7      2310.078          46.125    21797559.360    89257357.157 8      2310.078          48.437
G05  24798459.580   130316784.798 7      5085.927          43.375    24798458.080   130316784.806 6      5085.927          39.187    24798472.180   101545587.039 6      3963.060          39.375    24798473.320   101545597.044 7      3963.060          42.500
R12  23640800.200   126284932.366 6      5885.803          40.250    23640799.560   126284932.356 6      5885.803          41.937    23640833.460    98221755.039 7      4577.847          44.437    23640833.380    98221757.044 7      4577.847          45.312
G11  21668871.180   113870690.165 7      5004.588          46.562    21668869.820   113870690.167 6      5004.588          38.312    21668876.700    88730427.213 6      3899.679          37.625    21668877.280    88730434.214 8      3899.679          49.812
R17  20296526.140   108610815.666 8      4893.699          48.062    20296528.160   108610815.676 7      4893.699          46.187    20296541.560    84475137.605 8      3806.210          50.750    20296540.360    84475134.611 8      3806.210          50.937
R24  19698003.280   105334063.173 7       548.469          47.062    19698002.840   105334063.171 7       548.469          47.062    19698015.500    81926545.052 8       426.587          49.625    19698015.960    81926547.057 8       426.587          49.812
G17  24085754.080   126571467.292 6      -325.215          39.312    24085753.160   126571467.297 5      -325.215          34.812    24085772.500    98627169.393 5      -253.414          35.062    24085772.020    98627174.375 6      -253.414          41.875
R11  23192109.360   123931615.495 6      3985.996          41.750    23192109.320   123931615.515 6      3985.996          41.750    23192132.060    96391341.542 7      3100.219          46.375    23192132.300    96391342.546 7      3100.219          46.937
G20  22536034.720   118427667.263 7      4807.142          43.187    22536032.800   118427667.274 5      4807.142          30.687    22536041.020    92281334.308 5      3745.825          30.687
R01  21179824.900   113218283.110 7       590.667          43.062    21179824.580   113218283.114 7       590.667          43.125    21179839.840    88058731.471 7       459.407          42.875    21179839.240    88058732.467 7       459.407          42.312
R18  24102061.660   128658443.080 6      6858.774          41.625    24102061.640   128658443.076 6      6858.774          41.875    24102077.640   100067741.154 7      5334.602          44.250    24102077.860   100067738.159 7      5334.602          44.000
G06  20304329.940   106699969.859 8      2201.602          48.375    20304329.080   106699969.859 8      2201.602          49.625    20304338.040    83142861.852 8      1715.534          51.000    20304338.880    83142874.849 8      1715.534          52.000
> 2024 10 07 10 23 50.0000000  0 19
R23  23691829.820   126735272.571 6     -1771.844          37.312    23691827.940   126735272.554 6     -1771.844          37.125
G09  21973078.080   115469299.060 7        55.758          44.062    21973076.880   115469299.062 7        55.758          45.750    21973088.420    89976114.426 7        43.448          46.000    21973087.960    89976114.422 7        43.448          47.250
R02  20440654.240   109075248.631 8      2674.499          49.125    20440653.940   109075248.629 8      2674.499          48.312    20440664.800    84836349.467 8      2080.166          49.187    20440665.320    84836350.471 8      2080.166          49.562
G30  21850020.160   114822635.357 7      4877.358          46.812    21850019.200   114822635.359 7      4877.358          46.250    21850031.340    89472231.166 7      3800.539          46.812    21850032.220    89472240.168 8      3800.539          48.125
G19  22805473.980   119843565.183 7      -476.649          43.562    22805472.280   119843565.183 5      -476.649          34.562    22805484.660    93384595.932 5      -371.415          34.562
G04  24787084.760   130256987.794 6      -510.440          38.312    24787084.060   130256987.804 3      -510.440          23.312    24787104.460   101498980.955 3      -397.745          23.375    24787104.680   101499020.888 7      -397.745          42.062
R03  23115911.580   123741289.695 6      4761.541          40.937    23115912.200   123741289.710 6      4761.541          40.000    23115931.440    96243307.067 7      3703.421          44.437    23115931.820    96243307.069 7      3703.421          44.250
G07  21796987.440   114543895.890 7      2963.867          46.687    21796985.800   114543895.895 7      2963.867          45.937    21796995.080    89254992.244 7      2309.507          45.812    21796995.460    89255047.246 8      2309.507          48.187
G05  24797491.560   130311698.657 7      5086.118          43.562    24797490.340   130311698.662 6      5086.118          38.812    24797504.320   101541623.810 6      3963.208          39.062    24797505.220   101541633.813 7      3963.208          42.812
R12  23639698.660   126279046.339 6      5885.772          40.250    23639698.440   126279046.351 6      5885.772          41.937    23639731.160    98217177.051 7      4577.822          44.125    23639731.760    98217179.063 7      4577.822          45.437
G11  21667918.900   113865685.747 7      5004.056          46.312    21667917.420   113865685.754 6      5004.056          38.500    21667924.440    88726527.669 6      3899.264          38.125    21667924.780    88726534.669 8      3899.264          49.812
R17  20295611.920   108605922.327 7      4892.828          47.437    20295613.540   108605922.344 7      4892.828          46.250    20295627.020    84471331.678 8      3805.533          50.562    20295626.240    84471328.684 8      3805.533          51.062
R24  19697900.580   105333515.086 7       547.517          46.875    19697900.500   105333515.092 7       547.517          47.687    19697913.160    81926118.758 8       425.847          50.187    19697913.500    81926120.755 8       425.847          50.250
G17  24085816.040   126571792.555 6      -325.291          38.875    24085814.940   126571792.555 5      -325.291          34.812    24085834.580    98627422.814 5      -253.474          35.062    24085834.320    98627427.792 7      -253.474          42.062
R11  23191363.420   123927629.655 6      3985.377          41.750    23191363.480   123927629.662 6      3985.377          41.750    23191386.180    96388241.438 7      3099.738          46.312    23191386.220    96388242.453 7      3099.738          47.062
G20  22535120.280   118422860.062 7      4807.037          43.312    22535118.080   118422860.070 5      4807.037          30.687    22535126.360    92277588.437 5      3745.743          30.687
R01  21179714.060   113217692.317 7       590.708          43.125    21179713.740   113217692.319 6       590.708          41.750    21179729.260    88058271.955 7       459.439          43.062    21179728.600    88058272.953 7       459.439          42.750
R18  24100776.700   128651584.210 6      6858.658          41.937    24100776.480   128651584.203 6      6858.658          41.437    24100793.060   100062406.458 7      5334.512          44.000    24100793.020   100062403.464 7      5334.512          44.625
G06  20303911.020   106697768.454 8      2200.960          48.437    20303910.200   106697768.451 8      2200.960          50.187    20303919.120    83141146.465 8      1715.033          51.250    20303919.900    83141159.464 8      1715.033          52.125
> 2024 10 07 10 23 51.0000000  0 19
R23  23692160.040   126737044.070 6     -1771.666          37.312    23692158.040   126737044.066 6     -1771.666          37.125
G09  21973067.180   115469243.246 7        55.704          45.437    21973066.300   115469243.253 7        55.704          44.687    21973077.900    89976070.930 7        43.405          44.437    21973077.480    89976070.931 7        43.405          46.187
R02  20440153.100   109072574.222 8      2674.215          49.875    20440152.840   109072574.220 8      2674.215          48.500    20440163.380    84834269.372 7      2079.945          45.500    20440164.200    84834270.377 7      2079.945          46.812
G30  21849092.040   114817758.090 7      4876.948          46.875    21849091.040   114817758.095 7      4876.948          45.312    21849103.280    89468430.710 7      3800.219          45.250    21849104.060    89468439.711 7      3800.219          46.187
G19  22805564.720   119844041.807 7      -476.728          42.437    22805562.740   119844041.809 5      -476.728          34.312    22805575.360    93384967.323 5      -371.476          34.187
G04  24787181.720   130257498.182 6      -510.402          37.937    24787181.220   130257498.192 3      -510.402          23.312    24787201.660   101499378.641 3      -397.716          23.250    24787202.240   101499418.581 7      -397.716          42.062
R03  23115021.980   123736528.298 6      4761.170          41.750    23115022.660   123736528.311 6      4761.170          40.000    23115041.800    96239603.773 7      3703.132          43.875    23115042.200    96239603.775 7      3703.132          43.750
G07  21796423.620   114540932.073 7      2963.447          47.000    21796421.840   114540932.078 7      2963.447          45.250    21796431.000    89252682.784 7      2309.179          45.250    21796431.440    89252737.788 7      2309.179          46.312
G05  24796523.760   130306612.552 7      5085.999          43.812    24796522.460   130306612.560 6      5085.999          39.187    24796536.440   101537660.611 6      3963.116          38.687    24796537.160   101537670.619 7      3963.116          42.812
R12  23638597.060   126273160.406 6      5885.898          41.187    23638596.380   126273160.397 7      5885.898          42.000    23638628.900    98212599.105 7      4577.921          43.812    23638629.880    98212601.111 7      4577.921          42.687
G11  21666966.560   113860681.773 7      5003.710          47.000    21666965.280   113860681.784 6      5003.710          37.312    21666972.260    88722628.471 6      3898.995          37.625    21666972.640    88722635.467 7      3898.995          47.437
R17  20294697.660   108601029.819 8      4892.011          48.000    20294699.140   108601029.839 7      4892.011          46.250    20294712.740    84467526.405 8      3804.897          48.437    20294711.960    84467523.406 8      3804.897          49.312
R24  19697798.140   105332967.844 7       546.794          46.875    19697798.100   105332967.840 7       546.794          47.000    19697810.700    81925693.115 7       425.284          47.937    19697811.300    81925695.103 8       425.284          48.000
G17  24085878.080   126572117.789 6      -325.383          38.937    24085876.740   126572117.792 5      -325.383          34.812    24085896.540    98627676.217 5      -253.545          34.375    24085896.360    98627681.194 6      -253.545          41.812
R11  23190617.640   123923644.505 7      3984.787          42.000    23190617.800   123923644.506 6      3984.787          41.437    23190640.260    96385141.881 7      3099.279          44.750    23190640.440    96385142.885 7      3099.279          46.875
G20  22534205.560   118418052.926 7      4807.085          43.312    22534203.400   118418052.934 5      4807.085          30.687    22534211.700    92273842.621 5      3745.781          30.687
R01  21179603.520   113217101.650 7       590.529          44.000    21179603.320   113217101.654 7       590.529          42.562    21179618.580    88057812.545 6       459.301          41.812    21179617.660    88057813.544 6       459.301          41.812
R18  24099491.760   128644725.602 6      6858.401          41.937    24099492.060   128644725.592 6      6858.401          41.437    24099508.060   100057071.971 7      5334.312          44.187    24099508.120   100057068.974 7      5334.312          43.250
G06  20303492.200   106695567.711 8      2200.351          48.250    20303491.380   106695567.708 8      2200.351          49.687    20303500.400    83139431.596 8      1714.559          49.750    20303501.140    83139444.595 8      1714.559          48.937
> 2024 10 07 10 23 52.0000000  0 19
R23  23692490.900   126738815.932 6     -1771.898          36.000    23692489.720   126738815.931 6     -1771.898          37.125
G09  21973056.640   115469187.808 7        55.432          45.000    21973055.720   115469187.813 7        55.432          44.750    21973067.360    89976027.722 7        43.194          44.812    21973066.840    89976027.724 7        43.194          46.437
R02  20439652.100   109069900.286 8      2673.889          49.500    20439651.740   109069900.290 8      2673.889          48.750    20439662.500    84832189.641 7      2079.691          45.562    20439662.940    84832190.647 7      2079.691          46.625
G30  21848164.060   114812881.396 7      4876.590          46.187    21848163.060   114812881.404 7      4876.590          45.625    21848175.260    89464630.695 7      3799.940          45.750    21848176.000    89464639.696 7      3799.940          46.937
G19  22805655.580   119844518.804 7      -477.093          43.312    22805653.240   119844518.804 5      -477.093          34.312    22805665.940    93385338.998 5      -371.761          34.187
G04  24787278.980   130258008.708 6      -510.494          38.812    24787278.300   130258008.721 3      -510.494          23.312    24787299.020   101499776.436 3      -397.787          23.250    24787299.340   101499816.375 6      -397.787          41.875
R03  23114132.460   123731767.359 6      4760.829          41.750    23114133.080   123731767.379 6      4760.829          40.000    23114152.560    96235900.830 7      3702.867          42.250    23114152.540    96235900.830 7      3702.867          42.500
G07  21795859.740   114537969.001 7      2962.893          47.312    21795857.900   114537969.000 7      2962.893          45.187    21795867.220    89250373.897 7      2308.748          45.000    21795867.320    89250428.905 7      2308.748          47.250
G05  24795555.880   130301526.587 7      5086.086          44.062    24795554.620   130301526.595 6      5086.086          38.875    24795568.680   101533697.521 6      3963.184          38.687    24795569.320   101533707.527 7      3963.184          42.187
R12  23637495.280   126267274.652 7      5885.861          42.750    23637494.460   126267274.645 7      5885.861          42.562    23637526.560    98208021.315 7      4577.892          42.875    23637527.660    98208023.327 7      4577.892          43.187
G11  21666014.460   113855678.378 7      5003.252          47.125    21666013.120   113855678.386 6      5003.252          38.000    21666020.180    88718729.721 6      3898.638          37.687    21666020.780    88718736.718 8      3898.638          48.437
R17  20293783.380   108596138.253 7      4891.355          47.437    20293784.840   108596138.273 7      4891.355          46.875    20293798.820    84463721.852 8      3804.387          48.125    20293798.000    84463718.851 8      3804.387          48.250
R24  19697696.360   105332421.554 8       546.005          48.125    19697695.960   105332421.552 7       546.005          47.500    19697708.520    81925268.220 7       424.670          47.125    19697708.920    81925270.207 7       424.670          46.937
G17  24085939.700   126572443.097 6      -325.306          38.812    24085938.740   126572443.097 5      -325.306          34.812    24085958.320    98627929.679 5      -253.485          34.625    24085958.800    98627934.667 6      -253.485          41.812
R11  23189871.900   123919660.149 7      3984.129          42.000    23189872.220   123919660.155 6      3984.129          41.812    23189894.520    96382042.943 7      3098.767          45.000    23189895.100    96382043.950 7      3098.767          46.062
G20  22533290.860   118413245.993 7      4807.140          43.250    22533288.600   118413246.001 5      4807.140          31.062    22533297.040    92270096.957 5      3745.823          31.000
R01  21179492.920   113216511.197 7       590.479          44.312    21179492.680   113216511.206 7       590.479          43.000    21179508.460    88057353.298 6       459.262          41.812    21179507.360    88057354.294 6       459.262          41.812
R18  24098206.860   128637867.289 6      6858.411          41.937    24098207.100   128637867.293 6      6858.411          41.500    24098223.520   100051737.713 7      5334.320          42.375    24098223.380   100051734.723 7      5334.320          43.000
G06  20303073.700   106693367.732 8      2199.780          49.000    20303072.760   106693367.737 8      2199.780          48.062    20303081.740    83137717.329 8      1714.114          48.125    20303082.360    83137730.328 8      1714.114          50.312
> 2024 10 07 10 23 53.0000000  0 19
R23  23692822.960   126740587.990 6     -1772.102          36.000    23692821.080   126740587.984 5     -1772.102          35.312
G09  21973046.160   115469132.598 7        55.212          45.687    21973045.240   115469132.609 7        55.212          46.250    21973056.880    89975984.695 7        43.022          46.625    21973056.340    89975984.691 7        43.022          47.562
R02  20439151.120   109067226.729 8      2673.542          49.812    20439151.060   109067226.732 8      2673.542          48.500    20439161.480    84830110.204 8      2079.422          48.875    20439162.140    84830111.209 8      2079.422          48.812
G30  21847236.240   114808005.202 7      4876.049          46.625    21847235.220   114808005.207 7      4876.049          46.437    21847247.280    89460831.063 7      3799.518          46.437    21847247.940    89460840.061 8      3799.518          48.000
G19  22805746.100   119844996.001 7      -477.214          42.937    22805743.840   119844995.995 5      -477.214          33.375    22805756.780    93385710.830 5      -371.855          33.375
G04  24787375.800   130258519.248 6      -510.493          39.312    24787375.400   130258519.266 3      -510.493          23.312    24787396.260   101500174.241 3      -397.787          23.250    24787396.120   101500214.172 7      -397.787          42.125
R03  23113243.400   123727006.773 7      4760.612          42.500    23113243.420   123727006.796 6      4760.612          40.500    23113263.560    96232198.156 7      3702.699          42.562    23113263.500    96232198.156 7      3702.699          42.812
G07  21795296.180   114535006.569 7      2962.241          46.875    21795294.260   114535006.569 7      2962.241          45.500    21795303.380    89248065.502 7      2308.240          45.062    21795303.860    89248120.508 8      2308.240          48.625
G05  24794587.880   130296440.648 7      5086.079          43.625    24794586.740   130296440.656 6      5086.079          39.187    24794600.860   101529734.454 6      3963.178          39.250    24794601.600   101529744.458 7      3963.178          42.312
R12  23636393.460   126261389.013 7      5885.732          43.000    23636392.280   126261389.012 7      5885.732          42.562    23636424.760    98203443.606 7      4577.791          43.000    23636425.620    98203445.608 7      4577.791          43.437
G11  21665062.500   113850675.450 7      5002.813          46.750    21665061.140   113850675.460 6      5002.813          38.437    21665068.180    88714831.336 6      3898.296          37.812    21665068.480    88714838.330 8      3898.296          50.250
R17  20292869.100   108591247.565 7      4890.431          46.875    20292870.960   108591247.580 7      4890.431          46.750    20292884.600    84459917.979 7      3803.669          47.375    20292883.800    84459914.978 7      3803.669          47.812
R24  19697594.040   105331876.157 8       545.030          48.562    19697593.960   105331876.161 7       545.030          46.937    19697606.380    81924844.016 7       423.912          46.750    19697606.820    81924846.009 7       423.912          47.125
G17  24086002.020   126572768.418 6      -325.168          40.000    24086000.800   126572768.420 5      -325.168          34.750    24086020.140    98628183.151 5      -253.378          34.625    24086020.540    98628188.135 6      -253.378          41.625
R11  23189126.500   123915676.508 7      3983.331          42.312    23189126.380   123915676.517 6      3983.331          41.812    23189148.980    96378944.560 7      3098.146          46.312    23189149.460    96378945.565 7      3098.146          45.375
G20  22532376.080   118408439.181 7      4806.948          43.250    22532373.920   118408439.188 5      4806.948          31.062    22532382.560    92266351.389 5      3745.673          31.000
R01  21179382.380   113215920.869 7       590.443          44.312    21179382.280   113215920.868 7       590.443          43.000    21179398.120    88056894.137 6       459.233          41.750    21179397.040    88056895.131 6       459.233          41.937
R18  24096921.880   128631009.279 7      6857.980          42.125    24096922.760   128631009.285 6      6857.980          41.500    24096938.740   100046403.688 7      5333.985          44.000    24096939.040   100046400.694 7      5333.985          43.437
G06  20302655.200   106691168.471 8      2199.098          49.250    20302654.260   106691168.468 8      2199.098          48.312    20302663.240    83136003.606 7      1713.582          47.937    20302664.020    83136016.606 8      1713.582          52.500
> 2024 10 07 10 23 54.0000000  0 19
R23  23693153.820   126742360.091 6     -1772.234          36.000    23693152.540   126742360.103 5     -1772.234          35.312
G09  21973035.780   115469077.520 7        54.920          45.812    21973034.780   115469077.525 7        54.920          46.187    21973046.280    89975941.769 7        42.795          46.187    21973045.840    89975941.765 7        42.795          46.812
R02  20438650.140   109064553.459 8      2673.035          49.812    20438650.160   109064553.463 8      2673.035          48.062    20438660.380    84828030.994 8      2079.027          48.750    20438661.160    84828032.000 8      2079.027          49.312
G30  21846308.400   114803129.349 7      4875.570          45.750    21846307.320   114803129.356 7      4875.570          46.687    21846319.500    89457031.701 7      3799.145          47.000    21846320.000    89457040.699 7      3799.145          47.187
G19  22805837.100   119845473.308 7      -477.428          43.062    22805834.380   119845473.305 5      -477.428          33.375    22805847.420    93386082.747 5      -372.022          33.375
G04  24787472.800   130259029.699 6      -510.549          38.750    24787472.560   130259029.714 3      -510.549          23.312    24787493.480   101500571.976 3      -397.830          23.250    24787493.560   101500611.905 7      -397.830          42.125
R03  23112353.880   123722246.441 7      4760.135          42.500    23112353.960   123722246.456 6      4760.135          40.500    23112374.200    96228495.682 7      3702.327          43.875    23112374.280    96228495.680 7      3702.327          43.437
G07  21794732.580   114532044.626 7      2961.628          47.000    21794730.560   114532044.628 7      2961.628          45.750    21794739.820    89245757.503 7      2307.762          45.312    21794740.060    89245812.511 7      2307.762          47.312
G05  24793620.060   130291354.646 7      5085.959          43.750    24793619.000   130291354.656 6      5085.959          39.375    24793633.180   101525771.336 6      3963.085          39.687    24793633.720   101525781.340 7      3963.085          42.625
R12  23635291.440   126255503.339 7      5885.593          43.000    23635290.480   126255503.340 7      5885.593          42.125    23635322.900    98198865.877 7      4577.683          44.187    23635323.820    98198867.867 7      4577.683          44.375
G11  21664110.800   113845672.880 7      5002.271          47.000    21664109.100   113845672.887 6      5002.271          38.187    21664116.120    88710933.229 6      3897.874          38.062    21664116.540    88710940.223 8      3897.874          49.687
R17  20291955.600   108586357.623 7      4889.459          47.625    20291957.020   108586357.638 7      4889.459          47.000    20291970.660    84456114.695 8      3802.912          48.625    20291970.100    84456111.701 8      3802.912          48.687
R24  19697492.240   105331331.506 7       544.194          46.437    19697492.160   105331331.510 7       544.194          47.125    19697504.600    81924420.397 8       423.262          48.125    19697504.780    81924422.398 8       423.262          48.062
G17  24086064.020   126573093.613 6      -325.186          40.062    24086062.580   126573093.618 5      -325.186          34.937    24086082.020    98628436.525 5      -253.392          34.562    24086082.260    98628441.521 7      -253.392          42.250
R11  23188381.020   123911693.440 7      3982.663          42.375    23188381.260   123911693.451 6      3982.663          41.750    23188403.660    96375846.624 7      3097.627          45.875    23188404.060    96375847.625 7      3097.627          46.312
G20  22531461.260   118403632.350 7      4806.754          44.312    22531459.160   118403632.360 5      4806.754          31.062    22531468.040    92262605.808 5      3745.522          31.000
R01  21179272.200   113215330.547 7       590.226          43.750    21179271.940   113215330.551 7       590.226          42.500    21179287.840    88056434.998 7       459.065          42.875    21179286.640    88056435.990 7       459.065          42.625
R18  24095637.380   128624151.412 6      6857.717          41.750    24095637.760   128624151.405 6      6857.717          41.500    24095653.800   100041069.767 7      5333.780          43.812    24095654.020   100041066.772 7      5333.780          44.375
G06  20302236.820   106688969.762 8      2198.323          49.125    20302235.860   106688969.764 8      2198.323          49.000    20302244.820    83134290.333 8      1712.979          49.500    20302245.620    83134303.332 8      1712.979          52.187
> 2024 10 07 10 23 55.0000000  0 19
R23  23693484.740   126744132.472 6     -1772.567          36.000    23693483.120   126744132.468 5     -1772.567          35.312
G09  21973025.400   115469022.745 7        54.554          46.562    21973024.340   115469022.744 7        54.554          45.812    21973035.840    89975899.074 7        42.510          45.250    21973035.640    89975899.068 7        42.510          46.312
R02  20438149.020   109061880.622 8      2672.590          50.250    20438149.300   109061880.626 8      2672.590          48.687    20438159.480    84825952.119 7      2078.681          46.625    20438159.940    84825953.122 7      2078.681          46.937
G30  21845380.700   114798254.021 7      4875.048          47.125    21845379.520   114798254.023 7      4875.048          46.687    21845391.840    89453232.750 7      3798.738          46.062    21845392.400    89453241.751 7      3798.738          47.187
G19  22805927.960   119845950.904 7      -477.746          42.625    22805925.120   119845950.903 5      -477.746          33.437    22805938.280    93386454.893 5      -372.270          33.125
G04  24787570.440   130259540.210 6      -510.466          38.875    24787569.780   130259540.225 3      -510.466          23.000    24787590.740   101500969.758 3      -397.766          23.250    24787591.200   101501009.704 7      -397.766          42.500
R03  23111464.120   123717486.510 7      4759.680          42.062    23111464.840   123717486.525 6      4759.680          40.812    23111485.080    96224793.526 7      3701.973          43.687    23111485.180    96224793.520 7      3701.973          43.250
G07  21794169.180   114529083.379 7      2960.863          46.875    21794167.180   114529083.382 7      2960.863          45.562    21794176.280    89243450.036 7      2307.166          45.250    21794176.520    89243505.042 7      2307.166          47.437
G05  24792652.060   130286268.715 7      5085.869          43.562    24792651.100   130286268.720 6      5085.869          38.750    24792665.360   101521808.271 6      3963.015          38.875    24792665.540   101521818.272 7      3963.015          42.437
R12  23634189.460   126249617.823 7      5885.369          42.312    23634188.920   126249617.819 7      5885.369          42.375    23634221.580    98194288.272 7      4577.509          43.437    23634222.260    98194290.256 7      4577.509          43.875
G11  21663158.720   113840670.830 7      5001.742          46.937    21663157.280   113840670.837 6      5001.742          38.062    21663164.320    88707035.528 6      3897.461          38.375    21663164.860    88707042.522 8      3897.461          48.250
R17  20291041.700   108581468.588 7      4888.547          47.500    20291043.280   108581468.609 7      4888.547          46.062    20291056.900    84452312.114 8      3802.203          48.812    20291056.320    84452309.124 8      3802.203          48.875
R24  19697390.440   105330787.828 7       543.179          47.375    19697390.300   105330787.829 7       543.179          47.750    19697403.020    81923997.530 7       422.472          47.812    19697403.180    81923999.531 8       422.472          48.062
G17  24086125.780   126573418.910 6      -325.506          40.062    24086124.340   126573418.915 5      -325.506          35.000    24086143.960    98628689.983 5      -253.641          34.750    24086144.320    98628694.962 7      -253.641          42.250
R11  23187635.540   123907711.143 7      3981.917          42.375    23187636.500   123907711.155 6      3981.917          41.812    23187658.200    96372749.291 7      3097.047          44.687    23187658.600    96372750.291 7      3097.047          46.875
G20  22530546.420   118398825.658 7      4806.641          44.062    22530544.420   118398825.663 5      4806.641          31.062    22530553.440    92258860.332 5      3745.435          31.000
R01  21179161.920   113214740.420 7       590.039          43.750    21179161.700   113214740.416 7       590.039          42.687    21179177.540    88055975.993 7       458.919          42.375    21179175.920    88055976.985 7       458.919          42.312
R18  24094353.100   128617293.906 6      6857.386          41.750    24094352.440   128617293.891 6      6857.386          41.625    24094369.100   100035736.132 7      5333.522          43.250    24094369.620   100035733.136 7      5333.522          44.000
G06  20301818.680   106686771.790 8      2197.578          49.437    20301817.600   106686771.798 8      2197.578          50.500    20301826.580    83132577.628 8      1712.398          50.375    20301827.340    83132590.627 8      1712.398          50.437
> 2024 10 07 10 23 56.0000000  0 19
R23  23693817.060   126745905.009 6     -1772.482          36.000    23693814.180   126745905.007 5     -1772.482          35.312
G09  21973014.920   115468968.182 7        54.666          45.125    21973013.940   115468968.181 7        54.666          45.000    21973025.540    89975856.549 7        42.597          44.562    21973024.680    89975856.548 7        42.597          46.562
R02  20437648.400   109059208.167 8      2672.446          50.375    20437648.580   109059208.173 8      2672.446          48.375    20437658.440    84823873.543 7      2078.569          46.937    20437659.260    84823874.548 7      2078.569          47.312
G30  21844453.120   114793379.169 7      4874.841          45.937    21844451.860   114793379.171 7      4874.841          45.875    21844464.180    89449434.169 7      3798.577          45.500    21844464.520    89449443.171 7      3798.577          46.937
G19  22806018.900   119846428.705 7      -477.693          43.437    22806016.000   119846428.710 5      -477.693          33.437    22806029.180    93386827.198 5      -372.228          33.125
G04  24787667.800   130260050.757 6      -510.169          38.937    24787666.820   130260050.770 3      -510.169          23.000    24787687.920   101501367.571 3      -397.534          23.250    24787688.040   101501407.509 7      -397.534          42.687
R03  23110575.000   123712726.936 7      4759.595          42.062    23110575.740   123712726.956 6      4759.595          40.812    23110596.060    96221091.637 7      3701.908          43.187    23110596.000    96221091.635 7      3701.908          42.687
G07  21793605.600   114526122.727 7      2960.487          45.375    21793603.720   114526122.731 7      2960.487          45.312    21793612.900    89241143.036 7      2306.873          45.187    21793613.240    89241198.044 7      2306.873          47.125
G05  24791684.500   130281182.810 7      5086.073          43.750    24791683.220   130281182.823 6      5086.073          38.312    24791697.420   101517845.230 6      3963.173          38.375    24791698.280   101517855.234 7      3963.173          42.437
R12  23633087.700   126243732.384 7      5885.550          42.062    23633087.000   126243732.388 7      5885.550          42.437    23633120.520    98189710.725 7      4577.650          43.312    23633120.740    98189712.720 7      4577.650          44.562
G11  21662206.860   113835669.239 7      5001.566          46.000    21662205.360   113835669.249 6      5001.566          38.187    21662212.640    88703138.187 6      3897.324          37.750    21662213.060    88703145.179 8      3897.324          49.437
R17  20290128.380   108576580.370 7      4888.064          47.187    20290129.880   108576580.387 7      4888.064          46.187    20290143.260    84448510.169 7      3801.827          47.875    20290142.880    84448507.178 7      3801.827          47.812
R24  19697289.340   105330245.000 7       542.599          46.937    19697288.640   105330244.996 7       542.599          46.875    19697301.400    81923575.318 7       422.021          47.000    19697301.680    81923577.321 7       422.021          47.250
G17  24086187.540   126573744.144 6      -325.005          39.937    24086186.280   126573744.149 5      -325.005          35.000    24086205.800    98628943.383 5      -253.251          34.750    24086206.380    98628948.365 7      -253.251          42.312
R11  23186890.700   123903729.522 7      3981.448          42.625    23186891.360   123903729.537 6      3981.448          41.812    23186913.160    96369652.485 7      3096.682          45.062    23186913.540    96369653.481 7      3096.682          45.625
G20  22529631.460   118394019.048 7      4806.834          43.625    22529629.640   118394019.055 5      4806.834          31.062    22529639.000    92255114.920 5      3745.585          31.000
R01  21179051.520   113214150.391 7       590.176          43.937    21179051.440   113214150.387 7       590.176          42.687    21179066.860    88055517.072 6       459.026          41.687    21179065.780    88055518.068 6       459.026          41.875
R18  24093068.140   128610436.645 6      6857.353          41.750    24093067.820   128610436.628 6      6857.353          41.625    24093085.040   100030402.685 7      5333.497          43.187    24093085.120   100030399.690 7      5333.497          43.687
G06  20301400.380   106684574.502 8      2197.117          48.625    20301399.520   106684574.502 8      2197.117          49.250    20301408.540    83130865.445 8      1712.039          48.812    20301409.360    83130878.442 8      1712.039          50.937
> 2024 10 07 10 23 57.0000000  0 19
R23  23694148.820   126747677.585 6     -1772.591          36.000    23694146.420   126747677.605 5     -1772.591          35.312
G09  21973004.640   115468913.771 7        54.345          44.937    21973003.480   115468913.771 7        54.345          45.812    21973015.100    89975814.143 7        42.347          45.312    21973014.120    89975814.148 7        42.347          47.125
R02  20437147.300   109056535.992 8      2672.067          50.375    20437147.980   109056535.995 8      2672.067          48.625    20437157.780    84821795.180 7      2078.274          46.750    20437158.320    84821796.181 7      2078.274          46.937
G30  21843525.320   114788504.693 7      4874.321          46.875    21843524.240   114788504.695 7      4874.321          46.250    21843536.600    89445635.881 7      3798.172          45.625    21843536.900    89445644.878 7      3798.172          47.500
G19  22806109.640   119846906.645 6      -477.797          41.812    22806106.700   119846906.647 5      -477.797          32.750    22806119.900    93387199.610 5      -372.309          32.500
G04  24787764.620   130260561.252 6      -510.287          39.125    24787764.040   130260561.265 3      -510.287          23.000    24787785.280   101501765.341 3      -397.627          23.250    24787785.220   101501805.262 7      -397.627          42.937
R03  23109686.160   123707967.629 7      4759.285          42.750    23109686.500   123707967.644 6      4759.285          40.937    23109706.900    96217389.960 7      3701.666          42.750    23109706.780    96217389.958 7      3701.666          43.187
G07  21793042.040   114523162.597 7      2959.912          46.625    21793040.420   114523162.602 7      2959.912          45.812    21793049.640    89238836.443 7      2306.425          45.750    21793049.960    89238891.449 8      2306.425          48.187
G05  24790716.720   130276096.835 7      5086.104          44.000    24790715.440   130276096.840 6      5086.104          39.062    24790729.560   101513882.126 6      3963.198          39.187    24790730.440   101513892.134 7      3963.198          42.437
R12  23631986.080   126237846.932 7      5885.595          42.062    23631986.440   126237846.928 7      5885.595          42.437    23632018.940    98185133.163 7      4577.685          43.625    23632019.120    98185135.160 7      4577.685          45.000
G11  21661255.320   113830668.019 8      5001.136          48.062    21661253.700   113830668.030 6      5001.136          38.187    21661260.900    88699241.130 6      3896.989          38.562    21661261.360    88699248.126 8      3896.989          50.000
R17  20289215.420   108571692.911 7      4887.178          47.187    20289216.640   108571692.923 7      4887.178          46.500    20289229.860    84444708.808 8      3801.139          49.812    20289229.880    84444705.817 8      3801.139          50.250
R24  19697187.840   105329702.894 7       541.785          47.625    19697187.140   105329702.893 7       541.785          47.750    19697200.000    81923153.678 8       421.388          49.500    19697200.200    81923155.679 8       421.388          49.500
G17  24086249.720   126574069.291 6      -325.039          39.000    24086248.300   126574069.296 5      -325.039          34.875    24086267.680    98629196.725 5      -253.277          34.875    24086268.080    98629201.716 6      -253.277          41.937
R11  23186145.680   123899748.527 7      3980.724          43.000    23186146.500   123899748.536 7      3980.724          42.062    23186167.680    96366556.154 7      3096.118          44.750    23186168.240    96366557.154 7      3096.118          46.375
G20  22528717.100   118389212.448 7      4806.708          43.562    22528715.120   118389212.456 5      4806.708          31.187    22528724.540    92251369.521 5      3745.487          31.000
R01  21178941.520   113213560.390 7       590.025          43.687    21178940.680   113213560.396 7       590.025          42.687    21178956.640    88055058.184 7       458.909          42.500    21178954.960    88055059.182 7       458.909          42.125
R18  24091783.440   128603579.534 6      6856.929          41.750    24091783.760   128603579.530 6      6856.929          41.812    24091800.340   100025069.374 7      5333.167          43.125    24091800.020   100025066.379 7      5333.167          44.125
G06  20300982.280   106682377.785 8      2196.449          48.937    20300981.520   106682377.787 8      2196.449          50.875    20300990.460    83129153.715 8      1711.519          51.500    20300991.200    83129166.714 8      1711.519          51.937
> 2024 10 07 10 23 58.0000000  0 19
R23  23694480.800   126749450.403 5     -1773.108          35.625    23694477.460   126749450.396 5     -1773.108          35.312
G09  21972994.340   115468859.594 7        53.943          45.250    21972993.180   115468859.596 7        53.943          46.000    21973004.780    89975771.922 7        42.034          46.000    21973004.220    89975771.924 7        42.034          47.375
R02  20436646.340   109053864.184 8      2671.518          50.187    20436647.120   109053864.188 7      2671.518          47.812    20436656.960    84819717.101 8      2077.847          48.625    20436657.820    84819718.103 8      2077.847          49.125
G30  21842597.900   114783630.679 7      4873.785          46.562    21842596.700   114783630.684 7      4873.785          46.812    21842609.080    89441837.959 7      3797.754          46.687    21842609.300    89441846.955 7      3797.754          47.625
G19  22806200.540   119847384.835 7      -478.346          42.125    22806197.480   119847384.842 5      -478.346          32.750    22806210.760    93387572.218 5      -372.737          32.500
G04  24787861.820   130261071.779 6      -510.605          38.812    24787861.300   130261071.792 3      -510.605          23.000    24787882.280   101502163.134 3      -397.874          23.250    24787882.340   101502203.053 7      -397.874          43.125
R03  23108797.160   123703208.702 7      4758.689          42.750    23108797.640   123703208.714 6      4758.689          40.937    23108818.100    96213688.575 7      3701.202          43.437    23108818.000    96213688.575 7      3701.202          43.562
G07  21792478.740   114520203.095 7      2959.137          46.250    21792477.140   114520203.097 7      2959.137          45.750    21792486.420    89236530.335 7      2305.821          45.750    21792486.780    89236585.346 8      2305.821          48.625
G05  24789748.840   130271010.901 7      5085.892          44.125    24789747.660   130271010.908 6      5085.892          38.937    24789761.760   101509919.061 6      3963.033          39.125    24789762.740   101509929.073 7      3963.033          42.500
R12  23630884.360   126231961.576 7      5885.277          42.875    23630884.880   126231961.569 7      5885.277          42.437    23630917.120    98180555.670 7      4577.438          44.625    23630917.220    98180557.671 7      4577.438          45.812
G11  21660303.580   113825667.275 7      5000.476          46.875    21660302.180   113825667.283 6      5000.476          38.000    21660309.200    88695344.448 6      3896.475          38.250    21660309.800    88695351.445 8      3896.475          49.750
R17  20288302.000   108566806.327 7      4886.053          46.937    20288303.540   108566806.337 7      4886.053          46.687    20288316.620    84440908.131 8      3800.263          49.812    20288316.460    84440905.137 8      3800.263          50.000
R24  19697086.500   105329161.698 7       540.647          47.687    19697085.860   105329161.699 7       540.647          46.812    19697098.740    81922732.741 8       420.503          48.812    19697099.180    81922734.734 8       420.503          49.437
G17  24086312.260   126574394.444 6      -325.105          39.250    24086310.040   126574394.449 5      -325.105          35.250    24086329.700    98629450.064 5      -253.329          34.937    24086329.680    98629455.053 6      -253.329          41.937
R11  23185400.660   123895768.226 7      3979.978          42.125    23185401.440   123895768.220 6      3979.978          41.562    23185422.700    96363460.360 7      3095.538          46.000    23185423.380    96363461.356 7      3095.538          46.187
G20  22527802.280   118384405.956 7      4806.442          43.562    22527800.560   118384405.961 5      4806.442          31.187    22527810.140    92247624.203 5      3745.280          31.312
R01  21178831.420   113212970.543 7       589.608          43.437    21178830.480   113212970.547 7       589.608          42.687    21178846.120    88054599.408 7       458.584          42.562    21178844.880    88054600.398 7       458.584          42.562
R18  24090498.940   128596722.671 6      6856.607          41.375    24090499.260   128596722.664 6      6856.607          41.812    24090515.820   100019736.242 7      5332.916          43.750    24090515.680   100019733.245 7      5332.916          44.250
G06  20300564.500   106680181.760 8      2195.626          49.125    20300563.620   106680181.755 8      2195.626          50.187    20300572.560    83127442.517 8      1710.878          50.250    20300573.260    83127455.518 8      1710.878          51.625
> 2024 10 07 10 23 59.0000000  0 19
R23  23694811.580   126751223.512 5     -1773.311          35.625    23694809.720   126751223.497 5     -1773.311          35.312
G09  21972984.120   115468805.769 7        53.795          45.625    21972983.160   115468805.769 7        53.795          46.062    21972994.640    89975729.976 7        41.918          45.875    21972994.420    89975729.980 7        41.918          47.625
R02  20436146.100   109051192.890 8      2671.175          50.000    20436146.340   109051192.893 8      2671.175          48.437    20436156.300    84817639.423 8      2077.581          49.187    20436157.040    84817640.427 8      2077.581          49.687
G30  21841670.400   114778757.288 7      4873.273          46.812    21841669.340   114778757.290 7      4873.273          47.125    21841681.640    89438040.511 7      3797.356          47.375    21841682.060    89438049.506 7      3797.356          47.500
G19  22806291.560   119847863.374 6      -478.644          41.000    22806288.460   119847863.382 5      -478.644          32.125    22806301.960    93387945.103 5      -372.969          32.500
G04  24787959.120   130261582.427 6      -510.485          38.812    24787958.520   130261582.439 3      -510.485          23.000    24787979.300   101502561.021 3      -397.780          23.437    24787979.580   101502600.941 7      -397.780          43.187
R03  23107908.260   123698450.230 7      4758.375          42.250    23107908.660   123698450.259 6      4758.375          40.937    23107929.340    96209987.562 7      3700.958          44.000    23107928.980    96209987.560 7      3700.958          43.562
G07  21791915.660   114517244.328 7      2958.596          46.687    21791914.060   114517244.333 7      2958.596          45.812    21791923.420    89234224.807 7      2305.400          46.000    21791923.540    89234279.816 8      2305.400          48.625
G05  24788781.260   130265925.128 7      5085.908          43.125    24788779.880   130265925.135 6      5085.908          39.125    24788793.920   101505956.120 6      3963.045          39.125    24788795.100   101505966.130 7      3963.045          42.437
R12  23629783.020   126226076.433 7      5885.218          42.437    23629783.200   126226076.426 7      5885.218          42.750    23629814.940    98175978.348 7      4577.392          44.562    23629815.660    98175980.357 7      4577.392          45.375
G11  21659351.800   113820667.109 7      5000.162          47.375    21659350.780   113820667.122 6      5000.162          38.562    21659357.820    88691448.219 6      3896.230          38.312    21659358.300    88691455.215 8      3896.230          50.375
R17  20287389.280   108561920.712 7      4885.313          47.375    20287390.400   108561920.724 7      4885.313          46.750    20287403.560    84437108.210 8      3799.688          50.500    20287403.460    84437105.214 8      3799.688          50.500
R24  19696985.540   105328621.480 8       539.842          48.187    19696984.880   105328621.494 7       539.842          47.562    19696998.020    81922312.576 8       419.877          49.687    19696998.180    81922314.569 8       419.877          49.812
G17  24086373.820   126574719.744 6      -325.099          40.062    24086372.000   126574719.746 5      -325.099          35.250    24086391.540    98629703.517 5      -253.324          35.000    24086391.720    98629708.499 7      -253.324          42.375
R11  23184656.320   123891788.765 7      3979.258          42.125    23184656.580   123891788.758 6      3979.258          41.562    23184677.900    96360365.213 7      3094.979          46.187    23184678.540    96360366.211 7      3094.979          46.375
G20  22526887.600   118379599.675 7      4806.347          43.312    22526885.940   118379599.680 5      4806.347          31.187    22526895.640    92243879.054 5      3745.205          31.312
R01  21178721.040   113212380.889 7       589.774          43.937    21178720.240   113212380.901 7       589.774          42.562    21178735.860    88054140.792 7       458.713          43.187    21178734.500    88054141.784 7       458.713          42.750
R18  24089215.040   128589866.206 6      6856.470          41.875    24089214.760   128589866.207 6      6856.470          41.187    24089231.240   100014403.425 7      5332.810          44.000    24089231.200   100014400.430 7      5332.810          44.312
G06  20300146.840   106677986.525 8      2195.005          48.687    20300145.840   106677986.524 8      2195.005          50.625    20300154.800    83125731.946 8      1710.393          51.750    20300155.440    83125744.943 8      1710.393          51.875
> 2024 10 07 10 24  0.0000000  0 19
R23  23695142.980   126752996.497 5     -1773.076          35.625    23695139.460   126752996.453 5     -1773.076          35.312
G09  21972974.020   115468751.903 7        53.862          45.875    21972972.840   115468751.905 7        53.862          46.000    21972984.320    89975687.998 7        41.971          45.875    21972984.240    89975687.994 7        41.971          47.500
R02  20435645.560   109048521.725 8      2670.955          49.812    20435645.680   109048521.729 8      2670.955          48.437    20435655.460    84815561.853 8      2077.410          48.750    20435656.140    84815562.853 8      2077.410          49.000
G30  21840743.080   114773884.065 7      4873.089          47.375    21840741.920   114773884.067 7      4873.089          46.937    21840754.240    89434243.205 7      3797.212          47.125    21840754.600    89434252.199 7      3797.212          47.687
G19  22806382.660   119848341.850 7      -478.643          42.562    22806379.460   119848341.858 5      -478.643          32.125    22806392.960    93388317.932 5      -372.969          31.937
G04  24788055.720   130262092.859 6      -510.490          39.187    24788055.760   130262092.872 3      -510.490          23.000    24788076.660   101502958.740 3      -397.784          23.437    24788076.680   101502998.656 7      -397.784          42.875
R03  23107019.460   123693691.820 7      4758.284          42.250    23107020.160   123693691.857 6      4758.284          41.250    23107040.400    96206286.585 7      3700.887          43.625    23107040.060    96206286.579 7      3700.887          43.750
G07  21791352.840   114514285.904 7      2958.222          46.500    21791351.260   114514285.914 7      2958.222          46.125    21791360.500    89231919.546 7      2305.108          46.562    21791360.780    89231974.556 8      2305.108          48.562
G05  24787813.360   130260839.110 7      5086.110          43.812    24787811.980   130260839.115 6      5086.110          39.125    24787826.120   101501992.990 6      3963.203          39.062    24787827.080   101502002.998 7      3963.203          43.062
R12  23628681.080   126220191.104 7      5885.256          42.625    23628681.020   126220191.102 7      5885.256          42.937    23628712.640    98171400.894 7      4577.421          44.250    23628713.760    98171402.904 7      4577.421          44.375
G11  21658400.580   113815667.163 7      4999.781          46.500    21658399.340   113815667.173 6      4999.781          38.875    21658406.440    88687552.158 6      3895.933          38.687    21658406.860    88687559.156 8      3895.933          50.375
R17  20286476.260   108557035.682 8      4884.654          48.000    20286477.500   108557035.692 7      4884.654          46.562    20286490.480    84433308.741 8      3799.175          50.125    20286490.460    84433305.747 8      3799.175          50.562
R24  19696884.780   105328081.879 8       539.166          48.000    19696883.940   105328081.891 7       539.166          46.937    19696896.960    81921892.878 8       419.352          49.750    19696897.220    81921894.875 8       419.352          49.437
G17  24086435.200   126575044.768 6      -324.837          39.562    24086433.860   126575044.768 5      -324.837          35.125    24086453.500    98629956.758 5      -253.120          35.000    24086453.700    98629961.744 7      -253.120          42.375
R11  23183911.640   123887809.680 6      3978.770          41.875    23183911.860   123887809.673 6      3978.770          41.750    23183933.320    96357270.381 7      3094.599          46.125    23183933.560    96357271.380 7      3094.599          45.875
G20  22525973.240   118374793.212 7      4806.405          43.312    22525971.220   118374793.217 5      4806.405          32.062    22525981.140    92240133.763 5      3745.250          31.937
R01  21178610.640   113211791.163 7       589.656          43.375    21178609.940   113211791.167 7       589.656          42.500    21178625.320    88053682.108 7       458.622          43.187    21178624.140    88053683.092 7       458.622          42.750
R18  24087930.380   128583009.748 6      6856.513          41.875    24087930.100   128583009.733 6      6856.513          41.562    24087946.800   100009070.592 7      5332.844          44.000    24087946.620   100009067.593 7      5332.844          44.437
G06  20299729.260   106675791.699 8      2194.552          48.437    20299728.220   106675791.698 8      2194.552          50.062    20299737.120    83124021.685 8      1710.040          51.250    20299737.920    83124034.689 8      1710.040          52.500
> 2024 10 07 10 24  1.0000000  0 19
R23  23695473.820   126754769.577 5     -1773.328          35.625    23695471.100   126754769.578 5     -1773.328          34.562
G09  21972963.900   115468698.267 7        53.366          45.625    21972962.600   115468698.267 7        53.366          45.500    21972974.120    89975646.198 7        41.584          45.000    21972973.820    89975646.194 7        41.584          46.000
R02  20435145.020   109045850.900 8      2670.495          49.750    20435144.980   109045850.901 8      2670.495          48.437    20435155.060    84813484.541 7      2077.051          47.312    20435155.820    84813485.542 7      2077.051          47.125
G30  21839815.940   114769011.291 7      4872.445          46.750    21839814.660   114769011.296 7      4872.445          46.375    21839827.000    89430446.242 7      3796.711          46.125    21839827.600    89430455.241 7      3796.711          46.312
G19  22806474.040   119848820.490 7      -478.801          42.937    22806470.600   119848820.497 5      -478.801          32.125    22806484.200    93388690.889 5      -373.092          31.937
G04  24788153.660   130262603.228 6      -510.599          39.375    24788152.880   130262603.241 3      -510.599          23.000    24788173.760   101503356.409 3      -397.869          23.437    24788173.880   101503396.342 7      -397.869          42.875
R03  23106130.800   123688933.758 6      4757.711          41.937    23106131.760   123688933.789 6      4757.711          41.250    23106151.340    96202585.874 7      3700.442          42.562    23106151.040    96202585.872 7      3700.442          43.750
G07  21790789.860   114511328.075 7      2957.456          47.125    21790788.440   114511328.080 7      2957.456          44.312    21790797.540    89229614.744 7      2304.511          44.000    21790798.100    89229669.752 7      2304.511          47.000
G05  24786845.220   130255753.087 7      5085.922          43.812    24786844.180   130255753.094 6      5085.922          38.500    24786858.280   101498029.857 6      3963.056          38.375    24786859.040   101498039.867 7      3963.056          43.062
R12  23627578.800   126214305.796 7      5885.262          43.062    23627579.040   126214305.789 7      5885.262          42.937    23627610.540    98166823.447 7      4577.426          43.500    23627611.920    98166825.450 7      4577.426          44.250
G11  21657449.300   113810667.625 7      4999.241          47.562    21657447.900   113810667.633 6      4999.241          38.750    21657455.100    88683656.413 6      3895.512          37.625    21657455.520    88683663.410 7      3895.512          47.937
R17  20285563.100   108552151.424 7      4883.766          47.250    20285564.820   108552151.430 7      4883.766          46.312    20285577.860    84429509.875 7      3798.485          46.375    20285577.360    84429506.879 7      3798.485          46.562
R24  19696783.460   105327543.108 7       538.180          45.187    19696783.160   105327543.109 7       538.180          46.812    19696796.460    81921473.826 7       418.584          46.000    19696796.780    81921475.829 7       418.584          46.312
G17  24086497.060   126575369.760 6      -325.094          40.437    24086495.840   126575369.757 5      -325.094          35.625    24086515.460    98630209.973 5      -253.320          35.250    24086515.760    98630214.966 6      -253.320          41.625
R11  23183167.700   123883831.217 6      3977.858          41.875    23183166.960   123883831.219 6      3977.858          41.750    23183188.680    96354176.038 7      3093.889          45.125    23183189.760    96354177.039 7      3093.889          44.312
G20  22525058.760   118369986.804 7      4806.293          43.375    22525056.800   118369986.811 5      4806.293          32.062    22525066.660    92236388.516 5      3745.163          31.937
R01  21178500.460   113211201.471 7       589.445          43.250    21178499.360   113211201.486 7       589.445          42.500    21178515.100    88053223.455 7       458.457          42.625    21178513.820    88053224.445 6       458.457          41.687
R18  24086645.560   128576153.494 6      6856.156          41.750    24086645.540   128576153.490 6      6856.156          41.562    24086662.300   100003737.947 7      5332.566          42.187    24086662.080   100003734.957 7      5332.566          42.625
G06  20299311.600   106673597.503 8      2193.819          49.062    20299310.680   106673597.505 8      2193.819          48.062    20299319.640    83122311.923 7      1709.469          47.500    20299320.680    83122324.920 8      1709.469          49.062
> 2024 10 07 10 24  2.0000000  0 19
R23  23695805.440   126756542.902 5     -1773.588          35.625    23695804.880   126756542.888 5     -1773.588          34.562
G09  21972953.640   115468644.802 7        53.291          46.062    21972952.500   115468644.805 7        53.291          44.937    21972963.900    89975604.531 7        41.525          44.812    21972963.700    89975604.527 7        41.525          46.375
R02  20434644.700   109043180.406 8      2670.225          49.062    20434644.380   109043180.415 8      2670.225          48.000    20434654.680    84811407.492 7      2076.842          45.937    20434655.420    84811408.491 7      2076.842          46.625
G30  21838888.800   114764138.967 7      4871.945          46.625    21838887.500   114764138.971 7      4871.945          46.250    21838899.780    89426649.630 7      3796.321          46.000    21838900.500    89426658.631 7      3796.321          46.812
G19  22806564.960   119849299.368 7      -479.174          42.625    22806561.700   119849299.378 5      -479.174          32.375    22806575.600    93389064.029 5      -373.382          32.312
G04  24788250.880   130263113.623 6      -510.565          39.625    24788249.940   130263113.633 3      -510.565          23.750    24788270.960   101503754.097 3      -397.842          23.437    24788271.000   101503794.020 7      -397.842          42.750
R03  23105242.280   123684176.012 7      4757.519          42.937    23105243.080   123684176.037 6      4757.519          41.437    23105262.840    96198885.406 7      3700.293          42.125    23105262.140    96198885.405 7      3700.293          42.687
G07  21790227.020   114508370.833 7      2956.846          46.812    21790225.640   114508370.841 7      2956.846          44.562    21790234.820    89227310.402 7      2304.036          44.687    21790235.120    89227365.412 7      2304.036          47.000
G05  24785877.640   130250667.085 7      5085.947          42.937    24785876.340   130250667.092 6      5085.947          38.750    24785890.480   101494066.736 6      3963.076          38.750    24785891.260   101494076.744 7      3963.076          42.187
R12  23626477.060   126208420.571 7      5885.066          43.062    23626477.000   126208420.561 7      5885.066          42.937    23626508.380    98162246.054 6      4577.274          41.812    23626509.920    98162248.053 7      4577.274          42.812
G11  21656497.920   113805668.539 7      4998.818          47.562    21656496.580   113805668.544 6      4998.818          38.375    21656503.700    88679761.019 6      3895.183          38.187    21656504.440    88679768.020 8      3895.183          48.437
R17  20284651.040   108547268.016 7      4882.883          46.687    20284652.220   108547268.022 7      4882.883          46.625    20284665.180    84425711.665 7      3797.798          47.250    20284665.120    84425708.670 7      3797.798          47.562
R24  19696683.040   105327005.186 7       537.381          46.250    19696682.560   105327005.185 7       537.381          47.437    19696695.800    81921055.432 7       417.963          46.937    19696696.060    81921057.431 7       417.963          46.937
G17  24086558.480   126575694.719 6      -325.048          39.750    24086557.660   126575694.716 5      -325.048          35.187    24086577.300    98630463.158 5      -253.284          35.312    24086577.500    98630468.146 6      -253.284          41.625
R11  23182422.940   123879853.442 7      3977.219          42.187    23182422.600   123879853.440 6      3977.219          41.750    23182444.080    96351082.213 7      3093.392          44.937    23182444.860    96351083.213 7      3093.392          44.437
G20  22524144.240   118365180.451 7      4806.407          43.375    22524142.300   118365180.456 5      4806.407          32.250    22524152.280    92232643.304 5      3745.252          32.125
R01  21178390.000   113210611.887 7       589.457          43.625    21178388.980   113210611.890 7       589.457          42.687    21178404.720    88052764.874 6       458.466          41.562    21178403.700    88052765.864 6       458.466          41.687
R18  24085361.480   128569297.506 6      6855.856          41.437    24085361.540   128569297.507 6      6855.856          41.812    24085378.120    99998405.492 7      5332.333          42.250    24085377.940    99998402.495 7      5332.333          43.125
G06  20298894.480   106671403.986 8      2193.119          48.937    20298893.240   106671403.983 7      2193.119          47.500    20298902.280    83120602.682 7      1708.924          47.500    20298903.020    83120615.679 8      1708.924          50.250
> 2024 10 07 10 24  3.0000000  0 19
R23  23696137.400   126758316.316 5     -1773.232          35.625    23696136.300   126758316.299 5     -1773.232          34.562
G09  21972943.260   115468591.582 7        53.159          45.125    21972942.380   115468591.584 7        53.159          44.687    21972953.840    89975563.052 7        41.423          44.562    21972953.640    89975563.048 7        41.423          47.500
R02  20434144.300   109040510.264 8      2669.996          49.687    20434143.720   109040510.275 8      2669.996          48.625    20434154.260    84809330.712 7      2076.664          46.375    20434154.940    84809331.707 7      2076.664          46.750
G30  21837961.820   114759267.092 7      4871.678          46.562    21837960.420   114759267.099 7      4871.678          45.625    21837972.720    89422853.366 7      3796.113          45.562    21837973.040    89422862.366 8      3796.113          48.000
G19  22806656.180   119849778.430 7      -479.099          42.375    22806652.960   119849778.440 5      -479.099          32.375    22806666.620    93389437.316 5      -373.324          32.312
G04  24788348.340   130263624.024 6      -510.406          39.937    24788347.160   130263624.036 3      -510.406          23.750    24788368.080   101504151.792 3      -397.719          23.437    24788368.040   101504191.716 7      -397.719          42.812
R03  23104353.400   123679418.618 7      4757.304          42.937    23104354.560   123679418.647 6      4757.304          41.750    23104373.880    96195185.212 7      3700.125          43.125    23104373.420    96195185.212 7      3700.125          43.625
G07  21789664.480   114505414.211 7      2956.371          47.125    21789662.920   114505414.213 7      2956.371          44.812    21789672.140    89225006.534 7      2303.665          44.750    21789672.420    89225061.546 8      2303.665          48.500
G05  24784909.660   130245581.101 7      5086.015          42.625    24784908.520   130245581.109 6      5086.015          38.750    24784922.680   101490103.632 6      3963.129          38.937    24784923.040   101490113.640 7      3963.129          42.250
R12  23625375.740   126202535.396 7      5885.192          42.687    23625375.100   126202535.395 7      5885.192          42.500    23625406.900    98157668.718 7      4577.372          42.437    23625408.040    98157670.703 7      4577.372          43.500
G11  21655546.520   113800669.912 7      4998.413          46.875    21655545.440   113800669.920 6      4998.413          38.312    21655552.540    88675865.988 6      3894.867          38.000    21655553.140    88675872.984 8      3894.867          50.250
R17  20283738.440   108542385.445 7      4882.244          44.687    20283739.600   108542385.447 7      4882.244          46.250    20283752.660    84421914.106 7      3797.301          47.312    20283752.600    84421911.109 7      3797.301          47.125
R24  19696582.880   105326468.099 7       536.717          47.375    19696582.200   105326468.098 7       536.717          46.562    19696595.260    81920637.691 7       417.447          46.937    19696595.720    81920639.682 7       417.447          47.437
G17  24086620.680   126576019.645 6      -324.841          40.125    24086619.540   126576019.650 5      -324.841          35.187    24086639.040    98630716.333 5      -253.123          35.187    24086639.240    98630721.319 7      -253.123          42.062
R11  23181678.820   123875876.366 7      3976.632          42.000    23181677.740   123875876.367 6      3976.632          41.625    23181699.960    96347988.930 7      3092.936          45.000    23181700.740    96347989.934 7      3092.936          45.937
G20  22523229.360   118360374.225 7      4806.253          43.625    22523227.620   118360374.232 5      4806.253          32.250    22523237.840    92228898.192 5      3745.132          32.125
R01  21178279.620   113210022.420 7       589.356          43.625    21178278.720   113210022.426 7       589.356          42.687    21178294.220    88052306.394 6       458.388          41.875    21178293.140    88052307.386 6       458.388          41.562
R18  24084077.180   128562441.764 6      6855.648          41.437    24084077.140   128562441.765 6      6855.648          41.812    24084094.000    99993073.229 7      5332.170          42.750    24084093.580    99993070.232 7      5332.170          43.562
G06  20298476.800   106669211.120 8      2192.593          49.312    20298475.920   106669211.119 8      2192.593          50.937    20298484.920    83118893.951 8      1708.514          51.250    20298485.800    83118906.951 8      1708.514          52.375
> 2024 10 07 10 24  4.0000000  0 19
R23  23696469.160   126760089.789 5     -1773.738          35.625    23696466.860   126760089.796 5     -1773.738          34.562
G09  21972933.420   115468538.446 7        52.916          45.312    21972932.220   115468538.448 7        52.916          45.687    21972943.760    89975521.641 7        41.233          45.375    21972943.400    89975521.635 7        41.233          46.937
R02  20433643.740   109037840.321 8      2669.625          49.250    20433643.220   109037840.325 8      2669.625          48.312    20433654.080    84807254.082 7      2076.375          47.500    20433654.500    84807255.075 7      2076.375          47.125
G30  21837034.660   114754395.542 7      4871.171          46.125    21837033.360   114754395.547 7      4871.171          46.437    21837045.780    89419057.358 7      3795.717          46.312    21837046.320    89419066.358 8      3795.717          48.062
G19  22806747.500   119850257.571 7      -479.419          42.250    22806744.200   119850257.581 5      -479.419          32.750    22806757.860    93389810.668 5      -373.573          32.812
G04  24788445.660   130264134.303 6      -510.512          39.875    24788444.340   130264134.311 3      -510.512          23.750    24788465.460   101504549.390 3      -397.801          23.437    24788465.000   101504589.319 7      -397.801          43.250
R03  23103464.220   123674661.415 7      4756.939          43.187    23103465.800   123674661.446 6      4756.939          41.750    23103485.100    96191485.175 7      3699.842          43.937    23103484.980    96191485.176 7      3699.842          43.812
G07  21789101.920   114502458.046 7      2955.661          46.250    21789100.480   114502458.051 7      2955.661          45.750    21789109.680    89222703.037 7      2303.112          45.250    21789109.920    89222758.041 7      2303.112          47.625
G05  24783941.920   130240494.978 7      5085.957          42.062    24783940.580   130240494.986 6      5085.957          38.875    24783954.740   101486140.426 6      3963.083          38.875    24783955.720   101486150.434 7      3963.083          42.500
R12  23624273.640   126196650.195 7      5885.093          42.750    23624273.700   126196650.183 7      5885.093          42.312    23624305.540    98153091.346 7      4577.295          43.750    23624306.420    98153093.335 7      4577.295          44.500
G11  21654595.480   113795671.588 7      4997.952          46.562    21654594.180   113795671.598 6      4997.952          38.125    21654601.280    88671971.192 6      3894.508          37.875    21654601.980    88671978.190 8      3894.508          48.937
R17  20282826.020   108537503.565 7      4881.262          47.375    20282827.320   108537503.575 7      4881.262          46.500    20282840.460    84418117.094 8      3796.537          48.625    20282840.140    84418114.096 8      3796.537          49.000
R24  19696482.680   105325931.702 7       535.859          47.687    19696482.060   105325931.709 7       535.859          46.812    19696495.220    81920220.491 8       416.779          48.812    19696495.040    81920222.484 8       416.779          48.750
G17  24086682.540   126576344.435 6      -324.864          40.062    24086681.260   126576344.438 5      -324.864          35.687    24086701.020    98630969.388 5      -253.141          35.437    24086701.560    98630974.372 7      -253.141          42.500
R11  23180934.640   123871899.830 7      3975.945          42.000    23180933.820   123871899.831 6      3975.945          41.625    23180955.460    96344896.077 7      3092.401          45.500    23180956.120    96344897.085 7      3092.401          45.437
G20  22522314.840   118355567.904 7      4806.221          43.125    22522312.900   118355567.908 5      4806.221          32.312    22522323.260    92225153.009 5      3745.107          32.125
R01  21178168.780   113209432.880 7       589.320          43.625    21178168.320   113209432.890 7       589.320          42.562    21178184.340    88051847.857 7       458.360          42.812    21178183.140    88051848.849 6       458.360          41.875
R18  24082792.980   128555586.135 7      6855.294          42.062    24082792.840   128555586.138 6      6855.294          41.937    24082809.620    99987741.060 7      5331.895          44.625    24082809.320    99987738.067 7      5331.895          44.687
G06  20298059.660   106667018.787 8      2191.826          49.187    20298058.800   106667018.792 8      2191.826          50.687    20298067.780    83117185.640 8      1707.916          51.375    20298068.500    83117198.640 8      1707.916          50.437
> 2024 10 07 10 24  5.0000000  0 19
R23  23696800.900   126761863.352 5     -1773.848          34.562    23696798.280   126761863.349 5     -1773.848          34.562
G09  21972923.160   115468485.464 7        52.849          45.500    21972922.140   115468485.467 7        52.849          45.875    21972933.680    89975480.347 7        41.181          45.312    21972932.960    89975480.345 7        41.181          46.375
R02  20433143.440   109035170.673 8      2669.432          48.937    20433142.620   109035170.674 7      2669.432          47.875    20433153.600    84805177.685 7      2076.225          47.937    20433154.620    84805178.678 8      2076.225          48.375
G30  21836107.680   114749524.382 7      4870.872          46.625    21836106.360   114749524.384 7      4870.872          46.250    21836118.780    89415261.654 7      3795.485          46.250    21836119.240    89415270.653 7      3795.485          47.187
G19  22806838.760   119850736.859 7      -479.406          43.000    22806835.760   119850736.872 5      -479.406          32.750    22806849.180    93390184.129 5      -373.563          32.812
G04  24788542.340   130264644.512 6      -510.275          39.875    24788541.560   130264644.520 3      -510.275          23.750    24788562.540   101504946.934 3      -397.617          23.437    24788562.700   101504986.853 7      -397.617          43.000
R03  23102575.420   123669904.488 7      4756.744          43.750    23102577.080   123669904.522 7      4756.744          42.062    23102596.640    96187785.353 7      3699.690          43.000    23102596.460    96187785.356 7      3699.690          43.062
G07  21788539.660   114499502.417 7      2955.277          46.250    21788538.040   114499502.417 7      2955.277          45.875    21788547.240    89220399.945 7      2302.814          45.812    21788547.760    89220454.952 7      2302.814          47.875
G05  24782974.020   130235408.808 6      5086.164          41.937    24782972.680   130235408.810 6      5086.164          38.750    24782986.980   101482177.168 6      3963.245          38.812    24782987.800   101482187.170 7      3963.245          42.500
R12  23623171.980   126190765.010 7      5884.982          42.750    23623172.060   126190765.019 7      5884.982          42.312    23623204.700    98148514.007 7      4577.209          43.625    23623204.760    98148516.002 7      4577.209          44.000
G11  21653644.540   113790673.660 7      4997.635          46.812    21653643.100   113790673.673 6      4997.635          38.062    21653650.240    88668076.703 6      3894.261          38.125    21653650.780    88668083.703 8      3894.261          48.937
R17  20281913.840   108532622.453 7      4880.605          45.687    20281915.260   108532622.460 7      4880.605          46.750    20281928.420    84414320.669 8      3796.026          48.937    20281928.160    84414317.671 8      3796.026          49.812
R24  19696382.480   105325396.131 7       535.156          47.250    19696381.980   105325396.130 7       535.156          47.625    19696394.860    81919803.924 8       416.232          48.687    19696394.980    81919805.922 8       416.232          48.937
G17  24086744.400   126576669.194 6      -325.017          39.062    24086743.140   126576669.194 5      -325.017          35.687    24086762.760    98631222.420 5      -253.260          35.437    24086763.360    98631227.397 7      -253.260          42.500
R11  23180190.440   123867923.919 6      3975.439          41.875    23180189.340   123867923.918 6      3975.439          41.312    23180211.560    96341803.697 7      3092.008          45.875    23180212.060    96341804.710 7      3092.008          45.000
G20  22521400.020   118350761.609 7      4806.267          42.812    22521398.200   118350761.616 5      4806.267          32.312    22521408.660    92221407.846 5      3745.143          32.187
R01  21178058.960   113208843.389 7       589.350          43.437    21178058.100   113208843.396 7       589.350          42.562    21178073.620    88051389.354 7       458.383          42.250    21178072.940    88051390.346 7       458.383          42.062
R18  24081508.980   128548730.673 7      6855.331          42.000    24081508.720   128548730.663 6      6855.331          41.625    24081525.420    99982409.005 7      5331.924          43.187    24081525.200    99982406.013 7      5331.924          44.250
G06  20297642.740   106664827.049 8      2191.358          48.750    20297641.700   106664827.051 8      2191.358          49.375    20297650.680    83115477.786 8      1707.552          49.187    20297651.540    83115490.783 8      1707.552          51.312
> 2024 10 07 10 24  6.0000000  0 19
R23  23697132.740   126763637.229 5     -1773.715          34.562    23697129.960   126763637.222 5     -1773.715          34.562
G09  21972913.320   115468432.933 7        52.303          45.437    21972912.160   115468432.935 7        52.303          45.187    21972923.740    89975439.405 7        40.755          44.625    21972923.000    89975439.403 7        40.755          46.562
R02  20432643.420   109032501.643 8      2668.823          49.312    20432642.320   109032501.647 7      2668.823          47.625    20432653.720    84803101.771 7      2075.752          46.625    20432654.280    84803102.766 7      2075.752          47.312
G30  21835180.900   114744653.881 7      4870.356          47.312    21835179.620   114744653.881 7      4870.356          45.812    21835192.000    89411466.461 7      3795.083          45.562    21835192.620    89411475.461 7      3795.083          47.062
G19  22806929.860   119851216.573 7      -479.796          43.375    22806927.280   119851216.583 5      -479.796          32.875    22806940.360    93390557.922 5      -373.867          32.687
G04  24788639.680   130265154.931 6      -510.346          39.625    24788638.760   130265154.941 3      -510.346          23.750    24788659.660   101505344.645 4      -397.673          24.437    24788659.920   101505384.574 7      -397.673          42.687
R03  23101687.040   123665148.136 7      4756.210          43.750    23101688.680   123665148.164 7      4756.210          42.062    23101708.040    96184085.973 7      3699.274          42.812    23101707.680    96184085.971 7      3699.274          42.875
G07  21787977.460   114496547.605 7      2954.455          47.562    21787975.820   114496547.610 7      2954.455          45.125    21787985.020    89218097.499 7      2302.173          44.937    21787985.380    89218152.507 7      2302.173          47.500
G05  24782006.300   130230322.859 7      5085.944          43.437    24782004.940   130230322.864 6      5085.944          38.937    24782019.140   101478214.093 6      3963.073          38.625    24782019.760   101478224.099 7      3963.073          42.500
R12  23622070.720   126184880.103 6      5884.909          41.937    23622070.620   126184880.101 7      5884.909          42.375    23622102.840    98143936.867 7      4577.152          42.625    23622103.100    98143938.864 7      4577.152          44.250
G11  21652693.580   113785676.389 7      4997.093          46.500    21652692.160   113785676.397 6      4997.093          37.750    21652699.260    88664182.723 6      3893.839          37.750    21652700.080    88664189.724 8      3893.839          48.937
R17  20281001.760   108527742.411 7      4879.676          47.187    20281003.420   108527742.415 7      4879.676          46.687    20281016.420    84410525.081 8      3795.304          48.125    20281016.360    84410522.082 8      3795.304          48.187
R24  19696282.580   105324861.621 8       534.088          48.125    19696282.100   105324861.625 7       534.088          47.125    19696295.140    81919388.192 7       415.401          47.562    19696295.120    81919390.197 7       415.401          47.750
G17  24086806.520   126576994.071 6      -325.050          39.500    24086805.060   126576994.070 5      -325.050          35.250    24086824.580    98631475.546 5      -253.286          35.250    24086825.220    98631480.542 7      -253.286          42.062
R11  23179446.680   123863948.893 6      3974.751          41.875    23179445.400   123863948.875 6      3974.751          41.312    23179467.580    96338712.000 7      3091.473          44.875    23179468.520    96338713.012 7      3091.473          44.937
G20  22520485.360   118345955.629 7      4805.848          43.187    22520483.820   118345955.637 5      4805.848          32.437    22520494.120    92217662.929 5      3744.816          32.187
R01  21177948.840   113208254.219 7       589.087          43.500    21177947.960   113208254.217 7       589.087          42.125    21177963.720    88050931.100 7       458.179          42.125    21177962.660    88050932.094 6       458.179          41.937
R18  24080224.640   128541875.689 7      6854.853          42.000    24080224.580   128541875.692 6      6854.853          41.625    24080241.100    99977077.345 7      5331.553          43.312    24080241.180    99977074.348 7      5331.553          43.687
G06  20297225.740   106662636.185 8      2190.587          48.500    20297224.820   106662636.187 8      2190.587          48.687    20297233.800    83113770.613 8      1706.951          48.812    20297234.580    83113783.615 8      1706.951          50.250
> 2024 10 07 10 24  7.0000000  0 19
R23  23697463.560   126765411.114 5     -1773.832          34.562    23697461.280   126765411.091 5     -1773.832          34.562
G09  21972903.100   115468380.335 7        52.704          45.000    21972902.120   115468380.334 7        52.704          45.875    21972913.700    89975398.409 7        41.068          45.937    21972913.300    89975398.412 7        41.068          46.875
R02  20432143.200   109029832.755 8      2668.903          49.437    20432141.980   109029832.761 7      2668.903          47.937    20432153.540    84801025.969 8      2075.813          48.562    20432154.060    84801026.962 8      2075.813          48.937
G30  21834254.220   114739783.609 7      4870.235          47.000    21834252.760   114739783.616 7      4870.235          47.125    21834265.180    89407671.454 7      3794.988          47.125    21834265.600    89407680.452 8      3794.988          48.000
G19  22807021.260   119851696.237 7      -479.543          43.875    22807018.740   119851696.247 5      -479.543          32.875    22807031.580    93390931.680 5      -373.670          32.687
G04  24788737.080   130265665.132 6      -510.029          39.625    24788735.840   130265665.145 3      -510.029          23.750    24788756.620   101505742.186 4      -397.425          24.437    24788756.620   101505782.123 7      -397.425          42.625
R03  23100798.400   123660391.883 7      4756.299          43.250    23100800.220   123660391.920 7      4756.299          42.187    23100819.360    96180386.677 7      3699.343          42.937    23100818.980    96180386.678 7      3699.343          42.750
G07  21787415.180   114493593.151 7      2954.336          47.062    21787413.540   114493593.150 7      2954.336          45.875    21787422.800    89215795.322 7      2302.080          45.937    21787423.240    89215850.328 8      2302.080          49.000
G05  24781038.580   130225236.702 7      5086.256          43.937    24781036.980   130225236.707 6      5086.256          39.125    24781051.240   101474250.853 6      3963.316          39.500    24781052.220   101474260.855 7      3963.316          42.500
R12  23620969.200   126178995.000 7      5885.234          42.125    23620968.820   126178995.007 7      5885.234          42.250    23621000.780    98139359.586 7      4577.405          43.000    23621001.420    98139361.600 7      4577.405          45.187
G11  21651742.840   113780679.326 7      4997.052          46.500    21651741.440   113780679.336 6      4997.052          38.250    21651748.420    88660288.908 6      3893.807          37.750    21651749.060    88660295.914 8      3893.807          50.312
R17  20280089.760   108522862.949 7      4879.288          47.437    20280091.440   108522862.956 7      4879.288          47.000    20280104.560    84406729.944 8      3795.002          49.250    20280104.200    84406726.948 8      3795.002          49.500
R24  19696182.700   105324327.719 7       533.626          47.750    19696182.420   105324327.725 7       533.626          47.562    19696195.180    81918972.928 8       415.043          49.000    19696195.120    81918974.929 8       415.043          48.937
G17  24086868.420   126577318.685 6      -324.480          39.312    24086866.720   126577318.690 5      -324.480          35.187    24086886.360    98631728.476 5      -252.841          35.187    24086886.920    98631733.461 7      -252.841          42.187
R11  23178703.040   123859974.280 7      3974.493          42.125    23178701.580   123859974.276 6      3974.493          41.437    23178723.920    96335620.651 7      3091.272          46.062    23178724.660    96335621.660 7      3091.272          45.000
G20  22519570.660   118341149.447 7      4806.244          44.125    22519569.320   118341149.457 5      4806.244          32.437    22519579.500    92213917.859 5      3745.125          32.750
R01  21177838.460   113207664.891 7       589.429          43.562    21177837.800   113207664.897 7       589.429          42.812    21177853.400    88050472.731 7       458.445          42.125    21177852.280    88050473.730 7       458.445          42.187
R18  24078940.460   128535020.715 7      6855.005          42.500    24078939.880   128535020.716 7      6855.005          42.000    24078957.160    99971745.682 7      5331.670          44.062    24078957.020    99971742.690 7      5331.670          44.687
G06  20296809.000   106660445.747 8      2190.275          48.687    20296807.980   106660445.749 8      2190.275          49.125    20296817.020    83112063.776 8      1706.708          48.687    20296817.640    83112076.778 8      1706.708          52.250
> 2024 10 07 10 24  8.0000000  0 19
R23  23697794.520   126767185.161 5     -1774.013          34.562    23697793.480   126767185.136 5     -1774.013          34.375
G09  21972893.040   115468328.063 7        52.232          45.562    21972892.200   115468328.063 7        52.232          45.750    21972903.740    89975357.672 7        40.700          45.562    21972903.260    89975357.676 7        40.700          47.250
R02  20431643.060   109027164.334 8      2668.334          48.937    20431641.940   109027164.340 7      2668.334          47.562    20431653.580    84798950.530 8      2075.371          48.562    20431654.440    84798951.525 8      2075.371          48.937
G30  21833327.420   114734913.872 7      4869.544          46.437    21833326.080   114734913.875 7      4869.544          46.562    21833338.500    89403876.856 7      3794.450          46.687    21833339.180    89403885.857 8      3794.450          48.062
G19  22807112.680   119852176.203 7      -480.055          43.937    22807110.200   119852176.213 5      -480.055          33.125    22807122.720    93391305.673 5      -374.069          33.312
G04  24788834.100   130266175.420 6      -510.182          40.562    24788832.900   130266175.432 3      -510.182          23.750    24788853.720   101506139.792 4      -397.545          24.437    24788853.540   101506179.735 7      -397.545          42.625
R03  23099910.140   123655636.075 7      4755.707          43.187    23099911.580   123655636.116 7      4755.707          42.187    23099931.120    96176687.728 7      3698.883          43.250    23099930.720    96176687.724 7      3698.883          42.875
G07  21786853.360   114490639.356 7      2953.607          46.875    21786851.520   114490639.358 7      2953.607          45.937    21786860.660    89213493.664 7      2301.512          45.562    21786860.940    89213548.672 8      2301.512          48.125
G05  24780070.740   130220150.608 7      5086.239          43.437    24780069.180   130220150.605 6      5086.239          39.000    24780083.520   101470287.655 6      3963.303          39.125    24780084.060   101470297.659 7      3963.303          42.812
R12  23619867.040   126173110.047 7      5884.924          42.687    23619866.740   126173110.046 7      5884.924          42.250    23619899.120    98134782.423 7      4577.163          44.125    23619899.420    98134784.433 7      4577.163          44.562
G11  21650791.860   113775682.810 7      4996.323          46.937    21650790.460   113775682.817 6      4996.323          38.437    21650797.520    88656395.518 6      3893.238          38.187    21650798.240    88656402.523 8      3893.238          50.187
R17  20279178.360   108517984.376 7      4878.234          47.312    20279179.900   108517984.386 7      4878.234          46.625    20279192.800    84402935.505 8      3794.182          50.562    20279192.780    84402932.508 8      3794.182          50.437
R24  19696083.320   105323794.744 7       532.737          47.375    19696082.660   105323794.742 7       532.737          47.375    19696095.540    81918558.383 8       414.351          49.750    19696095.740    81918560.380 8       414.351          50.187
G17  24086929.920   126577643.375 6      -324.611          39.500    24086928.400   126577643.383 5      -324.611          35.187    24086948.240    98631981.457 5      -252.944          35.500    24086948.500    98631986.438 7      -252.944          42.750
R11  23177959.360   123856000.454 7      3973.690          42.125    23177958.100   123856000.436 6      3973.690          41.625    23177980.380    96332529.889 7      3090.648          46.312    23177981.380    96332530.901 7      3090.648          46.187
G20  22518656.020   118336343.405 7      4806.075          43.437    22518654.800   118336343.417 5      4806.075          33.125    22518665.340    92210172.893 5      3744.994          32.750
R01  21177728.440   113207075.758 7       589.191          43.500    21177727.660   113207075.764 7       589.191          43.062    21177743.300    88050014.511 7       458.259          42.125    21177741.960    88050015.505 7       458.259          42.437
R18  24077656.020   128528166.060 7      6854.607          42.187    24077656.280   128528166.063 7      6854.607          42.000    24077672.940    99966414.267 7      5331.361          43.750    24077672.680    99966411.272 7      5331.361          44.437
G06  20296392.080   106658256.042 8      2189.459          49.187    20296391.280   106658256.044 8      2189.459          51.000    20296400.300    83110357.511 8      1706.072          51.312    20296400.980    83110370.512 8      1706.072          52.187
> 2024 10 07 10 24  9.0000000  0 19
R23  23698127.280   126768959.241 5     -1774.142          34.562    23698123.880   126768959.218 5     -1774.142          34.375
G09  21972883.140   115468275.849 7        52.033          45.500    21972882.260   115468275.851 7        52.033          46.937    21972893.800    89975316.979 7        40.545          46.312    21972893.500    89975316.982 7        40.545          47.375
R02  20431143.320   109024496.142 8      2667.876          49.562    20431141.600   109024496.145 8      2667.876          48.875    20431153.480    84796875.265 8      2075.014          49.312    20431154.300    84796876.263 8      2075.014          49.500
G30  21832400.800   114730044.431 7      4869.137          46.562    21832399.460   114730044.430 7      4869.137          47.812    21832411.780    89400082.492 7      3794.133          47.687    21832412.720    89400091.495 7      3794.133          47.937
G19  22807203.900   119852656.213 7      -480.218          44.562    22807201.900   119852656.221 5      -480.218          33.125    22807214.080    93391679.700 5      -374.195          33.312
G04  24788930.940   130266685.557 6      -510.245          40.750    24788930.120   130266685.568 4      -510.245          24.750    24788950.820   101506537.281 4      -397.593          24.437    24788950.760   101506577.229 7      -397.593          42.687
R03  23099021.300   123650880.469 7      4755.288          43.187    23099023.060   123650880.501 6      4755.288          41.937    23099042.120    96172988.924 7      3698.557          43.250    23099042.300    96172988.918 7      3698.557          43.187
G07  21786291.220   114487686.039 7      2952.941          46.750    21786289.480   114487686.044 7      2952.941          46.000    21786298.640    89211192.382 7      2300.993          46.125    21786298.960    89211247.390 8      2300.993          48.500
G05  24779102.840   130215064.393 7      5086.143          44.125    24779101.400   130215064.398 6      5086.143          39.500    24779115.640   101466324.375 6      3963.229          39.250    24779116.100   101466334.375 7      3963.229          42.687
R12  23618765.400   126167225.031 7      5884.852          42.687    23618764.960   126167225.024 7      5884.852          42.250    23618796.720    98130205.200 7      4577.107          44.125    23618797.900    98130207.210 7      4577.107          44.937
G11  21649841.180   113770686.572 7      4995.943          46.750    21649839.600   113770686.579 6      4995.943          38.562    21649846.860    88652502.346 6      3892.942          38.312    21649847.440    88652509.350 8      3892.942          50.312
R17  20278266.440   108513106.466 7      4877.432          46.812    20278268.480   108513106.479 7      4877.432          47.562    20278281.420    84399141.577 8      3793.559          50.312    20278280.900    84399138.581 8      3793.559          50.812
R24  19695983.520   105323262.520 8       531.730          48.250    19695983.240   105323262.524 8       531.730          48.375    19695996.000    81918144.425 8       413.568          49.500    19695996.260    81918146.414 8       413.568          50.375
G17  24086992.060   126577967.892 6      -324.553          39.187    24086990.300   126577967.897 5      -324.553          35.375    24087009.980    98632234.304 5      -252.898          35.375    24087010.200    98632239.290 7      -252.898          42.750
R11  23177215.540   123852027.142 6      3972.970          41.625    23177214.780   123852027.141 6      3972.970          41.625    23177236.940    96329439.556 7      3090.088          46.250    23177237.560    96329440.561 7      3090.088          46.562
G20  22517741.740   118331537.336 7      4805.995          43.875    22517740.020   118331537.346 5      4805.995          33.125    22517750.780    92206427.904 5      3744.932          32.750
R01  21177617.860   113206486.596 7       589.022          44.875    21177617.040   113206486.602 7       589.022          43.062    21177633.220    88049556.265 7       458.128          42.750    21177632.100    88049557.255 7       458.128          42.812
R18  24076371.880   128521311.481 7      6854.352          42.187    24076371.840   128521311.485 6      6854.352          41.500    24076388.760    99961082.911 7      5331.163          44.562    24076388.820    99961079.919 7      5331.163          44.187
G06  20295975.720   106656066.865 8      2188.752          49.937    20295974.700   106656066.867 8      2188.752          51.375    20295983.700    83108651.653 8      1705.521          51.875    20295984.460    83108664.654 8      1705.521          52.250
> 2024 10 07 10 24 10.0000000  0 19
R23  23698460.060   126770733.500 5     -1774.154          34.562    23698455.160   126770733.475 5     -1774.154          34.375
G09  21972873.180   115468223.864 7        51.896          45.937    21972872.240   115468223.868 7        51.896          46.625    21972883.920    89975276.467 7        40.439          46.187    21972883.680    89975276.470 7        40.439          47.562
R02  20430643.120   109021828.257 8      2667.737          49.750    20430641.580   109021828.260 8      2667.737          49.125    20430653.620    84794800.244 8      2074.906          48.250    20430654.180    84794801.241 8      2074.906          49.062
G30  21831474.160   114725175.451 7      4868.751          47.125    21831473.020   114725175.458 7      4868.751          47.625    21831485.340    89396288.492 7      3793.832          47.000    21831486.060    89396297.495 7      3793.832          47.937
G19  22807295.520   119853136.442 7      -480.349          44.750    22807293.160   119853136.450 5      -480.349          33.625    22807305.380    93392053.898 5      -374.298          33.687
G04  24789028.420   130267195.724 6      -510.291          40.187    24789027.400   130267195.740 4      -510.291          24.750    24789047.900   101506934.800 4      -397.629          24.437    24789048.220   101506974.739 7      -397.629          43.062
R03  23098132.900   123646125.191 7      4755.125          44.625    23098134.200   123646125.219 7      4755.125          43.812    23098153.600    96169290.380 7      3698.431          42.875    23098153.880    96169290.378 7      3698.431          42.812
G07  21785729.320   114484733.324 7      2952.454          46.562    21785727.660   114484733.329 7      2952.454          46.562    21785736.720    89208891.565 7      2300.614          46.375    21785737.120    89208946.567 8      2300.614          48.125
G05  24778135.120   130209978.199 7      5086.229          44.000    24778133.460   130209978.204 6      5086.229          39.312    24778147.560   101462361.107 6      3963.296          39.500    24778148.020   101462371.113 7      3963.296          42.562
R12  23617663.840   126161340.064 7      5885.065          43.812    23617663.280   126161340.060 7      5885.065          44.000    23617694.800    98125628.021 7      4577.273          43.875    23617696.100    98125630.035 7      4577.273          44.062
G11  21648890.560   113765690.809 7      4995.619          46.937    21648888.920   113765690.814 6      4995.619          38.312    21648896.140    88648609.542 6      3892.691          38.187    21648896.800    88648616.546 8      3892.691          50.125
R17  20277354.920   108508229.410 8      4876.683          49.750    20277357.200   108508229.425 8      4876.683          48.687    20277369.960    84395348.311 8      3792.976          49.875    20277369.460    84395345.317 8      3792.976          50.500
R24  19695884.180   105322731.125 8       531.083          49.812    19695883.880   105322731.121 8       531.083          48.875    19695896.500    81917731.106 8       413.065          49.375    19695896.800    81917733.097 8       413.065          50.187
G17  24087053.800   126578292.419 6      -324.530          39.500    24087051.980   126578292.424 5      -324.530          35.750    24087071.760    98632487.162 5      -252.880          35.812    24087071.960    98632492.152 7      -252.880          42.375
R11  23176471.740   123848054.515 6      3972.429          41.625    23176471.800   123848054.514 7      3972.429          42.750    23176493.480    96326349.742 7      3089.667          45.812    23176494.280    96326350.742 7      3089.667          46.562
G20  22516827.060   118326731.343 7      4805.983          43.937    22516825.360   118326731.348 5      4805.983          32.625    22516836.540    92202682.974 5      3744.922          32.750
R01  21177507.940   113205897.524 7       589.012          44.875    21177506.880   113205897.539 7       589.012          43.750    21177522.980    88049098.092 7       458.121          42.812    21177521.560    88049099.090 7       458.121          42.625
R18  24075087.600   128514457.173 7      6854.147          42.687    24075087.920   128514457.182 6      6854.147          41.500    24075104.880    99955751.766 7      5331.003          44.125    24075104.940    99955748.769 7      5331.003          44.250
G06  20295559.300   106653878.345 8      2188.239          50.312    20295558.200   106653878.347 8      2188.239          51.625    20295567.240    83106946.310 8      1705.122          51.312    20295568.140    83106959.312 8      1705.122          52.000
> 2024 10 07 10 24 11.0000000  0 19
R23  23698791.120   126772507.925 5     -1774.496          34.562    23698786.980   126772507.913 5     -1774.496          34.375
G09  21972863.460   115468172.101 7        51.709          45.750    21972862.460   115468172.101 7        51.709          44.687    21972874.100    89975236.123 7        40.293          44.437    21972873.820    89975236.127 7        40.293          46.500
R02  20430143.320   109019160.700 8      2667.401          49.687    20430141.740   109019160.698 8      2667.401          49.062    20430153.640    84792725.479 7      2074.645          45.187    20430154.400    84792726.472 7      2074.645          45.875
G30  21830547.740   114720306.929 7      4868.355          46.625    21830546.480   114720306.931 7      4868.355          45.625    21830558.900    89392494.842 7      3793.524          44.750    21830559.440    89392503.843 7      3793.524          46.187
G19  22807387.260   119853616.865 7      -480.484          43.625    22807384.680   119853616.868 5      -480.484          33.625    22807396.560    93392428.251 5      -374.403          33.687
G04  24789125.400   130267705.880 6      -510.181          41.250    24789124.460   130267705.893 4      -510.181          24.750    24789144.880   101507332.306 4      -397.544          24.437    24789145.240   101507372.237 7      -397.544          42.875
R03  23097244.800   123641370.255 7      4754.762          45.375    23097246.520   123641370.286 7      4754.762          43.812    23097265.100    96165592.111 7      3698.149          42.562    23097265.640    96165592.103 6      3698.149          41.687
G07  21785167.460   114481781.213 7      2951.783          46.937    21785165.940   114481781.220 7      2951.783          45.437    21785174.920    89206591.225 7      2300.091          44.875    21785175.240    89206646.229 7      2300.091          46.875
G05  24777167.160   130204891.997 7      5086.279          44.187    24777165.740   130204892.005 6      5086.279          38.875    24777179.780   101458397.839 6      3963.334          39.187    24777180.440   101458407.849 7      3963.334          42.562
R12  23616561.640   126155455.192 7      5884.885          44.187    23616561.700   126155455.193 7      5884.885          44.000    23616592.840    98121050.927 7      4577.133          44.375    23616594.280    98121052.920 7      4577.133          43.250
G11  21647939.980   113760695.488 7      4995.124          46.750    21647938.280   113760695.495 6      4995.124          37.375    21647945.560    88644717.088 6      3892.305          37.500    21647946.020    88644724.096 7      3892.305          47.937
R17  20276443.640   108503353.224 8      4875.818          49.437    20276446.260   108503353.239 8      4875.818          48.625    20276458.700    84391555.728 7      3792.303          47.125    20276458.260    84391552.732 7      3792.303          47.187
R24  19695784.700   105322200.557 8       530.154          49.875    19695784.760   105322200.563 8       530.154          49.062    19695797.440    81917318.448 7       412.342          46.812    19695797.680    81917320.449 7       412.342          47.000
G17  24087115.140   126578616.889 6      -324.295          39.375    24087113.680   126578616.894 6      -324.295          36.312    24087133.580    98632739.973 5      -252.698          35.812    24087133.840    98632744.957 7      -252.698          42.437
R11  23175728.840   123844082.591 7      3971.591          43.250    23175728.420   123844082.592 7      3971.591          42.750    23175750.320    96323260.477 7      3089.015          44.125    23175750.700    96323261.480 7      3089.015          45.875
G20  22515912.700   118321925.416 7      4805.908          44.062    22515910.860   118321925.424 5      4805.908          32.625    22515922.120    92198938.104 5      3744.863          32.625
R01  21177397.940   113205308.557 7       588.924          45.375    21177396.860   113205308.571 7       588.924          44.375    21177413.000    88048640.006 7       458.052          43.062    21177411.680    88048641.005 6       458.052          41.375
R18  24073803.560   128507603.112 7      6854.002          43.187    24073804.080   128507603.105 7      6854.002          42.500    24073821.020    99950420.809 7      5330.890          44.125    24073821.140    99950417.812 7      5330.890          43.187
G06  20295142.900   106651690.487 8      2187.505          49.375    20295141.880   106651690.498 8      2187.505          50.312    20295150.940    83105241.488 8      1704.550          49.312    20295151.680    83105254.491 8      1704.550          49.750
> 2024 10 07 10 24 12.0000000  0 19
R23  23699122.240   126774282.679 5     -1774.977          34.562    23699119.180   126774282.683 5     -1774.977          34.375
G09  21972853.760   115468120.705 7        51.187          44.750    21972852.700   115468120.707 7        51.187          44.812    21972864.320    89975196.067 7        39.886          44.437    21972864.140    89975196.070 7        39.886          46.500
R02  20429643.540   109016493.631 8      2666.769          49.375    20429642.020   109016493.627 7      2666.769          47.187    20429653.800    84790651.084 7      2074.154          46.125    20429654.540    84790652.079 7      2074.154          46.625
G30  21829621.280   114715439.024 7      4867.524          46.250    21829620.140   114715439.029 7      4867.524          45.687    21829632.540    89388701.678 7      3792.876          45.500    21829633.140    89388710.676 7      3792.876          46.812
G19  22807478.620   119854097.651 7      -480.931          43.625    22807476.040   119854097.659 5      -480.931          32.937    22807488.020    93392802.884 5      -374.751          32.937
G04  24789222.400   130268216.179 6      -510.304          40.375    24789221.640   130268216.189 4      -510.304          24.750    24789241.920   101507729.924 4      -397.639          24.437    24789241.640   101507769.851 6      -397.639          41.750
R03  23096356.000   123636615.790 7      4754.158          45.375    23096357.620   123636615.829 7      4754.158          43.437    23096377.000    96161894.204 6      3697.678          41.375    23096377.180    96161894.200 6      3697.678          41.687
G07  21784605.920   114478829.851 7      2950.962          46.125    21784604.300   114478829.851 7      2950.962          44.062    21784613.340    89204291.455 7      2299.451          44.000    21784613.500    89204346.461 7      2299.451          47.000
G05  24776199.480   130199805.951 7      5086.042          43.187    24776197.920   130199805.961 6      5086.042          38.375    24776211.860   101454434.686 6      3963.150          38.687    24776212.920   101454444.692 7      3963.150          42.187
R12  23615460.000   126149570.565 7      5884.415          44.187    23615460.160   126149570.569 7      5884.415          44.000    23615491.680    98116474.007 7      4576.767          42.375    23615492.780    98116475.994 7      4576.767          42.375
G11  21646989.440   113755700.771 7      4994.425          46.125    21646987.760   113755700.779 6      4994.425          38.187    21646995.000    88640825.103 6      3891.760          37.875    21646995.480    88640832.105 8      3891.760          48.750
R17  20275532.940   108498478.054 7      4874.705          47.875    20275535.400   108498478.064 7      4874.705          46.750    20275547.540    84387763.923 7      3791.437          46.312    20275547.520    84387760.923 7      3791.437          46.937
R24  19695685.980   105321670.972 8       529.190          48.750    19695685.580   105321670.979 7       529.190          47.500    19695698.340    81916906.540 7       411.592          46.250    19695698.400    81916908.541 7       411.592          46.312
G17  24087176.740   126578941.521 6      -324.604          40.250    24087175.520   126578941.526 5      -324.604          35.062    24087195.360    98632992.913 5      -252.939          35.375    24087195.640    98632997.901 6      -252.939          41.937
R11  23174985.740   123840111.500 7      3970.627          42.812    23174985.620   123840111.504 7      3970.627          42.937    23175007.300    96320171.849 7      3088.265          44.500    23175007.640    96320172.856 7      3088.265          45.125
G20  22514998.400   118317119.715 7      4805.674          43.750    22514996.300   118317119.725 5      4805.674          32.625    22515007.600    92195193.406 5      3744.681          32.625
R01  21177287.720   113204719.868 7       588.469          43.875    21177286.520   113204719.866 7       588.469          42.750    21177302.680    88048182.118 6       457.698          41.687    21177301.600    88048183.112 6       457.698          41.375
R18  24072520.300   128500749.465 7      6853.572          43.187    24072520.120   128500749.448 7      6853.572          42.500    24072537.040    99945090.170 7      5330.556          42.750    24072537.100    99945087.175 7      5330.556          43.250
G06  20294726.560   106649503.447 8      2186.631          48.687    20294725.680   106649503.452 8      2186.631          48.187    20294734.760    83103537.292 8      1703.868          48.312    20294735.720    83103550.296 8      1703.868          50.437
> 2024 10 07 10 24 13.0000000  0 19
R23  23699453.120   126776057.392 5     -1774.591          34.687    23699450.600   126776057.359 5     -1774.591          34.375
G09  21972843.820   115468069.350 7        51.182          43.875    21972842.900   115468069.355 7        51.182          44.437    21972854.580    89975156.042 7        39.882          44.375    21972854.320    89975156.043 7        39.882          47.562
R02  20429143.820   109013826.712 8      2666.717          49.250    20429142.260   109013826.708 7      2666.717          47.375    20429154.040    84788576.812 7      2074.114          46.500    20429154.680    84788577.807 7      2074.114          46.750
G30  21828695.100   114710571.382 7      4867.331          45.437    21828693.760   114710571.389 7      4867.331          45.437    21828706.240    89384908.714 7      3792.726          45.125    21828707.080    89384917.713 8      3792.726          48.312
G19  22807570.420   119854578.453 7      -480.856          44.000    22807567.620   119854578.458 5      -480.856          32.937    22807579.560    93393177.528 5      -374.693          32.937
G04  24789319.200   130268726.329 6      -510.142          39.750    24789318.560   130268726.340 4      -510.142          24.750    24789338.880   101508127.428 4      -397.513          24.437    24789338.880   101508167.343 6      -397.513          41.750
R03  23095467.980   123631861.461 7      4754.145          43.625    23095469.540   123631861.498 7      4754.145          43.437    23095488.660    96158196.387 6      3697.668          41.375    23095489.120    96158196.387 6      3697.668          41.500
G07  21784044.340   114475878.886 7      2950.678          46.937    21784042.580   114475878.891 7      2950.678          45.937    21784051.780    89201992.005 7      2299.230          45.812    21784051.840    89202047.007 8      2299.230          48.000
G05  24775231.520   130194719.736 7      5086.266          43.375    24775229.980   130194719.746 6      5086.266          39.062    24775244.140   101450471.404 6      3963.325          39.375    24775245.000   101450481.408 7      3963.325          42.500
R12  23614358.700   126143685.804 6      5884.723          41.812    23614358.440   126143685.797 7      5884.723          42.687    23614390.480    98111896.982 7      4577.007          43.437    23614390.980    98111898.973 7      4577.007          43.375
G11  21646038.980   113750706.317 7      4994.240          45.562    21646037.280   113750706.327 6      4994.240          37.812    21646044.500    88636933.321 6      3891.615          37.750    21646045.140    88636940.319 8      3891.615          50.437
R17  20274622.240   108493603.524 8      4874.155          48.000    20274624.460   108493603.528 7      4874.155          47.312    20274636.800    84383972.613 8      3791.009          48.937    20274636.500    84383969.611 8      3791.009          49.000
R24  19695586.860   105321142.104 7       528.371          46.875    19695586.760   105321142.111 7       528.371          47.125    19695599.580    81916495.190 8       410.955          48.250    19695599.520    81916497.195 8       410.955          48.062
G17  24087238.820   126579265.941 6      -324.282          39.375    24087237.100   126579265.943 5      -324.282          35.062    24087257.000    98633245.685 5      -252.688          34.750    24087257.880    98633250.669 6      -252.688          41.937
R11  23174242.400   123836140.885 7      3970.196          42.812    23174243.020   123836140.897 7      3970.196          42.000    23174264.280    96317083.609 7      3087.931          44.750    23174264.660    96317084.614 7      3087.931          45.000
G20  22514083.580   118312313.946 7      4805.582          43.250    22514081.840   118312313.953 5      4805.582          32.312    22514093.140    92191448.651 5      3744.609          32.250
R01  21177177.860   113204131.077 7       588.644          43.187    21177176.360   113204131.073 7       588.644          42.750    21177192.940    88047724.157 7       457.834          42.312    21177191.540    88047725.149 6       457.834          41.750
R18  24071236.320   128493895.875 6      6853.510          41.875    24071236.220   128493895.859 7      6853.510          42.000    24071252.980    99939759.583 7      5330.508          43.437    24071253.080    99939756.586 7      5330.508          43.375
G06  20294310.580   106647316.884 7      2186.210          47.875    20294309.620   106647316.887 8      2186.210          48.000    20294318.680    83101833.473 7      1703.540          47.750    20294319.660    83101846.475 8      1703.540          51.000
> 2024 10 07 10 24 14.0000000  0 19
R23  23699785.800   126777832.336 5     -1775.021          34.687    23699781.660   126777832.329 5     -1775.021          34.375
G09  21972834.220   115468018.255 7        50.986          45.000    21972833.140   115468018.260 7        50.986          46.312    21972844.880    89975116.220 7        39.729          46.125    21972844.680    89975116.220 7        39.729          47.937
R02  20428644.180   109011160.233 8      2666.345          49.062    20428642.600   109011160.229 8      2666.345          48.187    20428654.380    84786502.880 8      2073.824          49.187    20428655.220    84786503.881 8      2073.824          49.562
G30  21827768.980   114705704.239 7      4866.992          46.000    21827767.580   114705704.238 7      4866.992          47.250    21827780.160    89381116.135 7      3792.461          46.812    21827780.840    89381125.134 7      3792.461          47.500
G19  22807661.680   119855059.522 7      -481.103          44.937    22807659.140   119855059.527 5      -481.103          32.437    22807671.060    93393552.381 5      -374.886          32.937
G04  24789416.220   130269236.515 6      -510.181          40.125    24789415.580   130269236.522 4      -510.181          24.750    24789435.760   101508524.960 4      -397.544          24.875    24789435.700   101508564.891 6      -397.544          41.812
R03  23094579.960   123627107.548 7      4753.778          42.937    23094581.420   123627107.582 6      4753.778          41.875    23094600.440    96154498.911 6      3697.383          41.875    23094601.060    96154498.905 7      3697.383          42.000
G07  21783483.180   114472928.591 7      2950.033          46.937    21783481.340   114472928.598 7      2950.033          46.187    21783490.400    89199693.076 7      2298.727          46.187    21783490.480    89199748.082 7      2298.727          47.500
G05  24774263.280   130189633.582 7      5086.297          44.187    24774262.040   130189633.589 6      5086.297          39.125    24774276.320   101446508.164 6      3963.348          38.937    24774276.700   101446518.166 7      3963.348          43.062
R12  23613257.080   126137801.177 7      5884.522          42.062    23613256.580   126137801.184 7      5884.522          42.437    23613289.520    98107320.089 7      4576.850          43.937    23613289.320    98107322.074 7      4576.850          45.000
G11  21645088.620   113745712.381 7      4993.724          47.062    21645086.920   113745712.388 6      4993.724          38.250    21645094.300    88633041.937 6      3891.213          38.250    21645094.720    88633048.938 8      3891.213          48.562
R17  20273711.640   108488729.823 7      4873.426          46.750    20273713.800   108488729.830 7      4873.426          46.187    20273725.960    84380181.961 8      3790.442          50.562    20273725.800    84380178.957 8      3790.442          50.875
R24  19695487.980   105320614.118 8       527.612          48.000    19695487.960   105320614.122 7       527.612          47.437    19695500.760    81916084.526 8       410.365          49.812    19695500.980    81916086.523 8       410.365          50.375
G17  24087300.240   126579590.442 6      -324.648          39.750    24087298.840   126579590.439 5      -324.648          34.812    24087318.760    98633498.516 5      -252.972          34.750    24087319.120    98633503.502 6      -252.972          41.875
R11  23173499.100   123832171.018 7      3969.548          42.500    23173499.780   123832171.032 7      3969.548          42.000    23173521.420    96313995.933 7      3087.426          46.500    23173521.840    96313996.944 7      3087.426          46.500
G20  22513169.300   118307508.258 7      4805.624          43.875    22513167.240   118307508.271 5      4805.624          32.312    22513178.520    92187703.963 5      3744.642          32.250
R01  21177067.900   113203542.417 7       588.665          42.687    21177066.140   113203542.429 7       588.665          42.500    21177082.520    88047266.311 7       457.850          42.500    21177081.320    88047267.303 7       457.850          42.750
R18  24069952.360   128487042.572 6      6853.204          41.875    24069952.320   128487042.568 6      6853.204          41.000    24069968.980    99934429.230 7      5330.270          45.062    24069969.440    99934426.231 7      5330.270          45.312
G06  20293894.780   106645131.026 8      2185.582          48.687    20293893.720   106645131.031 8      2185.582          50.250    20293902.760    83100130.207 8      1703.051          51.312    20293903.360    83100143.211 8      1703.051          51.375
> 2024 10 07 10 24 15.0000000  0 19
R23  23700116.680   126779607.502 5     -1775.249          34.687    23700113.220   126779607.466 5     -1775.249          34.375
G09  21972824.700   115467967.407 7        50.611          45.562    21972823.540   115467967.415 7        50.611          45.125    21972835.140    89975076.596 7        39.437          44.812    21972835.100    89975076.593 7        39.437          46.562
R02  20428144.160   109008494.229 8      2665.765          48.750    20428143.080   109008494.227 8      2665.765          48.125    20428154.680    84784429.319 7      2073.373          47.187    20428155.560    84784430.320 7      2073.373          47.812
G30  21826842.900   114700837.603 7      4866.352          46.812    21826841.460   114700837.605 7      4866.352          46.187    21826853.880    89377323.953 7      3791.963          45.937    21826854.860    89377332.958 7      3791.963          47.312
G19  22807753.300   119855540.855 7      -481.559          44.375    22807750.660   119855540.860 5      -481.559          32.437    22807762.720    93393927.445 5      -375.241          32.812
G04  24789513.400   130269746.752 6      -510.281          39.812    24789512.720   130269746.762 4      -510.281          24.625    24789532.740   101508922.534 4      -397.622          24.875    24789532.560   101508962.446 6      -397.622          41.812
R03  23093692.100   123622354.041 7      4753.264          42.937    23093692.960   123622354.077 6      4753.264          41.875    23093712.720    96150801.739 6      3696.983          41.187    23093712.900    96150801.743 7      3696.983          42.000
G07  21782921.660   114469978.937 7      2949.271          46.875    21782920.000   114469978.944 7      2949.271          45.500    21782929.140    89197394.646 7      2298.133          45.187    21782929.380    89197449.650 7      2298.133          47.312
G05  24773295.600   130184547.464 7      5086.054          43.000    24773294.240   130184547.471 6      5086.054          38.562    24773308.460   101442544.960 6      3963.159          38.750    24773308.940   101442554.968 7      3963.159          43.062
R12  23612155.420   126131916.671 7      5884.416          42.062    23612154.980   126131916.664 7      5884.416          42.250    23612188.040    98102743.251 7      4576.768          44.125    23612187.940    98102745.244 7      4576.768          44.625
G11  21644138.440   113740718.920 7      4993.211          46.000    21644136.740   113740718.927 6      4993.211          38.000    21644144.120    88629150.927 6      3890.814          37.937    21644144.300    88629157.931 8      3890.814          49.000
R17  20272801.060   108483856.994 7      4872.336          47.750    20272803.000   108483857.001 7      4872.336          46.875    20272815.420    84376391.979 7      3789.595          47.812    20272815.120    84376388.979 8      3789.595          48.500
R24  19695389.400   105320087.023 8       526.613          48.375    19695389.540   105320087.029 7       526.613          46.937    19695402.160    81915674.557 8       409.588          48.062    19695402.540    81915676.550 8       409.588          48.062
G17  24087362.180   126579914.877 6      -324.370          39.250    24087360.700   126579914.872 5      -324.370          35.000    24087380.620    98633751.295 5      -252.756          34.812    24087380.820    98633756.282 6      -252.756          41.937
R11  23172756.360   123828201.867 7      3968.746          42.875    23172757.060   123828201.879 7      3968.746          42.062    23172778.620    96310908.818 7      3086.803          45.687    23172779.040    96310909.826 7      3086.803          45.937
G20  22512254.760   118302702.686 7      4805.532          42.312    22512252.620   118302702.698 5      4805.532          32.750    22512263.940    92183959.368 5      3744.570          32.250
R01  21176957.260   113202953.931 7       588.345          42.687    21176956.020   113202953.940 7       588.345          42.062    21176972.440    88046808.599 7       457.602          42.500    21176971.420    88046809.587 7       457.602          42.625
R18  24068668.440   128480189.561 6      6852.899          40.437    24068668.660   128480189.548 6      6852.899          41.000    24068685.500    99929099.085 7      5330.033          43.750    24068685.400    99929096.086 7      5330.033          43.937
G06  20293478.720   106642945.880 8      2184.762          49.000    20293477.880   106642945.879 8      2184.762          49.750    20293486.880    83098427.488 8      1702.412          49.562    20293487.720    83098440.487 8      1702.412          51.375
> 2024 10 07 10 24 16.0000000  0 19
R23  23700449.600   126781382.619 5     -1775.287          34.687    23700445.540   126781382.599 5     -1775.287          34.375
G09  21972814.820   115467916.875 7        50.319          45.062    21972813.840   115467916.882 7        50.319          45.062    21972825.440    89975037.216 7        39.210          44.812    21972825.480    89975037.213 7        39.210          46.625
R02  20427644.920   109005828.724 8      2665.284          48.687    20427643.500   109005828.720 7      2665.284          47.875    20427655.240    84782356.140 7      2072.998          47.250    20427655.980    84782357.143 7      2072.998          47.000
G30  21825916.800   114695971.364 7      4865.814          45.750    21825915.520   114695971.369 7      4865.814          45.437    21825928.020    89373532.085 7      3791.543          45.250    21825928.780    89373541.094 7      3791.543          47.000
G19  22807845.000   119856022.295 7      -481.609          43.562    22807842.180   119856022.297 5      -481.609          32.625    22807854.280    93394302.585 5      -375.279          32.812
G04  24789610.900   130270257.066 6      -510.417          40.750    24789609.780   130270257.076 4      -510.417          24.625    24789629.860   101509320.161 4      -397.728          24.875    24789628.940   101509360.104 6      -397.728          40.312
R03  23092804.160   123617600.901 7      4752.829          42.500    23092804.840   123617600.940 6      4752.829          41.812    23092824.280    96147104.875 6      3696.645          41.187    23092824.800    96147104.877 6      3696.645          41.250
G07  21782360.480   114467029.871 7      2948.562          46.187    21782358.860   114467029.879 7      2948.562          44.875    21782367.780    89195096.671 7      2297.581          45.000    21782367.980    89195151.673 7      2297.581          47.375
G05  24772327.640   130179461.462 7      5086.072          43.937    24772326.580   130179461.464 6      5086.072          39.250    24772340.440   101438581.827 6      3963.173          39.187    24772341.220   101438591.821 7      3963.173          42.437
R12  23611053.820   126126032.137 7      5884.233          42.687    23611053.580   126126032.136 7      5884.233          42.250    23611086.540    98098166.408 7      4576.626          42.625    23611085.960    98098168.403 7      4576.626          44.062
G11  21643188.280   113735726.014 7      4992.688          46.187    21643186.620   113735726.024 6      4992.688          37.625    21643194.000    88625260.357 6      3890.406          37.250    21643194.360    88625267.353 8      3890.406          48.750
R17  20271890.220   108478985.097 7      4871.385          46.125    20271892.220   108478985.112 7      4871.385          46.812    20271904.900    84372602.730 8      3788.855          48.437    20271904.340    84372599.729 8      3788.855          48.062
R24  19695291.000   105319560.732 7       525.733          46.875    19695290.860   105319560.731 7       525.733          46.937    19695303.720    81915265.201 7       408.904          47.875    19695303.760    81915267.194 7       408.904          47.437
G17  24087424.180   126580239.223 6      -324.324          39.250    24087422.480   126580239.212 5      -324.324          35.000    24087442.500    98634004.005 5      -252.720          34.625    24087442.580    98634008.995 6      -252.720          41.937
R11  23172013.700   123824233.389 7      3967.938          43.187    23172014.760   123824233.404 7      3967.938          42.062    23172036.400    96307822.234 7      3086.174          45.250    23172036.500    96307823.249 7      3086.174          45.500
G20  22511340.040   118297897.323 7      4805.363          42.000    22511338.100   118297897.334 5      4805.363          32.750    22511349.460    92180214.938 5      3744.439          32.437
R01  21176847.420   113202365.669 7       588.166          43.062    21176845.820   113202365.678 7       588.166          42.062    21176862.500    88046351.046 7       457.463          42.125    21176860.920    88046352.032 7       457.463          42.125
R18  24067384.960   128473336.931 6      6852.547          40.750    24067384.660   128473336.924 6      6852.547          41.187    24067401.960    99923769.251 7      5329.759          43.312    24067401.820    99923766.255 7      5329.759          43.750
G06  20293063.060   106640761.417 8      2184.023          48.625    20293062.180   106640761.416 8      2184.023          48.312    20293071.200    83096725.298 8      1701.836          48.562    20293072.060    83096738.302 8      1701.836          50.687
> 2024 10 07 10 24 17.0000000  0 19
R23  23700780.240   126783157.970 5     -1775.267          34.687    23700777.220   126783157.968 5     -1775.267          34.375
G09  21972805.360   115467866.511 7        50.135          44.812    21972804.160   115467866.513 7        50.135          45.250    21972815.840    89974997.955 7        39.066          45.000    21972815.780    89974997.949 7        39.066          47.437
R02  20427145.360   109003163.451 8      2665.100          48.625    20427144.080   109003163.444 7      2665.100          47.625    20427155.580    84780283.142 7      2072.855          47.187    20427156.340    84780284.141 7      2072.855          47.375
G30  21824990.860   114691105.569 7      4865.645          46.375    21824989.620   114691105.574 7      4865.645          46.750    21825001.980    89369740.559 7      3791.412          46.187    21825002.500    89369749.565 7      3791.412          47.937
G19  22807936.560   119856503.911 7      -481.467          43.250    22807933.680   119856503.919 5      -481.467          32.625    22807946.080    93394677.867 5      -375.169          32.500
G04  24789708.060   130270767.348 6      -510.283          40.750    24789706.740   130270767.356 4      -510.283          24.625    24789727.020   101509717.765 4      -397.623          24.875    24789725.820   101509757.710 6      -397.623          40.312
R03  23091916.280   123612847.962 7      4752.865          43.000    23091917.640   123612847.990 6      4752.865          41.812    23091936.620    96143408.153 6      3696.673          40.875    23091937.080    96143408.153 6      3696.673          40.750
G07  21781799.200   114464081.415 7      2948.110          46.750    21781797.720   114464081.412 7      2948.110          45.812    21781806.780    89192799.161 7      2297.229          45.500    21781806.840    89192854.165 8      2297.229          48.250
G05  24771359.980   130174375.352 7      5086.123          44.062    24771358.700   130174375.357 6      5086.123          39.000    24771372.540   101434618.617 6      3963.213          38.937    24771373.240   101434628.614 7      3963.213          42.562
R12  23609952.680   126120147.697 7      5884.465          42.750    23609951.840   126120147.698 7      5884.465          42.500    23609984.660    98093589.636 7      4576.806          43.500    23609984.680    98093591.637 7      4576.806          45.250
G11  21642238.100   113730733.457 7      4992.293          45.375    21642236.560   113730733.467 6      4992.293          38.000    21642244.100    88621370.055 6      3890.099          37.812    21642244.320    88621377.049 8      3890.099          50.125
R17  20270980.280   108474113.970 7      4870.691          46.812    20270981.460   108474113.985 7      4870.691          45.812    20270994.720    84368814.074 8      3788.315          48.437    20270994.460    84368811.073 7      3788.315          47.812
R24  19695192.720   105319035.201 7       525.190          47.500    19695192.300   105319035.194 7       525.190          47.000    19695205.520    81914856.442 7       408.481          47.750    19695205.720    81914858.439 8       408.481          48.062
G17  24087485.740   126580563.533 6      -323.952          39.375    24087484.060   126580563.532 5      -323.952          34.625    24087504.220    98634256.697 5      -252.430          34.750    24087504.200    98634261.689 6      -252.430          41.875
R11  23171271.480   123820265.638 7      3967.284          43.187    23171272.300   123820265.637 7      3967.284          42.062    23171293.740    96304736.199 7      3085.665          45.125    23171294.640    96304737.216 7      3085.665          47.000
G20  22510425.680   118293091.917 7      4805.406          43.062    22510423.760   118293091.929 5      4805.406          32.437    22510435.080    92176470.467 5      3744.472          32.437
R01  21176737.180   113201777.461 7       588.043          42.437    21176735.980   113201777.457 6       588.043          41.937    21176752.420    88045893.532 6       457.367          41.750    21176751.320    88045894.514 7       457.367          42.437
R18  24066101.080   128466484.480 6      6852.167          40.750    24066101.100   128466484.464 6      6852.167          41.187    24066118.200    99918439.544 7      5329.463          43.687    24066118.160    99918436.548 7      5329.463          43.687
G06  20292647.340   106638577.550 8      2183.587          48.000    20292646.500   106638577.550 8      2183.587          50.500    20292655.600    83095023.578 8      1701.497          50.812    20292656.480    83095036.577 8      1701.497          51.812
> 2024 10 07 10 24 18.0000000  0 19
R23  23701112.720   126784933.269 5     -1775.685          34.687    23701109.660   126784933.286 5     -1775.685          33.687
G09  21972795.900   115467816.378 7        50.169          44.875    21972794.720   115467816.380 7        50.169          45.937    21972806.400    89974958.882 7        39.093          45.500    21972806.240    89974958.874 7        39.093          47.625
R02  20426645.960   109000498.416 8      2664.910          49.250    20426644.920   109000498.406 8      2664.910          48.250    20426656.440    84778210.328 8      2072.708          48.562    20426656.780    84778211.329 8      2072.708          49.125
G30  21824065.020   114686240.037 7      4865.268          46.250    21824063.080   114686240.044 7      4865.268          47.187    21824076.160    89365949.239 7      3791.118          46.937    21824076.480    89365958.246 8      3791.118          48.562
G19  22808028.320   119856985.482 7      -481.896          44.062    22808025.180   119856985.490 5      -481.896          32.437    22808037.700    93395053.113 5      -375.503          32.500
G04  24789804.740   130271277.725 6      -510.161          40.187    24789804.020   130271277.736 4      -510.161          24.625    24789824.340   101510115.445 4      -397.528          24.875    24789823.640   101510155.384 6      -397.528          39.875
R03  23091028.140   123608095.175 7      4752.474          43.000    23091029.640   123608095.201 7      4752.474          42.187    23091048.600    96139711.543 6      3696.369          41.625    23091049.200    96139711.549 6      3696.369          40.750
G07  21781238.280   114461133.445 7      2947.744          46.687    21781236.700   114461133.445 7      2947.744          46.125    21781245.740    89190502.037 7      2296.943          46.062    21781245.900    89190557.041 8      2296.943          48.437
G05  24770392.300   130169289.122 7      5086.257          43.250    24770390.660   130169289.124 6      5086.257          39.000    24770404.680   101430655.320 6      3963.317          38.812    24770405.340   101430665.326 7      3963.317          42.937
R12  23608850.740   126114263.159 7      5884.472          43.375    23608850.240   126114263.162 7      5884.472          42.562    23608882.860    98089012.793 7      4576.812          44.125    23608882.820    98089014.797 7      4576.812          44.937
G11  21641288.260   113725741.270 7      4992.138          44.750    21641286.460   113725741.278 6      4992.138          37.500    21641293.840    88617480.041 6      3889.977          37.062    21641294.380    88617487.035 8      3889.977          49.625
R17  20270069.980   108469243.624 7      4870.029          45.875    20270071.020   108469243.634 7      4870.029          46.062    20270084.480    84365026.017 8      3787.800          50.375    20270084.260    84365023.016 8      3787.800          50.000
R24  19695094.640   105318510.362 8       524.296          48.125    19695094.320   105318510.363 7       524.296          47.312    19695107.600    81914448.240 8       407.786          49.875    19695107.460    81914450.237 8       407.786          50.437
G17  24087547.460   126580887.590 6      -324.258          39.750    24087545.800   126580887.594 5      -324.258          35.312    24087565.840    98634509.191 5      -252.668          34.750    24087566.120    98634514.185 7      -252.668          42.625
R11  23170529.480   123816298.528 7      3966.955          42.937    23170529.280   123816298.529 7      3966.955          42.187    23170551.320    96301650.678 7      3085.409          45.750    23170552.500    96301651.684 7      3085.409          46.812
G20  22509511.580   118288286.518 7      4805.553          43.062    22509509.340   118288286.533 5      4805.553          32.437    22509520.580    92172726.007 5      3744.586          32.375
R01  21176627.500   113201189.357 7       588.260          42.125    21176626.440   113201189.358 7       588.260          42.062    21176642.760    88045436.105 7       457.536          42.375    21176641.380    88045437.099 7       457.536          42.500
R18  24064817.020   128459632.202 6      6852.293          40.250    24064817.080   128459632.211 6      6852.293          41.187    24064834.100    99913109.989 7      5329.561          43.812    24064834.300    99913106.992 7      5329.561          44.500
G06  20292231.800   106636394.217 8      2183.026          48.437    20292230.860   106636394.219 8      2183.026          50.812    20292240.060    83093322.275 8      1701.059          50.937    20292240.920    83093335.275 8      1701.059          52.000
> 2024 10 07 10 24 19.0000000  0 19
R23  23701445.760   126786708.780 5     -1775.241          34.687    23701442.620   126786708.762 5     -1775.241          33.687
G09  21972786.180   115467766.118 7        50.222          44.750    21972785.120   115467766.129 7        50.222          45.500    21972796.880    89974919.717 7        39.134          45.250    21972796.600    89974919.711 7        39.134          47.125
R02  20426146.700   108997833.484 8      2664.846          49.000    20426145.460   108997833.485 7      2664.846          47.875    20426157.080    84776137.610 8      2072.658          49.437    20426157.620    84776138.611 8      2072.658          48.937
G30  21823139.140   114681374.969 7      4864.946          45.312    21823137.180   114681374.977 7      4864.946          46.687    21823150.260    89362158.286 7      3790.867          46.687    21823150.640    89362167.286 8      3790.867          48.125
G19  22808119.960   119857467.359 7      -481.815          43.437    22808116.760   119857467.364 5      -481.815          32.437    22808129.260    93395428.593 5      -375.440          32.562
G04  24789901.720   130271787.711 6      -509.878          39.250    24789901.100   130271787.724 4      -509.878          24.625    24789921.460   101510512.818 4      -397.308          24.875    24789921.600   101510552.742 6      -397.308          39.875
R03  23090140.420   123603342.771 7      4752.265          43.750    23090142.220   123603342.802 7      4752.265          42.937    23090160.920    96136015.237 6      3696.206          41.625    23090161.280    96136015.241 6      3696.206          41.562
G07  21780677.240   114458185.922 7      2947.361          46.125    21780675.680   114458185.925 7      2947.361          45.937    21780684.780    89188205.268 7      2296.645          45.937    21780685.080    89188260.272 8      2296.645          48.500
G05  24769424.420   130164202.770 7      5086.463          43.312    24769422.660   130164202.778 6      5086.463          39.562    24769436.880   101426691.927 6      3963.478          39.000    24769437.540   101426701.933 7      3963.478          43.312
R12  23607749.160   126108378.695 7      5884.532          43.375    23607748.840   126108378.680 7      5884.532          42.562    23607780.760    98084435.998 7      4576.858          44.062    23607781.380    98084438.002 7      4576.858          44.750
G11  21640338.400   113720749.357 7      4991.838          45.375    21640336.580   113720749.364 6      4991.838          37.312    21640343.940    88613590.239 6      3889.744          36.875    21640344.500    88613597.231 8      3889.744          49.875
R17  20269160.080   108464373.883 7      4869.445          46.125    20269160.840   108464373.890 7      4869.445          45.750    20269174.480    84361238.438 8      3787.346          50.000    20269174.200    84361235.442 8      3787.346          49.937
R24  19694996.380   105317986.438 7       523.660          46.875    19694996.500   105317986.442 7       523.660          47.437    19695009.840    81914040.737 8       407.291          50.062    19695009.580    81914042.734 8       407.291          50.125
G17  24087609.380   126581211.733 6      -324.022          40.687    24087607.620   126581211.736 6      -324.022          36.625    24087627.360    98634761.754 5      -252.484          35.687    24087627.480    98634766.738 7      -252.484          43.000
R11  23169787.380   123812331.806 7      3966.279          42.375    23169787.200   123812331.821 6      3966.279          41.625    23169809.080    96298565.464 7      3084.884          46.187    23169810.100    96298566.468 7      3084.884          46.937
G20  22508597.060   118283481.006 7      4805.606          42.750    22508594.820   118283481.019 5      4805.606          32.625    22508606.020    92168981.450 5      3744.628          32.375
R01  21176517.920   113200601.010 7       588.292          42.125    21176516.660   113200601.017 7       588.292          42.062    21176532.520    88044978.494 7       457.561          42.500    21176531.220    88044979.484 7       457.561          42.562
R18  24063533.260   128452779.874 6      6852.288          40.250    24063533.200   128452779.877 6      6852.288          40.250    24063550.580    99907780.380 7      5329.558          43.875    24063550.640    99907777.385 7      5329.558          44.250
G06  20291816.560   106634211.449 8      2182.585          48.125    20291815.460   106634211.451 8      2182.585          50.687    20291824.740    83091621.413 8      1700.715          51.625    20291825.580    83091634.420 8      1700.715          51.875
> 2024 10 07 10 24 20.0000000  0 19
R23  23701777.200   126788484.138 5     -1775.350          34.687    23701774.600   126788484.145 5     -1775.350          33.687
G09  21972776.880   115467716.188 7        50.054          44.562    21972775.740   115467716.190 7        50.054          45.312    21972787.420    89974880.794 7        39.003          45.000    21972787.080    89974880.786 7        39.003          46.937
R02  20425647.160   108995168.860 8      2664.527          48.937    20425646.260   108995168.852 7      2664.527          47.687    20425657.840    84774065.116 8      2072.410          48.812    20425658.460    84774066.115 8      2072.410          49.312
G30  21822213.280   114676510.160 7      4864.669          45.625    21822211.580   114676510.162 7      4864.669          46.687    21822224.540    89358367.521 7      3790.651          46.812    21822224.880    89358376.521 8      3790.651          48.250
G19  22808211.360   119857949.140 7      -481.845          43.500    22808208.460   119857949.145 5      -481.845          32.937    22808220.780    93395803.999 5      -375.463          32.562
G04  24789998.920   130272297.833 6      -509.862          38.437    24789997.800   130272297.848 4      -509.862          24.625    24790018.360   101510910.293 4      -397.295          24.875    24790018.720   101510950.203 6      -397.295          40.875
R03  23089252.660   123598590.452 7      4752.223          43.250    23089254.280   123598590.484 7      4752.223          42.937    23089273.200    96132319.006 6      3696.174          41.625    23089273.500    96132319.004 6      3696.174          41.312
G07  21780116.700   114455238.964 7      2946.767          46.500    21780115.260   114455238.966 7      2946.767          46.062    21780123.720    89185908.929 7      2296.182          45.625    21780124.280    89185963.935 8      2296.182          48.062
G05  24768456.240   130159116.350 7      5086.579          42.750    24768454.700   130159116.355 6      5086.579          38.937    24768469.020   101422728.483 6      3963.568          39.125    24768469.120   101422738.487 7      3963.568          43.000
R12  23606647.760   126102494.086 7      5884.646          42.750    23606646.980   126102494.085 7      5884.646          42.562    23606679.000    98079859.114 7      4576.947          44.687    23606679.960    98079861.115 7      4576.947          44.625
G11  21639388.200   113715757.875 7      4991.370          45.625    21639386.440   113715757.882 6      4991.370          37.687    21639394.140    88609700.776 6      3889.379          37.062    21639394.700    88609707.768 8      3889.379          49.875
R17  20268250.080   108459504.961 7      4868.645          46.125    20268251.240   108459504.979 7      4868.645          45.437    20268264.480    84357451.501 8      3786.724          49.625    20268264.000    84357448.502 8      3786.724          49.625
R24  19694899.200   105317463.155 8       522.983          48.000    19694898.820   105317463.154 8       522.983          48.187    19694911.960    81913633.727 8       406.765          50.375    19694911.520    81913635.732 8       406.765          50.500
G17  24087671.020   126581535.538 6      -323.752          40.375    24087669.120   126581535.535 6      -323.752          37.000    24087689.040    98635014.041 6      -252.274          36.625    24087689.100    98635019.030 7      -252.274          42.937
R11  23169045.200   123808365.805 7      3965.881          42.375    23169044.780   123808365.812 6      3965.881          41.625    23169067.280    96295480.782 7      3084.574          45.812    23169067.740    96295481.784 7      3084.574          46.375
G20  22507682.580   118278675.552 7      4805.556          43.187    22507680.220   118278675.559 5      4805.556          32.625    22507691.680    92165236.942 5      3744.589          32.250
R01  21176407.420   113200012.837 7       588.316          42.750    21176406.900   113200012.840 6       588.316          41.750    21176422.400    88044521.013 7       457.579          42.562    21176421.280    88044522.007 7       457.579          42.437
R18  24062249.660   128445927.874 6      6852.086          39.875    24062249.920   128445927.896 6      6852.086          40.250    24062266.700    99902451.038 7      5329.400          43.937    24062267.200    99902448.045 7      5329.400          43.812
G06  20291401.360   106632029.229 8      2181.997          48.812    20291400.380   106632029.232 8      2181.997          50.437    20291409.440    83089920.982 8      1700.258          51.187    20291410.280    83089933.984 8      1700.258          52.250
> 2024 10 07 10 24 21.0000000  0 19
R23  23702109.060   126790259.796 5     -1775.755          34.687    23702106.240   126790259.805 5     -1775.755          33.687
G09  21972767.300   115467666.210 7        49.957          43.812    21972766.160   115467666.209 7        49.957          44.875    21972777.960    89974841.846 7        38.928          44.187    21972777.520    89974841.840 7        38.928          46.750
R02  20425147.980   108992504.448 8      2664.290          48.500    20425146.940   108992504.444 8      2664.290          48.062    20425158.660    84771992.800 7      2072.226          47.437    20425158.980    84771993.793 7      2072.226          47.437
G30  21821287.880   114671645.802 7      4864.221          45.875    21821285.980   114671645.804 7      4864.221          46.125    21821298.900    89354577.122 7      3790.302          45.750    21821299.320    89354586.119 7      3790.302          47.187
G19  22808303.100   119858431.248 7      -482.149          43.625    22808300.360   119858431.253 5      -482.149          32.937    22808312.440    93396179.653 5      -375.701          33.500
G04  24790095.440   130272807.655 6      -509.846          37.187    24790094.940   130272807.666 4      -509.846          24.625    24790115.260   101511307.541 4      -397.283          24.875    24790115.980   101511347.457 6      -397.283          41.062
R03  23088364.620   123593838.509 7      4751.812          43.750    23088366.200   123593838.545 7      4751.812          42.562    23088385.860    96128623.069 6      3695.854          41.625    23088385.860    96128623.071 6      3695.854          41.312
G07  21779555.920   114452292.458 7      2946.239          46.812    21779554.760   114452292.463 7      2946.239          46.062    21779563.080    89183612.954 7      2295.771          46.187    21779563.400    89183667.960 7      2295.771          46.750
G05  24767488.220   130154029.870 7      5086.514          42.687    24767486.640   130154029.878 6      5086.514          39.000    24767500.900   101418764.994 6      3963.517          38.937    24767501.100   101418775.002 7      3963.517          43.000
R12  23605546.240   126096609.561 7      5884.573          43.250    23605545.840   126096609.551 7      5884.573          42.875    23605577.420    98075282.273 7      4576.890          44.875    23605578.200    98075284.270 7      4576.890          44.062
G11  21638438.440   113710766.689 7      4990.905          45.375    21638436.720   113710766.697 6      4990.905          36.937    21638444.560    88605811.539 6      3889.017          36.250    21638444.840    88605818.533 8      3889.017          48.562
R17  20267340.560   108454636.710 7      4867.838          46.937    20267342.380   108454636.728 7      4867.838          46.062    20267354.720    84353665.084 8      3786.096          49.562    20267354.520    84353662.083 8      3786.096          49.250
R24  19694801.520   105316940.690 7       522.086          46.937    19694801.200   105316940.692 8       522.086          48.062    19694814.200    81913227.368 8       406.067          49.812    19694813.880    81913229.373 8       406.067          50.625
G17  24087732.700   126581859.422 6      -323.737          40.250    24087730.580   126581859.424 6      -323.737          36.500    24087750.760    98635266.397 6      -252.263          36.375    24087750.920    98635271.391 7      -252.263          42.937
R11  23168302.560   123804400.290 7      3965.138          42.062    23168302.820   123804400.300 6      3965.138          41.687    23168325.000    96292396.499 7      3083.996          45.250    23168325.580    96292397.504 7      3083.996          46.750
G20  22506767.980   118273870.003 7      4805.576          42.687    22506765.740   118273870.016 5      4805.576          32.500    22506777.120    92161492.361 5      3744.604          32.250
R01  21176297.500   113199424.500 7       588.173          43.000    21176296.300   113199424.517 7       588.173          42.562    21176312.120    88044063.435 7       457.468          42.562    21176310.980    88044064.418 6       457.468          41.562
R18  24060966.700   128439075.908 6      6852.042          39.875    24060966.860   128439075.925 6      6852.042          39.687    24060983.260    99897121.713 7      5329.366          43.562    24060983.920    99897118.716 7      5329.366          43.625
G06  20290986.160   106629847.609 8      2181.326          49.000    20290985.420   106629847.612 8      2181.326          50.375    20290994.320    83088221.016 8      1699.734          51.562    20290995.240    83088234.018 8      1699.734          51.000
> 2024 10 07 10 24 22.0000000  0 19
R23  23702441.260   126792035.590 5     -1775.846          33.437    23702438.940   126792035.597 5     -1775.846          33.687
G09  21972758.040   115467616.471 7        49.549          44.375    21972756.640   115467616.465 7        49.549          43.687    21972768.480    89974803.076 7        38.610          43.812    21972768.120    89974803.070 7        38.610          45.750
R02  20424648.680   108989840.480 8      2663.714          48.500    20424647.680   108989840.478 8      2663.714          48.187    20424659.420    84769920.823 7      2071.777          45.937    20424659.980    84769921.820 7      2071.777          46.500
G30  21820362.220   114666781.917 7      4863.603          46.000    21820360.520   114666781.922 7      4863.603          45.000    21820373.280    89350787.086 7      3789.820          45.000    21820373.880    89350796.089 7      3789.820          47.187
G19  22808395.020   119858913.552 7      -482.453          43.937    22808392.080   119858913.555 5      -482.453          33.750    22808404.460    93396555.464 5      -375.937          33.500
G04  24790192.360   130273317.454 6      -509.703          37.187    24790191.920   130273317.464 4      -509.703          24.625    24790212.420   101511704.768 3      -397.171          22.187    24790212.760   101511744.679 6      -397.171          41.062
R03  23087477.380   123589086.918 7      4751.370          43.875    23087479.100   123589086.941 7      4751.370          42.937    23087498.320    96124927.379 6      3695.510          41.625    23087498.300    96124927.379 6      3695.510          41.000
G07  21778995.240   114449346.566 7      2945.598          47.187    21778994.160   114449346.571 7      2945.598          44.750    21779002.540    89181317.454 7      2295.271          44.687    21779002.920    89181372.456 7      2295.271          47.062
G05  24766520.380   130148943.408 7      5086.467          43.062    24766518.860   130148943.408 6      5086.467          38.437    24766533.020   101414801.515 6      3963.481          38.875    24766533.420   101414811.521 7      3963.481          42.750
R12  23604444.180   126090725.121 7      5884.313          42.062    23604444.060   126090725.117 7      5884.313          42.250    23604476.320    98070705.510 7      4576.688          43.562    23604476.600    98070707.507 7      4576.688          44.062
G11  21637488.740   113705775.929 7      4990.533          45.000    21637487.080   113705775.937 6      4990.533          36.500    21637494.800    88601922.639 6      3888.727          36.312    21637495.120    88601929.633 8      3888.727          48.812
R17  20266431.200   108449769.292 7      4866.890          46.562    20266432.620   108449769.309 7      4866.890          46.312    20266445.040    84349879.314 7      3785.359          47.687    20266444.900    84349876.313 7      3785.359          47.437
R24  19694703.760   105316419.036 8       521.219          48.125    19694703.540   105316419.037 7       521.219          47.375    19694716.500    81912821.628 7       405.392          47.937    19694716.600    81912823.627 7       405.392          47.812
G17  24087794.380   126582183.334 6      -323.910          40.125    24087792.260   126582183.334 6      -323.910          36.687    24087812.380    98635518.774 6      -252.397          36.312    24087812.360    98635523.766 7      -252.397          42.437
R11  23167561.100   123800435.446 7      3964.320          42.062    23167560.480   123800435.456 6      3964.320          41.687    23167582.960    96289312.740 7      3083.360          44.312    23167583.640    96289313.738 7      3083.360          44.875
G20  22505853.500   118269064.568 7      4805.311          42.687    22505851.360   118269064.575 5      4805.311          32.500    22505862.600    92157747.868 5      3744.398          32.375
R01  21176187.500   113198836.260 7       588.281          43.187    21176186.860   113198836.266 7       588.281          42.562    21176202.140    88043605.896 6       457.552          41.250    21176200.980    88043606.884 6       457.552          41.562
R18  24059682.940   128432224.226 6      6851.641          39.875    24059683.200   128432224.235 6      6851.641          39.687    24059699.820    99891792.600 6      5329.054          41.812    24059700.000    99891789.609 7      5329.054          42.750
G06  20290571.280   106627666.651 8      2180.609          48.437    20290570.300   106627666.654 8      2180.609          48.250    20290579.260    83086521.561 7      1699.176          47.812    20290580.060    83086534.562 8      1699.176          49.812
> 2024 10 07 10 24 23.0000000  0 19
R23  23702773.860   126793811.588 5     -1775.967          33.437    23702771.420   126793811.600 5     -1775.967          33.687
G09  21972748.480   115467566.981 7        49.293          44.187    21972747.320   115467566.984 7        49.293          44.500    21972759.100    89974764.509 7        38.410          44.312    21972758.580    89974764.509 7        38.410          47.125
R02  20424149.720   108987176.979 8      2663.244          48.937    20424148.800   108987176.982 8      2663.244          48.000    20424160.300    84767849.215 7      2071.412          47.562    20424160.640    84767850.210 8      2071.412          48.062
G30  21819436.700   114661918.542 7      4863.085          46.687    21819435.080   114661918.550 7      4863.085          46.812    21819447.860    89346997.452 7      3789.417          46.062    21819448.720    89347006.452 8      3789.417          48.250
G19  22808486.620   119859396.114 7      -482.747          44.000    22808484.000   119859396.117 5      -482.747          33.750    22808496.320    93396931.482 5      -376.166          33.750
G04  24790289.280   130273827.408 6      -510.146          37.375    24790288.620   130273827.424 4      -510.146          24.625    24790309.260   101512102.118 3      -397.516          22.187    24790309.760   101512142.035 6      -397.516          40.187
R03  23086589.600   123584335.727 7      4750.825          43.875    23086590.620   123584335.755 7      4750.825          42.937    23086610.500    96121232.018 6      3695.086          40.687    23086610.880    96121232.018 6      3695.086          40.687
G07  21778435.020   114446401.337 7      2944.926          46.562    21778433.600   114446401.339 7      2944.926          45.500    21778442.100    89179022.468 7      2294.747          45.250    21778442.540    89179077.472 8      2294.747          48.125
G05  24765552.360   130143857.020 7      5086.367          43.125    24765551.000   130143857.022 6      5086.367          38.937    24765565.020   101410838.096 6      3963.403          38.687    24765565.780   101410848.102 7      3963.403          42.625
R12  23603342.620   126084840.780 7      5884.251          42.062    23603342.240   126084840.789 7      5884.251          42.250    23603375.060    98066128.821 7      4576.640          44.500    23603374.980    98066130.820 7      4576.640          45.187
G11  21636539.220   113700785.716 7      4989.901          45.375    21636537.440   113700785.724 6      4989.901          36.687    21636545.000    88598034.163 6      3888.234          36.437    21636545.620    88598041.164 8      3888.234          49.812
R17  20265522.260   108444902.735 7      4866.053          47.312    20265523.060   108444902.755 7      4866.053          46.437    20265535.700    84346094.216 7      3784.708          47.687    20265535.700    84346091.217 7      3784.708          47.812
R24  19694606.300   105315898.301 8       520.274          48.437    19694606.160   105315898.300 8       520.274          48.250    19694619.180    81912416.604 7       404.657          47.875    19694619.560    81912418.599 8       404.657          48.375
G17  24087856.320   126582507.260 6      -324.003          40.750    24087853.980   126582507.254 6      -324.003          36.500    24087873.940    98635771.161 6      -252.470          36.437    24087874.240    98635776.155 7      -252.470          42.375
R11  23166819.200   123796471.337 6      3963.628          41.875    23166818.460   123796471.338 6      3963.628          41.437    23166841.560    96286229.544 7      3082.822          44.937    23166841.600    96286230.540 7      3082.822          45.250
G20  22504939.280   118264259.248 7      4805.196          42.250    22504937.020   118264259.252 5      4805.196          32.500    22504948.180    92154003.462 5      3744.308          32.375
R01  21176077.700   113198248.236 7       587.871          43.187    21176076.860   113198248.243 7       587.871          42.187    21176092.180    88043148.533 6       457.233          41.250    21176091.020    88043149.526 6       457.233          41.500
R18  24058399.400   128425372.840 6      6851.163          39.812    24058400.080   128425372.851 6      6851.163          40.125    24058416.280    99886463.729 7      5328.683          42.375    24058416.700    99886460.734 7      5328.683          43.125
G06  20290156.320   106625486.424 8      2179.803          48.562    20290155.440   106625486.423 8      2179.803          48.937    20290164.340    83084822.678 8      1698.548          48.750    20290164.980    83084835.681 8      1698.548          50.562
> 2024 10 07 10 24 24.0000000  0 19
R23  23703105.820   126795587.815 5     -1776.154          33.437    23703103.840   126795587.833 5     -1776.154          33.687
G09  21972739.120   115467517.752 7        49.269          44.500    21972737.880   115467517.755 7        49.269          45.437    21972749.640    89974726.138 7        38.392          45.250    21972749.220    89974726.140 7        38.392          47.125
R02  20423650.320   108984513.902 8      2663.129          49.000    20423649.680   108984513.902 7      2663.129          47.562    20423660.940    84765777.926 8      2071.322          49.125    20423661.660    84765778.923 8      2071.322          49.375
G30  21818511.300   114657055.656 7      4862.821          46.062    21818509.580   114657055.661 7      4862.821          47.500    21818522.440    89343208.190 7      3789.211          47.125    21818523.540    89343217.198 8      3789.211          48.875
G19  22808578.440   119859878.902 7      -482.721          44.312    22808575.960   119859878.910 5      -482.721          33.875    22808588.440    93397307.673 5      -376.146          33.750
G04  24790386.160   130274337.338 6      -509.929          37.812    24790385.640   130274337.354 3      -509.929          21.250    24790406.240   101512499.450 3      -397.347          22.187    24790406.400   101512539.379 6      -397.347          40.187
R03  23085702.320   123579584.899 7      4750.841          43.125    23085703.580   123579584.933 7      4750.841          42.937    23085722.720    96117536.940 6      3695.099          41.125    23085723.400    96117536.939 6      3695.099          40.687
G07  21777874.740   114443456.733 7      2944.487          47.250    21777873.280   114443456.738 7      2944.487          46.187    21777881.800    89176727.972 7      2294.406          46.500    21777882.080    89176782.976 7      2294.406          47.125
G05  24764584.240   130138770.695 7      5086.401          43.562    24764583.220   130138770.697 6      5086.401          39.125    24764597.340   101406874.718 6      3963.429          39.250    24764597.880   101406884.726 7      3963.429          43.187
R12  23602240.900   126078956.527 7      5884.385          42.000    23602240.900   126078956.531 7      5884.385          42.875    23602273.940    98061552.198 7      4576.744          44.812    23602273.800    98061554.199 7      4576.744          45.687
G11  21635589.480   113695795.955 7      4989.788          45.625    21635588.060   113695795.960 6      4989.788          37.375    21635595.600    88594146.036 6      3888.147          37.125    21635596.160    88594153.032 8      3888.147          48.812
R17  20264612.560   108440037.079 7      4865.397          46.062    20264613.700   108440037.097 7      4865.397          46.250    20264626.320    84342309.817 8      3784.197          49.937    20264626.220    84342306.819 8      3784.197          49.625
R24  19694509.100   105315378.473 7       519.524          47.187    19694509.200   105315378.488 7       519.524          47.500    19694522.140    81912012.295 8       404.074          50.312    19694522.100    81912014.290 8       404.074          51.062
G17  24087918.000   126582831.180 6      -323.744          40.562    24087915.580   126582831.182 6      -323.744          36.625    24087935.580    98636023.546 6      -252.268          36.625    24087935.920    98636028.540 7      -252.268          43.250
R11  23166077.500   123792507.939 7      3963.125          42.062    23166076.800   123792507.940 6      3963.125          41.437    23166099.960    96283146.896 7      3082.431          45.937    23166100.000    96283147.894 7      3082.431          46.437
G20  22504024.700   118259454.033 7      4805.390          42.187    22504022.600   118259454.038 5      4805.390          32.375    22504033.680    92150259.143 5      3744.459          32.375
R01  21175967.800   113197660.293 7       588.096          43.375    21175967.020   113197660.307 7       588.096          42.250    21175982.360    88042691.242 6       457.408          41.937    21175980.740    88042692.230 7       457.408          42.062
R18  24057115.460   128418521.726 6      6851.155          39.812    24057116.340   128418521.724 6      6851.155          40.125    24057132.860    99881135.056 7      5328.676          43.687    24057133.520    99881132.061 7      5328.676          44.562
G06  20289741.640   106623306.864 8      2179.478          50.000    20289740.680   106623306.863 8      2179.478          50.812    20289749.600    83083124.315 8      1698.295          51.312    20289750.220    83083137.317 8      1698.295          52.187
> 2024 10 07 10 24 25.0000000  0 19
R23  23703437.460   126797364.088 5     -1776.227          33.437    23703435.540   126797364.103 5     -1776.227          34.625
G09  21972729.960   115467468.694 7        48.921          44.437    21972728.480   115467468.691 7        48.921          44.812    21972740.380    89974687.903 7        38.120          44.500    21972739.960    89974687.903 7        38.120          46.375
R02  20423151.280   108981851.123 8      2662.541          49.375    20423150.760   108981851.119 8      2662.541          48.187    20423162.000    84763706.870 7      2070.866          47.437    20423162.640    84763707.863 8      2070.866          48.250
G30  21817586.060   114652193.198 7      4862.100          46.250    21817584.260   114652193.200 7      4862.100          46.625    21817597.120    89339419.263 7      3788.650          46.000    21817598.120    89339428.270 8      3788.650          48.312
G19  22808670.520   119860361.864 7      -483.101          44.187    22808668.040   119860361.871 5      -483.101          34.375    22808680.480    93397683.998 5      -376.443          34.062
G04  24790483.580   130274847.269 6      -510.209          37.812    24790482.520   130274847.281 3      -510.209          21.250    24790503.300   101512896.776 3      -397.566          22.187    24790502.920   101512936.703 6      -397.566          40.187
R03  23084815.060   123574834.409 7      4750.314          43.687    23084816.200   123574834.432 7      4750.314          43.187    23084835.360    96113842.108 6      3694.688          41.125    23084835.900    96113842.113 6      3694.688          40.937
G07  21777314.740   114440512.689 7      2943.675          46.562    21777312.920   114440512.696 7      2943.675          45.187    21777321.500    89174433.911 7      2293.773          45.250    21777321.720    89174488.917 7      2293.773          47.375
G05  24763616.560   130133684.309 7      5086.310          43.250    24763615.160   130133684.309 6      5086.310          38.812    24763629.320   101402911.298 6      3963.359          39.125    24763630.260   101402921.304 7      3963.359          42.687
R12  23601139.120   126073072.314 7      5884.061          42.312    23601139.020   126073072.326 7      5884.061          42.125    23601172.440    98056975.617 7      4576.492          44.625    23601172.320    98056977.620 7      4576.492          45.125
G11  21634640.240   113690806.635 7      4989.043          46.437    21634638.720   113690806.640 6      4989.043          37.000    21634646.320    88590258.256 6      3887.566          36.812    21634646.960    88590265.252 8      3887.566          49.625
R17  20263703.240   108435172.235 7      4864.326          46.062    20263704.940   108435172.255 7      4864.326          46.062    20263717.340    84338526.047 8      3783.365          49.062    20263716.940    84338523.051 8      3783.365          49.000
R24  19694411.940   105314859.482 7       518.465          47.562    19694412.000   105314859.494 7       518.465          47.750    19694424.980    81911608.627 8       403.251          49.375    19694425.000    81911610.624 8       403.251          49.875
G17  24087979.340   126583155.051 6      -323.921          40.437    24087977.220   126583155.056 6      -323.921          36.937    24087997.200    98636275.894 6      -252.406          36.687    24087997.460    98636280.882 7      -252.406          43.187
R11  23165336.580   123788545.168 7      3962.389          42.062    23165335.160   123788545.156 6      3962.389          41.375    23165358.420    96280064.735 7      3081.858          45.625    23165358.320    96280065.735 7      3081.858          45.500
G20  22503110.740   118254648.870 7      4805.063          42.875    22503108.100   118254648.878 5      4805.063          32.375    22503119.380    92146514.867 5      3744.205          32.187
R01  21175857.560   113197072.445 7       587.712          43.125    21175857.420   113197072.455 7       587.712          42.250    21175872.400    88042234.013 6       457.110          41.937    21175871.140    88042235.003 7       457.110          42.125
R18  24055832.340   128411670.812 6      6850.581          38.125    24055833.160   128411670.832 6      6850.581          40.125    24055849.400    99875806.565 7      5328.230          43.312    24055849.980    99875803.569 7      5328.230          43.812
G06  20289327.060   106621127.937 8      2178.538          49.312    20289326.020   106621127.942 8      2178.538          49.250    20289334.920    83081426.448 8      1697.562          49.500    20289335.600    83081439.453 8      1697.562          51.500
> 2024 10 07 10 24 26.0000000  0 19
R23  23703769.420   126799140.602 5     -1776.436          33.437    23703767.780   126799140.601 5     -1776.436          34.625
G09  21972720.500   115467419.888 7        48.686          43.812    21972719.140   115467419.893 7        48.686          44.625    21972730.920    89974649.870 7        37.937          44.062    21972730.580    89974649.874 7        37.937          46.625
R02  20422652.100   108979188.660 8      2662.399          49.500    20422651.960   108979188.653 7      2662.399          47.750    20422663.140    84761636.061 7      2070.754          47.437    20422663.800    84761637.056 7      2070.754          47.500
G30  21816660.980   114647331.194 7      4861.774          46.250    21816659.000   114647331.199 7      4861.774          46.000    21816671.920    89335630.695 7      3788.396          45.875    21816672.880    89335639.704 8      3788.396          48.062
G19  22808762.640   119860845.041 7      -483.200          44.375    22808760.180   119860845.051 5      -483.200          34.375    22808772.500    93398060.487 5      -376.520          34.250
G04  24790580.460   130275357.173 6      -509.861          36.500    24790579.340   130275357.185 3      -509.861          21.250    24790600.380   101513294.087 3      -397.294          22.187    24790599.780   101513334.027 6      -397.294          39.062
R03  23083927.600   123570084.259 7      4750.086          43.500    23083928.720   123570084.292 7      4750.086          43.187    23083948.020    96110147.555 6      3694.511          40.187    23083948.360    96110147.562 6      3694.511          40.937
G07  21776754.440   114437569.280 7      2943.060          46.375    21776752.880   114437569.288 7      2943.060          45.375    21776761.420    89172140.346 7      2293.293          45.250    21776761.760    89172195.352 7      2293.293          47.437
G05  24762648.260   130128597.960 7      5086.462          43.250    24762647.320   130128597.963 6      5086.462          39.187    24762661.240   101398947.909 6      3963.477          38.937    24762661.960   101398957.915 7      3963.477          42.687
R12  23600038.000   126067188.216 7      5884.150          42.312    23600037.460   126067188.219 7      5884.150          42.125    23600070.720    98052399.105 7      4576.561          44.000    23600070.680    98052401.112 7      4576.561          45.312
G11  21633690.920   113685817.780 7      4988.647          46.437    21633689.360   113685817.785 6      4988.647          36.562    21633696.840    88586370.834 6      3887.257          36.500    21633697.580    88586377.837 8      3887.257          49.000
R17  20262794.340   108430308.268 7      4863.498          47.187    20262795.920   108430308.285 7      4863.498          45.812    20262808.380    84334742.959 7      3782.721          47.750    20262808.020    84334739.961 7      3782.721          47.875
R24  19694314.940   105314341.373 8       517.615          48.500    19694315.080   105314341.374 7       517.615          47.875    19694328.100    81911205.639 8       402.590          48.687    19694328.240    81911207.638 8       402.590          48.812
G17  24088040.820   126583478.940 6      -323.901          39.875    24088038.880   126583478.937 6      -323.901          36.875    24088058.980    98636528.242 6      -252.391          36.250    24088058.920    98636533.226 7      -252.391          42.625
R11  23164595.200   123784583.092 7      3961.795          42.437    23164593.640   123784583.088 6      3961.795          41.125    23164616.880    96276983.131 7      3081.396          45.250    23164616.760    96276984.133 7      3081.396          45.562
G20  22502196.140   118249843.795 7      4805.088          42.125    22502193.540   118249843.799 5      4805.088          32.312    22502204.840    92142770.654 5      3744.224          32.187
R01  21175747.580   113196484.708 7       587.761          43.312    21175747.320   113196484.703 7       587.761          42.187    21175762.440    88041776.865 7       457.147          42.250    21175761.380    88041777.859 7       457.147          42.125
R18  24054549.300   128404820.163 6      6850.670          38.125    24054549.340   128404820.174 6      6850.670          39.625    24054566.380    99870478.260 7      5328.299          43.437    24054566.560    99870475.263 7      5328.299          43.687
G06  20288912.460   106618949.704 8      2177.931          48.750    20288911.580   106618949.706 8      2177.931          49.437    20288920.460    83079729.119 8      1697.089          49.437    20288921.220    83079742.121 8      1697.089          51.000
> 2024 10 07 10 24 27.0000000  0 19
R23  23704101.820   126800917.327 5     -1776.784          35.437    23704101.200   126800917.336 5     -1776.784          34.625
G09  21972711.220   115467371.352 7        48.428          44.875    21972709.980   115467371.357 7        48.428          44.812    21972721.740    89974612.042 7        37.736          44.312    21972721.440    89974612.044 7        37.736          47.187
R02  20422153.780   108976526.578 8      2661.880          48.500    20422152.760   108976526.571 8      2661.880          48.312    20422164.340    84759565.553 8      2070.351          48.562    20422164.840    84759566.548 8      2070.351          49.125
G30  21815735.740   114642469.729 7      4861.180          46.875    21815733.900   114642469.729 7      4861.180          46.875    21815746.760    89331842.545 7      3787.932          46.562    21815747.740    89331851.550 8      3787.932          48.125
G19  22808854.440   119861328.504 7      -483.490          43.750    22808852.240   119861328.514 5      -483.490          34.687    22808864.500    93398437.202 5      -376.746          34.250
G04  24790677.680   130275867.190 6      -510.329          36.500    24790676.240   130275867.205 3      -510.329          21.250    24790697.220   101513691.487 3      -397.659          22.187    24790697.780   101513731.434 6      -397.659          39.062
R03  23083040.140   123565334.571 7      4749.494          42.187    23083041.420   123565334.600 7      4749.494          43.187    23083060.740    96106453.354 6      3694.051          40.187    23083061.000    96106453.356 6      3694.051          40.437
G07  21776194.480   114434626.529 7      2942.445          45.562    21776192.880   114434626.531 7      2942.445          45.750    21776201.500    89169847.291 7      2292.814          45.937    21776201.920    89169902.297 7      2292.814          47.562
G05  24761680.860   130123511.714 7      5086.192          43.062    24761679.520   130123511.719 6      5086.192          39.312    24761693.380   101394984.603 6      3963.266          39.250    24761694.080   101394994.605 7      3963.266          42.437
R12  23598936.700   126061304.294 7      5883.863          42.250    23598935.940   126061304.292 7      5883.863          42.375    23598968.780    98047822.740 7      4576.338          44.562    23598968.760    98047824.747 7      4576.338          45.000
G11  21632741.580   113680829.443 7      4988.119          46.750    21632740.140   113680829.445 6      4988.119          36.937    21632747.660    88582483.821 6      3886.846          36.562    21632748.600    88582490.819 8      3886.846          49.625
R17  20261885.600   108425445.178 8      4862.655          48.000    20261887.200   108425445.191 7      4862.655          45.500    20261899.500    84330960.557 8      3782.065          49.125    20261899.120    84330957.554 8      3782.065          49.562
R24  19694218.440   105313824.125 8       516.773          48.125    19694218.200   105313824.126 8       516.773          48.250    19694231.400    81910803.333 8       401.934          49.500    19694231.120    81910805.334 8       401.934          49.687
G17  24088102.340   126583802.849 6      -323.897          39.937    24088100.600   126583802.841 6      -323.897          36.812    24088120.620    98636780.613 6      -252.387          36.437    24088121.500    98636785.601 7      -252.387          42.625
R11  23163853.780   123780621.810 7      3960.924          42.437    23163852.320   123780621.805 6      3960.924          41.125    23163876.000    96273902.138 7      3080.719          45.812    23163875.700    96273903.142 7      3080.719          45.812
G20  22501281.480   118245038.884 7      4804.916          43.000    22501279.320   118245038.889 5      4804.916          32.312    22501290.520    92139026.568 5      3744.090          32.125
R01  21175637.700   113195897.133 7       587.516          43.312    21175637.520   113195897.134 6       587.516          41.812    21175652.460    88041319.864 6       456.957          41.500    21175651.020    88041320.861 7       456.957          42.125
R18  24053265.520   128397969.881 6      6850.163          38.812    24053266.400   128397969.885 6      6850.163          39.625    24053282.940    99865150.244 7      5327.905          43.562    24053283.180    99865147.252 7      5327.905          43.750
G06  20288498.020   106616772.201 8      2177.128          48.000    20288497.240   106616772.200 8      2177.128          49.062    20288506.080    83078032.358 8      1696.464          49.625    20288506.840    83078045.361 8      1696.464          52.062
> 2024 10 07 10 24 28.0000000  0 19
R23  23704434.180   126802694.116 5     -1776.589          35.437    23704433.140   126802694.118 5     -1776.589          34.625
G09  21972702.360   115467322.980 7        48.381          44.062    21972700.700   115467322.987 7        48.381          45.312    21972712.540    89974574.341 7        37.700          44.812    21972712.160    89974574.345 7        37.700          46.750
R02  20421654.440   108973864.766 8      2661.772          48.750    20421653.560   108973864.758 7      2661.772          47.875    20421665.580    84757495.254 8      2070.267          48.937    20421666.200    84757496.251 8      2070.267          49.250
G30  21814810.440   114637608.651 7      4861.026          46.750    21814808.880   114637608.651 7      4861.026          47.125    21814821.720    89328054.702 7      3787.813          47.375    21814822.200    89328063.706 8      3787.813          48.562
G19  22808946.300   119861812.096 7      -483.508          43.562    22808944.240   119861812.109 5      -483.508          34.687    22808956.660    93398814.018 5      -376.759          34.437
G04  24790774.420   130276377.112 6      -509.727          36.062    24790773.260   130276377.127 3      -509.727          21.250    24790794.360   101514088.815 3      -397.190          22.187    24790794.960   101514128.746 6      -397.190          39.750
R03  23082153.100   123560585.141 7      4749.453          43.375    23082154.120   123560585.161 7      4749.453          42.750    23082173.380    96102759.355 6      3694.019          40.000    23082173.700    96102759.357 6      3694.019          40.437
G07  21775634.360   114431684.327 7      2942.041          46.375    21775633.020   114431684.329 7      2942.041          46.187    21775641.420    89167554.670 7      2292.499          46.312    21775642.080    89167609.676 7      2292.499          47.562
G05  24760713.040   130118425.415 7      5086.421          42.750    24760711.680   130118425.412 6      5086.421          38.937    24760725.500   101391021.249 6      3963.445          38.812    24760726.220   101391031.253 7      3963.445          43.187
R12  23597835.420   126055420.351 6      5884.079          41.812    23597834.140   126055420.341 6      5884.079          41.750    23597867.180    98043246.358 7      4576.506          45.125    23597867.720    98043248.361 7      4576.506          46.000
G11  21631792.620   113675841.500 7      4987.848          46.437    21631791.020   113675841.505 6      4987.848          37.000    21631798.420    88578597.114 6      3886.635          36.625    21631799.080    88578604.110 8      3886.635          50.500
R17  20260976.880   108420582.833 7      4862.112          47.625    20260978.420   108420582.850 7      4862.112          45.687    20260991.020    84327178.734 8      3781.643          49.562    20260990.420    84327175.732 8      3781.643          49.875
R24  19694121.480   105313307.657 8       516.158          48.187    19694121.600   105313307.669 8       516.158          48.125    19694134.660    81910401.636 8       401.456          49.937    19694134.600    81910403.641 8       401.456          50.312
G17  24088164.140   126584126.680 6      -323.617          40.750    24088162.180   126584126.677 6      -323.617          36.750    24088182.140    98637032.928 6      -252.169          36.625    24088182.720    98637037.918 7      -252.169          42.937
R11  23163112.360   123776661.112 7      3960.460          42.437    23163110.880   123776661.119 6      3960.460          41.500    23163134.860    96270821.604 7      3080.358          45.937    23163134.360    96270822.608 7      3080.358          46.750
G20  22500367.320   118240233.998 7      4804.927          42.625    22500365.040   118240233.998 5      4804.927          32.062    22500376.020    92135282.501 5      3744.099          32.125
R01  21175527.780   113195309.593 7       587.694          43.125    21175527.520   113195309.599 6       587.694          41.812    21175542.540    88040862.891 7       457.095          42.437    21175541.440    88040863.885 7       457.095          42.125
R18  24051982.340   128391119.744 6      6850.330          38.812    24051983.180   128391119.751 6      6850.330          39.625    24051999.820    99859822.339 7      5328.035          44.062    24052000.120    99859819.349 7      5328.035          44.125
G06  20288083.780   106614595.287 8      2176.712          49.000    20288083.060   106614595.284 8      2176.712          50.812    20288091.840    83076336.059 8      1696.139          51.250    20288092.640    83076349.066 8      1696.139          52.125
> 2024 10 07 10 24 29.0000000  0 19
R23  23704766.220   126804470.999 5     -1776.839          35.437    23704765.600   126804471.027 5     -1776.839          34.625
G09  21972693.120   115467274.765 7        48.218          44.750    21972691.600   115467274.767 7        48.218          44.937    21972703.320    89974536.758 7        37.573          44.750    21972703.140    89974536.763 7        37.573          46.687
R02  20421156.140   108971203.295 7      2661.447          47.875    20421154.700   108971203.285 7      2661.447          47.437    20421166.800    84755425.215 8      2070.014          49.375    20421167.300    84755426.210 8      2070.014          49.500
G30  21813885.720   114632747.974 7      4860.549          45.625    21813883.920   114632747.979 7      4860.549          47.062    21813896.860    89324267.168 7      3787.441          46.875    21813897.240    89324276.168 8      3787.441          48.500
G19  22809038.680   119862295.827 7      -483.690          43.875    22809036.240   119862295.840 5      -483.690          34.625    22809048.700    93399190.939 5      -376.901          34.750
G04  24790871.280   130276887.029 6      -509.776          36.062    24790870.220   130276887.039 3      -509.776          21.250    24790891.460   101514486.134 3      -397.228          22.187    24790892.420   101514526.053 6      -397.228          39.750
R03  23081266.140   123555835.976 7      4749.162          43.375    23081266.540   123555835.990 7      4749.162          42.812    23081286.580    96099065.553 6      3693.792          40.000    23081286.560    96099065.558 6      3693.792          39.875
G07  21775074.580   114428742.647 7      2941.547          46.312    21775073.040   114428742.647 7      2941.547          45.875    21775081.880    89165262.448 7      2292.115          45.500    21775082.060    89165317.454 7      2292.115          47.375
G05  24759745.460   130113339.058 7      5086.396          42.937    24759743.760   130113339.063 6      5086.396          39.937    24759757.640   101387057.856 6      3963.426          39.125    24759758.020   101387067.864 7      3963.426          42.687
R12  23596733.840   126049536.426 6      5883.906          41.812    23596732.380   126049536.422 7      5883.906          42.062    23596765.540    98038669.989 7      4576.371          45.562    23596766.260    98038671.990 7      4576.371          45.750
G11  21630843.220   113670853.941 7      4987.487          46.625    21630841.860   113670853.946 6      4987.487          37.437    21630849.220    88574710.700 6      3886.354          37.125    21630850.080    88574717.702 8      3886.354          50.500
R17  20260068.540   108415721.247 7      4861.328          47.125    20260069.960   108415721.265 7      4861.328          46.437    20260082.440    84323397.503 8      3781.033          50.062    20260082.020    84323394.502 8      3781.033          50.375
R24  19694025.320   105312791.981 8       515.374          48.937    19694025.200   105312791.996 7       515.374          47.875    19694038.260    81910000.553 8       400.846          50.437    19694038.300    81910002.554 8       400.846          50.812
G17  24088225.820   126584450.425 6      -323.607          40.687    24088223.900   126584450.422 6      -323.607          36.625    24088243.940    98637285.166 6      -252.161          36.500    24088244.520    98637290.160 7      -252.161          42.750
R11  23162371.440   123772701.056 7      3959.766          42.000    23162370.700   123772701.057 6      3959.766          41.500    23162393.800    96267741.556 7      3079.818          46.312    23162393.320    96267742.560 7      3079.818          47.250
G20  22499453.460   118235429.106 7      4804.913          42.812    22499450.680   118235429.108 5      4804.913          32.062    22499461.680    92131538.434 5      3744.088          32.062
R01  21175417.900   113194722.120 7       587.637          43.062    21175417.380   113194722.129 7       587.637          42.125    21175432.680    88040405.957 7       457.051          42.125    21175431.280    88040406.949 7       457.051          42.812
R18  24050699.560   128384269.800 6      6850.125          38.812    24050700.260   128384269.814 6      6850.125          39.687    24050716.500    99854494.594 7      5327.875          43.937    24050716.480    99854491.595 7      5327.875          44.375
G06  20287669.820   106612418.990 8      2176.037          48.500    20287668.840   106612418.992 8      2176.037          50.875    20287677.660    83074640.241 8      1695.613          52.125    20287678.340    83074653.245 8      1695.613          51.875
> 2024 10 07 10 24 30.0000000  0 19
R23  23705098.260   126806247.943 5     -1776.912          35.437    23705098.380   126806247.964 6     -1776.912          36.500
G09  21972683.760   115467226.631 7        48.024          44.625    21972682.440   115467226.639 7        48.024          44.750    21972694.160    89974499.245 7        37.422          44.250    21972693.840    89974499.246 7        37.422          47.062
R02  20420657.600   108968542.136 8      2660.978          48.312    20420656.040   108968542.123 7      2660.978          47.500    20420668.160    84753355.417 8      2069.650          48.687    20420668.720    84753356.410 8      2069.650          49.625
G30  21812960.720   114627887.626 7      4860.207          45.875    21812959.020   114627887.631 7      4860.207          47.062    21812971.920    89320479.885 7      3787.174          47.250    21812972.620    89320488.886 8      3787.174          48.562
G19  22809130.460   119862779.650 7      -483.838          44.250    22809128.280   119862779.663 5      -483.838          34.562    22809140.900    93399567.930 5      -377.016          34.750
G04  24790968.600   130277396.783 6      -509.689          37.312    24790967.180   130277396.796 3      -509.689          21.250    24790988.540   101514883.327 3      -397.161          22.187    24790988.960   101514923.243 6      -397.161          41.125
R03  23080379.080   123551086.987 7      4748.811          44.562    23080379.220   123551087.012 7      4748.811          42.812    23080398.660    96095371.904 6      3693.519          39.750    23080399.220    96095371.900 6      3693.519          39.875
G07  21774515.000   114425801.467 7      2940.903          45.875    21774513.440   114425801.469 7      2940.903          45.687    21774522.020    89162970.617 7      2291.612          45.625    21774522.320    89163025.623 7      2291.612          47.812
G05  24758777.380   130108252.612 7      5086.408          43.875    24758775.720   130108252.620 6      5086.408          39.312    24758789.880   101383094.389 6      3963.434          39.625    24758790.360   101383104.393 7      3963.434          43.062
R12  23595632.040   126043652.406 7      5883.983          42.062    23595631.100   126043652.415 7      5883.983          42.062    23595664.040    98034093.554 7      4576.431          45.250    23595664.800    98034095.553 7      4576.431          46.000
G11  21629894.300   113665866.718 7      4987.062          45.750    21629892.820   113665866.722 6      4987.062          37.000    21629900.320    88570824.550 6      3886.023          37.250    21629901.040    88570831.556 8      3886.023          49.937
R17  20259160.060   108410860.384 7      4860.431          46.187    20259161.600   108410860.401 7      4860.431          46.250    20259174.080    84319616.829 8      3780.336          49.812    20259173.740    84319613.827 8      3780.336          50.187
R24  19693928.880   105312277.033 8       514.512          48.625    19693928.880   105312277.039 7       514.512          47.812    19693941.980    81909600.022 8       400.176          50.437    19693942.220    81909602.023 8       400.176          50.375
G17  24088287.260   126584774.030 6      -323.635          39.750    24088285.500   126584774.030 6      -323.635          37.125    24088305.620    98637537.301 6      -252.183          36.812    24088306.140    98637542.295 7      -252.183          43.062
R11  23161630.420   123768741.508 7      3959.205          42.000    23161629.580   123768741.517 6      3959.205          41.437    23161653.080    96264661.917 7      3079.382          46.187    23161652.800    96264662.922 7      3079.382          47.125
G20  22498539.180   118230624.164 7      4804.999          42.812    22498536.340   118230624.169 5      4804.999          31.875    22498547.240    92127794.325 5      3744.155          32.062
R01  21175307.900   113194134.641 7       587.432          42.812    21175306.960   113194134.642 6       587.432          41.937    21175323.140    88039949.019 7       456.891          42.125    21175321.740    88039950.013 7       456.891          42.562
R18  24049416.120   128377419.988 6      6849.598          39.062    24049416.680   128377420.008 6      6849.598          39.687    24049433.580    99849166.951 7      5327.465          44.250    24049433.220    99849163.954 7      5327.465          44.437
G06  20287255.660   106610243.216 8      2175.451          49.000    20287254.860   106610243.218 8      2175.451          50.250    20287263.660    83072944.829 8      1695.156          51.312    20287264.460    83072957.830 8      1695.156          52.125
> 2024 10 07 10 24 31.0000000  0 19
R23  23705430.360   126808025.040 6     -1777.216          37.375    23705430.440   126808025.074 6     -1777.216          36.500
G09  21972674.900   115467178.726 7        47.768          44.812    21972673.200   115467178.734 7        47.768          45.000    21972685.140    89974461.913 7        37.222          44.937    21972684.860    89974461.911 7        37.222          46.125
R02  20420158.860   108965881.380 8      2660.496          48.937    20420157.060   108965881.362 7      2660.496          47.875    20420169.500    84751285.938 8      2069.275          49.500    20420170.180    84751286.929 8      2069.275          49.812
G30  21812035.940   114623027.775 7      4859.488          45.937    21812034.240   114623027.779 7      4859.488          47.187    21812047.080    89316692.996 7      3786.614          46.875    21812047.840    89316701.997 7      3786.614          46.625
G19  22809222.540   119863263.684 7      -484.143          43.437    22809220.420   119863263.697 5      -484.143          34.562    22809233.220    93399945.091 5      -377.255          34.687
G04  24791065.700   130277906.611 6      -509.969          37.312    24791064.240   130277906.629 3      -509.969          21.250    24791085.260   101515280.579 3      -397.378          22.187    24791086.180   101515320.491 6      -397.378          41.125
R03  23079491.580   123546338.330 7      4748.476          43.312    23079492.100   123546338.350 7      4748.476          43.000    23079511.400    96091678.504 6      3693.259          39.750    23079512.180    96091678.502 6      3693.259          39.687
G07  21773955.440   114422860.891 7      2940.232          46.062    21773953.960   114422860.890 7      2940.232          44.750    21773962.380    89160679.259 7      2291.090          44.437    21773962.940    89160734.265 7      2291.090          47.437
G05  24757809.460   130103166.177 7      5086.279          43.500    24757807.800   130103166.182 6      5086.279          38.875    24757821.920   101379130.927 6      3963.334          38.812    24757822.580   101379140.937 7      3963.334          42.812
R12  23594530.480   126037768.503 6      5883.777          41.687    23594530.040   126037768.509 7      5883.777          42.125    23594563.220    98029517.197 7      4576.271          43.875    23594563.600    98029519.202 7      4576.271          45.875
G11  21628945.520   113660879.965 7      4986.465          46.812    21628943.740   113660879.972 6      4986.465          36.625    21628951.320    88566938.770 6      3885.557          36.625    21628951.780    88566945.779 8      3885.557          48.500
R17  20258252.100   108406000.385 7      4859.532          45.125    20258253.480   108406000.399 7      4859.532          45.625    20258265.920    84315836.834 7      3779.636          46.812    20258265.820    84315833.832 7      3779.636          47.437
R24  19693833.060   105311762.964 7       513.551          46.625    19693832.720   105311762.968 8       513.551          48.062    19693846.060    81909200.189 7       399.428          47.312    19693845.840    81909202.190 7       399.428          47.062
G17  24088349.140   126585097.596 6      -323.430          40.187    24088347.080   126585097.600 6      -323.430          37.125    24088367.260    98637789.408 6      -252.023          36.437    24088367.620    98637794.402 7      -252.023          42.687
R11  23160889.180   123764782.694 6      3958.336          41.625    23160889.240   123764782.709 6      3958.336          41.937    23160912.080    96261582.851 7      3078.705          45.875    23160911.760    96261583.847 7      3078.705          45.750
G20  22497624.440   118225819.344 7      4804.754          43.187    22497622.100   118225819.346 5      4804.754          31.875    22497632.720    92124050.311 5      3743.964          32.062
R01  21175198.060   113193547.272 7       587.238          42.812    21175196.840   113193547.279 6       587.238          41.937    21175212.980    88039492.172 7       456.741          42.500    21175211.720    88039493.168 7       456.741          42.125
R18  24048132.760   128370570.412 6      6849.440          39.062    24048133.640   128370570.429 6      6849.440          39.687    24048150.140    99843839.488 7      5327.342          43.187    24048150.020    99843836.491 7      5327.342          44.375
G06  20286841.740   106608068.125 8      2174.758          48.562    20286840.960   106608068.122 8      2174.758          48.687    20286849.840    83071249.945 8      1694.616          48.562    20286850.580    83071262.946 8      1694.616          49.375
> 2024 10 07 10 24 32.0000000  0 19
R23  23705762.320   126809802.405 6     -1777.181          37.375    23705762.200   126809802.427 6     -1777.181          36.500
G09  21972665.620   115467131.179 7        47.471          44.312    21972664.320   115467131.176 7        47.471          43.625    21972676.060    89974424.844 7        36.991          43.562    21972675.880    89974424.845 7        36.991          45.750
R02  20419660.360   108963221.067 8      2660.166          48.562    20419658.640   108963221.054 7      2660.166          47.187    20419671.160    84749216.808 7      2069.018          46.312    20419671.620    84749217.796 7      2069.018          47.000
G30  21811111.120   114618168.462 7      4859.013          44.875    21811109.560   114618168.469 7      4859.013          45.875    21811122.400    89312906.525 7      3786.244          45.562    21811123.200    89312915.530 7      3786.244          47.937
G19  22809314.460   119863748.033 7      -484.451          44.187    22809312.660   119863748.043 5      -484.451          34.687    22809325.480    93400322.491 5      -377.494          34.500
G04  24791162.620   130278416.523 6      -510.161          37.437    24791161.240   130278416.536 3      -510.161          21.250    24791182.420   101515677.898 3      -397.528          19.937    24791182.980   101515717.823 6      -397.528          40.625
R03  23078604.480   123541590.085 7      4748.254          43.500    23078604.600   123541590.119 7      4748.254          42.687    23078624.700    96087985.435 6      3693.086          39.750    23078624.740    96087985.433 6      3693.086          39.687
G07  21773395.960   114419921.029 7      2939.436          45.937    21773394.400   114419921.034 7      2939.436          44.500    21773403.060    89158388.462 7      2290.470          44.250    21773403.480    89158443.466 7      2290.470          46.687
G05  24756841.620   130098079.862 7      5086.227          43.312    24756840.020   130098079.867 6      5086.227          38.500    24756854.000   101375167.569 6      3963.294          38.187    24756854.760   101375177.575 7      3963.294          42.437
R12  23593429.140   126031884.800 6      5883.721          41.687    23593428.620   126031884.793 6      5883.721          41.937    23593461.740    98024940.988 7      4576.227          43.812    23593462.120    98024942.997 7      4576.227          45.312
G11  21627996.580   113655893.777 7      4985.912          46.500    21627994.960   113655893.784 6      4985.912          36.875    21628002.560    88563053.433 6      3885.126          36.812    21628002.800    88563060.438 8      3885.126          48.500
R17  20257343.540   108401141.375 7      4858.627          45.000    20257345.220   108401141.388 7      4858.627          46.125    20257357.800    84312057.601 7      3778.932          46.937    20257357.540    84312054.600 7      3778.932          47.625
R24  19693736.840   105311249.887 7       512.603          47.937    19693736.920   105311249.888 7       512.603          47.250    19693750.040    81908801.121 7       398.691          47.625    19693750.300    81908803.120 7       398.691          47.250
G17  24088411.020   126585421.324 6      -323.794          39.687    24088408.660   126585421.324 6      -323.794          36.250    24088428.900    98638041.635 5      -252.307          35.937    24088429.140    98638046.625 7      -252.307          42.687
R11  23160148.100   123760824.679 6      3957.602          41.625    23160149.160   123760824.691 6      3957.602          41.937    23160171.460    96258504.397 7      3078.135          45.062    23160171.040    96258505.393 7      3078.135          45.312
G20  22496710.040   118221014.683 6      4804.689          41.937    22496707.860   118221014.685 5      4804.689          31.875    22496718.420    92120306.420 5      3743.914          32.000
R01  21175088.020   113192960.131 7       586.965          42.875    21175086.780   113192960.140 6       586.965          41.875    21175103.440    88039035.504 6       456.528          41.375    21175102.020    88039036.499 7       456.528          42.000
R18  24046849.200   128363721.262 6      6848.911          38.750    24046850.740   128363721.279 6      6848.911          39.687    24046867.180    99838512.346 7      5326.931          42.500    24046867.160    99838509.354 7      5326.931          43.125
G06  20286428.100   106605893.807 8      2173.994          48.125    20286427.240   106605893.807 7      2173.994          47.437    20286436.100    83069555.669 7      1694.021          47.375    20286436.760    83069568.672 8      1694.021          50.437
> 2024 10 07 10 24 33.0000000  0 19
R23  23706094.660   126811579.916 6     -1777.226          37.375    23706094.120   126811579.939 6     -1777.226          36.500
G09  21972656.840   115467083.778 7        47.386          43.687    21972655.260   115467083.775 7        47.386          43.750    21972667.020    89974387.901 7        36.925          43.687    21972667.040    89974387.899 7        36.925          46.437
R02  20419161.600   108960561.034 8      2659.964          48.062    20419160.080   108960561.024 7      2659.964          47.375    20419172.560    84747147.889 7      2068.861          47.000    20419173.220    84747148.884 7      2068.861          47.375
G30  21810186.660   114613309.572 7      4858.703          47.000    21810185.020   114613309.574 7      4858.703          46.437    21810197.860    89309120.377 7      3786.002          46.000    21810198.680    89309129.382 8      3786.002          48.562
G19  22809406.780   119864232.536 7      -484.503          44.437    22809404.800   119864232.544 5      -484.503          34.875    22809417.620    93400700.014 5      -377.535          34.500
G04  24791259.880   130278926.348 6      -509.565          37.000    24791258.260   130278926.361 3      -509.565          21.250    24791279.520   101516075.148 3      -397.063          19.937    24791279.800   101516115.067 6      -397.063          40.625
R03  23077717.900   123536842.207 7      4747.850          42.937    23077718.100   123536842.236 7      4747.850          42.687    23077737.860    96084292.639 6      3692.772          38.562    23077737.940    96084292.637 6      3692.772          39.687
G07  21772836.760   114416981.699 7      2939.122          45.437    21772835.040   114416981.701 7      2939.122          44.562    21772843.860    89156098.069 7      2290.225          44.562    21772844.100    89156153.077 8      2290.225          48.187
G05  24755873.720   130092993.513 7      5086.455          42.625    24755872.180   130092993.518 6      5086.455          38.875    24755886.040   101371204.176 6      3963.471          39.125    24755886.960   101371214.176 7      3963.471          42.437
R12  23592327.620   126026001.142 7      5883.710          42.687    23592326.500   126026001.138 6      5883.710          41.937    23592360.460    98020364.822 7      4576.219          44.812    23592360.560    98020366.828 7      4576.219          45.437
G11  21627047.840   113650907.991 7      4985.629          46.687    21627046.260   113650907.999 6      4985.629          37.250    21627053.780    88559168.405 6      3884.906          36.562    21627053.920    88559175.406 8      3884.906          49.437
R17  20256435.720   108396283.156 7      4857.972          46.250    20256437.340   108396283.171 7      4857.972          46.000    20256450.040    84308278.983 7      3778.423          47.125    20256449.820    84308275.979 7      3778.423          47.500
R24  19693641.500   105310737.622 7       511.900          47.937    19693640.980   105310737.621 8       511.900          48.375    19693654.220    81908402.678 7       398.144          47.375    19693654.380    81908404.677 7       398.144          47.875
G17  24088472.820   126585744.927 6      -323.539          40.125    24088470.160   126585744.926 6      -323.539          36.125    24088490.440    98638293.764 6      -252.108          36.375    24088490.820    98638298.754 7      -252.108          42.187
R11  23159407.600   123756867.284 7      3957.170          42.437    23159408.940   123756867.286 6      3957.170          41.375    23159431.200    96255426.410 7      3077.799          45.125    23159430.760    96255427.409 7      3077.799          46.312
G20  22495795.420   118216210.075 7      4804.669          43.062    22495793.620   118216210.077 5      4804.669          31.750    22495803.940    92116562.573 5      3743.898          32.000
R01  21174978.160   113192373.021 7       587.188          42.812    21174977.020   113192373.022 7       587.188          42.125    21174993.220    88038578.847 6       456.702          41.375    21174992.400    88038579.839 7       456.702          42.000
R18  24045566.600   128356872.243 6      6848.966          38.750    24045567.360   128356872.263 6      6848.966          39.687    24045584.300    99833185.321 7      5326.974          43.000    24045584.140    99833182.327 7      5326.974          43.562
G06  20286014.400   106603720.112 8      2173.405          48.437    20286013.620   106603720.116 8      2173.405          50.062    20286022.380    83067861.876 8      1693.563          49.812    20286023.180    83067874.877 8      1693.563          52.125
> 2024 10 07 10 24 34.0000000  0 19
R23  23706426.500   126813357.580 6     -1778.004          37.375    23706426.820   126813357.616 6     -1778.004          37.562
G09  21972647.820   115467036.546 7        47.115          44.000    21972646.260   115467036.546 7        47.115          44.625    21972658.000    89974351.090 7        36.713          44.500    21972658.100    89974351.086 7        36.713          46.812
R02  20418663.340   108957901.266 8      2659.566          48.000    20418661.520   108957901.258 7      2659.566          47.437    20418674.220    84745079.180 7      2068.551          47.812    20418674.880    84745080.175 8      2068.551          48.500
G30  21809262.040   114608451.100 7      4858.113          47.187    21809260.420   114608451.105 7      4858.113          47.062    21809273.220    89305334.557 7      3785.542          46.625    21809273.940    89305343.565 7      3785.542          47.937
G19  22809498.940   119864717.200 7      -484.855          44.812    22809497.240   119864717.208 5      -484.855          34.875    22809509.700    93401077.668 5      -377.809          34.875
G04  24791356.600   130279436.215 6      -510.092          37.000    24791355.380   130279436.231 3      -510.092          20.187    24791376.820   101516472.429 3      -397.474          19.937    24791376.980   101516512.356 6      -397.474          40.437
R03  23076830.880   123532094.618 7      4747.375          42.937    23076830.920   123532094.639 7      4747.375          42.687    23076851.200    96080600.066 6      3692.403          38.562    23076851.240    96080600.070 6      3692.403          38.687
G07  21772277.460   114414042.947 7      2938.396          46.250    21772275.860   114414042.951 7      2938.396          45.375    21772284.580    89153808.136 7      2289.659          45.625    21772285.000    89153863.144 7      2289.659          47.812
G05  24754905.900   130087907.133 7      5086.337          43.000    24754904.200   130087907.138 6      5086.337          38.875    24754918.080   101367240.761 6      3963.380          39.000    24754918.880   101367250.759 7      3963.380          42.937
R12  23591225.860   126020117.482 7      5883.583          42.875    23591225.560   126020117.478 7      5883.583          42.375    23591258.460    98015788.663 7      4576.120          45.375    23591258.960    98015790.670 7      4576.120          46.687
G11  21626099.180   113645922.618 7      4985.075          46.375    21626097.620   113645922.625 6      4985.075          37.687    21626105.080    88555283.699 6      3884.474          36.937    21626105.480    88555290.697 8      3884.474          48.687
R17  20255528.240   108391425.709 7      4856.892          44.687    20255529.480   108391425.735 7      4856.892          45.937    20255542.260    84304500.976 8      3777.583          49.250    20255542.120    84304497.973 8      3777.583          49.687
R24  19693545.900   105310226.155 7       510.918          47.250    19693545.280   105310226.154 7       510.918          47.500    19693558.680    81908004.868 8       397.380          49.937    19693558.600    81908006.865 8       397.380          49.937
G17  24088533.620   126586068.484 6      -323.768          40.750    24088531.760   126586068.487 6      -323.768          36.812    24088551.820    98638545.863 6      -252.287          36.500    24088552.460    98638550.856 7      -252.287          42.750
R11  23158667.340   123752910.520 7      3956.384          43.125    23158668.580   123752910.524 6      3956.384          41.375    23158690.540    96252348.935 7      3077.187          45.250    23158690.340    96252349.936 7      3077.187          47.437
G20  22494881.480   118211405.499 7      4804.458          43.437    22494879.360   118211405.498 5      4804.458          31.750    22494889.620    92112818.744 5      3743.734          31.937
R01  21174868.640   113191785.978 7       586.903          43.062    21174867.140   113191785.982 7       586.903          42.125    21174883.400    88038122.254 6       456.480          41.437    21174882.300    88038123.240 6       456.480          41.875
R18  24044283.980   128350023.454 6      6848.581          39.312    24044284.400   128350023.471 6      6848.581          39.687    24044301.100    99827858.463 7      5326.674          44.250    24044301.520    99827855.470 7      5326.674          45.000
G06  20285600.840   106601547.034 8      2172.646          48.875    20285600.080   106601547.036 8      2172.646          50.562    20285608.920    83066168.565 8      1692.971          51.125    20285609.600    83066181.564 8      1692.971          51.562
> 2024 10 07 10 24 35.0000000  0 19
R23  23706758.380   126815135.412 6     -1777.867          37.312    23706759.580   126815135.448 6     -1777.867          37.562
G09  21972638.780   115466989.619 7        46.903          44.187    21972637.400   115466989.618 7        46.903          44.687    21972649.200    89974314.515 7        36.548          44.000    21972649.200    89974314.511 7        36.548          47.562
R02  20418164.900   108955241.902 7      2659.292          47.750    20418163.240   108955241.898 7      2659.292          47.250    20418175.940    84743010.787 7      2068.338          47.937    20418176.460    84743011.779 8      2068.338          48.437
G30  21808337.720   114603593.137 7      4857.849          46.125    21808335.900   114603593.137 7      4857.849          46.812    21808348.660    89301549.133 7      3785.337          46.562    21808349.200    89301558.138 7      3785.337          47.875
G19  22809591.320   119865202.143 7      -484.973          44.437    22809589.620   119865202.148 5      -484.973          34.625    22809602.080    93401455.531 5      -377.901          34.562
G04  24791453.540   130279946.090 6      -509.678          37.250    24791452.440   130279946.106 3      -509.678          20.187    24791473.960   101516869.720 3      -397.152          19.937    24791474.000   101516909.639 6      -397.152          41.437
R03  23075944.100   123527347.431 7      4747.139          43.250    23075944.180   123527347.459 7      4747.139          42.500    23075964.000    96076907.813 6      3692.219          38.562    23075964.100    96076907.821 6      3692.219          38.687
G07  21771718.140   114411104.877 7      2937.815          46.250    21771716.800   114411104.879 7      2937.815          45.187    21771725.400    89151518.727 7      2289.206          45.062    21771725.980    89151573.733 7      2289.206          47.750
G05  24753937.700   130082820.866 7      5086.254          42.625    24753936.220   130082820.868 6      5086.254          39.125    24753950.320   101363277.432 6      3963.315          39.000    24753950.540   101363287.438 7      3963.315          42.937
R12  23590124.380   126014233.966 7      5883.514          42.875    23590123.440   126014233.970 7      5883.514          42.625    23590156.920    98011212.614 7      4576.066          44.750    23590157.380    98011214.625 7      4576.066          45.562
G11  21625150.560   113640937.762 7      4984.662          46.437    21625148.880   113640937.770 6      4984.662          37.125    21625156.520    88551399.392 6      3884.152          37.000    21625156.560    88551406.396 8      3884.152          49.062
R17  20254620.200   108386569.143 7      4856.194          45.750    20254622.000   108386569.166 7      4856.194          46.375    20254634.700    84300723.644 8      3777.040          48.000    20254634.220    84300720.639 8      3777.040          48.250
R24  19693450.280   105309715.570 8       510.121          48.312    19693449.820   105309715.582 7       510.121          47.625    19693463.200    81907607.748 8       396.761          48.812    19693463.320    81907609.745 8       396.761          49.625
G17  24088595.720   126586392.089 6      -323.702          40.875    24088593.360   126586392.094 6      -323.702          36.687    24088613.420    98638797.998 6      -252.235          36.625    24088614.200    98638802.988 7      -252.235          42.812
R11  23157926.800   123748954.515 7      3955.707          43.437    23157928.300   123748954.516 6      3955.707          41.812    23157950.120    96249272.044 7      3076.661          46.125    23157949.920    96249273.042 7      3076.661          46.562
G20  22493967.060   118206601.077 7      4804.353          43.375    22493965.200   118206601.079 5      4804.353          31.875    22493975.460    92109075.043 5      3743.652          31.937
R01  21174758.300   113191199.104 7       586.978          43.062    21174757.660   113191199.086 7       586.978          42.000    21174774.000    88037665.767 7       456.539          42.000    21174772.860    88037666.757 7       456.539          42.625
R18  24043001.420   128343174.996 6      6848.574          39.312    24043001.480   128343174.997 6      6848.574          39.687    24043018.040    99822531.857 7      5326.669          43.625    24043018.240    99822528.862 7      5326.669          44.437
G06  20285187.460   106599374.678 8      2172.107          48.875    20285186.680   106599374.678 8      2172.107          49.500    20285195.540    83064475.814 8      1692.551          49.687    20285196.240    83064488.817 8      1692.551          50.875
> 2024 10 07 10 24 36.0000000  0 19
R23  23707090.620   126816913.392 6     -1777.825          37.312    23707091.180   126816913.428 6     -1777.825          37.562
G09  21972629.720   115466942.880 7        46.672          44.062    21972628.480   115466942.885 7        46.672          43.812    21972640.180    89974278.090 7        36.367          43.437    21972640.600    89974278.084 7        36.367          46.812
R02  20417666.700   108952582.905 8      2658.895          48.125    20417665.100   108952582.895 7      2658.895          47.125    20417677.780    84740942.669 7      2068.030          47.437    20417678.020    84740943.662 7      2068.030          47.937
G30  21807413.440   114598735.637 7      4857.325          46.500    21807411.520   114598735.642 7      4857.325          46.312    21807424.460    89297764.075 7      3784.929          45.875    21807424.600    89297773.079 8      3784.929          48.187
G19  22809683.840   119865687.262 7      -485.199          44.625    22809682.160   119865687.269 5      -485.199          34.750    22809694.280    93401833.538 5      -378.077          34.562
G04  24791550.800   130280455.994 6      -509.763          37.937    24791549.600   130280456.015 3      -509.763          20.187    24791571.100   101517267.027 3      -397.218          19.937    24791571.820   101517306.936 6      -397.218          41.437
R03  23075057.540   123522600.618 7      4746.756          43.375    23075057.600   123522600.638 7      4746.756          42.500    23075077.540    96073215.845 6      3691.921          38.375    23075077.540    96073215.850 6      3691.921          38.500
G07  21771159.200   114408167.383 7      2937.210          46.375    21771157.760   114408167.388 7      2937.210          45.187    21771166.420    89149229.773 7      2288.735          44.937    21771166.840    89149284.777 7      2288.735          47.187
G05  24752970.140   130077734.559 7      5086.418          43.312    24752968.580   130077734.564 6      5086.418          38.750    24752982.400   101359314.078 6      3963.442          39.125    24752982.840   101359324.086 7      3963.442          42.687
R12  23589023.340   126008350.507 7      5883.580          42.312    23589022.340   126008350.497 7      5883.580          42.625    23589055.240    98006636.600 7      4576.118          44.687    23589055.760    98006638.599 7      4576.118          44.750
G11  21624202.240   113635953.348 7      4984.243          46.250    21624200.380   113635953.355 6      4984.243          36.812    21624208.000    88547515.437 6      3883.825          36.812    21624208.040    88547522.435 8      3883.825          48.875
R17  20253713.080   108381713.417 7      4855.356          46.312    20253714.480   108381713.439 7      4855.356          45.625    20253727.240    84296946.968 8      3776.388          48.562    20253726.960    84296943.968 8      3776.388          48.500
R24  19693355.020   105309205.811 8       509.369          48.312    19693354.520   105309205.820 7       509.369          47.062    19693367.820    81907211.261 8       396.176          48.812    19693367.640    81907213.262 8       396.176          48.750
G17  24088657.140   126586715.634 6      -323.530          40.625    24088655.040   126586715.639 6      -323.530          36.875    24088675.060    98639050.086 6      -252.101          36.437    24088675.500    98639055.078 7      -252.101          42.750
R11  23157186.300   123744999.158 7      3955.106          43.500    23157187.760   123744999.165 6      3955.106          41.687    23157209.880    96246195.662 7      3076.194          45.000    23157209.720    96246196.662 7      3076.194          46.687
G20  22493053.200   118201796.700 7      4804.379          43.500    22493050.780   118201796.703 5      4804.379          31.875    22493061.160    92105331.372 5      3743.672          31.937
R01  21174649.080   113190612.272 7       586.978          42.812    21174647.820   113190612.276 7       586.978          42.000    21174664.260    88037209.351 6       456.538          41.437    21174662.680    88037210.339 7       456.538          42.062
R18  24041718.660   128336326.778 6      6848.312          39.312    24041718.600   128336326.792 6      6848.312          40.000    24041735.380    99817205.453 7      5326.465          44.062    24041735.560    99817202.458 7      5326.465          44.125
G06  20284774.280   106597202.977 8      2171.486          48.250    20284773.400   106597202.976 8      2171.486          49.000    20284782.220    83062783.571 8      1692.067          49.187    20284782.900    83062796.576 8      1692.067          50.687
> 2024 10 07 10 24 37.0000000  0 19
R23  23707423.620   126818691.558 6     -1778.244          37.312    23707424.100   126818691.597 6     -1778.244          37.562
G09  21972620.840   115466896.339 7        46.392          44.375    21972619.620   115466896.347 7        46.392          44.375    21972631.380    89974241.818 7        36.150          43.812    21972631.620    89974241.814 7        36.150          47.375
R02  20417168.180   108949924.257 8      2658.477          48.750    20417166.800   108949924.252 8      2658.477          48.187    20417179.520    84738874.836 8      2067.705          48.625    20417179.880    84738875.829 8      2067.705          48.437
G30  21806489.160   114593878.574 7      4856.778          46.625    21806487.220   114593878.579 7      4856.778          46.437    21806500.180    89293979.356 7      3784.502          46.062    21806500.440    89293988.356 8      3784.502          48.500
G19  22809776.140   119866172.538 7      -485.281          45.000    22809774.420   119866172.548 5      -485.281          34.750    22809786.480    93402211.667 5      -378.141          34.625
G04  24791648.480   130280965.880 6      -509.968          38.500    24791646.600   130280965.903 3      -509.968          20.187    24791668.260   101517664.324 3      -397.377          19.937    24791669.400   101517704.231 7      -397.377          42.187
R03  23074170.760   123517854.121 7      4746.203          43.250    23074170.880   123517854.144 7      4746.203          42.625    23074190.440    96069524.123 6      3691.491          38.375    23074190.920    96069524.130 6      3691.491          38.500
G07  21770600.360   114405230.460 7      2936.693          46.312    21770598.900   114405230.462 7      2936.693          44.937    21770607.640    89146941.259 7      2288.332          44.625    21770608.000    89146996.267 7      2288.332          47.375
G05  24752002.120   130072648.281 7      5086.273          43.000    24752000.560   130072648.283 6      5086.273          39.250    24752014.520   101355350.740 6      3963.329          39.000    24752015.160   101355360.746 7      3963.329          42.750
R12  23587921.820   126002467.122 7      5883.461          42.250    23587921.200   126002467.118 6      5883.461          41.812    23587953.400    98002060.646 7      4576.025          45.000    23587954.620    98002062.650 7      4576.025          45.375
G11  21623253.720   113630969.372 7      4983.676          45.937    21623251.880   113630969.380 6      4983.676          37.125    21623259.520    88543631.817 6      3883.384          36.750    21623259.580    88543638.816 8      3883.384          49.250
R17  20252805.700   108376858.544 7      4854.412          46.625    20252807.480   108376858.561 7      4854.412          45.625    20252820.100    84293170.950 8      3775.654          48.312    20252819.680    84293167.951 8      3775.654          48.750
R24  19693259.400   105308696.907 7       508.478          47.812    19693259.380   105308696.911 7       508.478          47.625    19693272.580    81906815.437 8       395.483          48.562    19693272.580    81906817.438 8       395.483          48.937
G17  24088718.660   126587039.142 6      -323.431          40.687    24088716.540   126587039.147 6      -323.431          36.562    24088736.800    98639302.141 6      -252.024          36.500    24088736.980    98639307.133 7      -252.024          42.750
R11  23156446.120   123741044.470 7      3954.356          43.500    23156447.580   123741044.479 6      3954.356          41.687    23156469.880    96243119.808 7      3075.610          46.125    23156469.680    96243120.802 7      3075.610          46.562
G20  22492138.860   118196992.379 7      4804.327          44.062    22492136.980   118196992.381 5      4804.327          31.875    22492146.780    92101587.743 5      3743.631          31.937
R01  21174539.020   113190025.561 7       586.640          42.437    21174537.760   113190025.565 7       586.640          42.000    21174553.900    88036753.019 6       456.275          41.437    21174553.060    88036754.014 6       456.275          41.937
R18  24040436.040   128329478.816 6      6847.906          39.250    24040435.900   128329478.822 6      6847.906          40.000    24040452.680    99811879.233 7      5326.149          43.500    24040452.840    99811876.239 7      5326.149          44.500
G06  20284360.940   106595031.909 8      2170.764          49.187    20284360.260   106595031.914 8      2170.764          49.375    20284369.120    83061091.832 8      1691.504          49.437    20284369.980    83061104.833 8      1691.504          52.250
> 2024 10 07 10 24 38.0000000  0 19
R23  23707755.820   126820469.658 6     -1778.243          37.312    23707756.840   126820469.670 6     -1778.243          37.562
G09  21972611.980   115466849.795 7        46.371          44.812    21972610.780   115466849.800 7        46.371          44.625    21972622.580    89974205.539 7        36.133          44.312    21972622.640    89974205.531 7        36.133          47.562
R02  20416670.100   108947265.809 8      2658.230          48.750    20416669.020   108947265.804 7      2658.230          47.000    20416681.320    84736807.150 8      2067.512          48.687    20416681.380    84736808.145 8      2067.512          49.437
G30  21805564.780   114589021.741 7      4856.542          46.250    21805562.980   114589021.743 7      4856.542          46.875    21805575.760    89290194.815 7      3784.319          46.875    21805576.560    89290203.818 8      3784.319          48.562
G19  22809868.680   119866657.846 7      -485.472          45.125    22809866.960   119866657.856 5      -485.472          34.812    22809878.700    93402589.819 5      -378.290          34.562
G04  24791745.780   130281475.563 6      -509.751          38.500    24791743.600   130281475.584 3      -509.751          20.187    24791765.320   101518061.462 3      -397.208          19.937    24791766.780   101518101.343 7      -397.208          42.687
R03  23073284.160   123513107.723 7      4746.164          43.250    23073284.600   123513107.741 7      4746.164          42.625    23073304.000    96065832.481 6      3691.461          38.375    23073303.740    96065832.483 6      3691.461          38.500
G07  21770041.540   114402293.943 7      2936.134          46.437    21770040.120   114402293.945 7      2936.134          46.062    21770048.800    89144653.060 7      2287.896          45.875    21770048.900    89144708.066 7      2287.896          47.812
G05  24751034.440   130067561.772 7      5086.447          43.250    24751032.640   130067561.771 6      5086.447          38.937    24751046.640   101351387.221 6      3963.465          38.500    24751046.880   101351397.231 7      3963.465          42.750
R12  23586820.900   125996583.627 7      5883.387          42.812    23586820.240   125996583.620 7      5883.387          42.250    23586852.060    97997484.610 7      4575.968          45.875    23586853.060    97997486.605 7      4575.968          45.187
G11  21622305.260   113625985.615 7      4983.498          46.187    21622303.440   113625985.620 6      4983.498          37.062    21622311.040    88539748.370 6      3883.245          36.812    21622311.460    88539755.370 8      3883.245          49.187
R17  20251898.460   108372004.268 7      4853.790          46.375    20251900.420   108372004.277 7      4853.790          46.312    20251912.960    84289395.400 8      3775.170          49.750    20251912.440    84289392.397 8      3775.170          50.000
R24  19693164.720   105308188.643 7       507.822          47.937    19693164.440   105308188.642 7       507.822          47.875    19693177.720    81906420.110 8       394.973          50.312    19693177.520    81906422.111 8       394.973          50.875
G17  24088780.180   126587362.424 6      -323.248          40.687    24088778.120   126587362.426 6      -323.248          36.812    24088798.420    98639554.025 6      -251.882          36.937    24088798.500    98639559.006 7      -251.882          42.750
R11  23155706.460   123737090.263 7      3953.931          42.750    23155707.320   123737090.264 6      3953.931          41.437    23155729.660    96240044.303 7      3075.280          46.187    23155729.640    96240045.299 7      3075.280          47.062
G20  22491224.580   118192187.942 7      4804.332          43.750    22491222.840   118192187.944 5      4804.332          32.062    22491232.500    92097844.030 5      3743.636          31.937
R01  21174429.820   113189438.737 7       586.673          42.437    21174428.400   113189438.741 6       586.673          41.875    21174444.020    88036296.589 6       456.301          41.687    21174442.920    88036297.579 6       456.301          41.937
R18  24039153.200   128322630.828 6      6847.855          39.250    24039153.040   128322630.842 6      6847.855          40.000    24039169.420    99806553.014 7      5326.109          44.625    24039170.180    99806550.019 7      5326.109          44.562
G06  20283948.000   106592861.303 8      2170.229          48.750    20283947.220   106592861.306 8      2170.229          50.625    20283956.060    83059400.445 8      1691.088          51.312    20283957.000    83059413.448 8      1691.088          52.375
> 2024 10 07 10 24 39.0000000  0 19
R23  23708088.280   126822248.055 6     -1778.469          37.250    23708088.860   126822248.067 6     -1778.469          36.812
G09  21972603.100   115466803.680 7        45.883          44.312    21972602.020   115466803.685 7        45.883          44.562    21972613.800    89974169.597 7        35.753          44.375    21972613.960    89974169.591 7        35.753          47.312
R02  20416172.000   108944607.964 8      2657.516          49.000    20416171.340   108944607.954 8      2657.516          48.125    20416183.420    84734739.929 8      2066.957          48.875    20416183.540    84734740.928 8      2066.957          49.625
G30  21804640.620   114584165.589 7      4855.788          47.062    21804639.000   114584165.589 7      4855.788          47.187    21804651.840    89286410.803 7      3783.731          47.000    21804652.520    89286419.807 8      3783.731          48.500
G19  22809960.920   119867143.550 7      -485.939          44.500    22809959.580   119867143.555 5      -485.939          34.812    22809971.060    93402968.279 5      -378.653          34.562
G04  24791842.520   130281985.441 6      -510.014          38.250    24791840.720   130281985.456 3      -510.014          20.187    24791862.600   101518458.746 3      -397.414          19.937    24791863.880   101518498.620 7      -397.414          42.062
R03  23072397.520   123508361.853 7      4745.611          44.625    23072398.020   123508361.878 7      4745.611          42.625    23072417.860    96062141.250 6      3691.031          38.250    23072417.160    96062141.256 6      3691.031          38.500
G07  21769483.080   114399358.220 7      2935.267          46.500    21769481.460   114399358.225 7      2935.267          45.937    21769490.160    89142365.490 7      2287.221          45.812    21769490.340    89142420.490 7      2287.221          47.625
G05  24750066.480   130062475.520 7      5086.056          42.312    24750064.760   130062475.520 6      5086.056          39.375    24750078.720   101347423.908 6      3963.160          39.187    24750079.220   101347433.903 7      3963.160          42.875
R12  23585719.700   125990700.411 7      5882.955          42.812    23585718.500   125990700.401 7      5882.955          42.250    23585750.900    97992908.785 7      4575.631          44.937    23585751.580    97992910.788 7      4575.631          46.000
G11  21621356.900   113621002.530 7      4982.762          45.375    21621355.260   113621002.538 6      4982.762          37.625    21621362.880    88535865.445 6      3882.672          37.125    21621363.140    88535872.445 8      3882.672          49.375
R17  20250991.780   108367151.022 7      4852.647          46.062    20250993.640   108367151.032 7      4852.647          46.500    20251006.120    84285620.651 8      3774.281          49.937    20251005.580    84285617.648 8      3774.281          50.312
R24  19693069.860   105307681.461 7       506.576          47.437    19693069.480   105307681.465 8       506.576          48.000    19693082.700    81906025.631 8       394.003          50.312    19693082.840    81906027.626 8       394.003          51.375
G17  24088841.460   126587685.929 6      -323.870          40.500    24088839.660   126587685.937 6      -323.870          36.500    24088860.040    98639806.084 6      -252.366          36.312    24088860.100    98639811.078 7      -252.366          42.750
R11  23154966.820   123733136.961 7      3952.747          43.125    23154967.020   123733136.975 6      3952.747          41.437    23154989.740    96236969.530 7      3074.359          46.250    23154989.720    96236970.521 7      3074.359          46.812
G20  22490310.420   118187383.783 7      4804.023          44.812    22490308.680   118187383.783 5      4804.023          32.062    22490318.180    92094100.530 5      3743.394          31.875
R01  21174319.740   113188852.197 7       586.393          42.187    21174318.680   113188852.206 6       586.393          41.875    21174334.280    88035840.388 7       456.084          42.250    21174333.340    88035841.372 7       456.084          42.312
R18  24037870.080   128315783.386 6      6846.951          39.812    24037870.520   128315783.390 6      6846.951          39.937    24037886.880    99801227.199 7      5325.407          44.375    24037887.360    99801224.204 7      5325.407          44.687
G06  20283535.060   106590691.570 8      2169.213          48.375    20283534.340   106590691.572 8      2169.213          50.375    20283543.180    83057709.741 8      1690.296          51.250    20283544.080    83057722.743 8      1690.296          52.625
> 2024 10 07 10 24 40.0000000  0 19
R23  23708420.620   126824026.524 6     -1778.520          37.250    23708421.780   126824026.576 6     -1778.520          36.812
G09  21972594.540   115466757.682 7        45.921          44.250    21972593.180   115466757.687 7        45.921          44.937    21972605.020    89974133.747 7        35.783          44.625    21972605.060    89974133.739 7        35.783          47.187
R02  20415673.880   108941950.348 8      2657.512          49.312    20415673.280   108941950.341 7      2657.512          47.812    20415685.260    84732672.897 8      2066.954          49.375    20415685.560    84732673.892 8      2066.954          49.625
G30  21803716.480   114579309.789 7      4855.610          46.750    21803714.840   114579309.797 7      4855.610          47.125    21803727.720    89282627.073 7      3783.592          47.250    21803728.560    89282636.077 8      3783.592          48.187
G19  22810053.760   119867629.360 7      -485.883          44.937    22810052.000   119867629.365 5      -485.883          34.812    22810063.460    93403346.824 5      -378.610          34.937
G04  24791939.560   130282495.216 6      -509.694          38.687    24791937.760   130282495.231 3      -509.694          20.187    24791959.480   101518855.951 3      -397.164          19.937    24791960.720   101518895.837 7      -397.164          42.062
R03  23071511.040   123503616.226 7      4745.501          44.437    23071511.540   123503616.259 7      4745.501          42.875    23071530.940    96058450.215 6      3690.945          38.250    23071531.020    96058450.213 6      3690.945          38.500
G07  21768924.400   114396423.004 7      2935.055          47.187    21768922.840   114396423.009 7      2935.055          45.562    21768931.600    89140078.301 7      2287.055          45.437    21768931.700    89140133.307 7      2287.055          47.625
G05  24749098.260   130057389.156 7      5086.439          43.312    24749096.860   130057389.153 6      5086.439          38.625    24749110.880   101343460.505 6      3963.459          39.000    24749111.500   101343470.508 7      3963.459          43.000
R12  23584617.640   125984817.127 7      5883.304          42.687    23584617.080   125984817.112 7      5883.304          42.687    23584649.620    97988332.906 7      4575.903          45.687    23584650.460    97988334.905 7      4575.903          45.812
G11  21620408.940   113616019.811 7      4982.507          45.625    21620407.140   113616019.821 6      4982.507          37.062    21620414.680    88531982.810 6      3882.473          36.750    21620415.180    88531989.809 8      3882.473          49.312
R17  20250085.100   108362298.480 7      4852.230          47.312    20250086.700   108362298.495 7      4852.230          46.000    20250099.400    84281846.451 8      3773.956          50.062    20250098.880    84281843.451 8      3773.956          49.937
R24  19692975.200   105307175.010 8       506.086          48.062    19692974.840   105307175.014 7       506.086          47.250    19692988.020    81905631.718 8       393.623          50.062    19692988.180    81905633.713 8       393.623          50.937
G17  24088903.320   126588009.240 6      -323.213          40.687    24088901.240   126588009.240 6      -323.213          37.312    24088921.520    98640057.986 6      -251.855          37.250    24088921.820    98640062.970 7      -251.855          42.875
R11  23154227.080   123729184.236 7      3952.396          43.125    23154227.240   123729184.238 6      3952.396          41.000    23154249.920    96233895.182 7      3074.086          45.937    23154249.940    96233896.180 7      3074.086          46.875
G20  22489396.340   118182579.593 7      4804.236          44.250    22489394.400   118182579.595 5      4804.236          31.750    22489403.880    92090357.009 5      3743.560          31.875
R01  21174209.860   113188265.686 7       586.561          42.937    21174209.400   113188265.700 6       586.561          41.750    21174224.400    88035384.207 7       456.214          42.187    21174223.840    88035385.197 7       456.214          42.062
R18  24036587.000   128308936.004 6      6847.295          39.812    24036587.680   128308936.021 6      6847.295          39.937    24036604.300    99795901.447 7      5325.674          44.625    24036604.460    99795898.456 7      5325.674          45.000
G06  20283122.380   106588522.383 8      2168.861          48.375    20283121.560   106588522.386 8      2168.861          51.062    20283130.380    83056019.460 8      1690.022          52.000    20283131.340    83056032.463 8      1690.022          52.250
> 2024 10 07 10 24 41.0000000  0 19
R23  23708753.540   126825805.241 6     -1778.737          37.250    23708754.700   126825805.264 6     -1778.737          36.812
G09  21972585.940   115466711.979 7        45.595          44.000    21972584.600   115466711.979 7        45.595          44.250    21972596.320    89974098.126 7        35.529          43.875    21972596.080    89974098.118 7        35.529          47.437
R02  20415176.200   108939293.144 8      2657.105          48.750    20415175.420   108939293.136 7      2657.105          47.937    20415187.240    84730606.176 7      2066.637          46.250    20415187.320    84730607.171 7      2066.637          47.125
G30  21802792.560   114574454.528 7      4855.041          45.500    21802791.080   114574454.533 7      4855.041          45.687    21802803.780    89278843.754 7      3783.149          45.062    21802804.140    89278852.759 8      3783.149          48.687
G19  22810146.400   119868115.440 7      -486.139          44.625    22810144.640   119868115.448 5      -486.139          34.812    22810155.860    93403725.586 5      -378.809          34.812
G04  24792036.500   130283005.096 6      -509.889          38.875    24792034.860   130283005.109 3      -509.889          20.187    24792056.660   101519253.242 3      -397.316          19.937    24792056.880   101519293.149 6      -397.316          41.875
R03  23070624.580   123498871.016 7      4745.097          43.625    23070624.860   123498871.047 7      4745.097          43.062    23070644.140    96054759.499 6      3690.631          38.250    23070644.480    96054759.495 6      3690.631          38.500
G07  21768366.000   114393488.490 7      2934.200          46.562    21768364.420   114393488.495 7      2934.200          45.562    21768373.220    89137791.666 7      2286.389          45.375    21768373.460    89137846.670 7      2286.389          47.500
G05  24748130.220   130052302.888 7      5086.328          43.125    24748128.880   130052302.891 6      5086.328          38.437    24748143.000   101339497.177 6      3963.373          38.437    24748143.340   101339507.183 7      3963.373          43.125
R12  23583516.620   125978934.017 6      5882.932          41.562    23583515.200   125978934.010 7      5882.932          42.000    23583548.700    97983757.175 7      4575.614          44.500    23583549.060    97983759.180 7      4575.614          45.875
G11  21619460.820   113611037.617 7      4981.985          45.625    21619459.060   113611037.624 6      4981.985          37.375    21619466.580    88528100.583 6      3882.066          36.750    21619467.140    88528107.579 8      3882.066          48.750
R17  20249178.660   108357446.866 7      4851.218          47.375    20249180.160   108357446.878 7      4851.218          45.562    20249192.760    84278072.980 8      3773.170          48.562    20249192.300    84278069.976 8      3773.170          48.625
R24  19692880.600   105306669.457 8       505.221          48.125    19692880.260   105306669.463 7       505.221          47.687    19692893.620    81905238.504 8       392.950          49.250    19692893.320    81905240.503 8       392.950          49.437
G17  24088965.140   126588332.656 6      -323.371          40.750    24088962.820   126588332.658 6      -323.371          36.875    24088983.080    98640309.976 6      -251.977          36.562    24088983.920    98640314.960 7      -251.977          42.812
R11  23153487.540   123725232.263 7      3951.731          42.125    23153487.380   123725232.250 6      3951.731          41.000    23153510.340    96230821.427 7      3073.568          44.875    23153510.360    96230822.419 7      3073.568          46.375
G20  22488482.100   118177775.587 7      4803.994          44.625    22488480.100   118177775.586 5      4803.994          31.750    22488489.620    92086613.623 5      3743.372          32.062
R01  21174100.200   113187679.349 7       586.404          42.937    21174099.700   113187679.363 6       586.404          41.562    21174115.060    88034928.165 7       456.092          42.187    21174113.920    88034929.155 6       456.092          41.875
R18  24035304.540   128302089.003 6      6846.926          40.250    24035304.880   128302089.004 6      6846.926          39.937    24035321.900    99790575.975 7      5325.387          44.437    24035322.000    99790572.980 7      5325.387          44.125
G06  20282709.740   106586353.948 8      2168.121          48.750    20282708.960   106586353.948 8      2168.121          50.000    20282717.700    83054329.762 8      1689.445          50.937    20282718.620    83054342.767 8      1689.445          49.500
> 2024 10 07 10 24 42.0000000  0 19
R23  23709086.340   126827584.136 6     -1778.870          37.250    23709087.140   126827584.158 6     -1778.870          36.812
G09  21972577.100   115466666.529 7        45.416          43.812    21972575.900   115466666.531 7        45.416          44.062    21972587.700    89974062.701 7        35.389          44.000    21972587.740    89974062.698 7        35.389          46.125
R02  20414678.660   108936636.318 8      2656.649          49.187    20414677.480   108936636.305 7      2656.649          47.687    20414689.400    84728539.756 7      2066.282          46.125    20414689.580    84728540.746 7      2066.282          46.750
G30  21801868.900   114569599.755 7      4854.666          47.062    21801867.100   114569599.760 7      4854.666          45.375    21801879.940    89275060.821 7      3782.857          44.875    21801880.580    89275069.825 7      3782.857          46.687
G19  22810238.900   119868601.770 7      -486.329          44.750    22810237.220   119868601.780 5      -486.329          34.812    22810248.340    93404104.534 5      -378.958          34.812
G04  24792133.780   130283514.998 6      -509.732          39.500    24792131.940   130283515.008 3      -509.732          21.437    24792153.760   101519650.548 3      -397.194          21.312    24792154.100   101519690.446 6      -397.194          41.875
R03  23069738.240   123494126.214 7      4744.633          44.000    23069738.640   123494126.239 7      4744.633          43.062    23069757.680    96051069.090 6      3690.270          38.250    23069758.320    96051069.091 6      3690.270          38.562
G07  21767807.680   114390554.601 7      2933.590          46.625    21767806.160   114390554.603 7      2933.590          43.937    21767814.920    89135505.519 7      2285.914          43.625    21767815.160    89135560.527 7      2285.914          46.875
G05  24747162.720   130047216.668 7      5086.324          43.000    24747160.980   130047216.665 6      5086.324          38.125    24747175.180   101335533.889 6      3963.369          37.812    24747175.800   101335543.887 7      3963.369          42.687
R12  23582415.140   125973051.001 6      5883.008          41.562    23582413.600   125973050.989 7      5883.008          42.000    23582447.740    97979181.512 7      4575.673          42.875    23582448.000    97979183.524 7      4575.673          44.500
G11  21618512.780   113606055.930 7      4981.430          45.937    21618511.040   113606055.940 6      4981.430          36.625    21618518.600    88524218.749 6      3881.634          37.062    21618519.020    88524225.745 8      3881.634          48.500
R17  20248271.920   108352596.151 7      4850.364          46.625    20248273.800   108352596.166 7      4850.364          46.375    20248286.360    84274300.202 7      3772.505          46.625    20248285.580    84274297.202 7      3772.505          46.750
R24  19692785.880   105306164.799 8       504.239          48.875    19692786.140   105306164.803 7       504.239          47.937    19692799.100    81904845.988 7       392.186          46.375    19692799.340    81904847.989 7       392.186          46.625
G17  24089026.620   126588656.095 6      -323.539          40.625    24089024.460   126588656.095 6      -323.539          36.625    24089044.520    98640561.980 6      -252.108          36.437    24089045.260    98640566.962 6      -252.108          41.750
R11  23152747.860   123721281.024 7      3951.001          43.000    23152747.500   123721281.030 6      3951.001          41.250    23152770.840    96227748.247 7      3073.001          44.687    23152771.000    96227749.247 7      3073.001          44.375
G20  22487568.000   118172971.693 7      4803.819          43.812    22487566.080   118172971.693 5      4803.819          31.750    22487575.380    92082870.332 5      3743.235          32.062
R01  21173990.800   113187093.182 7       586.074          42.187    21173990.160   113187093.197 6       586.074          41.562    21174005.420    88034472.252 6       455.835          41.500    21174004.280    88034473.238 6       455.835          41.875
R18  24034021.120   128295242.280 6      6846.559          40.250    24034022.000   128295242.275 6      6846.559          39.937    24034038.860    99785250.725 7      5325.101          42.625    24034038.960    99785247.738 7      5325.101          43.062
G06  20282297.320   106584186.207 8      2167.470          49.125    20282296.460   106584186.209 7      2167.470          47.187    20282305.200    83052640.615 7      1688.938          47.250    20282306.080    83052653.618 8      1688.938          50.687
> 2024 10 07 10 24 43.0000000  0 19
R23  23709419.420   126829363.011 6     -1779.087          37.250    23709419.420   126829363.045 6     -1779.087          36.812
G09  21972568.620   115466621.107 7        45.373          44.312    21972567.240   115466621.109 7        45.373          43.875    21972579.000    89974027.300 7        35.356          43.687    21972579.040    89974027.298 7        35.356          46.750
R02  20414180.540   108933979.631 8      2656.459          48.875    20414179.840   108933979.621 8      2656.459          48.062    20414191.540    84726473.441 7      2066.135          47.125    20414191.780    84726474.434 7      2066.135          47.312
G30  21800945.060   114564745.272 7      4854.259          45.187    21800943.360   114564745.277 7      4854.259          45.562    21800956.080    89271278.108 7      3782.540          45.375    21800956.660    89271287.107 8      3782.540          48.562
G19  22810331.220   119869088.129 7      -486.559          44.625    22810329.700   119869088.139 5      -486.559          34.500    22810340.920    93404483.509 5      -379.137          34.312
G04  24792230.680   130284024.765 6      -509.958          39.687    24792229.000   130284024.775 3      -509.958          21.437    24792250.820   101520047.748 3      -397.370          21.312    24792250.620   101520087.657 6      -397.370          41.250
R03  23068851.760   123489381.558 7      4744.400          44.250    23068852.500   123489381.581 7      4744.400          43.250    23068871.980    96047378.805 6      3690.089          38.250    23068872.120    96047378.797 6      3690.089          38.562
G07  21767249.340   114387621.135 7      2933.113          45.750    21767247.820   114387621.143 7      2933.113          44.500    21767256.780    89133219.703 7      2285.543          44.937    21767257.120    89133274.705 8      2285.543          48.000
G05  24746194.620   130042130.298 7      5086.341          43.187    24746193.040   130042130.301 6      5086.341          39.250    24746207.120   101331570.484 6      3963.383          39.562    24746207.800   101331580.490 7      3963.383          42.812
R12  23581313.480   125967167.899 7      5882.997          42.125    23581312.100   125967167.903 7      5882.997          42.187    23581346.520    97974605.795 7      4575.664          45.062    23581346.580    97974607.803 7      4575.664          44.687
G11  21617564.740   113601074.490 7      4981.172          46.125    21617563.200   113601074.500 6      4981.172          36.875    21617570.700    88520337.106 6      3881.433          36.937    21617570.900    88520344.106 8      3881.433          49.125
R17  20247365.520   108347746.097 7      4849.578          47.375    20247367.300   108347746.110 7      4849.578          44.937    20247379.980    84270527.934 7      3771.894          47.812    20247379.160    84270524.937 8      3771.894          48.187
R24  19692691.940   105305660.797 7       503.564          47.750    19692692.100   105305660.801 7       503.564          47.937    19692704.960    81904453.978 7       391.661          47.812    19692704.860    81904455.977 8       391.661          48.125
G17  24089088.180   126588979.309 6      -323.306          41.125    24089086.160   126588979.303 6      -323.306          36.375    24089106.080    98640813.808 6      -251.927          36.187    24089106.700    98640818.798 6      -251.927          41.750
R11  23152008.820   123717330.290 7      3950.264          43.000    23152008.580   123717330.294 6      3950.264          41.250    23152031.820    96224675.460 7      3072.428          44.937    23152031.500    96224676.458 7      3072.428          45.437
G20  22486654.180   118168167.703 7      4803.820          44.562    22486652.080   118168167.700 5      4803.820          31.750    22486661.260    92079126.959 5      3743.236          32.062
R01  21173880.680   113186506.899 7       586.197          42.937    21173880.580   113186506.908 7       586.197          42.062    21173895.580    88034016.247 6       455.931          41.187    21173894.360    88034017.243 6       455.931          41.062
R18  24032738.920   128288395.631 6      6846.426          40.000    24032739.540   128288395.637 6      6846.426          39.937    24032756.360    99779925.545 7      5324.998          43.062    24032756.480    99779922.559 7      5324.998          43.312
G06  20281884.880   106582018.962 8      2166.860          49.125    20281884.020   106582018.961 8      2166.860          48.500    20281892.840    83050951.844 8      1688.463          48.875    20281894.000    83050964.850 8      1688.463          52.437
> 2024 10 07 10 24 44.0000000  0 19
R23  23709751.900   126831141.991 6     -1779.171          37.312    23709752.540   126831142.027 6     -1779.171          37.062
G09  21972559.820   115466575.895 7        45.029          44.250    21972558.760   115466575.897 7        45.029          44.875    21972570.420    89973992.062 7        35.087          44.750    21972570.320    89973992.062 7        35.087          46.750
R02  20413682.840   108931323.291 8      2656.048          48.875    20413682.080   108931323.281 7      2656.048          47.812    20413693.840    84724407.393 8      2065.815          49.437    20413694.040    84724408.388 8      2065.815          49.562
G30  21800021.340   114559891.222 7      4853.712          47.125    21800019.640   114559891.229 7      4853.712          46.687    21800032.520    89267495.738 7      3782.113          46.562    21800033.260    89267504.738 8      3782.113          48.312
G19  22810423.880   119869574.656 7      -486.749          44.187    22810422.360   119869574.663 5      -486.749          34.500    22810433.360    93404862.610 5      -379.285          34.937
G04  24792327.600   130284534.459 6      -509.843          39.750    24792326.220   130284534.464 3      -509.843          21.437    24792347.860   101520444.894 3      -397.280          21.312    24792347.980   101520484.794 6      -397.280          41.875
R03  23067965.600   123484637.197 7      4744.078          44.250    23067966.620   123484637.228 7      4744.078          43.062    23067985.500    96043688.751 6      3689.838          38.250    23067985.300    96043688.747 6      3689.838          38.687
G07  21766691.220   114384688.242 7      2932.445          47.625    21766689.760   114384688.250 7      2932.445          45.750    21766698.620    89130934.332 7      2285.022          45.687    21766698.860    89130989.336 8      2285.022          48.062
G05  24745226.760   130037043.902 7      5086.269          43.687    24745225.200   130037043.910 6      5086.269          39.000    24745239.180   101327607.056 6      3963.327          38.875    24745239.740   101327617.062 7      3963.327          42.812
R12  23580211.860   125961284.875 7      5882.918          42.125    23580211.580   125961284.857 7      5882.918          42.750    23580245.100    97970030.112 7      4575.603          45.875    23580245.000    97970032.115 7      4575.603          46.062
G11  21616617.040   113596093.489 7      4980.716          46.562    21616615.300   113596093.499 6      4980.716          36.812    21616622.760    88516455.808 6      3881.077          37.125    21616622.940    88516462.809 8      3881.077          49.500
R17  20246459.600   108342896.862 7      4848.702          46.312    20246460.680   108342896.866 7      4848.702          45.687    20246473.840    84266756.302 8      3771.213          50.250    20246473.200    84266753.306 8      3771.213          49.562
R24  19692597.940   105305157.644 8       502.626          48.562    19692598.040   105305157.654 7       502.626          47.500    19692610.860    81904062.635 8       390.932          50.500    19692610.940    81904064.630 8       390.932          50.625
G17  24089149.540   126589302.449 6      -323.202          40.875    24089147.680   126589302.451 6      -323.202          36.875    24089167.620    98641065.585 6      -251.846          36.750    24089168.060    98641070.587 7      -251.846          42.500
R11  23151269.660   123713380.192 7      3949.580          42.000    23151269.200   123713380.187 6      3949.580          41.437    23151292.240    96221603.168 7      3071.895          46.250    23151292.200    96221604.166 7      3071.895          46.750
G20  22485739.820   118163363.749 7      4803.769          44.562    22485737.840   118163363.743 5      4803.769          31.750    22485747.160    92075383.616 5      3743.197          31.750
R01  21173771.080   113185920.706 7       586.024          43.000    21173770.860   113185920.710 7       586.024          42.062    21173786.300    88033560.305 7       455.796          42.312    21173785.240    88033561.303 6       455.796          41.750
R18  24031456.360   128281549.236 6      6846.201          40.000    24031457.180   128281549.245 6      6846.201          39.937    24031473.600    99774600.557 7      5324.823          44.125    24031474.060    99774597.566 7      5324.823          44.750
G06  20281472.620   106579852.345 8      2166.134          49.062    20281471.720   106579852.347 8      2166.134          50.625    20281480.520    83049263.569 8      1687.897          51.625    20281481.640    83049276.569 8      1687.897          52.437
> 2024 10 07 10 24 45.0000000  0 19
R23  23710084.020   126832921.147 6     -1779.419          37.312    23710085.380   126832921.181 6     -1779.419          37.062
G09  21972551.120   115466530.849 7        44.852          43.625    21972550.180   115466530.854 7        44.852          43.875    21972561.840    89973956.952 7        34.949          43.875    21972561.660    89973956.951 7        34.949          46.312
R02  20413185.080   108928667.263 8      2655.859          48.812    20413184.280   108928667.253 7      2655.859          47.500    20413196.000    84722341.597 8      2065.668          48.125    20413196.200    84722342.588 8      2065.668          48.375
G30  21799097.780   114555037.592 7      4853.403          46.875    21799095.980   114555037.592 7      4853.403          46.062    21799108.880    89263713.689 7      3781.872          46.062    21799109.660    89263722.689 8      3781.872          48.125
G19  22810516.480   119870061.335 7      -486.840          44.125    22810515.060   119870061.348 5      -486.840          35.000    22810525.980    93405241.837 5      -379.356          34.937
G04  24792424.780   130285044.153 6      -509.843          39.187    24792423.300   130285044.155 3      -509.843          21.437    24792444.860   101520842.035 3      -397.280          21.312    24792445.120   101520881.942 7      -397.280          42.187
R03  23067079.300   123479893.163 7      4743.831          43.937    23067080.360   123479893.183 7      4743.831          43.062    23067099.440    96039998.929 6      3689.646          38.187    23067099.260    96039998.934 6      3689.646          38.687
G07  21766133.240   114381755.911 7      2931.961          47.500    21766131.760   114381755.919 7      2931.961          45.812    21766140.580    89128649.399 7      2284.645          45.187    21766140.720    89128704.407 7      2284.645          47.500
G05  24744258.840   130031957.488 7      5086.331          42.875    24744257.200   130031957.490 6      5086.331          38.750    24744271.320   101323643.614 6      3963.375          38.625    24744272.120   101323653.620 7      3963.375          43.125
R12  23579110.660   125955401.842 7      5883.004          42.125    23579110.760   125955401.830 7      5883.004          42.750    23579143.100    97965454.436 7      4575.670          45.000    23579143.700    97965456.444 7      4575.670          45.625
G11  21615669.100   113591112.905 7      4980.397          45.937    21615667.520   113591112.915 6      4980.397          36.562    21615674.920    88512574.834 6      3880.829          36.812    21615675.360    88512581.830 8      3880.829          49.187
R17  20245553.500   108338048.427 7      4847.912          46.000    20245554.640   108338048.442 7      4847.912          45.062    20245567.880    84262985.303 8      3770.599          49.000    20245567.080    84262982.309 8      3770.599          49.187
R24  19692504.060   105304655.308 7       501.895          47.625    19692504.020   105304655.320 8       501.895          48.125    19692516.780    81903671.927 8       390.362          49.625    19692516.920    81903673.924 8       390.362          49.250
G17  24089211.120   126589625.565 6      -323.095          40.375    24089209.160   126589625.565 6      -323.095          36.687    24089229.200    98641317.340 6      -251.763          36.437    24089229.360    98641322.338 7      -251.763          42.937
R11  23150530.380   123709430.756 7      3949.104          42.562    23150529.920   123709430.749 6      3949.104          41.125    23150553.240    96218531.379 7      3071.526          45.312    23150553.300    96218532.375 7      3071.526          46.500
G20  22484825.400   118158559.822 7      4803.906          44.062    22484823.620   118158559.821 5      4803.906          31.937    22484833.100    92071640.298 5      3743.303          31.750
R01  21173661.500   113185334.564 7       586.020          43.000    21173661.400   113185334.562 7       586.020          42.062    21173676.840    88033104.404 7       455.793          42.312    21173675.660    88033105.402 6       455.793          41.625
R18  24030174.280   128274703.070 6      6845.961          40.000    24030174.540   128274703.061 6      6845.961          39.937    24030191.420    99769275.728 7      5324.636          43.562    24030191.660    99769272.738 7      5324.636          44.625
G06  20281060.420   106577686.348 8      2165.592          48.812    20281059.560   106577686.348 8      2165.592          50.500    20281068.400    83047575.773 8      1687.474          50.750    20281069.420    83047588.777 8      1687.474          51.562
> 2024 10 07 10 24 46.0000000  0 19
R23  23710417.180   126834700.552 6     -1779.255          37.312    23710418.160   126834700.588 6     -1779.255          37.062
G09  21972542.600   115466486.173 7        44.623          44.125    21972541.680   115466486.175 7        44.623          44.187    21972553.300    89973922.130 7        34.771          43.812    21972553.400    89973922.132 7        34.771          46.312
R02  20412687.520   108926011.776 8      2655.380          48.937    20412686.520   108926011.772 7      2655.380          47.875    20412698.360    84720276.217 7      2065.295          47.500    20412698.640    84720277.210 7      2065.295          47.500
G30  21798174.120   114550184.580 7      4852.877          46.937    21798172.500   114550184.580 7      4852.877          46.312    21798185.340    89259932.121 7      3781.463          46.062    21798186.080    89259941.126 7      3781.463          47.000
G19  22810609.260   119870548.385 7      -487.035          44.375    22810607.620   119870548.395 5      -487.035          34.687    22810618.620    93405621.348 5      -379.508          34.625
G04  24792521.780   130285553.986 6      -509.818          38.812    24792520.220   130285553.991 3      -509.818          21.437    24792542.020   101521239.287 3      -397.261          21.312    24792542.680   101521279.188 7      -397.261          42.187
R03  23066193.080   123475149.599 7      4743.504          43.812    23066193.980   123475149.638 7      4743.504          43.062    23066213.900    96036309.508 6      3689.392          38.187    23066213.100    96036309.510 6      3689.392          38.687
G07  21765575.400   114378824.335 7      2931.402          46.125    21765573.880   114378824.340 7      2931.402          44.875    21765582.760    89126365.047 7      2284.210          44.625    21765582.960    89126420.054 7      2284.210          47.062
G05  24743290.840   130026871.228 7      5086.350          42.937    24743289.280   130026871.236 6      5086.350          38.750    24743303.540   101319680.295 6      3963.390          38.562    24743304.020   101319690.297 7      3963.390          42.562
R12  23578009.060   125949519.058 7      5882.878          42.937    23578009.480   125949519.051 6      5882.878          41.937    23578041.560    97960878.954 7      4575.571          44.187    23578042.420    97960880.953 7      4575.571          44.437
G11  21614721.320   113586132.955 7      4979.775          46.687    21614719.880   113586132.963 6      4979.775          37.062    21614727.420    88508694.349 6      3880.344          36.812    21614727.800    88508701.348 8      3880.344          48.812
R17  20244647.940   108333200.960 7      4847.172          46.250    20244648.780   108333200.975 7      4847.172          45.625    20244662.000    84259215.054 8      3770.022          48.250    20244661.560    84259212.059 8      3770.022          48.000
R24  19692410.440   105304153.974 8       500.982          48.375    19692410.240   105304153.980 7       500.982          47.375    19692423.020    81903281.988 8       389.653          48.187    19692422.880    81903283.993 7       389.653          47.875
G17  24089272.640   126589948.810 6      -323.065          39.625    24089270.740   126589948.813 6      -323.065          36.750    24089290.580    98641569.194 6      -251.739          36.562    24089290.880    98641574.184 7      -251.739          42.250
R11  23149791.800   123705482.154 7      3948.365          42.562    23149791.020   123705482.163 6      3948.365          41.125    23149814.300    96215460.256 7      3070.951          44.875    23149814.160    96215461.250 7      3070.951          45.437
G20  22483911.500   118153756.157 7      4803.700          44.500    22483909.620   118153756.159 5      4803.700          31.937    22483919.020    92067897.185 5      3743.143          31.875
R01  21173551.800   113184748.702 7       585.818          43.187    21173551.480   113184748.698 7       585.818          42.125    21173567.180    88032648.728 6       455.636          41.437    21173565.820    88032649.718 6       455.636          41.750
R18  24028891.580   128267857.252 6      6845.640          39.750    24028892.540   128267857.263 6      6845.640          39.937    24028908.840    99763951.190 7      5324.387          43.500    24028909.520    99763948.202 7      5324.387          44.062
G06  20280648.300   106575521.171 8      2164.887          49.437    20280647.560   106575521.176 8      2164.887          48.437    20280656.320    83045888.620 8      1686.925          48.562    20280657.340    83045901.624 8      1686.925          50.125
> 2024 10 07 10 24 47.0000000  0 19
R23  23710749.860   126836480.302 6     -1779.838          37.312    23710751.120   126836480.341 6     -1779.838          37.062
G09  21972534.240   115466441.815 7        44.213          43.125    21972533.200   115466441.823 7        44.213          44.437    21972544.820    89973887.561 7        34.452          43.687    21972545.000    89973887.564 7        34.452          46.875
R02  20412189.920   108923356.751 8      2654.962          49.187    20412189.040   108923356.742 8      2654.962          48.250    20412200.800    84718211.194 7      2064.970          47.437    20412201.180    84718212.186 7      2064.970          47.937
G30  21797250.760   114545332.091 7      4852.451          47.250    21797249.160   114545332.088 7      4852.451          46.562    21797261.960    89256150.965 7      3781.130          46.250    21797262.600    89256159.971 8      3781.130          48.437
G19  22810701.980   119871035.734 7      -487.337          44.687    22810700.320   119871035.742 5      -487.337          34.687    22810711.380    93406001.095 5      -379.743          34.375
G04  24792619.000   130286063.911 6      -509.779          39.875    24792617.320   130286063.916 3      -509.779          21.437    24792638.860   101521636.611 3      -397.231          21.312    24792639.320   101521676.507 7      -397.231          42.000
R03  23065307.160   123470406.499 7      4743.040          44.125    23065308.080   123470406.524 7      4743.040          42.812    23065327.420    96032620.425 6      3689.031          38.187    23065327.100    96032620.421 6      3689.031          38.937
G07  21765017.660   114375893.446 7      2930.738          47.250    21765016.120   114375893.456 7      2930.738          44.937    21765025.060    89124081.243 7      2283.692          44.750    21765025.380    89124136.247 7      2283.692          47.875
G05  24742323.020   130021785.076 7      5086.249          42.750    24742321.360   130021785.081 6      5086.249          38.500    24742335.840   101315717.058 6      3963.311          38.437    24742336.520   101315727.066 7      3963.311          42.875
R12  23576907.840   125943636.408 7      5882.780          43.000    23576907.700   125943636.406 7      5882.780          42.437    23576940.480    97956303.582 7      4575.495          44.625    23576941.000    97956305.584 7      4575.495          44.875
G11  21613773.840   113581153.523 7      4979.339          46.687    21613772.280   113581153.528 6      4979.339          37.000    21613779.920    88504814.272 6      3880.004          36.937    21613780.280    88504821.272 8      3880.004          49.500
R17  20243741.720   108328354.412 7      4846.258          46.687    20243742.920   108328354.432 7      4846.258          45.625    20243756.160    84255445.522 8      3769.312          48.187    20243755.680    84255442.528 8      3769.312          48.000
R24  19692316.540   105303653.551 8       500.094          48.125    19692316.700   105303653.561 7       500.094          47.687    19692329.560    81902892.766 8       388.962          48.312    19692329.520    81902894.771 8       388.962          48.562
G17  24089334.240   126590272.119 6      -323.050          40.437    24089332.260   126590272.113 6      -323.050          36.687    24089352.080    98641821.096 6      -251.727          36.812    24089352.420    98641826.088 7      -251.727          42.250
R11  23149053.060   123701534.330 7      3947.755          42.312    23149052.560   123701534.328 6      3947.755          41.500    23149076.000    96212389.722 7      3070.476          45.500    23149075.460    96212390.718 7      3070.476          46.875
G20  22482997.420   118148952.652 7      4803.637          44.875    22482995.720   118148952.657 5      4803.637          32.000    22483005.080    92064154.194 5      3743.094          31.875
R01  21173442.120   113184163.020 7       585.710          42.937    21173442.240   113184163.021 7       585.710          42.562    21173457.280    88032193.189 6       455.552          41.437    21173456.360    88032194.185 6       455.552          41.562
R18  24027609.500   128261011.820 6      6845.345          39.750    24027610.220   128261011.819 6      6845.345          39.875    24027626.600    99758626.943 7      5324.157          43.937    24027626.720    99758623.950 7      5324.157          44.187
G06  20280236.520   106573356.745 8      2164.215          48.937    20280235.700   106573356.747 8      2164.215          50.625    20280244.460    83044202.049 8      1686.402          50.812    20280245.460    83044215.054 8      1686.402          51.812
> 2024 10 07 10 24 48.0000000  0 19
R23  23711082.660   126838260.034 6     -1779.814          37.312    23711083.920   126838260.064 6     -1779.814          37.187
G09  21972526.040   115466397.518 7        44.209          44.687    21972524.700   115466397.523 7        44.209          44.687    21972536.520    89973853.034 7        34.448          44.437    21972536.560    89973853.038 7        34.448          47.625
R02  20411692.640   108920701.961 8      2654.727          48.937    20411691.460   108920701.954 8      2654.727          48.062    20411703.200    84716146.351 8      2064.787          48.937    20411703.660    84716147.346 8      2064.787          49.875
G30  21796327.440   114540479.954 7      4852.015          47.687    21796325.800   114540479.959 7      4852.015          46.312    21796338.560    89252370.089 7      3780.791          46.375    21796339.400    89252379.091 8      3780.791          48.187
G19  22810794.840   119871523.133 7      -487.432          44.937    22810793.020   119871523.138 5      -487.432          34.437    22810804.100    93406380.880 5      -379.817          34.375
G04  24792715.880   130286573.720 6      -509.821          39.625    24792714.460   130286573.725 3      -509.821          21.437    24792735.740   101522033.841 3      -397.263          21.312    24792736.460   101522073.741 6      -397.263          41.562
R03  23064421.240   123465663.594 7      4742.763          43.937    23064421.980   123465663.617 7      4742.763          42.937    23064441.520    96028931.504 6      3688.816          38.687    23064441.280    96028931.504 6      3688.816          38.937
G07  21764460.060   114372963.039 7      2930.154          46.875    21764458.500   114372963.046 7      2930.154          45.750    21764467.380    89121797.806 7      2283.237          46.125    21764467.560    89121852.808 7      2283.237          47.625
G05  24741355.220   130016698.778 7      5086.331          42.625    24741353.640   130016698.780 6      5086.331          38.687    24741367.920   101311753.706 6      3963.375          38.625    24741368.220   101311763.716 7      3963.375          43.312
R12  23575806.560   125937753.747 7      5882.583          42.375    23575806.600   125937753.753 7      5882.583          42.437    23575839.340    97951728.196 7      4575.342          45.125    23575839.960    97951730.197 7      4575.342          45.812
G11  21612826.360   113576174.419 7      4978.995          46.187    21612824.840   113576174.423 6      4978.995          37.062    21612832.420    88500934.451 6      3879.737          36.937    21612832.640    88500941.449 8      3879.737          49.750
R17  20242836.280   108323508.572 7      4845.525          44.625    20242837.200   108323508.595 7      4845.525          45.500    20242850.680    84251676.533 8      3768.742          49.875    20242850.300    84251673.539 8      3768.742          50.000
R24  19692222.980   105303153.846 8       499.269          48.250    19692223.220   105303153.852 7       499.269          47.875    19692236.100    81902504.100 8       388.320          50.375    19692236.400    81902506.099 8       388.320          50.687
G17  24089395.540   126590595.298 6      -323.186          40.500    24089393.700   126590595.298 6      -323.186          36.875    24089413.660    98642072.904 6      -251.833          36.562    24089413.560    98642077.908 7      -251.833          42.187
R11  23148314.580   123697587.085 7      3946.905          42.562    23148314.080   123697587.089 6      3946.905          41.500    23148337.180    96209319.653 7      3069.815          46.625    23148336.820    96209320.649 7      3069.815          46.375
G20  22482083.340   118144149.101 7      4803.570          44.750    22482081.620   118144149.103 5      4803.570          32.000    22482091.160    92060411.173 5      3743.042          32.250
R01  21173332.300   113183577.297 7       585.815          43.062    21173332.700   113183577.296 7       585.815          42.562    21173348.020    88031737.620 6       455.634          41.937    21173347.160    88031738.615 6       455.634          41.562
R18  24026327.460   128254166.506 6      6845.309          39.750    24026327.600   128254166.491 6      6845.309          39.875    24026344.260    99753302.783 7      5324.130          44.375    24026344.380    99753299.794 7      5324.130          44.625
G06  20279824.660   106571192.861 8      2163.581          48.375    20279823.900   106571192.860 8      2163.581          50.000    20279832.700    83042515.899 8      1685.907          50.812    20279833.740    83042528.902 8      1685.907          52.500
> 2024 10 07 10 24 49.0000000  0 19
R23  23711415.300   126840040.016 6     -1779.872          37.312    23711416.700   126840040.031 6     -1779.872          37.187
G09  21972517.700   115466353.562 7        43.877          45.000    21972516.440   115466353.565 7        43.877          44.937    21972528.100    89973818.772 7        34.190          44.187    21972528.360    89973818.768 7        34.190          47.187
R02  20411195.220   108918047.652 8      2654.279          48.687    20411194.180   108918047.647 8      2654.279          48.062    20411205.680    84714081.885 8      2064.439          48.937    20411206.500    84714082.880 8      2064.439          49.437
G30  21795404.160   114535628.376 7      4851.435          46.750    21795402.520   114535628.379 7      4851.435          47.437    21795415.400    89248589.641 7      3780.339          47.187    21795415.600    89248598.643 8      3780.339          48.875
G19  22810887.620   119872010.861 7      -487.717          44.062    22810885.780   119872010.869 5      -487.717          34.812    22810896.880    93406760.920 5      -380.039          34.687
G04  24792812.840   130287083.637 6      -509.720          39.875    24792811.560   130287083.645 3      -509.720          21.437    24792832.720   101522431.160 3      -397.185          21.312    24792833.420   101522471.065 6      -397.185          41.562
R03  23063535.180   123460921.138 7      4742.416          43.812    23063536.220   123460921.161 7      4742.416          42.937    23063556.180    96025242.925 6      3688.546          38.687    23063556.020    96025242.929 6      3688.546          39.187
G07  21763902.680   114370033.328 7      2929.582          46.437    21763901.020   114370033.333 7      2929.582          45.750    21763909.940    89119514.906 7      2282.791          45.812    21763910.120    89119569.906 7      2282.791          47.875
G05  24740387.360   130011612.597 7      5086.280          43.000    24740385.780   130011612.602 6      5086.280          39.187    24740399.920   101307790.451 6      3963.335          39.125    24740400.820   101307800.459 7      3963.335          43.187
R12  23574705.540   125931871.275 7      5882.505          42.375    23574705.100   125931871.271 6      5882.505          41.937    23574738.320    97947152.957 7      4575.282          45.875    23574738.980    97947154.962 7      4575.282          46.250
G11  21611879.000   113571195.879 7      4978.435          46.625    21611877.400   113571195.882 6      4978.435          36.687    21611885.060    88497055.070 6      3879.300          36.750    21611885.280    88497062.068 8      3879.300          49.437
R17  20241930.840   108318663.706 7      4844.549          46.375    20241932.000   108318663.729 7      4844.549          46.250    20241945.260    84247908.304 8      3767.982          50.000    20241944.760    84247905.308 8      3767.982          50.187
R24  19692129.800   105302655.065 7       498.496          47.562    19692129.880   105302655.072 8       498.496          48.125    19692142.700    81902116.153 8       387.719          50.062    19692143.020    81902118.148 8       387.719          50.750
G17  24089456.960   126590918.527 6      -323.114          40.375    24089455.360   126590918.524 6      -323.114          37.000    24089475.140    98642324.744 6      -251.777          36.875    24089475.420    98642329.734 7      -251.777          42.500
R11  23147575.160   123693640.608 7      3946.169          42.562    23147575.200   123693640.617 6      3946.169          41.250    23147598.620    96206250.179 7      3069.243          46.125    23147598.140    96206251.173 7      3069.243          47.312
G20  22481169.300   118139345.735 7      4803.373          44.562    22481167.500   118139345.740 5      4803.373          32.375    22481177.080    92056668.293 5      3742.888          32.250
R01  21173223.000   113182991.789 7       585.597          42.625    21173223.060   113182991.790 6       585.597          41.750    21173238.160    88031282.223 6       455.464          41.937    21173237.480    88031283.217 6       455.464          41.750
R18  24025045.520   128247321.547 6      6844.931          39.750    24025045.320   128247321.540 6      6844.931          39.625    24025061.800    99747978.919 7      5323.835          44.625    24025062.120    99747975.927 7      5323.835          44.437
G06  20279413.060   106569029.725 8      2162.865          48.500    20279412.280   106569029.730 8      2162.865          50.625    20279421.020    83040830.337 8      1685.350          51.875    20279422.040    83040843.340 8      1685.350          52.625
