     3.05           OBSERVATION DATA    MIXED               RINEX VERSION / TYPE
TPS2RIN 1.0.28.3459 TB                  20241016 133620 UTC PGM / RUN BY / DATE
Win64 build Jun 01, 2022 (c) Topcon Positioning Systems     COMMENT
Insert your comment here                                    COMMENT
SRC: 20241007_GUI34.tps                                     COMMENT
OPT: -v 3.05 -S                                             COMMENT
OPT: -p \Users\Thomas\Travaux\Projets\Volcano\Software\GPS\TCOMMENT
TB                  CSIC                                    OBSERVER / AGENCY
O0M3X53SBGM         TPS HIPER_SR        4.8 HSR Jul,08,2022 REC # / TYPE / VERS
FW: 4.8 HSR Jul,08,2022 p3                                  COMMENT
SN: HiPer SR 1212-12575                                     COMMENT
0001                TPSHIPER_SR                             ANT # / TYPE
        1.8000        0.0000        0.0000                  ANTENNA: DELTA H/E/N
GUI                                                         MARKER NAME
000                                                         MARKER NUMBER
GEODETIC                                                    MARKER TYPE
  5389610.0082 -1594915.7265  3009134.6287                  APPROX POSITION XYZ
  2024    10     7    12    24   53.0000000     GPS         TIME OF FIRST OBS
  2024    10     7    12    39   53.0000000     GPS         TIME OF LAST OBS
     1.000                                                  INTERVAL
   901 EPOCHS                                               COMMENT
G   16 C1C L1C D1C S1C C1W L1W D1W S1W C2W L2W D2W S2W C2X  SYS / # / OBS TYPES
       L2X D2X S2X                                          SYS / # / OBS TYPES
R   16 C1C L1C D1C S1C C1P L1P D1P S1P C2P L2P D2P S2P C2C  SYS / # / OBS TYPES
       L2C D2C S2C                                          SYS / # / OBS TYPES
    17                                                      # OF SATELLITES
   G05   901   901   901   901   901   901   901   901   901PRN / # OF OBS
         901   901   901   901   901   901   901            PRN / # OF OBS
   G06   901   901   901   901   901   901   901   901   901PRN / # OF OBS
         901   901   901   901   901   901   901            PRN / # OF OBS
   G07   901   901   901   901   901   901   901   901   901PRN / # OF OBS
         901   901   901   901   901   901   901            PRN / # OF OBS
   G11   901   901   901   901   901   901   901   901   901PRN / # OF OBS
         901   901   901   901   901   901   901            PRN / # OF OBS
   G13   901   901   901   901   901   901   901   901   901PRN / # OF OBS
         901   901   901     0     0     0     0            PRN / # OF OBS
   G14   901   901   901   901   901   901   901   901   901PRN / # OF OBS
         901   901   901   901   901   901   901            PRN / # OF OBS
   G20   901   901   901   901   901   901   901   901   901PRN / # OF OBS
         901   901   901     0     0     0     0            PRN / # OF OBS
   G22   901   901   901   901   901   901   901   901   901PRN / # OF OBS
         901   901   901     0     0     0     0            PRN / # OF OBS
   G30   901   901   901   901   901   901   901   901   901PRN / # OF OBS
         901   901   901   901   901   901   901            PRN / # OF OBS
   R01   238   238   238   238   238   238   238   238   238PRN / # OF OBS
         238   238   238   238   238   238   238            PRN / # OF OBS
   R02   901   901   901   901   901   901   901   901   901PRN / # OF OBS
         901   901   901   901   901   901   901            PRN / # OF OBS
   R03   901   901   901   901   901   901   901   901   901PRN / # OF OBS
         901   901   901   901   901   901   901            PRN / # OF OBS
   R12   901   901   901   901   901   901   901   901   901PRN / # OF OBS
         901   901   901   901   901   901   901            PRN / # OF OBS
   R13   901   901   901   901   901   901   901   901     0PRN / # OF OBS
           0     0     0     0     0     0     0            PRN / # OF OBS
   R14   901   901   901   901   901   901   901   901   901PRN / # OF OBS
         901   901   901   901   901   901   901            PRN / # OF OBS
   R17   901   901   901   901   901   901   901   901   901PRN / # OF OBS
         901   901   901   901   901   901   901            PRN / # OF OBS
   R18   901   901   901   901   901   901   901   901   901PRN / # OF OBS
         901   901   901   901   901   901   901            PRN / # OF OBS
G L1C                                                       SYS / PHASE SHIFT
G L1W -0.25000                                              SYS / PHASE SHIFT
G L2W  0.00000                                              SYS / PHASE SHIFT
G L2X  0.25000                                              SYS / PHASE SHIFT
R L1C                                                       SYS / PHASE SHIFT
R L1P -0.25000                                              SYS / PHASE SHIFT
R L2P -0.25000                                              SYS / PHASE SHIFT
R L2C                                                       SYS / PHASE SHIFT
  8 R01  1 R02 -4 R03  5 R12 -1 R13 -2 R14 -7 R17  4 R18 -3 GLONASS SLOT / FRQ #
                                                            GLONASS COD/PHS/BIS
               *** Undefined LeapSeconds ***                COMMENT
                                                            END OF HEADER
> 2024 10 07 12 24 53.0000000  0 17
G13  20827528.040   109449401.334 7      3601.424          47.125    20827526.780   109449401.339 6      3601.424          37.687    20827534.640    85285271.461 6      2806.305          37.500
G11  21091376.240   110835926.410 7       844.461          45.750    21091375.220   110835926.415 6       844.461          39.125    21091385.800    86365693.294 6       658.022          38.562    21091386.080    86365693.291 8       658.022          51.812
G30  21306998.560   111969030.458 7      1049.838          46.625    21306997.520   111969030.455 7      1049.838          47.875    21307009.260    87248635.725 8       818.056          48.062    21307009.800    87248640.732 8       818.056          48.937
R14  23872658.620   127254706.568 7      6988.657          42.500    23872659.700   127254706.550 6      6988.657          41.875    23872690.620    98976002.352 6      5435.622          41.250    23872691.540    98976005.355 6      5435.622          41.937
G05  21284999.880   111853431.628 7      4900.505          46.062    21284998.560   111853431.630 7      4900.505          45.875    21285007.320    87158544.807 7      3818.575          45.625    21285007.940    87158549.815 7      3818.575          47.937
R03  21146470.720   113198715.483 7      3823.511          46.000    21146470.780   113198715.500 7      3823.511          44.937    21146484.620    88043503.922 8      2973.842          48.125    21146485.180    88043504.926 7      2973.842          47.375
R13  20635320.040   110191466.949 7      5372.947          43.125    20635319.240   110191466.958 7      5372.947          42.062
G07  23739505.780   124751937.957 6       -82.188          41.250    23739504.500   124751937.962 6       -82.188          39.250    23739519.580    97209360.256 6       -64.042          38.562    23739520.020    97209385.251 7       -64.042          46.812
R17  21406864.240   114552429.872 7      -679.380          45.500    21406864.500   114552429.887 7      -679.380          44.875    21406885.620    89096425.623 8      -528.407          48.500    21406885.320    89096424.622 8      -528.407          48.750
G06  23430083.000   123125889.584 7      -860.685          42.437    23430082.140   123125889.581 6      -860.685          40.750    23430107.640    95942340.910 6      -670.664          41.062    23430108.420    95942345.904 7      -670.664          44.875
R18  20883894.080   111479641.436 8      2292.599          48.687    20883896.360   111479641.445 7      2292.599          47.562    20883908.380    86706448.545 8      1783.132          48.062    20883908.400    86706449.548 8      1783.132          48.375
R01  23812261.280   127290164.694 6       849.608          38.937    23812260.460   127290164.714 6       849.608          38.375    23812295.860    99003608.938 5       660.806          35.875    23812295.760    99003604.943 6       660.806          36.500
R12  21064805.340   112524404.468 7      2109.662          47.062    21064804.400   112524404.464 7      2109.662          46.750    21064822.300    87519055.261 8      1640.848          48.750    21064822.420    87519055.266 8      1640.848          48.812
R02  21124128.500   112722395.542 8      1955.662          48.687    21124127.220   112722395.532 7      1955.662          46.875    21124142.940    87673030.238 7      1521.071          47.937    21124143.520    87673035.242 7      1521.071          47.812
G20  20096469.360   105607655.504 7      3409.716          45.875    20096466.040   105607655.509 6      3409.716          40.562    20096474.220    82291697.033 6      2656.922          39.625
G22  23854961.840   125358666.593 7      5153.123          42.625    23854962.460   125358666.603 4      5153.123          29.187    23854992.480    97682093.713 4      4015.420          29.250
G14  23382045.160   122873488.163 7      4765.206          44.375    23382043.500   122873488.173 5      4765.206          31.375    23382070.600    95745661.042 5      3713.148          31.187    23382070.880    95745689.075 7      3713.148          45.875
> 2024 10 07 12 24 54.0000000  0 17
G13  20826842.660   109445800.009 7      3601.146          46.750    20826841.480   109445800.011 6      3601.146          37.562    20826849.480    85282465.231 6      2806.087          37.500
G11  21091215.880   110835082.314 7       843.809          46.937    21091214.540   110835082.324 6       843.809          38.875    21091224.940    86365035.556 6       657.513          38.375    21091225.460    86365035.552 8       657.513          51.375
G30  21306798.920   111967980.783 7      1049.421          47.437    21306797.860   111967980.783 8      1049.421          48.000    21306809.380    87247817.795 8       817.731          48.062    21306810.040    87247822.797 8       817.731          49.125
R14  23871347.680   127247717.889 7      6988.730          42.562    23871347.640   127247717.881 6      6988.730          41.875    23871379.540    98970566.714 6      5435.679          41.250    23871380.380    98970569.717 6      5435.679          41.500
G05  21284067.160   111848531.249 7      4900.223          46.812    21284066.000   111848531.254 7      4900.223          46.375    21284074.920    87154726.334 7      3818.355          46.375    21284075.420    87154731.344 8      3818.355          48.500
R03  21145756.680   113194892.012 7      3823.393          46.562    21145756.500   113194892.035 7      3823.393          45.375    21145770.420    88040530.110 8      2973.750          48.250    21145770.940    88040531.111 8      2973.750          48.125
R13  20634313.560   110186094.298 7      5372.230          42.625    20634312.860   110186094.302 7      5372.230          42.062
G07  23739521.440   124752020.153 6       -82.318          41.000    23739520.100   124752020.156 6       -82.318          39.562    23739535.380    97209424.297 6       -64.144          38.625    23739535.900    97209449.300 7       -64.144          47.000
R17  21406991.020   114553109.430 7      -679.710          46.125    21406991.500   114553109.444 7      -679.710          44.437    21407012.840    89096954.151 8      -528.663          48.250    21407012.560    89096953.150 8      -528.663          48.937
G06  23430246.720   123126750.317 7      -860.838          42.125    23430245.940   123126750.316 6      -860.838          40.937    23430271.340    95943011.582 6      -670.783          40.687    23430272.220    95943016.578 7      -670.783          45.437
R18  20883464.860   111477349.270 7      2291.731          47.687    20883466.920   111477349.287 7      2291.731          47.875    20883479.120    86704665.749 8      1782.458          49.000    20883479.080    86704666.752 8      1782.458          49.062
R01  23812102.440   127289315.106 6       849.570          39.062    23812101.560   127289315.110 6       849.570          38.375    23812137.600    99002948.094 5       660.776          35.875    23812136.860    99002944.103 6       660.776          36.312
R12  21064410.320   112522295.213 7      2108.789          46.937    21064409.740   112522295.208 7      2108.789          46.625    21064427.400    87517414.733 8      1640.169          49.125    21064427.580    87517414.734 8      1640.169          49.625
R02  21123761.900   112720439.854 8      1955.643          48.187    21123760.820   112720439.850 7      1955.643          47.000    21123776.420    87671509.147 8      1521.056          48.437    21123777.000    87671514.152 8      1521.056          48.437
G20  20095820.780   105604246.016 7      3409.191          46.000    20095817.140   105604246.021 6      3409.191          40.125    20095825.460    82289040.287 6      2656.513          39.687
G22  23853981.420   125353513.373 7      5153.216          43.062    23853981.760   125353513.386 4      5153.216          29.187    23854011.860    97678078.214 4      4015.493          29.250
G14  23381138.080   122868722.925 7      4765.081          43.625    23381136.760   122868722.930 5      4765.081          31.375    23381163.780    95741947.888 5      3713.050          31.500    23381164.000    95741975.918 7      3713.050          45.937
> 2024 10 07 12 24 55.0000000  0 17
G13  20826157.340   109442199.067 7      3600.711          46.250    20826156.200   109442199.071 6      3600.711          37.750    20826164.160    85279659.302 6      2805.749          37.500
G11  21091055.400   110834238.857 7       843.051          46.437    21091054.060   110834238.870 6       843.051          39.562    21091064.420    86364378.311 6       656.923          38.625    21091064.920    86364378.307 8       656.923          51.437
G30  21306599.120   111966931.689 7      1048.764          47.062    21306598.280   111966931.686 7      1048.764          47.937    21306609.720    87247000.317 7       817.219          47.750    21306610.560    87247005.321 8       817.219          48.750
R14  23870037.220   127240729.207 7      6988.625          42.375    23870037.120   127240729.207 6      6988.625          41.687    23870068.680    98965131.067 6      5435.597          41.812    23870069.340    98965134.078 6      5435.597          41.500
G05  21283134.800   111843631.183 7      4899.936          46.625    21283133.520   111843631.188 7      4899.936          46.562    21283142.280    87150908.103 7      3818.132          46.312    21283142.860    87150913.107 8      3818.132          48.625
R03  21145042.240   113191068.637 7      3823.221          45.500    21145042.240   113191068.657 7      3823.221          45.187    21145056.200    88037556.368 8      2973.616          48.375    21145056.840    88037557.369 8      2973.616          48.500
R13  20633307.620   110180722.343 7      5371.514          43.125    20633306.880   110180722.347 7      5371.514          42.312
G07  23739536.940   124752102.673 6       -82.793          40.812    23739535.780   124752102.673 6       -82.793          39.500    23739550.980    97209488.586 6       -64.514          38.562    23739551.520    97209513.587 7       -64.514          46.875
R17  21407117.840   114553789.498 7      -680.396          45.687    21407118.500   114553789.521 7      -680.396          44.812    21407140.080    89097483.086 8      -529.197          48.500    21407139.440    89097482.083 8      -529.197          49.000
G06  23430410.660   123127611.249 7      -861.066          42.562    23430409.760   123127611.246 6      -861.066          41.187    23430435.340    95943682.408 6      -670.961          41.375    23430436.200    95943687.404 7      -670.961          45.187
R18  20883035.680   111475058.043 7      2290.707          47.187    20883037.560   111475058.054 7      2290.707          47.812    20883050.120    86702883.681 8      1781.661          49.125    20883049.940    86702884.687 8      1781.661          48.875
R01  23811943.940   127288465.623 6       849.375          39.062    23811943.140   127288465.635 6       849.375          38.375    23811978.860    99002287.361 5       660.625          35.875    23811978.160    99002283.348 6       660.625          36.312
R12  21064015.860   112520186.914 7      2107.844          47.375    21064015.020   112520186.904 7      2107.844          46.750    21064032.820    87515774.941 8      1639.434          49.375    21064033.020    87515774.941 8      1639.434          49.375
R02  21123395.480   112718484.314 8      1955.453          48.187    21123394.380   112718484.304 7      1955.453          46.750    21123410.040    87669988.163 8      1520.908          48.500    21123410.560    87669993.165 8      1520.908          48.437
G20  20095171.780   105600837.059 7      3408.615          45.625    20095168.460   105600837.066 6      3408.615          40.687    20095176.660    82286383.957 6      2656.064          40.250
G22  23853000.660   125348360.275 7      5153.104          43.500    23853001.040   125348360.285 4      5153.104          29.187    23853031.380    97674062.808 4      4015.406          29.125
G14  23380231.160   122863957.967 7      4764.746          43.312    23380229.920   122863957.977 5      4764.746          31.500    23380257.040    95738234.952 5      3712.789          31.500    23380257.280    95738262.983 7      3712.789          46.062
> 2024 10 07 12 24 56.0000000  0 17
G13  20825472.300   109438598.432 8      3600.423          48.000    20825471.080   109438598.437 6      3600.423          37.187    20825478.900    85276853.613 6      2805.525          37.062
G11  21090894.880   110833395.942 7       842.535          47.375    21090893.740   110833395.949 6       842.535          39.187    21090904.020    86363721.485 6       656.521          38.750    21090904.680    86363721.481 8       656.521          51.562
G30  21306399.640   111965883.062 8      1048.254          48.187    21306398.680   111965883.062 8      1048.254          48.687    21306410.220    87246183.203 8       816.821          48.500    21306410.900    87246188.211 8       816.821          49.062
R14  23868726.200   127233740.402 7      6988.750          42.375    23868726.300   127233740.397 6      6988.750          41.937    23868757.400    98959695.325 6      5435.695          41.187    23868758.520    98959698.332 6      5435.695          41.750
G05  21282202.400   111838731.359 7      4899.626          47.687    21282201.140   111838731.367 7      4899.626          46.750    21282209.960    87147090.067 7      3817.890          46.687    21282210.300    87147095.077 8      3817.890          48.687
R03  21144328.340   113187245.270 7      3823.276          47.562    21144327.820   113187245.296 7      3823.276          45.250    21144342.240    88034582.642 8      2973.659          48.187    21144342.540    88034583.642 8      2973.659          48.062
R13  20632301.940   110175351.024 7      5370.925          43.812    20632301.280   110175351.031 7      5370.925          42.875
G07  23739552.820   124752185.345 6       -82.915          40.875    23739551.640   124752185.342 6       -82.915          39.250    23739566.700    97209552.996 6       -64.609          38.812    23739567.200    97209578.003 7       -64.609          46.750
R17  21407244.840   114554469.959 7      -680.759          46.437    21407245.760   114554469.982 7      -680.759          46.687    21407266.920    89098012.315 8      -529.479          48.937    21407266.800    89098011.315 8      -529.479          48.750
G06  23430574.480   123128472.305 7      -861.225          43.562    23430573.580   123128472.305 6      -861.225          41.562    23430599.160    95944353.336 6      -671.084          41.312    23430599.860    95944358.330 7      -671.084          45.375
R18  20882606.720   111472767.686 8      2289.837          50.000    20882608.400   111472767.698 8      2289.837          48.250    20882620.980    86701102.284 8      1780.984          48.437    20882621.220    86701103.290 8      1780.984          49.312
R01  23811784.580   127287616.192 6       849.288          39.062    23811783.860   127287616.207 6       849.288          38.375    23811819.880    99001626.654 5       660.557          35.625    23811819.580    99001622.648 6       660.557          36.312
R12  21063621.520   112518079.477 8      2106.889          48.687    21063620.460   112518079.473 8      2106.889          48.562    21063638.160    87514135.830 8      1638.691          48.812    21063638.620    87514135.833 8      1638.691          49.312
R02  21123029.520   112716528.850 8      1955.281          48.812    21123027.720   112716528.848 8      1955.281          48.625    21123043.660    87668467.245 8      1520.774          48.375    21123043.860    87668472.249 8      1520.774          48.062
G20  20094523.060   105597428.548 7      3408.184          46.375    20094519.980   105597428.556 6      3408.184          40.375    20094528.000    82283727.974 6      2655.728          39.687
G22  23852019.800   125343207.179 7      5153.127          43.812    23852020.500   125343207.190 4      5153.127          29.187    23852050.860    97670047.401 4      4015.424          29.125
G14  23379324.620   122859193.197 7      4764.584          42.250    23379323.220   122859193.204 5      4764.584          31.500    23379350.280    95734522.161 5      3712.663          31.500    23379350.460    95734550.190 7      3712.663          45.750
> 2024 10 07 12 24 57.0000000  0 17
G13  20824787.220   109434998.036 8      3600.344          48.437    20824786.100   109434998.038 6      3600.344          38.187    20824793.820    85274048.114 6      2805.463          37.500
G11  21090734.620   110832553.486 8       842.360          48.062    21090733.520   110832553.494 6       842.360          39.625    21090743.660    86363065.020 6       656.384          39.375    21090744.280    86363065.018 8       656.384          51.937
G30  21306200.120   111964834.809 7      1048.224          47.812    21306199.180   111964834.803 8      1048.224          48.750    21306210.700    87245366.378 8       816.798          48.187    21306211.520    87245371.380 8       816.798          49.125
R14  23867415.240   127226751.362 7      6989.383          42.937    23867414.800   127226751.366 6      6989.383          41.937    23867446.820    98954259.395 6      5436.187          41.187    23867447.380    98954262.411 6      5436.187          41.687
G05  21281270.200   111833831.662 7      4899.834          47.187    21281268.740   111833831.666 7      4899.834          47.375    21281277.560    87143272.118 7      3818.052          46.437    21281277.980    87143277.126 8      3818.052          48.187
R03  21143613.980   113183421.850 7      3823.622          47.875    21143613.420   113183421.868 7      3823.622          46.562    21143627.880    88031608.871 8      2973.928          48.625    21143628.300    88031609.872 8      2973.928          48.562
R13  20631296.340   110169980.226 7      5370.744          43.812    20631295.260   110169980.232 7      5370.744          42.875
G07  23739568.420   124752268.131 6       -82.752          40.937    23739567.280   124752268.133 6       -82.752          39.500    23739582.560    97209617.502 6       -64.482          38.625    23739582.960    97209642.501 7       -64.482          47.000
R17  21407372.520   114555150.710 7      -680.703          47.125    21407373.000   114555150.730 7      -680.703          46.312    21407394.160    89098541.767 8      -529.436          48.125    21407393.820    89098540.762 8      -529.436          48.750
G06  23430738.420   123129333.366 7      -860.861          43.062    23430737.500   123129333.361 6      -860.861          40.500    23430763.040    95945024.266 6      -670.801          40.875    23430764.140    95945029.260 7      -670.801          45.562
R18  20882177.880   111470478.117 8      2289.332          49.562    20882179.540   111470478.128 8      2289.332          48.687    20882192.280    86699321.506 8      1780.592          49.062    20882192.280    86699322.514 8      1780.592          49.437
R01  23811626.060   127286766.695 6       849.720          39.937    23811624.160   127286766.699 6       849.720          38.812    23811661.300    99000965.892 5       660.894          35.625    23811660.300    99000961.881 6       660.894          36.312
R12  21063227.060   112515972.770 8      2106.435          48.437    21063225.980   112515972.771 8      2106.435          48.750    21063243.920    87512497.286 8      1638.339          49.187    21063244.240    87512497.291 8      1638.339          49.625
R02  21122662.640   112714573.368 8      1955.647          49.000    21122661.520   112714573.361 7      1955.647          47.687    21122677.080    87666946.310 8      1521.059          48.562    21122677.580    87666951.314 8      1521.059          48.625
G20  20093874.340   105594020.403 7      3408.160          45.437    20093871.360   105594020.410 6      3408.160          40.750    20093879.440    82281072.277 6      2655.709          40.312
G22  23851039.120   125338054.018 7      5153.356          42.875    23851039.880   125338054.028 4      5153.356          28.812    23851070.400    97666031.951 4      4015.602          29.125
G14  23378418.180   122854428.538 7      4764.778          43.625    23378416.640   122854428.548 5      4764.778          31.500    23378443.400    95730809.450 5      3712.814          31.500    23378443.760    95730837.481 7      3712.814          45.562
> 2024 10 07 12 24 58.0000000  0 17
G13  20824102.400   109431397.922 7      3599.971          47.250    20824100.980   109431397.927 6      3599.971          37.375    20824108.720    85271242.830 6      2805.172          37.125
G11  21090574.300   110831711.582 7       841.699          47.812    21090573.220   110831711.592 6       841.699          39.125    21090583.440    86362408.987 6       655.870          39.187    21090583.940    86362408.983 8       655.870          51.750
G30  21306000.780   111963787.026 8      1047.584          48.000    21305999.640   111963787.025 8      1047.584          48.000    21306011.360    87244549.920 7       816.299          47.812    21306011.900    87244554.926 8       816.299          48.500
R14  23866104.460   127219762.230 7      6989.259          43.000    23866103.480   127219762.228 7      6989.259          42.250    23866135.860    98948823.395 6      5436.091          41.750    23866136.540    98948826.406 6      5436.091          41.875
G05  21280337.620   111828932.224 7      4899.322          46.250    21280336.340   111828932.231 7      4899.322          46.437    21280345.300    87139454.379 7      3817.653          46.125    21280345.720    87139459.387 8      3817.653          49.250
R03  21142899.960   113179598.430 7      3823.434          46.687    21142898.900   113179598.459 7      3823.434          46.937    21142913.920    88028635.106 8      2973.782          48.687    21142914.220    88028636.110 8      2973.782          48.250
R13  20630290.720   110164610.074 7      5369.806          43.812    20630289.720   110164610.083 7      5369.806          43.562
G07  23739583.820   124752351.123 6       -83.141          40.312    23739582.920   124752351.126 6       -83.141          39.937    23739598.300    97209682.163 6       -64.785          39.187    23739598.520    97209707.166 7       -64.785          46.812
R17  21407499.760   114555831.827 7      -681.315          46.500    21407500.220   114555831.839 7      -681.315          45.562    21407521.400    89099071.504 8      -529.912          48.187    21407521.020    89099070.501 8      -529.912          48.625
G06  23430902.460   123130194.593 7      -861.351          42.437    23430901.280   123130194.590 6      -861.351          41.000    23430927.060    95945695.325 6      -671.182          40.750    23430928.000    95945700.317 7      -671.182          45.562
R18  20881748.900   111468189.401 7      2288.272          47.562    20881750.440   111468189.408 7      2288.272          47.937    20881763.700    86697541.392 8      1779.767          49.000    20881763.700    86697542.398 8      1779.767          49.375
R01  23811466.960   127285917.244 6       849.343          39.937    23811465.660   127285917.250 6       849.343          38.812    23811503.260    99000305.153 5       660.600          35.625    23811501.820    99000301.140 6       660.600          36.125
R12  21062832.740   112513866.936 7      2105.404          47.500    21062831.820   112513866.932 7      2105.404          47.187    21062849.760    87510859.413 8      1637.537          49.000    21062849.800    87510859.418 8      1637.537          49.437
R02  21122296.240   112712617.979 8      1955.333          48.312    21122294.940   112712617.985 7      1955.333          47.625    21122310.740    87665425.452 8      1520.815          48.812    21122311.140    87665430.459 8      1520.815          48.062
G20  20093225.940   105590612.720 7      3407.500          45.375    20093222.920   105590612.727 6      3407.500          41.125    20093231.060    82278416.939 6      2655.195          40.625
G22  23850058.500   125332900.851 7      5153.128          42.937    23850059.340   125332900.862 4      5153.128          28.812    23850089.760    97662016.498 4      4015.425          29.125
G14  23377511.580   122849664.068 7      4764.390          44.125    23377509.940   122849664.078 5      4764.390          31.250    23377536.720    95727096.890 5      3712.512          31.500    23377537.500    95727124.915 7      3712.512          45.625
> 2024 10 07 12 24 59.0000000  0 17
G13  20823417.300   109427798.159 7      3599.463          47.375    20823415.960   109427798.164 6      3599.463          37.687    20823423.600    85268437.820 6      2804.776          37.500
G11  21090414.120   110830870.288 7       840.874          47.500    21090413.200   110830870.293 6       840.874          39.312    21090423.420    86361753.420 6       655.227          38.562    21090423.720    86361753.410 8       655.227          51.187
G30  21305801.440   111962739.750 7      1046.907          47.937    21305800.440   111962739.752 7      1046.907          47.812    21305812.000    87243733.862 7       815.771          47.437    21305812.240    87243738.869 8       815.771          48.937
R14  23864793.440   127212772.982 7      6989.167          43.000    23864792.380   127212772.980 7      6989.167          42.250    23864824.280    98943387.314 7      5436.019          42.000    23864825.280    98943390.323 6      5436.019          41.875
G05  21279405.380   111824033.017 7      4899.013          46.437    21279404.100   111824033.022 7      4899.013          46.187    21279412.880    87135636.815 7      3817.412          46.187    21279413.240    87135641.821 8      3817.412          48.062
R03  21142185.500   113175775.077 7      3823.272          45.812    21142184.700   113175775.097 7      3823.272          45.625    21142199.780    88025661.381 8      2973.656          48.687    21142200.200    88025662.382 8      2973.656          48.625
R13  20629285.340   110159240.551 7      5368.966          43.562    20629283.820   110159240.571 7      5368.966          42.250
G07  23739600.060   124752434.305 6       -83.302          40.812    23739598.860   124752434.308 6       -83.302          39.437    23739614.140    97209746.968 6       -64.910          38.562    23739614.700    97209771.971 7       -64.910          46.750
R17  21407627.200   114556513.369 7      -681.871          46.000    21407627.600   114556513.379 7      -681.871          44.875    21407649.140    89099601.572 8      -530.344          48.875    21407648.580    89099600.569 8      -530.344          48.562
G06  23431066.380   123131055.917 7      -861.508          43.000    23431065.240   123131055.917 6      -861.508          40.937    23431091.120    95946366.462 6      -671.305          40.875    23431092.060    95946371.460 7      -671.305          45.562
R18  20881320.340   111465901.506 7      2287.406          46.687    20881321.840   111465901.514 7      2287.406          47.750    20881335.140    86695761.913 8      1779.094          49.625    20881335.100    86695762.921 8      1779.094          49.437
R01  23811308.660   127285067.859 6       849.205          39.937    23811306.480   127285067.849 6       849.205          38.812    23811343.520    98999644.479 5       660.493          35.625    23811342.780    98999640.470 6       660.493          36.125
R12  21062438.660   112511761.976 7      2104.458          46.937    21062437.800   112511761.972 7      2104.458          46.625    21062455.520    87509222.220 8      1636.801          49.000    21062455.800    87509222.225 8      1636.801          49.562
R02  21121929.700   112710662.636 8      1955.210          48.312    21121928.680   112710662.639 7      1955.210          47.000    21121944.320    87663904.630 8      1520.719          48.500    21121944.940    87663909.634 8      1520.719          48.500
G20  20092577.520   105587205.513 7      3406.888          46.000    20092574.600   105587205.517 6      3406.888          40.812    20092582.700    82275761.971 6      2654.718          40.375
G22  23849078.140   125327747.748 7      5152.888          42.812    23849078.640   125327747.761 4      5152.888          28.812    23849109.300    97658001.087 4      4015.237          29.125
G14  23376604.880   122844899.832 7      4763.949          43.562    23376603.300   122844899.842 5      4763.949          31.250    23376630.060    95723384.514 5      3712.168          31.500    23376630.720    95723412.544 7      3712.168          45.750
> 2024 10 07 12 25  0.0000000  0 17
G13  20822732.340   109424198.752 7      3599.131          46.937    20822731.060   109424198.759 6      3599.131          37.687    20822738.660    85265633.085 6      2804.518          37.687
G11  21090254.240   110830029.571 7       840.206          47.250    21090253.140   110830029.579 6       840.206          39.000    21090263.360    86361098.315 6       654.706          38.875    21090263.900    86361098.311 8       654.706          51.375
G30  21305602.220   111961692.996 7      1046.349          47.250    21305601.180   111961693.001 7      1046.349          47.812    21305612.800    87242918.213 7       815.337          47.625    21305613.100    87242923.217 8       815.337          48.562
R14  23863482.000   127205783.655 7      6989.291          42.562    23863481.020   127205783.664 6      6989.291          41.937    23863513.420    98937951.166 7      5436.115          42.000    23863513.660    98937954.173 7      5436.115          42.187
G05  21278473.320   111819134.121 7      4898.575          45.875    21278472.020   111819134.126 7      4898.575          46.687    21278480.720    87131819.499 7      3817.071          46.500    21278481.300    87131824.503 8      3817.071          48.562
R03  21141471.440   113171951.804 7      3823.122          46.812    21141470.740   113171951.833 7      3823.122          44.937    21141485.780    88022687.741 8      2973.539          48.687    21141485.680    88022688.742 8      2973.539          48.250
R13  20628279.600   110153871.705 7      5368.350          42.750    20628278.280   110153871.727 7      5368.350          42.250
G07  23739616.300   124752517.755 6       -83.524          40.625    23739614.660   124752517.755 6       -83.524          39.125    23739630.020    97209811.986 6       -65.084          38.562    23739630.500    97209836.989 7       -65.084          46.687
R17  21407754.740   114557195.377 7      -682.340          45.000    21407755.440   114557195.387 7      -682.340          45.062    21407776.420    89100132.008 8      -530.709          48.187    21407776.260    89100131.007 8      -530.709          48.500
G06  23431230.020   123131917.446 7      -861.760          42.500    23431229.180   123131917.446 6      -861.760          40.250    23431255.000    95947037.757 6      -671.501          39.625    23431256.100    95947042.746 7      -671.501          45.687
R18  20880892.120   111463614.520 7      2286.409          46.250    20880893.440   111463614.523 7      2286.409          47.750    20880906.800    86693983.143 8      1778.318          49.312    20880906.840    86693984.148 8      1778.318          49.500
R01  23811149.580   127284218.576 6       849.001          39.187    23811147.320   127284218.547 6       849.001          38.687    23811185.160    98998983.884 5       660.334          35.625    23811184.040    98998979.879 6       660.334          36.125
R12  21062044.920   112509657.926 7      2103.460          47.000    21062043.940   112509657.925 7      2103.460          46.000    21062061.660    87507585.741 8      1636.025          49.062    21062062.020    87507585.746 8      1636.025          49.437
R02  21121563.460   112708707.365 8      1955.065          48.875    21121562.200   112708707.371 7      1955.065          46.875    21121577.760    87662383.857 8      1520.606          48.562    21121578.360    87662388.859 8      1520.606          48.125
G20  20091929.200   105583798.818 7      3406.306          45.250    20091926.260   105583798.822 6      3406.306          41.062    20091934.460    82273107.401 6      2654.265          40.875
G22  23848097.700   125322594.697 7      5152.880          42.625    23848098.160   125322594.707 4      5152.880          28.812    23848128.560    97653985.718 4      4015.231          28.562
G14  23375698.160   122840135.819 7      4763.777          43.812    23375696.820   122840135.826 5      4763.777          31.250    23375723.520    95719672.309 5      3712.034          31.187    23375724.300    95719700.340 7      3712.034          46.000
> 2024 10 07 12 25  1.0000000  0 17
G13  20822047.260   109420599.770 7      3598.653          47.437    20822046.260   109420599.777 6      3598.653          37.375    20822053.800    85262828.682 6      2804.146          37.312
G11  21090094.340   110829189.528 7       839.533          47.125    21090093.360   110829189.535 6       839.533          38.875    21090103.580    86360443.729 6       654.182          38.625    21090104.060    86360443.725 8       654.182          50.000
G30  21305403.340   111960646.832 7      1045.713          47.062    21305402.220   111960646.837 7      1045.713          47.625    21305413.660    87242103.017 7       814.842          47.375    21305414.260    87242108.017 8       814.842          48.687
R14  23862170.560   127198794.344 7      6989.184          42.562    23862169.920   127198794.347 7      6989.184          42.187    23862202.220    98932515.019 6      5436.032          41.875    23862202.580    98932518.022 6      5436.032          41.750
G05  21277541.040   111814235.556 7      4898.206          46.312    21277539.880   111814235.568 7      4898.206          46.750    21277548.500    87128002.437 7      3816.784          46.687    21277549.040    87128007.442 8      3816.784          48.562
R03  21140757.040   113168128.692 7      3822.860          46.750    21140756.720   113168128.718 7      3822.860          44.812    21140771.700    88019714.211 7      2973.335          47.937    21140771.700    88019715.206 8      2973.335          48.375
R13  20627274.500   110148503.627 7      5367.526          42.187    20627273.720   110148503.652 7      5367.526          42.312
G07  23739632.460   124752601.539 6       -84.002          39.562    23739630.620   124752601.546 6       -84.002          38.375    23739645.940    97209877.268 6       -65.456          37.562    23739646.100    97209902.271 7       -65.456          46.625
R17  21407882.460   114557877.926 7      -683.009          45.375    21407882.420   114557877.935 7      -683.009          44.750    21407904.000    89100662.860 7      -531.229          47.875    21407903.540    89100661.862 8      -531.229          48.312
G06  23431393.900   123132779.214 7      -862.132          42.125    23431393.000   123132779.214 6      -862.132          40.125    23431418.780    95947709.236 6      -671.791          40.437    23431420.060    95947714.223 7      -671.791          45.250
R18  20880463.920   111461328.506 7      2285.349          46.625    20880465.100   111461328.512 7      2285.349          47.437    20880478.740    86692205.125 8      1777.494          49.062    20880478.520    86692206.131 8      1777.494          49.312
R01  23810991.100   127283369.394 6       849.031          39.187    23810988.860   127283369.390 6       849.031          38.687    23811026.720    98998323.387 5       660.357          35.500    23811025.460    98998319.383 6       660.357          36.125
R12  21061651.100   112507554.838 7      2102.475          46.375    21061650.320   112507554.834 7      2102.475          46.562    21061668.080    87505950.010 8      1635.258          49.125    21061668.320    87505950.017 8      1635.258          49.000
R02  21121196.580   112706752.229 8      1954.914          48.437    21121195.960   112706752.225 7      1954.914          46.937    21121211.260    87660863.188 8      1520.489          48.062    21121211.880    87660868.192 8      1520.489          48.000
G20  20091281.120   105580392.690 7      3405.627          46.062    20091278.100   105580392.698 6      3405.627          41.312    20091286.360    82270453.276 6      2653.736          40.562
G22  23847116.680   125317441.772 7      5152.827          42.687    23847117.600   125317441.780 4      5152.827          28.375    23847147.880    97649970.448 4      4015.190          28.562
G14  23374791.400   122835372.121 7      4763.393          43.062    23374790.380   122835372.129 5      4763.393          31.187    23374816.880    95715960.357 5      3711.735          31.187    23374817.720    95715988.395 7      3711.735          45.750
> 2024 10 07 12 25  2.0000000  0 17
G13  20821362.560   109417001.158 7      3598.607          47.250    20821361.380   109417001.163 6      3598.607          37.750    20821369.200    85260024.569 6      2804.109          37.875
G11  21089934.680   110828350.088 7       839.340          46.875    21089933.700   110828350.093 6       839.340          39.250    21089943.900    86359789.614 6       654.031          39.062    21089944.220    86359789.608 8       654.031          51.125
G30  21305204.300   111959601.224 7      1045.399          46.625    21305203.220   111959601.229 7      1045.399          47.687    21305214.760    87241288.256 7       814.597          47.875    21305215.280    87241293.254 8       814.597          48.562
R14  23860859.640   127191804.931 7      6989.745          43.000    23860858.600   127191804.935 7      6989.745          42.187    23860890.800    98927078.815 6      5436.468          41.875    23860891.560    98927081.822 6      5436.468          41.812
G05  21276608.720   111809337.311 7      4898.152          46.375    21276607.800   111809337.310 7      4898.152          46.250    21276616.340    87124185.617 7      3816.742          46.625    21276617.200    87124190.623 8      3816.742          48.500
R03  21140042.720   113164305.684 7      3823.018          46.500    21140042.400   113164305.715 7      3823.018          44.875    21140057.780    88016740.752 8      2973.458          49.125    21140057.340    88016741.753 8      2973.458          48.875
R13  20626269.260   110143136.238 6      5367.170          40.250    20626268.280   110143136.250 7      5367.170          42.312
G07  23739648.520   124752685.593 6       -84.113          40.437    23739646.680   124752685.598 6       -84.113          39.125    23739661.960    97209942.754 6       -65.543          38.562    23739662.020    97209967.751 7       -65.543          47.125
R17  21408010.280   114558560.865 7      -682.950          45.625    21408010.200   114558560.869 7      -682.950          43.937    21408031.600    89101194.016 8      -531.183          48.875    21408031.360    89101193.018 8      -531.183          48.500
G06  23431558.340   123133641.124 7      -861.779          42.437    23431557.080   123133641.126 6      -861.779          40.437    23431582.980    95948380.821 6      -671.516          40.250    23431584.340    95948385.811 7      -671.516          45.437
R18  20880035.800   111459043.423 7      2284.812          46.437    20880037.040   111459043.429 7      2284.812          47.437    20880050.560    86690427.839 8      1777.076          49.062    20880050.200    86690428.846 8      1777.076          49.812
R01  23810831.800   127282520.410 6       848.970          39.187    23810830.300   127282520.408 6       848.970          38.687    23810867.460    98997663.010 5       660.310          35.500    23810866.320    98997659.021 6       660.310          36.375
R12  21061257.380   112505452.717 7      2101.799          47.250    21061256.560   112505452.705 7      2101.799          46.937    21061274.600    87504315.014 8      1634.732          49.375    21061274.580    87504315.021 8      1634.732          49.187
R02  21120830.300   112704797.252 8      1954.930          48.312    21120829.440   112704797.242 7      1954.930          47.375    21120845.020    87659342.643 8      1520.501          48.500    21120845.540    87659347.645 8      1520.501          48.187
G20  20090633.260   105576987.067 7      3405.463          46.187    20090630.060   105576987.075 6      3405.463          40.937    20090638.300    82267799.542 6      2653.607          40.500
G22  23846136.000   125312288.942 7      5152.901          42.625    23846136.980   125312288.944 4      5152.901          28.375    23846167.360    97645955.253 4      4015.248          28.562
G14  23373884.840   122830608.702 7      4763.441          43.500    23373883.860   122830608.712 5      4763.441          31.187    23373910.640    95712248.621 5      3711.772          31.187    23373911.020    95712276.644 7      3711.772          46.062
> 2024 10 07 12 25  3.0000000  0 17
G13  20820678.000   109413403.036 7      3598.013          47.312    20820676.660   109413403.043 6      3598.013          36.937    20820684.480    85257220.839 6      2803.646          37.250
G11  21089775.040   110827511.448 7       838.409          47.562    21089774.120   110827511.453 6       838.409          39.250    21089784.380    86359136.116 6       653.306          39.062    21089784.520    86359136.114 8       653.306          51.125
G30  21305005.360   111958556.218 8      1044.751          48.125    21305004.440   111958556.218 7      1044.751          47.937    21305015.880    87240473.962 7       814.092          47.812    21305016.600    87240478.964 8       814.092          48.687
R14  23859548.940   127184815.708 7      6989.353          42.500    23859547.280   127184815.701 6      6989.353          41.500    23859579.960    98921642.742 6      5436.164          41.687    23859580.520    98921645.747 6      5436.164          41.812
G05  21275676.660   111804439.421 7      4897.766          46.500    21275675.900   111804439.425 7      4897.766          46.562    21275684.280    87120369.088 7      3816.441          46.687    21275684.720    87120374.094 8      3816.441          49.000
R03  21139328.600   113160482.796 7      3822.921          45.562    21139328.360   113160482.825 7      3822.921          44.937    21139343.580    88013767.393 8      2973.383          48.500    21139343.020    88013768.390 8      2973.383          48.687
R13  20625264.020   110137769.680 6      5366.240          40.250    20625262.720   110137769.697 6      5366.240          41.625
G07  23739664.340   124752769.971 6       -84.635          40.062    23739662.740   124752769.970 6       -84.635          39.125    23739678.000    97210008.487 6       -65.949          38.625    23739678.060    97210033.482 7       -65.949          46.687
R17  21408138.060   114559244.417 7      -683.630          44.812    21408138.100   114559244.429 7      -683.630          43.937    21408159.520    89101725.657 8      -531.712          48.062    21408159.100    89101724.657 8      -531.712          49.187
G06  23431722.340   123134503.441 6      -862.332          41.312    23431721.040   123134503.433 6      -862.332          40.937    23431747.180    95949052.726 6      -671.947          40.750    23431748.140    95949057.717 7      -671.947          45.687
R18  20879607.560   111456759.413 7      2283.568          45.687    20879609.120   111456759.425 7      2283.568          47.437    20879622.640    86688651.391 8      1776.108          49.625    20879622.520    86688652.399 8      1776.108          50.250
R01  23810672.660   127281671.546 6       848.913          39.375    23810671.840   127281671.542 6       848.913          38.687    23810708.640    98997002.753 5       660.266          35.500    23810707.580    98996998.752 6       660.266          36.375
R12  21060864.360   112503351.589 7      2100.641          47.000    21060863.060   112503351.580 7      2100.641          46.625    21060881.220    87502680.818 8      1633.832          49.062    21060881.460    87502680.825 8      1633.832          49.375
R02  21120464.020   112702842.466 8      1954.646          48.062    21120462.960   112702842.459 7      1954.646          46.937    21120478.820    87657822.250 8      1520.281          48.250    21120478.960    87657827.254 8      1520.281          48.187
G20  20089985.380   105573582.064 7      3404.709          46.625    20089982.240   105573582.074 6      3404.709          40.812    20089990.260    82265146.293 6      2653.020          40.562
G22  23845155.380   125307136.335 7      5152.572          42.500    23845156.460   125307136.337 4      5152.572          28.375    23845186.800    97641940.237 4      4014.991          28.562
G14  23372978.620   122825845.667 7      4763.015          42.625    23372977.400   122825845.682 5      4763.015          31.187    23373004.260    95708537.179 5      3711.440          30.875    23373004.360    95708565.212 7      3711.440          45.937
> 2024 10 07 12 25  4.0000000  0 17
G13  20819993.260   109409804.918 7      3598.031          47.562    20819992.000   109409804.926 6      3598.031          37.562    20819999.920    85254417.113 6      2803.661          37.187
G11  21089615.600   110826673.023 7       838.060          47.500    21089614.540   110826673.028 6       838.060          39.250    21089624.740    86358482.793 6       653.034          38.812    21089625.060    86358482.787 8       653.034          51.125
G30  21304806.580   111957511.428 7      1044.544          47.562    21304805.480   111957511.430 7      1044.544          47.875    21304816.900    87239659.840 7       813.931          47.937    21304817.820    87239664.842 8       813.931          49.062
R14  23858237.440   127177825.931 7      6989.681          42.500    23858235.560   127177825.936 6      6989.681          41.500    23858268.420    98916206.255 6      5436.418          41.687    23858269.240    98916209.262 6      5436.418          41.625
G05  21274744.600   111799541.496 7      4897.828          46.437    21274743.840   111799541.493 7      4897.828          47.000    21274752.360    87116552.517 7      3816.489          46.750    21274752.860    87116557.525 8      3816.489          49.375
R03  21138614.200   113156659.649 7      3823.189          45.500    21138613.680   113156659.672 7      3823.189          45.375    21138629.400    88010793.840 8      2973.592          49.000    21138629.200    88010794.838 8      2973.592          49.000
R13  20624258.760   110132403.498 6      5365.704          41.750    20624257.860   110132403.501 7      5365.704          42.187
G07  23739680.440   124752854.259 6       -84.446          39.500    23739678.860   124752854.253 6       -84.446          39.187    23739694.020    97210074.164 6       -65.802          38.625    23739694.240    97210099.163 7       -65.802          46.875
R17  21408265.860   114559927.995 7      -683.945          43.937    21408265.540   114559928.016 7      -683.945          44.437    21408287.360    89102257.321 8      -531.957          48.937    21408286.540    89102256.323 8      -531.957          49.062
G06  23431886.340   123135365.537 6      -862.343          41.750    23431884.960   123135365.534 6      -862.343          40.375    23431911.240    95949724.467 6      -671.956          40.562    23431911.980    95949729.456 7      -671.956          45.875
R18  20879179.580   111454475.902 7      2283.057          46.625    20879181.220   111454475.911 8      2283.057          48.437    20879195.080    86686875.319 8      1775.711          49.625    20879194.800    86686876.328 8      1775.711          49.687
R01  23810513.600   127280822.520 6       848.950          39.375    23810513.400   127280822.502 6       848.950          38.187    23810549.320    98996342.372 5       660.295          35.500    23810548.860    98996338.365 6       660.295          36.375
R12  21060471.200   112501251.047 7      2100.023          46.312    21060469.940   112501251.042 7      2100.023          47.625    21060488.020    87501047.063 8      1633.351          48.687    21060488.260    87501047.068 8      1633.351          49.187
R02  21120097.500   112700887.531 8      1954.892          48.000    21120096.720   112700887.523 7      1954.892          46.750    21120112.600    87656301.741 8      1520.472          48.562    21120112.800    87656306.745 8      1520.472          48.562
G20  20089337.380   105570177.240 7      3404.543          46.437    20089334.200   105570177.245 6      3404.543          41.312    20089342.420    82262493.181 6      2652.891          41.000
G22  23844175.080   125301983.452 7      5152.688          43.375    23844175.900   125301983.459 4      5152.688          28.375    23844206.360    97637925.002 4      4015.082          28.562
G14  23372072.380   122821082.558 7      4762.887          42.562    23372071.000   122821082.571 5      4762.887          31.000    23372097.940    95704825.684 5      3711.341          30.875    23372098.120    95704853.713 7      3711.341          45.875
> 2024 10 07 12 25  5.0000000  0 17
G13  20819308.560   109406207.318 7      3597.514          47.750    20819307.540   109406207.323 6      3597.514          37.812    20819315.340    85251613.786 6      2803.257          37.625
G11  21089456.320   110825835.317 7       837.476          46.750    21089455.100   110825835.325 6       837.476          39.437    21089465.400    86357830.034 6       652.578          38.500    21089465.760    86357830.034 8       652.578          50.812
G30  21304608.040   111956467.287 7      1043.958          47.125    21304606.760   111956467.286 7      1043.958          47.500    21304618.340    87238846.223 7       813.474          47.562    21304619.160    87238851.223 8       813.474          48.437
R14  23856926.280   127170836.214 7      6989.791          42.312    23856924.200   127170836.217 6      6989.791          41.437    23856957.120    98910769.807 6      5436.504          41.375    23856958.140    98910772.814 6      5436.504          41.812
G05  21273812.700   111794644.016 7      4897.387          46.500    21273811.860   111794644.018 7      4897.387          46.625    21273820.400    87112736.307 7      3816.145          46.375    21273820.740    87112741.317 8      3816.145          48.250
R03  21137899.760   113152836.732 7      3822.951          46.250    21137899.340   113152836.750 7      3822.951          45.187    21137915.300    88007820.460 8      2973.407          48.875    21137915.160    88007821.462 8      2973.407          48.687
R13  20623253.940   110127038.066 7      5365.122          42.187    20623253.240   110127038.078 7      5365.122          42.187
G07  23739696.280   124752938.928 6       -84.604          39.062    23739695.020   124752938.920 6       -84.604          39.125    23739710.120    97210140.133 6       -65.925          38.312    23739710.620    97210165.139 7       -65.925          46.750
R17  21408393.360   114560612.165 7      -684.372          45.062    21408393.620   114560612.177 7      -684.372          44.000    21408415.260    89102789.433 7      -532.290          47.875    21408414.640    89102788.432 8      -532.290          48.375
G06  23432049.920   123136227.873 6      -862.278          41.500    23432049.160   123136227.873 6      -862.278          40.375    23432075.260    95950396.392 6      -671.905          39.937    23432075.860    95950401.384 7      -671.905          45.250
R18  20878752.020   111452193.438 7      2282.093          46.187    20878753.720   111452193.449 7      2282.093          47.312    20878767.500    86685100.069 8      1774.961          49.312    20878767.040    86685101.078 8      1774.961          49.812
R01  23810354.840   127279973.643 6       848.890          39.375    23810354.560   127279973.644 6       848.890          38.187    23810391.260    98995682.116 5       660.248          35.500    23810390.060    98995678.110 6       660.248          36.375
R12  21060077.940   112499151.511 7      2099.121          46.812    21060076.940   112499151.509 7      2099.121          46.125    21060094.720    87499414.097 8      1632.650          48.250    21060095.020    87499414.100 8      1632.650          48.812
R02  21119731.560   112698932.862 7      1954.642          47.937    21119730.380   112698932.860 7      1954.642          46.937    21119746.200    87654781.445 8      1520.277          48.062    21119746.360    87654786.448 8      1520.277          48.250
G20  20088689.620   105566773.044 7      3404.044          46.750    20088686.480   105566773.046 6      3404.044          40.750    20088694.660    82259840.554 6      2652.502          40.187
G22  23843194.600   125296830.708 7      5152.801          42.750    23843195.640   125296830.713 4      5152.801          28.375    23843225.860    97633909.873 4      4015.170          28.562
G14  23371166.040   122816319.762 7      4762.777          43.062    23371164.700   122816319.774 5      4762.777          31.000    23371191.580    95701114.430 5      3711.255          30.875    23371191.780    95701142.462 7      3711.255          45.375
> 2024 10 07 12 25  6.0000000  0 17
G13  20818624.080   109402609.918 7      3597.187          46.937    20818623.060   109402609.920 6      3597.187          37.312    20818630.700    85248810.617 6      2803.003          37.250
G11  21089297.040   110824998.054 7       836.982          46.750    21089295.760   110824998.064 6       836.982          38.812    21089306.080    86357177.615 6       652.194          38.625    21089306.440    86357177.611 8       652.194          50.937
G30  21304409.460   111955423.497 7      1043.534          47.625    21304408.120   111955423.505 7      1043.534          47.000    21304419.760    87238032.876 7       813.143          46.937    21304420.700    87238037.876 8       813.143          48.125
R14  23855614.900   127163846.277 7      6990.062          42.312    23855613.280   127163846.272 6      6990.062          41.437    23855645.720    98905333.168 6      5436.715          41.375    23855646.460    98905336.177 6      5436.715          41.312
G05  21272880.740   111789746.657 7      4897.186          46.500    21272880.040   111789746.656 7      4897.186          46.375    21272888.440    87108920.185 7      3815.989          46.437    21272889.000    87108925.191 8      3815.989          48.062
R03  21137185.720   113149013.741 7      3822.841          45.875    21137185.580   113149013.761 7      3822.841          45.375    21137200.960    88004847.024 8      2973.321          48.375    21137200.780    88004848.028 8      2973.321          48.812
R13  20622249.360   110121673.163 7      5364.638          42.187    20622248.360   110121673.164 7      5364.638          42.312
G07  23739712.760   124753023.736 6       -85.075          39.875    23739711.120   124753023.733 6       -85.075          38.875    23739726.260    97210206.201 6       -66.292          38.500    23739726.860    97210231.199 7       -66.292          46.562
R17  21408521.640   114561296.600 7      -684.551          45.000    21408521.200   114561296.615 7      -684.551          44.375    21408543.280    89103321.754 8      -532.428          48.187    21408542.240    89103320.756 8      -532.428          48.625
G06  23432213.900   123137090.222 6      -862.311          41.750    23432213.220   123137090.221 6      -862.311          40.312    23432239.440    95951068.327 6      -671.931          40.250    23432240.080    95951073.323 7      -671.931          45.437
R18  20878324.520   111449911.732 7      2281.189          47.750    20878326.300   111449911.730 7      2281.189          47.062    20878340.040    86683325.402 8      1774.258          49.625    20878339.620    86683326.405 8      1774.258          49.312
R01  23810195.540   127279124.669 6       849.018          39.687    23810195.500   127279124.689 6       849.018          38.187    23810231.820    98995021.757 5       660.347          35.687    23810231.200    98995017.746 6       660.347          36.562
R12  21059685.020   112497052.715 7      2098.324          47.375    21059684.060   112497052.708 7      2098.324          46.625    21059702.080    87497781.688 8      1632.029          48.312    21059702.120    87497781.692 8      1632.029          49.000
R02  21119364.920   112696978.074 8      1954.700          48.125    21119364.000   112696978.072 7      1954.700          46.937    21119379.860    87653261.050 8      1520.322          48.312    21119380.040    87653266.050 8      1520.322          48.625
G20  20088041.860   105563369.200 7      3403.550          46.312    20088038.660   105563369.207 6      3403.550          40.750    20088046.880    82257188.212 6      2652.117          40.437
G22  23842213.940   125291677.857 7      5152.843          42.937    23842215.060   125291677.865 4      5152.843          28.375    23842245.120    97629894.664 4      4015.202          28.250
G14  23370259.660   122811557.055 7      4762.541          42.937    23370258.260   122811557.070 5      4762.541          31.000    23370285.380    95697403.251 5      3711.071          31.125    23370285.660    95697431.284 7      3711.071          46.062
> 2024 10 07 12 25  7.0000000  0 17
G13  20817939.440   109399012.899 8      3596.695          48.437    20817938.480   109399012.901 6      3596.695          37.812    20817946.140    85246007.743 6      2802.619          37.750
G11  21089137.840   110824161.457 7       836.079          47.375    21089136.560   110824161.465 6       836.079          39.062    21089146.860    86356525.717 6       651.490          38.562    21089147.360    86356525.713 8       651.490          51.312
G30  21304211.060   111954380.299 8      1042.758          48.625    21304209.640   111954380.301 8      1042.758          48.062    21304221.000    87237219.991 7       812.539          47.687    21304221.960    87237224.991 8       812.539          48.687
R14  23854303.000   127156856.331 7      6989.837          42.687    23854302.060   127156856.340 6      6989.837          41.437    23854334.580    98899896.539 6      5436.540          40.875    23854335.440    98899899.546 6      5436.540          41.312
G05  21271948.820   111784849.623 7      4896.689          47.062    21271948.200   111784849.623 7      4896.689          46.687    21271956.520    87105104.314 7      3815.602          46.500    21271957.280    87105109.323 8      3815.602          48.937
R03  21136471.620   113145190.915 7      3822.562          46.500    21136471.080   113145190.935 7      3822.562          45.500    21136487.040    88001873.707 8      2973.104          48.437    21136486.660    88001874.704 8      2973.104          49.125
R13  20621244.840   110116309.037 7      5363.594          42.437    20621244.100   110116309.043 7      5363.594          42.000
G07  23739729.040   124753108.773 6       -85.307          39.687    23739727.240   124753108.773 6       -85.307          39.312    23739742.320    97210272.456 6       -66.473          38.500    23739742.620    97210297.455 7       -66.473          46.937
R17  21408649.660   114561981.573 7      -685.312          44.250    21408649.080   114561981.585 7      -685.312          44.187    21408671.200    89103854.494 8      -533.021          49.000    21408670.460    89103853.495 8      -533.021          49.187
G06  23432378.040   123137952.844 7      -862.947          42.312    23432377.580   123137952.841 6      -862.947          39.687    23432403.360    95951740.467 6      -672.426          39.687    23432404.460    95951745.453 7      -672.426          45.125
R18  20877897.200   111447630.978 7      2280.040          47.437    20877898.940   111447630.979 7      2280.040          47.187    20877912.800    86681551.474 8      1773.365          49.875    20877912.500    86681552.478 8      1773.365          49.812
R01  23810037.320   127278275.934 6       848.421          39.687    23810036.800   127278275.943 6       848.421          38.750    23810073.460    98994361.593 5       659.883          35.687    23810072.600    98994357.583 6       659.883          36.562
R12  21059292.040   112494954.915 7      2097.181          46.812    21059291.280   112494954.908 7      2097.181          46.750    21059309.260    87496150.070 8      1631.141          48.437    21059309.240    87496150.075 8      1631.141          49.562
R02  21118998.600   112695023.419 8      1954.486          48.375    21118998.020   112695023.414 7      1954.486          47.187    21119013.520    87651740.757 8      1520.155          48.250    21119013.900    87651745.761 8      1520.155          48.687
G20  20087394.200   105559965.897 7      3402.926          46.250    20087391.080   105559965.907 6      3402.926          40.750    20087399.320    82254536.290 6      2651.631          40.500
G22  23841233.280   125286525.153 7      5152.526          43.937    23841234.440   125286525.163 4      5152.526          28.062    23841264.660    97625879.566 4      4014.955          28.250
G14  23369353.600   122806794.655 7      4762.062          42.937    23369351.980   122806794.673 5      4762.062          31.000    23369379.220    95693692.308 5      3710.698          31.125    23369379.500    95693720.332 7      3710.698          46.062
> 2024 10 07 12 25  8.0000000  0 17
G13  20817254.940   109395416.250 7      3596.561          47.812    20817254.060   109395416.255 6      3596.561          37.500    20817261.840    85243205.162 6      2802.515          37.687
G11  21088978.620   110823325.463 7       835.755          47.187    21088977.500   110823325.467 6       835.755          39.250    21088987.760    86355874.280 6       651.238          39.187    21088988.160    86355874.281 8       651.238          50.875
G30  21304012.280   111953337.629 7      1042.480          47.937    21304011.140   111953337.629 7      1042.480          47.312    21304022.700    87236407.514 7       812.322          47.125    21304023.460    87236412.512 8       812.322          48.437
R14  23852991.980   127149866.316 7      6990.115          42.375    23852990.360   127149866.319 6      6990.115          41.437    23853023.300    98894459.865 6      5436.756          41.000    23853024.160    98894462.868 6      5436.756          41.125
G05  21271017.000   111779952.868 7      4896.700          46.812    21271016.280   111779952.873 7      4896.700          46.375    21271024.700    87101288.663 7      3815.610          46.062    21271025.460    87101293.671 8      3815.610          48.500
R03  21135757.580   113141368.209 7      3822.769          47.375    21135757.560   113141368.221 7      3822.769          45.000    21135772.860    87998900.487 8      2973.265          49.312    21135772.660    87998901.487 8      2973.265          49.250
R13  20620240.560   110110945.575 7      5363.239          42.562    20620239.540   110110945.587 7      5363.239          42.000
G07  23739744.800   124753194.092 6       -85.433          40.375    23739743.540   124753194.099 6       -85.433          39.687    23739758.520    97210338.942 6       -66.571          39.062    23739759.020    97210363.941 7       -66.571          46.625
R17  21408777.740   114562666.957 7      -685.544          44.937    21408777.140   114562666.969 7      -685.544          44.437    21408799.340    89104387.552 8      -533.201          48.750    21408798.560    89104386.554 8      -533.201          48.812
G06  23432542.060   123138815.613 7      -862.682          42.437    23432541.660   123138815.602 6      -862.682          39.875    23432567.580    95952412.712 6      -672.220          39.500    23432568.460    95952417.702 7      -672.220          44.875
R18  20877470.560   111445351.143 7      2279.485          47.812    20877471.700   111445351.149 7      2279.485          46.875    20877485.620    86679778.273 8      1772.933          50.062    20877485.260    86679779.276 8      1772.933          49.937
R01  23809878.700   127277427.265 6       848.591          39.687    23809878.360   127277427.267 6       848.591          38.750    23809914.600    98993701.473 5       660.015          35.687    23809913.640    98993697.451 6       660.015          36.562
R12  21058900.120   112492858.037 7      2096.586          47.187    21058898.660   112492858.033 7      2096.586          46.562    21058916.560    87494519.175 8      1630.678          49.687    21058916.940    87494519.180 8      1630.678          49.125
R02  21118632.460   112693068.855 8      1954.609          48.250    21118631.560   112693068.855 7      1954.609          46.562    21118647.500    87650220.540 8      1520.252          48.250    21118647.860    87650225.542 8      1520.252          48.750
G20  20086746.620   105556563.127 7      3402.608          46.562    20086743.540   105556563.138 6      3402.608          40.687    20086751.700    82251884.781 6      2651.383          40.187
G22  23840252.880   125281372.530 7      5152.587          43.937    23840254.040   125281372.538 4      5152.587          28.062    23840284.220    97621864.527 4      4015.003          28.250
G14  23368447.240   122802032.505 7      4762.134          42.625    23368445.680   122802032.526 5      4762.134          31.000    23368472.900    95689981.556 5      3710.754          31.125    23368473.540    95690009.578 7      3710.754          45.875
> 2024 10 07 12 25  9.0000000  0 17
G13  20816570.500   109391819.785 8      3596.261          48.250    20816569.860   109391819.790 6      3596.261          37.687    20816577.480    85240402.721 6      2802.281          37.937
G11  21088819.600   110822489.899 7       835.160          47.312    21088818.500   110822489.901 6       835.160          39.000    21088828.720    86355223.186 6       650.774          38.500    21088829.340    86355223.182 8       650.774          51.312
G30  21303813.980   111952295.293 7      1041.984          47.687    21303812.740   111952295.293 7      1041.984          47.250    21303824.460    87235595.306 7       811.935          47.312    21303825.060    87235600.306 8       811.935          48.562
R14  23851680.500   127142876.053 7      6990.019          42.375    23851679.460   127142876.059 6      6990.019          41.250    23851711.720    98889022.992 6      5436.681          41.000    23851712.720    98889025.999 6      5436.681          41.500
G05  21270085.140   111775056.226 7      4896.407          47.062    21270084.580   111775056.228 7      4896.407          46.812    21270092.800    87097473.100 7      3815.382          46.812    21270093.280    87097478.102 8      3815.382          48.812
R03  21135043.620   113137545.431 7      3822.637          46.625    21135043.680   113137545.446 7      3822.637          44.875    21135058.900    87995927.220 8      2973.162          48.937    21135058.740    87995928.219 8      2973.162          49.000
R13  20619236.320   110105582.603 7      5362.591          42.187    20619235.180   110105582.612 7      5362.591          42.125
G07  23739761.000   124753279.481 6       -85.598          39.750    23739759.740   124753279.483 6       -85.598          38.312    23739774.820    97210405.464 6       -66.700          38.062    23739775.320    97210430.461 7       -66.700          46.812
R17  21408905.840   114563352.580 7      -685.821          44.187    21408905.460   114563352.579 7      -685.821          43.937    21408927.480    89104920.794 8      -533.416          48.562    21408926.940    89104919.789 8      -533.416          49.187
G06  23432706.820   123139678.364 7      -862.861          42.250    23432705.820   123139678.355 6      -862.861          39.875    23432731.760    95953084.961 6      -672.359          39.875    23432732.860    95953089.955 7      -672.359          45.250
R18  20877043.280   111443072.041 8      2278.579          48.125    20877044.940   111443072.047 7      2278.579          47.312    20877058.900    86678005.640 8      1772.228          50.125    20877058.680    86678006.644 8      1772.228          50.625
R01  23809719.620   127276578.511 6       848.534          39.687    23809719.880   127276578.515 6       848.534          38.750    23809755.320    98993041.298 5       659.971          35.687    23809755.360    98993037.282 6       659.971          36.562
R12  21058507.540   112490761.867 7      2095.653          46.750    21058506.500   112490761.868 7      2095.653          46.875    21058524.340    87492888.826 8      1629.952          49.250    21058524.320    87492888.831 8      1629.952          49.562
R02  21118266.200   112691114.221 8      1954.507          48.375    21118265.320   112691114.214 7      1954.507          47.062    21118281.160    87648700.268 8      1520.172          48.625    21118281.280    87648705.270 8      1520.172          49.250
G20  20086099.140   105553160.686 7      3402.118          46.000    20086096.060   105553160.691 6      3402.118          41.187    20086104.200    82249233.524 6      2651.001          40.625
G22  23839272.140   125276219.792 7      5152.531          42.750    23839273.380   125276219.802 4      5152.531          28.062    23839303.740    97617849.404 4      4014.959          28.250
G14  23367541.040   122797270.421 6      4761.911          41.812    23367539.420   122797270.439 5      4761.911          31.000    23367566.840    95686270.858 5      3710.580          30.812    23367567.000    95686298.895 7      3710.580          46.250
> 2024 10 07 12 25 10.0000000  0 17
G13  20815886.160   109388223.675 8      3595.879          48.875    20815885.560   109388223.680 6      3595.879          37.562    20815893.100    85237600.558 6      2801.983          37.500
G11  21088660.800   110821654.897 7       834.659          47.312    21088659.680   110821654.907 6       834.659          39.000    21088669.660    86354572.535 6       650.383          38.937    21088670.440    86354572.537 8       650.383          51.625
G30  21303615.640   111951253.472 7      1041.507          47.500    21303614.500   111951253.474 7      1041.507          47.562    21303626.100    87234783.496 7       811.564          47.625    21303626.760    87234788.496 8       811.564          48.562
R14  23850368.960   127135885.671 7      6990.347          42.562    23850368.500   127135885.682 6      6990.347          41.250    23850400.300    98883586.026 6      5436.937          40.812    23850400.960    98883589.027 6      5436.937          41.500
G05  21269153.400   111770159.828 7      4896.257          47.125    21269152.920   111770159.836 7      4896.257          46.562    21269161.060    87093657.731 7      3815.265          46.687    21269161.460    87093662.738 8      3815.265          48.750
R03  21134329.600   113133722.715 7      3822.673          46.687    21134329.560   113133722.728 7      3822.673          45.312    21134344.780    87992953.994 8      2973.190          49.125    21134344.320    87992954.994 8      2973.190          49.500
R13  20618231.960   110100220.271 7      5361.981          42.062    20618231.040   110100220.272 7      5361.981          42.000
G07  23739777.340   124753365.088 6       -85.658          39.625    23739776.120   124753365.090 6       -85.658          38.875    23739791.220    97210472.163 6       -66.747          37.937    23739792.080    97210497.160 7       -66.747          46.625
R17  21409033.680   114564038.650 7      -686.328          43.812    21409033.340   114564038.670 7      -686.328          44.000    21409055.740    89105454.399 8      -533.811          48.500    21409055.220    89105453.396 8      -533.811          49.062
G06  23432871.200   123140541.267 6      -862.961          41.750    23432870.100   123140541.271 6      -862.961          40.125    23432896.060    95953757.330 6      -672.437          39.937    23432896.800    95953762.324 7      -672.437          45.187
R18  20876616.620   111440793.791 7      2277.791          46.500    20876618.060   111440793.795 7      2277.791          47.312    20876632.040    86676233.660 8      1771.615          49.500    20876632.100    86676234.663 8      1771.615          50.125
R01  23809560.780   127275729.781 6       848.695          39.687    23809560.620   127275729.796 6       848.695          38.750    23809596.600    98992381.141 5       660.096          35.687    23809596.640    98992377.138 6       660.096          36.562
R12  21058115.420   112488666.575 7      2094.855          45.812    21058114.180   112488666.565 7      2094.855          47.062    21058132.020    87491259.149 8      1629.332          49.000    21058131.660    87491259.151 8      1629.332          49.687
R02  21117900.160   112689159.705 8      1954.384          48.750    21117899.240   112689159.698 7      1954.384          47.562    21117914.920    87647180.080 8      1520.076          48.375    21117914.860    87647185.082 8      1520.076          48.437
G20  20085451.940   105549758.716 7      3401.705          46.625    20085448.560   105549758.728 6      3401.705          40.562    20085457.000    82246582.638 6      2650.679          40.500
G22  23838291.820   125271067.064 7      5152.752          43.062    23838292.820   125271067.077 4      5152.752          28.062    23838323.060    97613834.291 4      4015.132          28.250
G14  23366635.020   122792508.581 7      4761.690          42.750    23366633.220   122792508.596 5      4761.690          30.937    23366660.520    95682560.348 5      3710.408          30.812    23366660.980    95682588.377 7      3710.408          45.750
> 2024 10 07 12 25 11.0000000  0 17
G13  20815201.920   109384627.954 7      3595.420          47.000    20815201.240   109384627.961 6      3595.420          37.937    20815208.840    85234798.697 6      2801.626          37.937
G11  21088502.140   110820820.582 7       833.802          46.750    21088500.900   110820820.592 6       833.802          39.312    21088510.980    86353922.411 6       649.715          38.750    21088511.580    86353922.409 8       649.715          51.000
G30  21303417.700   111950212.218 7      1040.829          47.000    21303416.300   111950212.220 7      1040.829          47.187    21303427.920    87233972.127 7       811.035          46.750    21303428.620    87233977.127 8       811.035          48.375
R14  23849057.640   127128895.331 7      6990.149          42.937    23849057.580   127128895.329 6      6990.149          41.687    23849088.500    98878149.070 6      5436.783          40.562    23849089.720    98878152.079 6      5436.783          41.125
G05  21268222.020   111765263.785 7      4895.754          47.312    21268221.280   111765263.793 7      4895.754          46.437    21268229.400    87089842.633 7      3814.873          46.312    21268229.760    87089847.643 8      3814.873          48.875
R03  21133615.420   113129900.082 7      3822.528          45.437    21133615.520   113129900.097 7      3822.528          45.500    21133630.640    87989980.837 8      2973.078          48.750    21133630.560    87989981.837 8      2973.078          48.875
R13  20617227.920   110094858.625 7      5361.325          42.062    20617226.780   110094858.626 7      5361.325          42.000
G07  23739793.680   124753451.015 6       -86.229          39.562    23739792.340   124753451.018 6       -86.229          38.687    23739807.620    97210539.111 6       -67.191          38.312    23739808.020    97210564.106 7       -67.191          46.250
R17  21409161.920   114564725.241 7      -687.080          42.625    21409161.840   114564725.259 7      -687.080          44.000    21409183.860    89105988.404 7      -534.396          47.812    21409183.320    89105987.399 8      -534.396          48.687
G06  23433035.060   123141404.430 7      -863.472          42.062    23433034.420   123141404.432 6      -863.472          40.062    23433060.240    95954429.896 6      -672.836          39.750    23433060.680    95954434.894 7      -672.836          45.250
R18  20876189.720   111438516.494 7      2276.659          46.437    20876191.120   111438516.492 7      2276.659          46.875    20876205.480    86674462.420 8      1770.735          49.500    20876205.160    86674463.426 8      1770.735          49.937
R01  23809401.420   127274881.225 6       848.424          39.687    23809401.820   127274881.224 6       848.424          38.187    23809438.380    98991721.110 5       659.885          35.562    23809437.620    98991717.110 6       659.885          36.000
R12  21057722.900   112486572.261 7      2093.590          46.437    21057721.820   112486572.251 7      2093.590          47.125    21057739.820    87489630.240 8      1628.348          48.437    21057740.060    87489630.240 8      1628.348          49.250
R02  21117533.680   112687205.357 8      1954.092          48.500    21117532.980   112687205.347 7      1954.092          47.250    21117548.560    87645660.025 7      1519.849          47.937    21117548.980    87645665.029 7      1519.849          47.750
G20  20084804.480   105546357.313 7      3401.003          46.250    20084801.420   105546357.317 6      3401.003          40.750    20084809.640    82243932.192 6      2650.132          40.062
G22  23837311.260   125265914.494 7      5152.423          42.812    23837312.320   125265914.504 4      5152.423          28.062    23837342.640    97609819.291 4      4014.875          27.687
G14  23365728.980   122787747.028 7      4761.283          42.875    23365727.040   122787747.040 5      4761.283          30.937    23365754.360    95678850.063 5      3710.091          30.812    23365754.700    95678878.094 7      3710.091          45.812
> 2024 10 07 12 25 12.0000000  0 17
G13  20814517.960   109381032.561 7      3595.064          46.625    20814516.940   109381032.571 6      3595.064          37.937    20814524.720    85231997.094 6      2801.348          37.937
G11  21088343.540   110819986.789 7       833.402          47.812    21088342.280   110819986.796 6       833.402          39.187    21088352.340    86353272.698 6       649.404          38.875    21088352.740    86353272.696 8       649.404          51.562
G30  21303219.540   111949171.437 7      1040.384          47.437    21303218.260   111949171.437 7      1040.384          47.437    21303229.840    87233161.127 7       810.689          47.312    21303230.400    87233166.127 8       810.689          48.250
R14  23847746.340   127121904.817 7      6990.458          42.937    23847746.080   127121904.818 6      6990.458          41.687    23847777.260    98872711.994 6      5437.023          40.562    23847778.440    98872714.992 6      5437.023          41.125
G05  21267290.360   111760367.966 7      4895.559          47.250    21267289.680   111760367.973 7      4895.559          46.812    21267297.720    87086027.711 7      3814.721          46.625    21267298.220    87086032.719 8      3814.721          48.500
R03  21132901.160   113126077.441 7      3822.575          47.062    21132901.320   113126077.450 7      3822.575          46.000    21132916.780    87987007.672 8      2973.114          49.937    21132916.560    87987008.669 8      2973.114          49.687
R13  20616224.440   110089497.625 6      5360.621          41.750    20616222.600   110089497.632 6      5360.621          41.875
G07  23739810.060   124753537.117 6       -86.312          39.750    23739808.720   124753537.116 6       -86.312          39.250    23739823.940    97210606.191 6       -67.256          38.500    23739824.560    97210631.188 7       -67.256          46.937
R17  21409290.380   114565412.196 7      -687.259          43.375    21409290.380   114565412.203 7      -687.259          44.000    21409312.460    89106522.674 8      -534.535          48.437    21409311.620    89106521.669 8      -534.535          48.500
G06  23433199.460   123142267.682 6      -863.450          41.375    23433198.620   123142267.677 6      -863.450          39.875    23433224.540    95955102.526 6      -672.818          40.062    23433225.760    95955107.514 7      -672.818          44.937
R18  20875763.360   111436240.064 7      2275.837          47.187    20875764.660   111436240.057 7      2275.837          47.187    20875778.960    86672691.856 8      1770.095          49.937    20875778.680    86672692.859 8      1770.095          50.312
R01  23809243.700   127274032.698 6       848.438          39.687    23809242.720   127274032.697 6       848.438          38.187    23809279.940    98991061.094 5       659.896          35.562    23809278.860    98991057.093 6       659.896          36.000
R12  21057331.180   112484478.777 7      2092.924          47.375    21057329.960   112484478.768 7      2092.924          46.937    21057348.120    87488001.971 8      1627.830          48.750    21057348.060    87488001.971 8      1627.830          50.000
R02  21117167.620   112685251.067 8      1954.163          48.250    21117166.800   112685251.063 7      1954.163          47.500    21117182.280    87644140.018 8      1519.905          48.500    21117182.620    87644145.020 8      1519.905          48.187
G20  20084157.400   105542956.364 7      3400.572          46.937    20084154.200   105542956.369 6      3400.572          40.875    20084162.560    82241282.098 6      2649.796          40.750
G22  23836330.660   125260761.921 7      5152.428          43.062    23836331.840   125260761.931 4      5152.428          27.875    23836362.100    97605804.296 4      4014.879          27.687
G14  23364822.940   122782985.682 7      4761.063          42.500    23364821.000   122782985.692 5      4761.063          30.937    23364848.240    95675139.937 5      3709.919          30.812    23364848.580    95675167.965 7      3709.919          46.000
> 2024 10 07 12 25 13.0000000  0 17
G13  20813833.560   109377437.520 8      3595.053          48.062    20813832.840   109377437.525 6      3595.053          38.125    20813840.620    85229195.760 6      2801.340          37.812
G11  21088184.960   110819153.616 7       833.050          46.812    21088183.660   110819153.624 6       833.050          38.875    21088193.940    86352623.466 6       649.130          38.812    21088194.280    86352623.467 8       649.130          51.562
G30  21303021.700   111948131.161 7      1040.321          46.937    21303020.280   111948131.163 7      1040.321          47.437    21303031.880    87232350.522 7       810.640          47.187    21303032.720    87232355.522 8       810.640          48.062
R14  23846435.100   127114914.248 7      6990.843          42.750    23846434.360   127114914.254 6      6990.843          41.687    23846466.020    98867274.880 6      5437.323          40.812    23846466.720    98867277.889 6      5437.323          40.625
G05  21266358.880   111755472.433 7      4895.557          46.000    21266358.000   111755472.437 7      4895.557          46.500    21266366.100    87082213.009 7      3814.720          46.062    21266366.780    87082218.020 8      3814.720          48.500
R03  21132186.940   113122254.834 7      3822.810          45.125    21132186.840   113122254.857 7      3822.810          44.687    21132202.660    87984034.542 8      2973.297          49.250    21132202.420    87984035.543 8      2973.297          49.062
R13  20615220.740   110084137.331 6      5360.160          41.250    20615219.100   110084137.329 6      5360.160          41.875
G07  23739826.560   124753623.454 6       -86.224          40.375    23739825.240   124753623.459 6       -86.224          39.000    23739840.420    97210673.459 6       -67.188          38.625    23739841.100    97210698.456 7       -67.188          46.437
R17  21409419.180   114566099.614 7      -687.431          44.312    21409418.900   114566099.621 7      -687.431          44.250    21409440.720    89107057.317 8      -534.669          48.687    21409440.280    89107056.315 8      -534.669          49.687
G06  23433364.100   123143131.106 7      -863.360          42.125    23433362.960   123143131.103 6      -863.360          39.937    23433388.860    95955775.292 6      -672.748          39.937    23433389.560    95955780.286 7      -672.748          44.937
R18  20875337.560   111433964.523 7      2275.347          46.687    20875338.100   111433964.524 7      2275.347          47.062    20875352.760    86670921.993 8      1769.715          50.250    20875352.220    86670922.998 8      1769.715          49.562
R01  23809084.740   127273184.222 6       848.753          39.062    23809084.300   127273184.223 6       848.753          38.187    23809121.040    98990401.137 5       660.141          35.562    23809120.620    98990397.128 6       660.141          36.000
R12  21056939.440   112482386.231 7      2092.334          46.812    21056938.180   112482386.219 7      2092.334          47.000    21056956.240    87486374.435 8      1627.371          49.125    21056956.620    87486374.436 8      1627.371          49.687
R02  21116801.400   112683296.919 8      1954.243          48.375    21116800.620   112683296.915 7      1954.243          47.000    21116816.060    87642620.121 8      1519.967          48.437    21116816.320    87642625.121 8      1519.967          48.625
G20  20083510.440   105539555.920 7      3400.369          46.625    20083507.060   105539555.922 6      3400.369          41.187    20083515.280    82238632.397 6      2649.638          41.125
G22  23835350.340   125255609.409 7      5152.683          43.562    23835351.340   125255609.416 4      5152.683          27.875    23835381.500    97601789.349 4      4015.078          27.687
G14  23363916.900   122778224.570 7      4761.148          42.500    23363914.880   122778224.580 5      4761.148          30.937    23363942.280    95671429.994 5      3709.986          31.187    23363942.880    95671458.017 7      3709.986          46.375
> 2024 10 07 12 25 14.0000000  0 17
G13  20813149.460   109373842.753 8      3594.620          48.062    20813148.740   109373842.758 6      3594.620          37.562    20813156.560    85226394.640 6      2801.003          37.500
G11  21088026.640   110818320.961 7       832.346          46.562    21088025.180   110818320.971 6       832.346          39.000    21088035.360    86351974.638 6       648.581          39.000    21088035.880    86351974.638 8       648.581          51.437
G30  21302823.940   111947091.350 7      1039.653          47.312    21302822.440   111947091.352 7      1039.653          47.562    21302834.000    87231540.277 7       810.119          47.625    21302834.780    87231545.275 8       810.119          48.562
R14  23845123.660   127107923.530 7      6990.807          42.750    23845123.020   127107923.544 6      6990.807          41.687    23845155.000    98861837.654 6      5437.295          40.812    23845155.300    98861840.662 6      5437.295          41.250
G05  21265427.240   111750577.094 7      4895.207          47.062    21265426.520   111750577.099 7      4895.207          47.250    21265434.460    87078398.458 7      3814.447          46.937    21265434.940    87078403.470 8      3814.447          49.000
R03  21131472.920   113118432.212 7      3822.655          45.937    21131473.040   113118432.232 7      3822.655          45.125    21131488.480    87981061.387 8      2973.176          49.250    21131488.360    87981062.392 8      2973.176          49.812
R13  20614217.000   110078777.637 6      5359.411          41.250    20614215.240   110078777.632 6      5359.411          41.812
G07  23739842.680   124753709.939 6       -86.310          40.375    23739841.700   124753709.941 6       -86.310          39.000    23739856.860    97210740.841 6       -67.255          38.375    23739857.180    97210765.847 7       -67.255          47.187
R17  21409547.860   114566787.364 7      -687.933          44.250    21409547.240   114566787.371 7      -687.933          43.500    21409569.140    89107592.219 8      -535.059          48.875    21409568.580    89107591.221 8      -535.059          49.125
G06  23433528.100   123143994.618 6      -863.585          41.875    23433527.340   123143994.610 6      -863.585          39.625    23433553.120    95956448.129 6      -672.924          39.562    23433554.220    95956453.123 7      -672.924          45.187
R18  20874911.200   111431689.826 7      2274.249          47.000    20874912.040   111431689.824 7      2274.249          47.437    20874926.760    86669152.779 8      1768.860          49.937    20874926.280    86669153.785 8      1768.860          50.125
R01  23808926.200   127272335.805 6       848.445          39.062    23808925.400   127272335.798 6       848.445          38.187    23808963.140    98989741.214 5       659.902          35.562    23808962.200    98989737.208 6       659.902          36.000
R12  21056547.640   112480294.521 7      2091.300          46.062    21056546.500   112480294.509 7      2091.300          46.937    21056564.520    87484747.547 8      1626.567          49.125    21056564.960    87484747.550 8      1626.567          49.437
R02  21116435.380   112681342.790 8      1954.066          48.250    21116434.620   112681342.783 7      1954.066          47.625    21116449.980    87641100.234 8      1519.829          48.687    21116450.580    87641105.234 8      1519.829          48.000
G20  20082863.400   105536155.894 7      3399.801          45.812    20082860.060   105536155.898 6      3399.801          41.000    20082868.340    82235983.026 6      2649.195          40.562
G22  23834370.000   125250456.910 7      5152.410          43.312    23834371.000   125250456.920 4      5152.410          27.875    23834400.960    97597774.408 4      4014.865          27.687
G14  23363010.480   122773463.620 7      4760.866          42.687    23363008.920   122773463.631 5      4760.866          30.937    23363036.320    95667720.180 5      3709.766          31.187    23363036.640    95667748.205 7      3709.766          45.937
> 2024 10 07 12 25 15.0000000  0 17
G13  20812465.720   109370248.372 7      3594.235          47.875    20812464.680   109370248.374 6      3594.235          38.125    20812472.700    85223593.820 6      2800.702          38.062
G11  21087868.220   110817488.923 7       831.770          46.937    21087866.780   110817488.928 6       831.770          39.125    21087876.920    86351326.289 6       648.132          38.687    21087877.440    86351326.289 8       648.132          51.625
G30  21302625.900   111946052.082 8      1039.041          48.187    21302624.640   111946052.079 7      1039.041          47.562    21302636.260    87230730.453 7       809.642          47.312    21302637.120    87230735.453 8       809.642          48.437
R14  23843812.180   127100932.790 7      6990.895          43.125    23843811.820   127100932.798 6      6990.895          41.500    23843842.980    98856400.404 6      5437.363          41.062    23843843.980    98856403.411 6      5437.363          41.250
G05  21264495.760   111745682.052 7      4894.910          47.812    21264494.980   111745682.059 7      4894.910          46.500    21264502.920    87074584.145 7      3814.215          46.750    21264503.580    87074589.149 8      3814.215          48.125
R03  21130758.680   113114609.696 7      3822.527          46.500    21130758.660   113114609.714 7      3822.527          44.937    21130774.160    87978088.321 8      2973.077          49.000    21130774.320    87978089.327 8      2973.077          49.250
R13  20613213.220   110073418.656 7      5358.833          42.375    20613211.840   110073418.641 6      5358.833          41.937
G07  23739859.280   124753796.763 6       -86.847          40.562    23739858.140   124753796.760 6       -86.847          39.250    23739873.360    97210808.486 6       -67.673          38.625    23739873.720    97210833.481 7       -67.673          46.687
R17  21409676.140   114567475.523 7      -688.268          44.937    21409676.260   114567475.533 7      -688.268          44.250    21409697.880    89108127.446 8      -535.320          48.812    21409697.280    89108126.445 8      -535.320          49.000
G06  23433692.660   123144858.305 6      -863.717          41.000    23433691.620   123144858.296 6      -863.717          39.937    23433717.580    95957121.104 6      -673.026          39.750    23433718.360    95957126.102 7      -673.026          44.937
R18  20874485.500   111429416.036 7      2273.407          47.937    20874485.980   111429416.039 7      2273.407          47.562    20874500.640    86667384.274 8      1768.206          49.750    20874500.100    86667385.279 8      1768.206          50.187
R01  23808767.380   127271487.452 6       848.323          39.062    23808766.520   127271487.461 6       848.323          37.625    23808804.100    98989081.360 5       659.807          35.562    23808803.180    98989077.349 6       659.807          36.312
R12  21056156.520   112478203.717 7      2090.408          46.312    21056155.240   112478203.704 7      2090.408          47.000    21056173.100    87483121.368 8      1625.873          49.000    21056173.560    87483121.371 8      1625.873          49.312
R02  21116069.080   112679388.780 8      1954.017          48.437    21116068.560   112679388.773 7      1954.017          47.187    21116083.860    87639580.447 8      1519.791          48.187    21116084.380    87639585.447 8      1519.791          48.687
G20  20082216.260   105532756.387 7      3399.321          47.187    20082213.160   105532756.395 6      3399.321          40.937    20082221.520    82233334.062 6      2648.821          40.500
G22  23833389.740   125245304.447 7      5152.565          42.437    23833390.600   125245304.460 4      5152.565          27.875    23833420.420    97593759.502 4      4014.986          27.687
G14  23362104.760   122768702.931 6      4760.667          41.812    23362102.920   122768702.944 5      4760.667          30.937    23362130.440    95664010.571 5      3709.611          31.187    23362130.780    95664038.592 7      3709.611          46.062
> 2024 10 07 12 25 16.0000000  0 17
G13  20811781.860   109366654.277 8      3593.936          48.500    20811780.640   109366654.284 6      3593.936          38.000    20811788.760    85220793.230 6      2800.470          37.875
G11  21087709.980   110816657.430 7       831.202          46.875    21087708.540   110816657.434 6       831.202          39.250    21087718.820    86350678.366 6       647.689          39.062    21087719.240    86350678.366 8       647.689          51.187
G30  21302428.160   111945013.275 7      1038.458          47.687    21302427.040   111945013.274 7      1038.458          47.625    21302438.600    87229920.994 7       809.188          47.250    21302439.220    87229925.996 8       809.188          48.562
R14  23842500.660   127093941.943 7      6990.825          43.500    23842500.380   127093941.939 6      6990.825          41.812    23842531.960    98850963.060 6      5437.309          40.875    23842532.740    98850966.070 6      5437.309          41.562
G05  21263564.400   111740787.225 7      4894.641          47.750    21263563.440   111740787.230 7      4894.641          47.000    21263571.440    87070769.993 7      3814.006          47.187    21263572.080    87070775.003 8      3814.006          48.625
R03  21130044.740   113110787.234 7      3822.395          46.625    21130044.700   113110787.252 7      3822.395          44.812    21130060.100    87975115.300 8      2972.974          49.312    21130060.160    87975116.305 8      2972.974          49.187
R13  20612209.640   110068060.326 6      5357.953          41.562    20612208.260   110068060.324 6      5357.953          41.937
G07  23739875.660   124753883.707 6       -87.104          40.625    23739874.620   124753883.709 6       -87.104          39.062    23739890.020    97210876.229 6       -67.874          38.562    23739890.440    97210901.232 7       -67.874          46.437
R17  21409805.140   114568164.041 7      -688.751          43.875    21409804.520   114568164.053 7      -688.751          44.375    21409826.300    89108662.947 8      -535.695          48.625    21409826.220    89108661.949 8      -535.695          49.125
G06  23433856.860   123145722.106 6      -863.840          41.500    23433855.940   123145722.098 6      -863.840          39.937    23433881.860    95957794.172 6      -673.122          39.562    23433883.020    95957799.160 7      -673.122          44.750
R18  20874059.700   111427143.084 7      2272.504          46.437    20874059.940   111427143.082 7      2272.504          46.875    20874074.880    86665616.418 8      1767.503          49.500    20874074.640    86665617.426 8      1767.503          49.750
R01  23808608.880   127270639.147 6       848.278          38.812    23808608.800   127270639.161 6       848.278          37.625    23808645.360    98988421.532 5       659.772          35.562    23808645.020    98988417.523 6       659.772          36.312
R12  21055765.240   112476113.753 7      2089.452          46.375    21055763.740   112476113.744 7      2089.452          46.875    21055781.960    87481495.845 8      1625.130          48.437    21055782.420    87481495.850 8      1625.130          49.000
R02  21115702.900   112677434.819 8      1953.864          48.812    21115702.180   112677434.820 7      1953.864          47.312    21115717.560    87638060.697 8      1519.672          48.625    21115717.800    87638065.702 8      1519.672          48.812
G20  20081569.420   105529357.341 7      3398.697          47.000    20081566.480   105529357.351 6      3398.697          40.812    20081574.640    82230685.457 6      2648.335          40.125
G22  23832409.280   125240152.040 7      5152.340          42.312    23832410.220   125240152.047 4      5152.340          27.875    23832439.720    97589744.631 4      4014.810          27.687
G14  23361198.840   122763942.439 7      4760.446          42.000    23361197.020   122763942.452 5      4760.446          31.250    23361224.680    95660301.109 5      3709.438          30.875    23361224.660    95660329.136 7      3709.438          45.812
> 2024 10 07 12 25 17.0000000  0 17
G13  20811098.020   109363060.631 8      3593.653          48.437    20811096.900   109363060.639 6      3593.653          37.687    20811104.880    85217992.991 6      2800.249          37.875
G11  21087551.880   110815826.608 7       830.768          47.437    21087550.600   110815826.613 6       830.768          39.500    21087560.720    86350030.968 6       647.352          38.562    21087561.080    86350030.969 8       647.352          51.125
G30  21302230.660   111943975.048 7      1038.116          47.250    21302229.340   111943975.053 7      1038.116          47.250    21302240.980    87229111.986 7       808.922          47.187    21302241.720    87229116.986 8       808.922          48.187
R14  23841189.040   127086951.030 7      6991.068          43.000    23841188.440   127086951.034 6      6991.068          41.812    23841220.140    98845525.677 6      5437.498          40.875    23841221.480    98845528.684 6      5437.498          41.312
G05  21262633.000   111735892.754 8      4894.556          48.187    21262632.040   111735892.761 7      4894.556          46.750    21262640.080    87066956.121 7      3813.940          46.687    21262640.580    87066961.129 8      3813.940          48.812
R03  21129330.700   113106964.938 7      3822.521          45.875    21129330.540   113106964.959 7      3822.521          45.375    21129345.920    87972142.405 8      2973.072          49.250    21129346.000    87972143.410 8      2973.072          49.375
R13  20611206.340   110062702.731 7      5357.421          42.062    20611205.060   110062702.729 7      5357.421          42.250
G07  23739892.200   124753970.985 6       -87.157          41.000    23739891.160   124753970.988 6       -87.157          39.125    23739906.580    97210944.232 6       -67.914          38.437    23739907.360    97210969.229 7       -67.914          46.875
R17  21409933.800   114568853.099 7      -689.124          45.437    21409933.420   114568853.103 7      -689.124          44.250    21409955.340    89109198.861 8      -535.985          48.687    21409954.800    89109197.864 8      -535.985          48.687
G06  23434021.000   123146586.129 6      -863.756          41.937    23434020.500   123146586.123 6      -863.756          39.750    23434046.520    95958467.406 6      -673.056          39.812    23434047.200    95958472.401 7      -673.056          45.000
R18  20873633.880   111424871.100 7      2271.672          45.937    20873634.440   111424871.101 7      2271.672          47.000    20873649.160    86663849.316 8      1766.856          50.187    20873648.920    86663850.322 8      1766.856          49.625
R01  23808449.860   127269791.069 6       848.166          38.812    23808449.880   127269791.073 6       848.166          37.625    23808487.080    98987761.868 5       659.685          35.562    23808486.000    98987757.855 6       659.685          36.312
R12  21055374.260   112474024.736 7      2088.857          47.437    21055372.760   112474024.723 7      2088.857          47.125    21055390.940    87479871.054 8      1624.666          48.937    21055391.180    87479871.056 8      1624.666          48.812
R02  21115336.760   112675480.999 8      1954.017          48.750    21115336.200   112675480.987 7      1954.017          47.375    21115351.580    87636541.049 8      1519.791          48.562    21115351.860    87636546.047 8      1519.791          49.000
G20  20080922.820   105525958.860 7      3398.448          46.687    20080919.600   105525958.870 6      3398.448          41.125    20080927.980    82228037.288 6      2648.141          40.375
G22  23831428.720   125234999.740 7      5152.451          42.875    23831429.960   125234999.748 4      5152.451          27.562    23831459.180    97585729.853 4      4014.897          27.687
G14  23360293.020   122759182.284 7      4760.161          43.250    23360291.120   122759182.297 5      4760.161          31.250    23360318.860    95656591.915 5      3709.217          30.875    23360318.760    95656619.936 7      3709.217          46.437
> 2024 10 07 12 25 18.0000000  0 17
G13  20810414.300   109359467.249 8      3593.215          48.750    20810413.280   109359467.253 6      3593.215          38.062    20810421.140    85215192.949 6      2799.908          38.062
G11  21087393.940   110814996.315 7       829.985          47.625    21087392.540   110814996.323 6       829.985          40.062    21087402.880    86349383.983 6       646.742          38.812    21087402.960    86349383.981 8       646.742          51.937
G30  21302033.040   111942937.268 7      1037.458          46.750    21302031.920   111942937.270 7      1037.458          47.375    21302043.460    87228303.322 7       808.409          47.062    21302044.280    87228308.324 8       808.409          48.250
R14  23839877.780   127079959.947 7      6991.202          43.000    23839876.800   127079959.950 6      6991.202          41.812    23839908.940    98840088.164 6      5437.601          41.062    23839910.020    98840091.175 6      5437.601          41.312
G05  21261701.560   111730998.521 7      4894.033          47.500    21261700.700   111730998.523 7      4894.033          46.500    21261708.620    87063142.431 7      3813.532          46.437    21261709.460    87063147.437 8      3813.532          48.500
R03  21128616.460   113103142.677 7      3822.183          46.437    21128616.820   113103142.711 7      3822.183          44.875    21128631.640    87969169.545 8      2972.809          49.250    21128632.120    87969170.551 8      2972.809          49.250
R13  20610203.180   110057345.723 7      5356.639          42.062    20610201.640   110057345.718 6      5356.639          41.875
G07  23739908.520   124754058.427 6       -87.511          40.937    23739907.880   124754058.429 6       -87.511          39.250    23739923.320    97211012.355 6       -68.191          38.625    23739923.820    97211037.356 7       -68.191          46.687
R17  21410062.680   114569542.551 7      -689.797          43.812    21410062.480   114569542.552 7      -689.797          44.437    21410084.120    89109735.084 8      -536.509          48.312    21410083.740    89109734.084 8      -536.509          48.687
G06  23434185.600   123147450.267 7      -864.141          42.437    23434184.840   123147450.266 6      -864.141          38.875    23434210.920    95959140.739 6      -673.357          38.875    23434211.720    95959145.725 7      -673.357          45.375
R18  20873208.540   111422599.937 7      2270.657          46.562    20873208.940   111422599.932 7      2270.657          46.687    20873223.700    86662082.847 8      1766.067          49.750    20873223.420    86662083.851 8      1766.067          50.187
R01  23808291.280   127268942.999 6       847.848          38.812    23808291.500   127268942.995 6       847.848          37.625    23808329.100    98987102.213 5       659.437          35.562    23808327.760    98987098.218 6       659.437          36.312
R12  21054983.200   112471936.581 7      2087.661          46.312    21054982.000   112471936.576 7      2087.661          46.687    21054999.800    87478246.939 8      1623.737          49.125    21055000.280    87478246.942 8      1623.737          49.437
R02  21114970.740   112673527.158 8      1953.757          48.437    21114970.160   112673527.148 7      1953.757          47.250    21114985.220    87635021.393 8      1519.589          48.187    21114985.660    87635026.393 8      1519.589          48.875
G20  20080276.140   105522560.820 7      3397.704          46.187    20080273.020   105522560.825 6      3397.704          41.062    20080281.300    82225389.458 6      2647.562          40.625
G22  23830448.020   125229847.433 7      5152.287          43.062    23830449.340   125229847.440 4      5152.287          27.562    23830478.860    97581715.059 4      4014.769          27.687
G14  23359387.380   122754422.270 7      4759.802          43.125    23359385.200   122754422.283 5      4759.802          31.250    23359413.100    95652882.830 5      3708.937          30.875    23359412.700    95652910.851 7      3708.937          46.000
> 2024 10 07 12 25 19.0000000  0 17
G13  20809730.600   109355874.310 8      3592.891          48.750    20809729.520   109355874.317 6      3592.891          37.750    20809737.460    85212393.256 6      2799.655          37.687
G11  21087235.940   110814166.698 7       829.486          47.312    21087234.680   110814166.703 6       829.486          39.250    21087245.060    86348737.515 6       646.353          38.937    21087245.100    86348737.517 8       646.353          51.187
G30  21301835.680   111941900.089 7      1037.001          47.187    21301834.500   111941900.091 7      1037.001          47.250    21301846.080    87227495.131 7       808.053          47.000    21301846.540    87227500.135 8       808.053          48.250
R14  23838566.200   127072968.946 7      6991.073          42.625    23838565.440   127072968.946 6      6991.073          41.812    23838597.900    98834650.710 6      5437.501          41.062    23838598.360    98834653.719 6      5437.501          41.500
G05  21260770.120   111726104.625 7      4893.872          46.687    21260769.300   111726104.632 7      4893.872          47.125    21260777.480    87059329.009 7      3813.407          47.125    21260778.040    87059334.018 8      3813.407          48.562
R03  21127902.500   113099320.590 7      3822.174          46.250    21127902.840   113099320.618 7      3822.174          45.312    21127917.640    87966196.809 8      2972.802          48.875    21127917.920    87966197.812 8      2972.802          49.062
R13  20609200.300   110051989.443 7      5356.087          42.687    20609198.160   110051989.450 6      5356.087          41.875
G07  23739925.900   124754146.215 6       -87.854          40.500    23739924.500   124754146.219 6       -87.854          39.125    23739940.040    97211080.753 6       -68.458          39.062    23739940.540    97211105.755 7       -68.458          46.687
R17  21410191.480   114570232.537 7      -690.126          44.312    21410191.300   114570232.539 7      -690.126          44.437    21410213.120    89110271.724 8      -536.765          48.500    21410212.760    89110270.723 8      -536.765          48.937
G06  23434350.300   123148314.636 6      -864.198          41.625    23434349.520   123148314.633 6      -864.198          39.812    23434375.320    95959814.243 6      -673.401          39.375    23434376.440    95959819.231 7      -673.401          45.312
R18  20872783.180   111420329.769 7      2269.848          46.062    20872783.620   111420329.769 7      2269.848          47.000    20872798.320    86660317.163 8      1765.437          49.937    20872798.320    86660318.166 8      1765.437          49.812
R01  23808132.380   127268095.098 6       847.952          38.812    23808133.220   127268095.093 6       847.952          38.000    23808170.200    98986442.696 5       659.518          35.562    23808169.180    98986438.693 6       659.518          36.937
R12  21054592.560   112469849.438 7      2086.816          47.250    21054591.460   112469849.428 7      2086.816          46.937    21054609.280    87476623.600 8      1623.079          48.937    21054609.720    87476623.603 8      1623.079          49.125
R02  21114604.040   112671573.482 8      1953.702          48.875    21114603.620   112671573.472 7      1953.702          47.250    21114619.200    87633501.863 8      1519.546          48.312    21114619.780    87633506.865 8      1519.546          49.375
G20  20079629.560   105519163.342 7      3397.347          46.875    20079626.520   105519163.350 6      3397.347          40.937    20079634.760    82222742.075 6      2647.283          40.250
G22  23829467.760   125224695.275 7      5152.234          43.500    23829468.880   125224695.280 4      5152.234          27.562    23829498.500    97577700.385 4      4014.728          27.687
G14  23358481.560   122749662.579 7      4759.689          43.250    23358479.620   122749662.587 5      4759.689          31.500    23358507.320    95649173.990 5      3708.848          31.375    23358507.280    95649202.011 7      3708.848          46.000
> 2024 10 07 12 25 20.0000000  0 17
G13  20809046.880   109352281.513 8      3592.681          48.062    20809045.860   109352281.521 6      3592.681          37.687    20809053.820    85209593.674 6      2799.492          37.750
G11  21087078.100   110813337.469 7       829.029          46.437    21087076.840   110813337.474 6       829.029          39.125    21087087.260    86348091.359 6       645.997          38.562    21087087.440    86348091.355 8       645.997          51.187
G30  21301638.300   111940863.208 7      1036.772          47.062    21301637.180   111940863.205 7      1036.772          47.125    21301648.800    87226687.165 7       807.874          47.000    21301649.540    87226692.165 8       807.874          48.000
R14  23837254.880   127065977.590 7      6991.594          42.625    23837253.680   127065977.585 6      6991.594          41.750    23837286.520    98829212.979 6      5437.906          41.000    23837286.700    98829215.986 6      5437.906          41.750
G05  21259838.920   111721210.807 7      4893.781          46.937    21259838.160   111721210.812 7      4893.781          46.562    21259846.080    87055515.649 7      3813.336          46.625    21259847.020    87055520.649 8      3813.336          48.562
R03  21127188.560   113095498.332 7      3822.294          46.312    21127189.280   113095498.360 7      3822.294          45.125    21127203.520    87963223.941 8      2972.895          49.250    21127203.820    87963224.945 8      2972.895          49.562
R13  20608197.480   110046633.640 7      5355.497          42.250    20608195.480   110046633.646 6      5355.497          41.937
G07  23739942.880   124754234.000 6       -87.933          40.875    23739941.320   124754234.000 6       -87.933          39.437    23739956.780    97211149.149 6       -68.519          38.937    23739957.400    97211174.146 7       -68.519          46.750
R17  21410320.660   114570922.698 7      -690.205          44.250    21410320.220   114570922.702 7      -690.205          44.000    21410342.020    89110808.509 8      -536.826          48.562    21410341.560    89110807.504 8      -536.826          49.000
G06  23434514.680   123149178.995 6      -864.405          41.062    23434513.900   123149178.992 6      -864.405          39.125    23434539.940    95960487.743 6      -673.563          39.062    23434540.900    95960492.737 7      -673.563          45.312
R18  20872358.260   111418060.281 7      2269.200          46.500    20872358.600   111418060.282 7      2269.200          46.875    20872373.240    86658552.002 8      1764.934          49.562    20872373.140    86658553.003 8      1764.934          49.937
R01  23807974.100   127267247.071 6       848.143          39.062    23807974.320   127267247.050 6       848.143          38.000    23808011.240    98985783.070 6       659.667          36.000    23808010.240    98985779.067 6       659.667          36.937
R12  21054202.020   112467762.960 7      2086.128          46.437    21054200.540   112467762.959 7      2086.128          47.000    21054218.500    87475000.794 8      1622.544          48.687    21054218.800    87475000.801 8      1622.544          49.125
R02  21114238.020   112669619.724 8      1953.765          48.562    21114237.500   112669619.717 7      1953.765          47.187    21114253.060    87631982.267 8      1519.595          48.875    21114253.420    87631987.271 8      1519.595          48.250
G20  20078983.140   105515766.154 7      3397.085          46.000    20078980.040   105515766.161 6      3397.085          40.812    20078988.300    82220094.913 6      2647.079          40.562
G22  23828487.340   125219542.968 7      5152.252          43.312    23828488.180   125219542.973 4      5152.252          27.562    23828517.940    97573685.596 4      4014.742          27.687
G14  23357576.100   122744902.920 7      4759.588          43.187    23357573.820   122744902.931 5      4759.588          31.500    23357601.500    95645465.185 5      3708.770          31.375    23357601.580    95645493.206 7      3708.770          46.500
> 2024 10 07 12 25 21.0000000  0 17
G13  20808363.180   109348689.050 8      3592.217          48.250    20808362.240   109348689.057 6      3592.217          37.687    20808370.000    85206794.352 6      2799.130          37.750
G11  21086920.280   110812508.821 7       828.297          46.500    21086919.220   110812508.828 6       828.297          39.125    21086929.500    86347445.653 6       645.426          38.562    21086929.720    86347445.653 8       645.426          51.250
G30  21301441.120   111939826.838 7      1035.994          46.625    21301439.920   111939826.843 7      1035.994          47.187    21301451.640    87225879.611 7       807.268          46.750    21301452.040    87225884.611 8       807.268          48.062
R14  23835942.900   127058986.173 7      6991.410          42.687    23835942.060   127058986.179 6      6991.410          41.750    23835975.060    98823775.221 7      5437.764          42.000    23835975.140    98823778.226 7      5437.764          42.250
G05  21258907.740   111716317.279 7      4893.210          47.437    21258906.880   111716317.286 7      4893.210          46.187    21258914.940    87051702.510 7      3812.891          46.250    21258915.620    87051707.516 8      3812.891          48.312
R03  21126474.460   113091676.127 7      3822.085          46.125    21126475.020   113091676.144 7      3822.085          45.250    21126489.680    87960251.107 8      2972.733          49.125    21126489.780    87960252.106 8      2972.733          48.562
R13  20607194.420   110041278.493 7      5354.663          42.437    20607192.660   110041278.510 6      5354.663          41.937
G07  23739959.520   124754322.003 6       -88.242          40.937    23739957.920   124754322.011 6       -88.242          38.812    23739973.380    97211217.719 6       -68.760          38.250    23739974.140    97211242.721 7       -68.760          46.875
R17  21410449.460   114571613.295 7      -690.909          44.812    21410449.220   114571613.304 7      -690.909          44.187    21410471.100    89111345.625 8      -537.373          48.437    21410470.880    89111344.623 8      -537.373          48.187
G06  23434679.260   123150043.472 6      -864.667          41.000    23434678.500   123150043.466 6      -864.667          39.562    23434704.340    95961161.328 6      -673.766          39.437    23434705.500    95961166.320 7      -673.766          45.375
R18  20871932.980   111415791.701 7      2268.004          46.625    20871933.440   111415791.694 7      2268.004          46.375    20871948.280    86656787.542 8      1764.003          49.812    20871947.960    86656788.541 8      1764.003          49.375
R01  23807815.800   127266399.100 6       847.815          39.062    23807815.540   127266399.085 6       847.815          38.000    23807852.900    98985123.500 6       659.412          36.000    23807851.700    98985119.500 6       659.412          36.937
R12  21053811.400   112465677.369 7      2085.009          46.812    21053810.420   112465677.373 7      2085.009          47.125    21053828.220    87473378.672 8      1621.674          48.125    21053828.640    87473378.679 8      1621.674          48.937
R02  21113872.300   112667666.125 8      1953.453          48.437    21113871.360   112667666.115 7      1953.453          47.250    21113886.940    87630462.793 8      1519.352          48.562    21113887.380    87630467.798 8      1519.352          48.187
G20  20078336.700   105512369.480 7      3396.261          46.562    20078333.660   105512369.485 6      3396.261          40.750    20078341.800    82217448.156 6      2646.437          40.562
G22  23827507.120   125214390.689 7      5152.176          42.437    23827507.800   125214390.694 4      5152.176          27.562    23827537.280    97569670.831 4      4014.683          27.687
G14  23356670.320   122740143.493 7      4759.253          43.125    23356668.260   122740143.500 5      4759.253          31.500    23356695.860    95641756.555 5      3708.509          31.375    23356696.180    95641784.578 7      3708.509          46.125
> 2024 10 07 12 25 22.0000000  0 17
G13  20807679.780   109345096.902 8      3592.036          48.687    20807678.580   109345096.910 6      3592.036          38.187    20807686.540    85203995.278 6      2798.989          38.062
G11  21086762.720   110811680.719 7       827.864          47.312    21086761.640   110811680.724 6       827.864          39.125    21086771.940    86346800.375 6       645.089          39.125    21086772.220    86346800.373 8       645.089          51.125
G30  21301244.020   111938790.916 7      1035.741          47.250    21301242.740   111938790.923 7      1035.741          47.312    21301254.460    87225072.399 7       807.071          47.000    21301255.200    87225077.401 8       807.071          48.125
R14  23834631.740   127051994.565 7      6991.853          42.250    23834629.860   127051994.579 6      6991.853          41.562    23834662.560    98818337.299 6      5438.108          41.500    23834663.940    98818340.310 7      5438.108          42.062
G05  21257976.520   111711423.945 7      4893.293          46.937    21257975.760   111711423.947 7      4893.293          46.625    21257983.780    87047889.523 7      3812.955          46.875    21257984.680    87047894.533 8      3812.955          48.500
R03  21125760.640   113087853.882 7      3822.347          45.812    21125760.420   113087853.905 7      3822.347          45.062    21125775.720    87957278.253 8      2972.936          49.187    21125775.980    87957279.257 8      2972.936          48.687
R13  20606192.040   110035923.986 7      5354.187          42.437    20606189.840   110035923.998 7      5354.187          42.000
G07  23739976.440   124754410.191 6       -88.153          41.000    23739974.760   124754410.204 6       -88.153          39.625    23739990.220    97211286.433 6       -68.691          38.812    23739990.880    97211311.436 7       -68.691          47.125
R17  21410578.960   114572304.223 7      -690.930          44.812    21410578.160   114572304.230 7      -690.930          44.312    21410600.240    89111882.998 8      -537.390          48.375    21410599.860    89111881.997 8      -537.390          48.625
G06  23434843.960   123150908.035 6      -864.489          41.187    23434842.840   123150908.035 6      -864.489          39.375    23434869.000    95961834.988 6      -673.628          38.875    23434869.920    95961839.984 7      -673.628          45.500
R18  20871508.460   111413523.935 7      2267.457          47.312    20871508.420   111413523.930 7      2267.457          46.000    20871523.580    86655023.722 8      1763.578          49.562    20871523.380    86655024.723 8      1763.578          50.187
R01  23807657.120   127265551.134 6       847.921          39.062    23807657.180   127265551.125 6       847.921          38.000    23807693.880    98984463.942 6       659.494          36.000    23807693.400    98984459.934 6       659.494          36.937
R12  21053421.120   112463592.588 7      2084.456          47.437    21053420.020   112463592.589 7      2084.456          47.375    21053437.900    87471757.171 8      1621.243          48.625    21053438.380    87471757.178 8      1621.243          49.375
R02  21113505.880   112665712.586 8      1953.623          48.812    21113505.280   112665712.578 7      1953.623          47.000    21113520.820    87628943.374 8      1519.485          48.250    21113521.080    87628948.376 8      1519.485          48.687
G20  20077690.420   105508973.224 7      3396.052          46.812    20077687.500   105508973.229 6      3396.052          41.250    20077695.700    82214801.721 6      2646.275          40.812
G22  23826526.460   125209238.442 7      5152.341          42.937    23826527.400   125209238.450 4      5152.341          27.437    23826556.820    97565656.091 4      4014.811          27.625
G14  23355764.680   122735384.246 7      4759.277          43.250    23355762.700   122735384.254 5      4759.277          31.437    23355790.060    95638048.065 5      3708.528          31.250    23355790.420    95638076.090 7      3708.528          46.562
> 2024 10 07 12 25 23.0000000  0 17
G13  20806996.060   109341505.075 7      3591.749          47.187    20806995.000   109341505.085 6      3591.749          38.000    20807003.120    85201196.452 6      2798.766          37.875
G11  21086605.760   110810853.190 7       827.316          46.812    21086604.220   110810853.195 6       827.316          38.937    21086614.500    86346155.541 6       644.661          38.875    21086614.780    86346155.543 8       644.661          51.625
G30  21301047.000   111937755.524 7      1035.133          47.687    21301045.780   111937755.529 7      1035.133          47.375    21301057.360    87224265.598 7       806.597          47.000    21301058.040    87224270.600 8       806.597          48.125
R14  23833319.960   127045002.895 7      6991.863          42.250    23833318.440   127045002.882 6      6991.863          41.562    23833350.920    98812899.327 6      5438.116          41.500    23833352.160    98812902.332 7      5438.116          42.062
G05  21257045.400   111706530.887 7      4893.033          47.000    21257044.660   111706530.894 7      4893.033          46.312    21257052.620    87044076.754 7      3812.753          46.312    21257053.440    87044081.764 8      3812.753          48.750
R03  21125046.760   113084031.722 7      3822.224          45.812    21125046.520   113084031.737 7      3822.224          45.312    21125061.760    87954305.457 8      2972.841          48.937    21125061.940    87954306.462 8      2972.841          49.375
R13  20605189.180   110030570.142 7      5353.666          42.562    20605187.800   110030570.173 7      5353.666          42.187
G07  23739993.180   124754498.644 6       -88.453          40.437    23739991.740   124754498.648 6       -88.453          39.562    23740007.180    97211355.343 6       -68.925          39.250    23740007.400    97211380.338 7       -68.925          46.812
R17  21410708.140   114572995.607 7      -691.542          43.875    21410707.380   114572995.611 7      -691.542          44.562    21410729.680    89112420.728 8      -537.866          48.687    21410729.060    89112419.725 8      -537.866          49.312
G06  23435008.260   123151772.780 6      -864.744          40.875    23435007.200   123151772.783 6      -864.744          39.250    23435033.440    95962508.795 6      -673.827          38.687    23435034.320    95962513.791 7      -673.827          45.187
R18  20871083.720   111411257.066 7      2266.500          46.750    20871083.680   111411257.066 7      2266.500          46.500    20871098.880    86653260.599 8      1762.833          49.812    20871098.220    86653261.603 8      1762.833          50.125
R01  23807498.880   127264703.208 6       847.953          39.562    23807498.280   127264703.202 6       847.953          38.062    23807535.820    98983804.413 6       659.519          36.000    23807534.740    98983800.412 6       659.519          36.937
R12  21053031.280   112461508.706 7      2083.541          47.000    21053030.120   112461508.712 7      2083.541          47.437    21053047.660    87470136.380 8      1620.532          48.625    21053048.560    87470136.385 8      1620.532          49.625
R02  21113140.020   112663759.145 8      1953.437          48.375    21113139.240   112663759.135 7      1953.437          47.437    21113154.900    87627424.026 8      1519.340          48.687    21113155.160    87627429.029 8      1519.340          48.437
G20  20077044.460   105505577.462 7      3395.596          46.312    20077041.400   105505577.470 6      3395.596          41.437    20077049.500    82212155.671 6      2645.919          40.750
G22  23825545.740   125204086.235 6      5152.187          41.375    23825546.840   125204086.245 4      5152.187          27.437    23825576.380    97561641.382 4      4014.691          27.625
G14  23354858.820   122730625.257 7      4758.803          43.437    23354857.020   122730625.270 5      4758.803          31.437    23354884.520    95634339.782 5      3708.158          31.250    23354884.760    95634367.814 7      3708.158          46.750
> 2024 10 07 12 25 24.0000000  0 17
G13  20806312.680   109337913.589 8      3591.176          48.062    20806311.640   109337913.597 6      3591.176          37.812    20806319.880    85198397.893 6      2798.319          37.625
G11  21086448.080   110810026.245 7       826.514          47.687    21086446.800   110810026.250 6       826.514          38.812    21086457.100    86345511.161 6       644.037          39.000    21086457.340    86345511.170 8       644.037          51.250
G30  21300850.000   111936720.600 7      1034.576          46.750    21300848.820   111936720.600 7      1034.576          47.437    21300860.480    87223459.162 7       806.163          47.250    21300861.140    87223464.166 7       806.163          47.812
R14  23832008.520   127038011.094 6      6991.768          41.750    23832007.200   127038011.092 6      6991.768          41.062    23832039.660    98807461.264 6      5438.042          41.375    23832040.440    98807464.263 7      5438.042          42.000
G05  21256114.260   111701638.081 7      4892.594          47.500    21256113.540   111701638.086 7      4892.594          46.125    21256121.540    87040264.180 7      3812.411          46.250    21256122.360    87040269.188 8      3812.411          48.312
R03  21124332.920   113080209.597 7      3821.946          46.250    21124332.280   113080209.615 7      3821.946          44.937    21124347.700    87951332.699 8      2972.625          48.875    21124347.820    87951333.703 8      2972.625          49.187
R13  20604186.760   110025217.000 7      5352.667          42.625    20604184.960   110025217.007 7      5352.667          42.187
G07  23740009.920   124754587.288 6       -88.935          41.250    23740008.520   124754587.293 6       -88.935          39.500    23740023.760    97211424.410 6       -69.300          38.750    23740024.040    97211449.411 7       -69.300          46.625
R17  21410837.260   114573687.399 7      -692.247          43.875    21410836.500   114573687.401 7      -692.247          44.187    21410858.980    89112958.774 8      -538.415          48.562    21410858.460    89112957.775 8      -538.415          49.000
G06  23435172.600   123152637.667 6      -865.062          40.875    23435171.720   123152637.669 6      -865.062          38.937    23435198.100    95963182.700 6      -674.074          38.812    23435198.920    95963187.687 7      -674.074          45.437
R18  20870658.900   111408991.072 7      2265.396          45.312    20870659.080   111408991.067 7      2265.396          46.437    20870674.380    86651498.156 8      1761.975          49.562    20870673.860    86651499.159 8      1761.975          49.687
R01  23807340.280   127263855.347 6       847.743          39.562    23807339.820   127263855.340 6       847.743          38.062    23807375.840    98983144.932 6       659.355          36.000    23807375.680    98983140.931 6       659.355          36.937
R12  21052641.160   112459425.727 7      2082.457          47.250    21052640.120   112459425.728 7      2082.457          46.625    21052657.700    87468516.286 8      1619.688          48.937    21052658.520    87468516.293 8      1619.688          49.625
R02  21112773.940   112661805.728 8      1953.274          48.187    21112773.060   112661805.726 7      1953.274          46.750    21112788.720    87625904.704 8      1519.213          48.812    21112789.140    87625909.706 8      1519.213          48.125
G20  20076398.360   105502182.173 7      3395.009          45.875    20076395.280   105502182.178 6      3395.009          40.812    20076403.480    82209509.989 6      2645.462          40.437
G22  23824565.380   125198934.067 6      5152.054          41.875    23824566.320   125198934.077 4      5152.054          27.437    23824595.720    97557626.700 4      4014.588          27.625
G14  23353953.160   122725866.441 7      4758.672          42.687    23353951.400   122725866.446 5      4758.672          31.437    23353978.960    95630631.629 5      3708.056          31.250    23353979.440    95630659.658 7      3708.056          46.625
> 2024 10 07 12 25 25.0000000  0 17
G13  20805629.400   109334322.548 8      3590.773          48.250    20805628.280   109334322.558 6      3590.773          37.875    20805636.420    85195599.679 6      2798.005          38.187
G11  21086290.780   110809199.977 7       826.012          47.125    21086289.620   110809199.985 6       826.012          39.000    21086299.800    86344867.310 6       643.646          38.812    21086300.020    86344867.315 8       643.646          51.562
G30  21300653.220   111935686.309 7      1033.993          47.187    21300651.960   111935686.317 7      1033.993          47.312    21300663.720    87222653.223 7       805.709          47.437    21300664.320    87222658.225 8       805.709          48.375
R14  23830696.560   127031019.403 6      6991.655          41.750    23830695.960   127031019.398 6      6991.655          41.062    23830728.480    98802023.267 6      5437.954          41.750    23830728.620    98802026.268 7      5437.954          42.187
G05  21255183.180   111696745.664 7      4892.221          47.062    21255182.580   111696745.671 7      4892.221          46.562    21255190.640    87036451.909 7      3812.120          46.500    21255191.300    87036456.916 8      3812.120          48.500
R03  21123618.920   113076387.644 7      3821.926          45.000    21123618.260   113076387.648 7      3821.926          44.625    21123633.800    87948360.060 8      2972.609          49.500    21123634.020    87948361.062 8      2972.609          48.937
R13  20603184.680   110019864.585 7      5352.164          42.375    20603182.300   110019864.594 6      5352.164          41.500
G07  23740027.000   124754676.243 6       -88.965          41.250    23740025.580   124754676.250 6       -88.965          39.562    23740040.740    97211493.717 6       -69.324          39.062    23740041.220    97211518.718 7       -69.324          46.625
R17  21410966.900   114574379.690 7      -692.603          44.500    21410965.860   114574379.694 7      -692.603          44.187    21410988.380    89113497.212 8      -538.691          48.500    21410987.720    89113496.209 8      -538.691          49.125
G06  23435337.400   123153502.798 6      -865.149          41.812    23435336.300   123153502.795 6      -865.149          39.062    23435362.760    95963856.793 6      -674.142          38.437    23435363.580    95963861.781 7      -674.142          45.062
R18  20870234.760   111406726.071 7      2264.491          45.937    20870234.780   111406726.074 7      2264.491          46.625    20870250.020    86649736.486 8      1761.271          49.562    20870249.520    86649737.488 8      1761.271          49.625
R01  23807181.740   127263007.660 6       847.713          39.562    23807181.000   127263007.658 6       847.713          38.062    23807218.000    98982485.576 5       659.332          35.750    23807217.340    98982481.577 6       659.332          36.937
R12  21052251.420   112457343.761 7      2081.507          47.125    21052250.260   112457343.762 7      2081.507          46.750    21052268.040    87466896.983 8      1618.950          49.062    21052268.720    87466896.988 8      1618.950          49.625
R02  21112407.780   112659852.492 8      1953.183          48.625    21112407.080   112659852.490 7      1953.183          47.250    21112422.760    87624385.517 8      1519.143          48.750    21112423.180    87624390.519 8      1519.143          49.000
G20  20075752.180   105498787.489 7      3394.433          46.312    20075749.160   105498787.499 6      3394.433          41.375    20075757.300    82206864.783 6      2645.013          41.062
G22  23823585.060   125193782.056 7      5151.962          43.312    23823586.060   125193782.066 4      5151.962          27.437    23823615.400    97553612.142 4      4014.516          27.625
G14  23353047.880   122721108.015 7      4758.233          42.875    23353045.960   122721108.022 5      4758.233          31.500    23353073.400    95626923.780 5      3707.714          31.375    23353073.780    95626951.808 7      3707.714          46.750
> 2024 10 07 12 25 26.0000000  0 17
G13  20804946.080   109330731.924 8      3590.385          48.562    20804944.940   109330731.934 6      3590.385          38.250    20804953.120    85192801.793 6      2797.703          37.937
G11  21086133.600   110808374.403 7       825.256          47.312    21086132.460   110808374.411 6       825.256          39.125    21086142.720    86344224.000 6       643.056          38.625    21086142.960    86344224.000 8       643.056          51.250
G30  21300456.540   111934652.589 7      1033.441          47.125    21300455.240   111934652.588 7      1033.441          46.937    21300466.860    87221847.720 7       805.279          46.875    21300467.460    87221852.724 8       805.279          48.312
R14  23829384.800   127024027.682 7      6991.739          42.125    23829383.960   127024027.683 6      6991.739          41.437    23829416.800    98796585.266 6      5438.020          41.750    23829417.280    98796588.269 7      5438.020          42.187
G05  21254252.220   111691853.599 8      4891.822          48.000    21254251.620   111691853.601 7      4891.822          46.187    21254259.660    87032639.909 7      3811.809          46.187    21254260.380    87032644.913 8      3811.809          48.312
R03  21122905.360   113072565.827 7      3821.723          47.125    21122904.480   113072565.834 7      3821.723          44.750    21122919.860    87945387.536 8      2972.451          49.437    21122919.860    87945388.536 8      2972.451          49.062
R13  20602182.400   110014512.970 7      5351.177          42.375    20602180.680   110014512.982 6      5351.177          41.500
G07  23740044.280   124754765.549 6       -89.435          40.875    23740042.660   124754765.554 6       -89.435          39.500    23740057.680    97211563.297 6       -69.689          39.125    23740058.420    97211588.302 7       -69.689          46.750
R17  21411095.920   114575072.515 7      -693.024          44.187    21411095.360   114575072.509 7      -693.024          43.875    21411117.840    89114036.055 8      -539.018          48.625    21411117.200    89114035.059 8      -539.018          48.625
G06  23435502.160   123154368.190 6      -865.496          40.750    23435501.020   123154368.184 6      -865.496          38.937    23435527.320    95964531.093 6      -674.412          39.062    23435528.540    95964536.081 7      -674.412          45.062
R18  20869810.340   111404462.049 7      2263.498          46.250    20869810.660   111404462.053 7      2263.498          46.562    20869826.000    86647975.581 8      1760.499          49.500    20869825.480    86647976.580 8      1760.499          49.750
R01  23807022.700   127262160.148 6       847.543          39.250    23807022.620   127262160.134 6       847.543          38.500    23807059.460    98981826.363 5       659.200          35.750    23807058.440    98981822.357 6       659.200          36.937
R12  21051861.860   112455262.766 7      2080.521          47.375    21051860.780   112455262.767 7      2080.521          47.250    21051878.600    87465278.429 8      1618.183          48.500    21051878.920    87465278.430 8      1618.183          49.250
R02  21112041.900   112657899.419 8      1953.010          49.000    21112041.360   112657899.409 7      1953.010          47.125    21112056.940    87622866.448 8      1519.008          48.375    21112057.380    87622871.456 8      1519.008          48.750
G20  20075106.340   105495393.387 7      3393.828          47.250    20075103.320   105495393.392 6      3393.828          41.250    20075111.460    82204220.026 6      2644.541          40.500
G22  23822604.900   125188630.182 7      5151.787          42.437    23822605.660   125188630.190 4      5151.787          27.437    23822635.080    97549597.689 4      4014.380          27.625
G14  23352142.020   122716349.880 7      4757.928          43.375    23352140.800   122716349.887 5      4757.928          31.500    23352167.980    95623216.159 5      3707.476          31.375    23352168.500    95623244.180 7      3707.476          46.500
> 2024 10 07 12 25 27.0000000  0 17
G13  20804262.940   109327141.505 8      3590.237          48.000    20804261.660   109327141.518 6      3590.237          38.000    20804269.820    85190004.068 6      2797.587          38.062
G11  21085976.800   110807549.231 7       824.833          47.312    21085975.460   110807549.233 6       824.833          39.125    21085985.740    86343581.003 6       642.727          38.750    21085986.060    86343581.005 8       642.727          51.000
G30  21300260.120   111933619.194 7      1032.937          46.812    21300258.600   111933619.201 7      1032.937          47.250    21300270.200    87221042.479 7       804.886          47.125    21300271.100    87221047.483 8       804.886          48.312
R14  23828073.080   127017035.706 7      6991.993          42.125    23828072.020   127017035.698 6      6991.993          41.437    23828104.960    98791147.056 6      5438.217          41.812    23828105.380    98791150.065 7      5438.217          42.312
G05  21253321.400   111686961.629 7      4891.734          46.812    21253320.800   111686961.636 7      4891.734          46.500    21253328.760    87028827.988 7      3811.741          46.062    21253329.340    87028832.994 8      3811.741          48.812
R03  21122191.200   113068743.938 7      3821.713          46.625    21122190.500   113068743.956 7      3821.713          44.812    21122205.940    87942414.964 8      2972.443          49.187    21122206.240    87942415.964 8      2972.443          49.187
R13  20601180.260   110009161.748 6      5350.822          41.625    20601179.020   110009161.752 6      5350.822          41.875
G07  23740061.140   124754854.851 6       -89.390          40.875    23740059.760   124754854.850 6       -89.390          39.625    23740074.660    97211632.872 6       -69.655          39.125    23740075.360    97211657.871 7       -69.655          46.687
R17  21411226.060   114575765.592 7      -693.353          44.875    21411225.220   114575765.586 7      -693.353          44.000    21411247.360    89114575.100 8      -539.275          48.750    21411246.960    89114574.100 8      -539.275          49.187
G06  23435666.740   123155233.534 6      -865.696          41.000    23435665.520   123155233.526 6      -865.696          39.375    23435692.260    95965205.355 6      -674.568          38.750    23435693.360    95965210.347 7      -674.568          45.250
R18  20869386.640   111402198.775 7      2262.779          46.875    20869386.680   111402198.776 7      2262.779          46.187    20869401.980    86646215.252 8      1759.939          49.750    20869401.720    86646216.249 8      1759.939          50.125
R01  23806864.660   127261312.469 6       847.542          39.250    23806864.720   127261312.462 6       847.542          38.500    23806900.880    98981167.015 5       659.200          35.750    23806899.620    98981163.007 6       659.200          36.125
R12  21051472.340   112453182.442 7      2079.800          46.812    21051471.480   112453182.444 7      2079.800          47.125    21051489.060    87463660.404 8      1617.622          49.000    21051489.480    87463660.405 8      1617.622          49.312
R02  21111676.020   112655946.242 8      1953.036          48.750    21111675.420   112655946.230 7      1953.036          47.687    21111690.700    87621347.310 8      1519.028          48.687    21111691.340    87621352.316 8      1519.028          49.000
G20  20074460.460   105491999.586 7      3393.521          47.375    20074457.580   105491999.591 6      3393.521          40.937    20074465.780    82201575.501 6      2644.302          40.750
G22  23821624.480   125183478.135 7      5151.912          43.187    23821625.240   125183478.145 4      5151.912          27.437    23821654.720    97545583.104 4      4014.477          27.625
G14  23351236.840   122711591.724 7      4757.889          43.500    23351235.420   122711591.728 5      4757.889          31.875    23351262.440    95619508.521 5      3707.446          31.375    23351262.900    95619536.550 7      3707.446          46.875
> 2024 10 07 12 25 28.0000000  0 17
G13  20803579.540   109323551.435 8      3589.968          48.312    20803578.420   109323551.448 6      3589.968          38.187    20803586.660    85187206.611 6      2797.377          37.875
G11  21085819.640   110806724.706 7       824.261          47.625    21085818.700   110806724.711 6       824.261          39.000    21085828.880    86342938.509 6       642.282          39.125    21085829.040    86342938.509 8       642.282          51.437
G30  21300063.540   111932586.395 7      1032.571          47.875    21300062.080   111932586.400 7      1032.571          46.875    21300073.740    87220237.697 7       804.601          46.937    21300074.600    87220242.703 8       804.601          48.500
R14  23826761.300   127010043.761 7      6992.032          42.437    23826760.560   127010043.756 6      6992.032          41.562    23826792.920    98785708.871 6      5438.247          41.937    23826793.880    98785711.876 7      5438.247          42.312
G05  21252390.540   111682069.929 7      4891.687          47.625    21252389.860   111682069.939 7      4891.687          46.250    21252397.980    87025016.280 7      3811.704          46.000    21252398.380    87025021.286 8      3811.704          48.250
R03  21121477.040   113064922.119 7      3821.769          46.437    21121476.380   113064922.139 7      3821.769          45.187    21121492.060    87939442.438 8      2972.487          49.312    21121492.160    87939443.441 8      2972.487          49.250
R13  20600178.040   110003811.348 7      5350.132          42.312    20600176.740   110003811.352 6      5350.132          41.875
G07  23740078.220   124754944.552 6       -90.035          41.000    23740076.900   124754944.549 6       -90.035          39.500    23740091.740    97211702.758 6       -70.157          39.250    23740092.260    97211727.760 7       -70.157          46.500
R17  21411355.460   114576459.073 7      -693.705          45.000    21411354.600   114576459.080 7      -693.705          44.250    21411377.040    89115114.472 8      -539.548          48.750    21411376.460    89115113.474 8      -539.548          48.687
G06  23435831.460   123156099.072 6      -865.632          41.062    23435830.120   123156099.069 6      -865.632          39.250    23435856.840    95965879.776 6      -674.519          39.250    23435858.060    95965884.768 7      -674.519          45.562
R18  20868962.760   111399936.345 7      2262.071          47.125    20868962.720   111399936.346 7      2262.071          47.062    20868978.080    86644455.578 8      1759.389          49.562    20868977.980    86644456.577 8      1759.389          50.437
R01  23806706.220   127260465.019 6       847.426          39.250    23806706.720   127260465.042 6       847.426          38.500    23806741.940    98980507.875 5       659.109          35.750    23806740.980    98980503.861 6       659.109          36.125
R12  21051083.080   112451103.179 7      2078.786          46.687    21051082.280   112451103.180 7      2078.786          47.000    21051099.900    87462043.201 8      1616.834          49.125    21051100.260    87462043.202 8      1616.834          49.187
R02  21111309.640   112653993.314 8      1952.784          49.312    21111309.360   112653993.306 7      1952.784          47.250    21111325.080    87619828.363 8      1518.832          48.937    21111325.340    87619833.370 8      1518.832          48.812
G20  20073814.720   105488606.351 7      3393.020          46.812    20073811.820   105488606.356 6      3393.020          41.187    20073820.100    82198931.423 6      2643.911          40.875
G22  23820643.900   125178326.277 7      5151.825          42.625    23820644.840   125178326.284 4      5151.825          27.437    23820674.240    97541568.665 4      4014.409          27.625
G14  23350331.340   122706833.990 7      4757.594          43.625    23350330.120   122706833.998 5      4757.594          31.875    23350357.220    95615801.215 5      3707.216          31.750    23350357.520    95615829.236 7      3707.216          46.812
> 2024 10 07 12 25 29.0000000  0 17
G13  20802896.480   109319961.792 8      3589.650          48.187    20802895.400   109319961.802 6      3589.650          38.125    20802903.740    85184409.486 6      2797.129          37.937
G11  21085662.980   110805900.821 7       823.752          47.312    21085661.740   110805900.823 6       823.752          39.312    21085672.180    86342296.515 6       641.885          38.937    21085672.520    86342296.515 8       641.885          51.187
G30  21299867.080   111931554.175 7      1032.045          47.250    21299865.500   111931554.183 7      1032.045          46.625    21299877.300    87219433.372 7       804.191          46.562    21299878.060    87219438.378 8       804.191          48.062
R14  23825449.740   127003051.785 7      6992.137          42.875    23825449.820   127003051.782 6      6992.137          41.562    23825481.080    98780270.659 6      5438.329          41.937    23825481.980    98780273.664 6      5438.329          41.875
G05  21251459.860   111677178.623 7      4891.313          47.375    21251459.060   111677178.636 7      4891.313          46.750    21251467.140    87021204.875 7      3811.413          46.625    21251467.800    87021209.879 8      3811.413          48.625
R03  21120763.040   113061100.478 7      3821.700          45.937    21120762.660   113061100.493 7      3821.700          45.125    21120778.160    87936470.049 8      2972.433          49.312    21120778.420    87936471.046 8      2972.433          49.562
R13  20599175.740   109998461.656 7      5349.491          42.312    20599174.700   109998461.665 6      5349.491          41.875
G07  23740095.460   124755034.463 6       -90.016          41.000    23740093.940   124755034.462 6       -90.016          39.625    23740109.140    97211772.819 6       -70.142          39.312    23740109.520    97211797.824 7       -70.142          46.687
R17  21411485.340   114577153.092 7      -694.177          44.937    21411484.420   114577153.099 7      -694.177          44.312    21411506.740    89115654.250 8      -539.916          48.500    21411505.920    89115653.252 8      -539.916          49.125
G06  23435996.400   123156964.874 6      -865.879          41.312    23435994.940   123156964.871 6      -865.879          39.187    23436021.580    95966554.397 6      -674.711          39.187    23436023.020    95966559.383 7      -674.711          45.375
R18  20868538.980   111397674.910 7      2261.139          46.687    20868539.100   111397674.910 7      2261.139          46.312    20868554.480    86642696.682 8      1758.664          49.187    20868554.180    86642697.681 8      1758.664          50.250
R01  23806547.620   127259617.743 6       847.239          39.562    23806548.120   127259617.774 6       847.239          38.500    23806583.640    98979848.851 5       658.963          35.750    23806582.820    98979844.844 6       658.963          36.125
R12  21050693.680   112449024.829 7      2077.950          46.937    21050693.220   112449024.833 7      2077.950          47.312    21050710.760    87460426.709 8      1616.183          48.875    21050710.960    87460426.711 8      1616.183          49.125
R02  21110944.080   112652040.550 8      1952.727          48.500    21110943.320   112652040.540 7      1952.727          47.875    21110958.880    87618309.543 8      1518.788          49.375    21110959.360    87618314.550 8      1518.788          49.312
G20  20073169.320   105485213.677 7      3392.472          46.750    20073166.360   105485213.684 6      3392.472          41.250    20073174.440    82196287.782 6      2643.485          40.812
G22  23819663.800   125173174.532 7      5151.751          42.437    23819664.660   125173174.539 4      5151.751          27.437    23819694.020    97537554.316 4      4014.352          27.625
G14  23349425.980   122702076.531 7      4757.360          42.812    23349424.820   122702076.541 5      4757.360          31.875    23349451.940    95612094.120 5      3707.034          31.750    23349452.200    95612122.135 7      3707.034          46.312
> 2024 10 07 12 25 30.0000000  0 17
G13  20802213.460   109316372.421 7      3589.190          47.250    20802212.420   109316372.429 6      3589.190          37.937    20802220.720    85181612.570 6      2796.771          37.687
G11  21085506.260   110805077.444 7       823.092          46.875    21085505.120   110805077.446 6       823.092          38.812    21085515.380    86341654.916 6       641.370          38.687    21085515.840    86341654.912 8       641.370          51.312
G30  21299670.720   111930522.383 7      1031.565          46.875    21299669.280   111930522.390 7      1031.565          46.625    21299681.060    87218629.376 7       803.817          46.750    21299681.680    87218634.382 8       803.817          48.250
R14  23824137.600   126996059.581 7      6992.125          43.500    23824137.860   126996059.587 6      6992.125          41.875    23824169.760    98774832.266 6      5438.319          41.312    23824170.320    98774835.269 6      5438.319          41.812
G05  21250529.200   111672287.520 7      4890.990          47.687    21250528.340   111672287.520 7      4890.990          46.937    21250536.460    87017393.620 7      3811.161          46.500    21250537.060    87017398.624 8      3811.161          48.750
R03  21120049.040   113057278.838 7      3821.610          46.187    21120048.620   113057278.858 7      3821.610          44.937    21120064.100    87933497.660 8      2972.363          49.312    21120064.680    87933498.661 8      2972.363          49.437
R13  20598174.200   109993112.538 7      5348.754          42.750    20598172.880   109993112.555 7      5348.754          42.187
G07  23740112.600   124755124.581 6       -90.271          41.437    23740111.180   124755124.589 6       -90.271          40.062    23740126.200    97211843.035 6       -70.341          39.437    23740126.380    97211868.038 7       -70.341          46.562
R17  21411615.000   114577847.421 7      -694.580          45.750    21411614.260   114577847.428 7      -694.580          44.625    21411636.240    89116194.276 8      -540.229          48.500    21411635.860    89116193.277 8      -540.229          49.250
G06  23436161.220   123157830.693 6      -865.954          41.000    23436159.840   123157830.693 6      -865.954          39.437    23436186.240    95967229.029 6      -674.769          39.500    23436187.460    95967234.013 7      -674.769          45.625
R18  20868115.660   111395414.291 7      2260.148          45.875    20868115.760   111395414.292 7      2260.148          46.437    20868130.900    86640938.417 8      1757.893          49.875    20868130.920    86640939.422 8      1757.893          50.125
R01  23806388.620   127258770.472 6       847.330          39.562    23806389.220   127258770.471 6       847.330          38.687    23806425.000    98979189.801 5       659.035          35.437    23806424.440    98979185.799 6       659.035          36.125
R12  21050304.960   112446947.285 7      2077.050          46.625    21050304.360   112446947.289 7      2077.050          47.000    21050321.740    87458810.837 8      1615.484          48.750    21050322.140    87458810.842 8      1615.484          48.562
R02  21110578.140   112650087.803 8      1952.764          48.187    21110577.360   112650087.790 7      1952.764          46.875    21110593.140    87616790.730 8      1518.816          48.375    21110593.340    87616795.734 8      1518.816          48.812
G20  20072523.900   105481821.404 7      3391.984          46.375    20072520.780   105481821.412 6      3391.984          41.625    20072529.100    82193644.451 6      2643.104          40.687
G22  23818683.160   125168022.724 7      5151.781          43.062    23818684.340   125168022.736 4      5151.781          27.437    23818713.660    97533539.920 4      4014.375          27.625
G14  23348520.440   122697319.205 7      4757.147          43.062    23348519.700   122697319.215 5      4757.147          31.937    23348546.620    95608387.127 5      3706.868          31.750    23348546.860    95608415.142 7      3706.868          46.437
> 2024 10 07 12 25 31.0000000  0 17
G13  20801530.340   109312783.242 7      3589.155          47.500    20801529.300   109312783.252 6      3589.155          38.000    20801537.700    85178815.807 6      2796.744          37.625
G11  21085349.540   110804254.524 7       822.733          47.375    21085348.680   110804254.529 6       822.733          38.812    21085358.840    86341013.674 6       641.091          39.000    21085359.460    86341013.676 8       641.091          50.875
G30  21299474.480   111929490.964 7      1031.283          46.750    21299472.920   111929490.972 7      1031.283          46.812    21299484.760    87217825.671 7       803.597          46.562    21299485.500    87217830.673 8       803.597          48.250
R14  23822826.380   126989067.155 7      6992.554          43.500    23822825.620   126989067.160 7      6992.554          42.062    23822857.980    98769393.701 6      5438.653          41.500    23822858.240    98769396.704 6      5438.653          41.812
G05  21249598.580   111667396.538 7      4890.922          47.562    21249597.620   111667396.540 7      4890.922          46.187    21249605.740    87013582.467 7      3811.108          46.437    21249606.260    87013587.469 8      3811.108          48.125
R03  21119335.520   113053457.115 7      3821.737          46.125    21119334.660   113053457.135 7      3821.737          44.500    21119350.320    87930525.211 8      2972.462          49.375    21119350.480    87930526.210 8      2972.462          48.937
R13  20597172.400   109987763.959 7      5348.463          42.562    20597171.380   109987763.973 6      5348.463          41.687
G07  23740129.680   124755214.779 6       -90.132          41.562    23740128.140   124755214.784 6       -90.132          39.500    23740143.380    97211913.311 6       -70.233          39.000    23740143.480    97211938.312 7       -70.233          46.312
R17  21411744.660   114578542.077 7      -694.734          45.125    21411744.460   114578542.086 7      -694.734          44.750    21411766.040    89116734.549 8      -540.349          48.562    21411765.820    89116733.550 8      -540.349          48.812
G06  23436325.960   123158696.560 6      -865.692          41.625    23436324.740   123158696.560 6      -865.692          39.062    23436351.040    95967903.704 6      -674.565          39.062    23436352.280    95967908.684 7      -674.565          45.437
R18  20867692.400   111393154.442 7      2259.427          46.000    20867692.340   111393154.437 7      2259.427          46.062    20867707.580    86639180.747 8      1757.332          49.875    20867707.440    86639181.753 8      1757.332          50.062
R01  23806230.020   127257923.154 6       847.364          39.562    23806229.020   127257923.155 6       847.364          38.687    23806267.360    98978530.740 5       659.061          35.437    23806265.960    98978526.722 6       659.061          36.125
R12  21049916.120   112444870.508 7      2076.413          46.625    21049915.660   112444870.509 7      2076.413          46.937    21049933.040    87457195.564 8      1614.988          48.500    21049933.300    87457195.569 8      1614.988          49.062
R02  21110212.020   112648134.973 8      1952.909          48.375    21110211.420   112648134.968 7      1952.909          46.750    21110227.080    87615271.862 8      1518.929          48.875    21110227.320    87615276.866 8      1518.929          49.250
G20  20071878.540   105478429.481 7      3391.863          46.375    20071875.300   105478429.489 6      3391.863          41.062    20071883.500    82191001.396 6      2643.010          40.562
G22  23817702.920   125162870.858 7      5152.171          43.500    23817703.960   125162870.865 4      5152.171          27.437    23817733.080    97529525.473 4      4014.679          27.625
G14  23347615.420   122692561.992 7      4757.359          43.562    23347614.400   122692561.997 5      4757.359          31.937    23347641.420    95604680.218 5      3707.033          31.937    23347641.480    95604708.229 7      3707.033          46.375
> 2024 10 07 12 25 32.0000000  0 17
G13  20800847.300   109309194.355 7      3588.641          47.375    20800846.400   109309194.363 6      3588.641          37.625    20800854.780    85176019.274 6      2796.344          37.687
G11  21085193.220   110803432.187 7       821.981          47.000    21085192.260   110803432.192 6       821.981          39.312    21085202.520    86340372.889 6       640.505          38.625    21085203.040    86340372.890 8       640.505          51.687
G30  21299278.180   111928460.039 7      1030.610          46.750    21299276.560   111928460.047 7      1030.610          46.937    21299288.600    87217022.349 7       803.072          46.625    21299289.340    87217027.347 8       803.072          48.562
R14  23821514.840   126982074.728 7      6992.384          43.000    23821514.300   126982074.728 7      6992.384          42.062    23821546.740    98763955.135 6      5438.521          41.750    23821546.620    98763958.136 7      5438.521          42.375
G05  21248667.620   111662505.739 7      4890.556          46.937    21248666.980   111662505.747 7      4890.556          46.562    21248674.980    87009771.463 7      3810.823          46.625    21248675.560    87009776.467 8      3810.823          48.687
R03  21118621.280   113049635.365 7      3821.512          45.375    21118620.380   113049635.393 7      3821.512          44.750    21118636.340    87927552.747 8      2972.287          49.062    21118636.580    87927553.746 8      2972.287          49.250
R13  20596170.980   109982416.111 7      5347.454          42.562    20596170.120   109982416.128 6      5347.454          41.687
G07  23740147.060   124755305.179 6       -90.653          41.625    23740145.380   124755305.186 6       -90.653          39.250    23740160.600    97211983.740 6       -70.638          38.937    23740160.640    97212008.743 7       -70.638          46.625
R17  21411874.160   114579237.112 7      -695.286          45.500    21411874.060   114579237.122 7      -695.286          44.500    21411896.000    89117275.120 8      -540.778          48.000    21411895.660    89117274.121 8      -540.778          48.687
G06  23436490.560   123159562.640 6      -866.133          40.500    23436489.520   123159562.640 6      -866.133          38.937    23436516.060    95968578.549 6      -674.909          38.250    23436517.160    95968583.543 7      -674.909          44.812
R18  20867269.300   111390895.377 7      2258.524          46.000    20867268.980   111390895.372 7      2258.524          46.000    20867284.280    86637423.689 8      1756.630          49.750    20867284.160    86637424.694 8      1756.630          49.437
R01  23806071.840   127257075.963 6       846.869          38.187    23806070.880   127257075.959 6       846.869          38.687    23806108.280    98977871.764 5       658.676          35.437    23806107.900    98977867.760 5       658.676          35.750
R12  21049527.640   112442794.618 7      2075.280          47.062    21049527.560   112442794.622 7      2075.280          47.125    21049544.480    87455580.987 8      1614.107          48.312    21049544.660    87455580.988 8      1614.107          49.750
R02  21109845.980   112646182.159 8      1952.657          48.187    21109845.300   112646182.160 7      1952.657          47.062    21109861.100    87613753.002 8      1518.733          48.250    21109861.340    87613758.007 8      1518.733          48.937
G20  20071233.140   105475038.034 7      3391.124          46.312    20071229.880   105475038.039 6      3391.124          41.125    20071238.060    82188358.706 6      2642.435          40.312
G22  23816722.380   125157719.126 7      5151.541          43.250    23816723.620   125157719.131 4      5151.541          27.437    23816752.740    97525511.132 4      4014.188          27.625
G14  23346710.340   122687805.084 7      4756.686          43.125    23346709.020   122687805.089 5      4756.686          31.937    23346736.080    95600973.553 5      3706.509          31.937    23346736.120    95601001.572 7      3706.509          46.625
> 2024 10 07 12 25 33.0000000  0 17
G13  20800164.560   109305606.020 8      3588.270          48.000    20800163.640   109305606.028 6      3588.270          38.375    20800171.920    85173223.166 6      2796.055          38.312
G11  21085036.740   110802610.533 7       821.455          47.437    21085036.040   110802610.538 6       821.455          39.562    21085046.100    86339732.632 6       640.095          39.125    21085046.540    86339732.634 8       640.095          51.750
G30  21299082.280   111927429.800 7      1030.019          46.312    21299080.340   111927429.807 7      1030.019          46.500    21299092.540    87216219.565 7       802.612          46.937    21299093.340    87216224.563 8       802.612          48.625
R14  23820203.080   126975082.194 7      6992.586          43.125    23820201.760   126975082.213 7      6992.586          42.375    23820234.940    98758516.514 6      5438.678          41.750    23820234.940    98758519.513 7      5438.678          42.562
G05  21247737.160   111657615.479 7      4890.133          47.000    21247736.420   111657615.487 7      4890.133          46.312    21247744.420    87005960.875 7      3810.493          46.500    21247745.060    87005965.879 8      3810.493          48.250
R03  21117907.560   113045813.966 7      3821.434          45.375    21117906.540   113045813.989 7      3821.434          44.375    21117922.340    87924580.543 8      2972.226          49.500    21117922.420    87924581.543 8      2972.226          49.375
R13  20595169.800   109977068.996 7      5346.856          42.750    20595168.820   109977069.002 7      5346.856          42.000
G07  23740163.960   124755396.017 6       -90.929          41.375    23740162.560   124755396.030 6       -90.929          39.625    23740177.840    97212054.519 6       -70.854          39.312    23740178.220    97212079.522 7       -70.854          47.062
R17  21412004.640   114579932.635 7      -695.577          44.062    21412004.280   114579932.647 7      -695.577          44.500    21412025.640    89117816.075 8      -541.005          48.250    21412025.660    89117815.072 8      -541.005          48.750
G06  23436655.340   123160428.901 6      -866.266          40.375    23436654.500   123160428.903 6      -866.266          38.437    23436680.720    95969253.531 6      -675.013          37.937    23436682.080    95969258.513 7      -675.013          44.625
R18  20866846.300   111388637.438 7      2257.505          46.750    20866845.780   111388637.436 7      2257.505          46.437    20866861.380    86635667.512 8      1755.837          49.687    20866860.980    86635668.516 8      1755.837          50.000
R01  23805913.180   127256228.879 6       847.078          38.187    23805911.520   127256228.878 6       847.078          38.687    23805949.780    98977212.896 5       658.839          35.437    23805949.560    98977208.891 5       658.839          35.750
R12  21049139.520   112440719.783 7      2074.436          46.562    21049139.540   112440719.795 7      2074.436          47.312    21049156.060    87453967.231 8      1613.450          49.125    21049156.580    87453967.229 8      1613.450          49.687
R02  21109480.240   112644229.644 8      1952.482          48.250    21109479.560   112644229.647 7      1952.482          46.875    21109495.240    87612234.377 8      1518.597          48.750    21109495.800    87612239.382 8      1518.597          48.937
G20  20070587.720   105471647.259 7      3390.526          47.000    20070584.620   105471647.264 6      3390.526          41.187    20070592.800    82185716.543 6      2641.969          41.062
G22  23815742.280   125152567.438 7      5151.737          42.937    23815743.140   125152567.446 4      5151.737          27.937    23815772.400    97521496.829 4      4014.341          28.000
G14  23345805.120   122683048.433 7      4756.668          43.812    23345803.820   122683048.441 5      4756.668          31.437    23345830.920    95597267.091 5      3706.495          31.562    23345830.960    95597295.108 7      3706.495          45.937
> 2024 10 07 12 25 34.0000000  0 17
G13  20799481.960   109302018.029 8      3587.780          48.437    20799480.780   109302018.039 6      3587.780          38.437    20799489.120    85170427.335 6      2795.673          38.312
G11  21084880.700   110801789.531 7       820.590          46.562    21084879.900   110801789.539 6       820.590          39.937    21084889.920    86339092.886 6       639.421          39.625    21084890.440    86339092.890 8       639.421          51.625
G30  21298886.060   111926399.992 7      1029.431          46.250    21298884.340   111926399.991 7      1029.431          46.625    21298896.500    87215417.109 7       802.154          46.375    21298897.400    87215422.107 8       802.154          48.125
R14  23818891.320   126968089.719 7      6992.348          43.125    23818890.140   126968089.741 7      6992.348          42.375    23818922.520    98753077.908 6      5438.493          41.937    23818923.120    98753080.919 6      5438.493          41.937
G05  21246806.580   111652725.443 7      4889.715          47.750    21246805.920   111652725.445 7      4889.715          47.125    21246813.880    87002150.455 7      3810.167          47.000    21246814.540    87002155.455 8      3810.167          48.812
R03  21117193.780   113041992.574 7      3821.257          45.687    21117192.460   113041992.587 7      3821.257          44.375    21117208.820    87921608.344 8      2972.089          49.437    21117208.700    87921609.343 8      2972.089          49.312
R13  20594168.700   109971722.574 7      5346.001          42.500    20594167.420   109971722.586 7      5346.001          42.000
G07  23740180.760   124755486.987 6       -91.290          40.750    23740179.900   124755486.997 6       -91.290          39.812    23740195.200    97212125.396 6       -71.135          39.375    23740195.820    97212150.396 7       -71.135          46.812
R17  21412134.820   114580628.673 7      -696.293          45.687    21412134.700   114580628.686 7      -696.293          44.750    21412155.540    89118357.426 7      -541.561          47.875    21412155.700    89118356.428 8      -541.561          48.562
G06  23436820.500   123161295.370 6      -866.576          41.000    23436819.500   123161295.372 6      -866.576          38.812    23436845.560    95969928.667 6      -675.254          39.000    23436846.380    95969933.654 7      -675.254          44.750
R18  20866423.600   111386380.356 7      2256.563          46.437    20866422.940   111386380.351 7      2256.563          45.750    20866438.580    86633912.004 8      1755.104          49.500    20866438.380    86633913.005 8      1755.104          50.187
R01  23805754.400   127255381.855 6       846.827          38.187    23805753.280   127255381.853 6       846.827          37.750    23805791.220    98976554.051 5       658.643          35.437    23805790.740    98976550.052 5       658.643          35.750
R12  21048751.120   112438645.784 7      2073.335          47.375    21048751.280   112438645.793 7      2073.335          47.187    21048767.940    87452354.118 8      1612.594          48.812    21048768.200    87452354.112 8      1612.594          49.187
R02  21109114.380   112642277.126 8      1952.277          48.187    21109113.440   112642277.129 7      1952.277          46.937    21109129.340    87610715.750 8      1518.438          48.562    21109129.840    87610720.754 8      1518.438          49.125
G20  20069942.640   105468256.923 7      3389.944          46.750    20069939.600   105468256.933 6      3389.944          41.312    20069947.620    82183074.723 6      2641.515          40.812
G22  23814762.220   125147415.888 7      5151.408          42.625    23814762.720   125147415.898 4      5151.408          27.937    23814792.560    97517482.627 4      4014.084          28.000
G14  23344899.980   122678292.048 7      4756.077          44.000    23344898.720   122678292.056 5      4756.077          31.437    23344925.740    95593560.833 5      3706.034          31.562    23344925.620    95593588.852 7      3706.034          46.187
> 2024 10 07 12 25 35.0000000  0 17
G13  20798799.080   109298430.327 7      3587.714          47.000    20798798.040   109298430.337 6      3587.714          38.000    20798806.480    85167631.721 6      2795.621          37.875
G11  21084724.520   110800969.028 7       820.318          47.000    21084723.840   110800969.030 6       820.318          40.000    21084733.880    86338453.525 6       639.209          40.125    21084734.260    86338453.523 8       639.209          52.125
G30  21298690.280   111925370.656 7      1029.322          46.250    21298688.540   111925370.661 7      1029.322          46.437    21298700.720    87214615.031 7       802.069          46.500    21298701.300    87214620.027 8       802.069          48.062
R14  23817579.680   126961097.031 7      6992.878          42.750    23817578.280   126961097.039 6      6992.878          41.875    23817610.320    98747639.130 6      5438.905          41.187    23817611.060    98747642.141 6      5438.905          41.750
G05  21245876.040   111647835.617 7      4889.888          47.500    21245875.440   111647835.619 7      4889.888          46.812    21245883.340    86998340.201 7      3810.302          47.062    21245884.000    86998345.207 8      3810.302          48.875
R03  21116479.920   113038171.207 7      3821.540          45.812    21116478.720   113038171.225 7      3821.540          44.250    21116494.920    87918636.173 8      2972.309          49.687    21116494.900    87918637.173 8      2972.309          49.562
R13  20593167.540   109966376.780 7      5345.610          42.562    20593166.180   109966376.789 7      5345.610          42.000
G07  23740197.820   124755578.167 6       -91.000          41.250    23740197.280   124755578.169 6       -91.000          39.312    23740212.480    97212196.431 6       -70.909          39.250    23740213.000    97212221.427 7       -70.909          46.375
R17  21412265.160   114581325.012 7      -696.459          45.375    21412264.960   114581325.014 7      -696.459          44.750    21412285.640    89118898.996 8      -541.690          48.125    21412285.660    89118897.997 8      -541.690          48.562
G06  23436985.120   123162161.920 6      -866.560          40.625    23436984.480   123162161.919 6      -866.560          38.750    23437010.380    95970603.864 6      -675.241          38.562    23437011.640    95970608.851 7      -675.241          44.437
R18  20866000.780   111384124.104 7      2255.886          45.812    20866000.240   111384124.094 7      2255.886          46.375    20866015.660    86632157.133 8      1754.578          50.062    20866015.480    86632158.137 8      1754.578          50.000
R01  23805596.480   127254534.891 6       847.016          38.187    23805594.200   127254534.882 6       847.016          37.750    23805633.460    98975895.256 5       658.790          35.750    23805632.420    98975891.245 5       658.790          35.750
R12  21048363.140   112436572.631 7      2072.890          47.625    21048363.380   112436572.640 7      2072.890          47.437    21048379.720    87450741.662 8      1612.248          48.500    21048380.180    87450741.658 8      1612.248          49.125
R02  21108748.680   112640324.728 8      1952.521          48.625    21108747.740   112640324.726 7      1952.521          47.437    21108763.280    87609197.210 8      1518.627          48.687    21108763.760    87609202.215 8      1518.627          48.687
G20  20069297.680   105464867.052 7      3389.728          46.875    20069294.520   105464867.057 6      3389.728          40.750    20069302.600    82180433.265 6      2641.346          40.625
G22  23813781.940   125142264.274 7      5151.791          42.937    23813782.340   125142264.284 4      5151.791          27.937    23813812.180    97513468.379 4      4014.383          28.000
G14  23343995.180   122673535.813 7      4756.204          42.750    23343993.540   122673535.820 5      4756.204          31.625    23344020.740    95589854.694 5      3706.133          31.562    23344020.860    95589882.711 7      3706.133          46.125
> 2024 10 07 12 25 36.0000000  0 17
G13  20798116.540   109294842.809 7      3587.450          47.625    20798115.320   109294842.819 6      3587.450          38.437    20798123.780    85164836.248 6      2795.415          38.000
G11  21084568.420   110800148.964 7       819.737          47.437    21084567.820   110800148.972 6       819.737          40.125    21084577.740    86337814.508 6       638.756          39.875    21084577.960    86337814.508 8       638.756          51.250
G30  21298494.420   111924341.678 7      1028.763          45.750    21298492.780   111924341.681 7      1028.763          46.375    21298504.840    87213813.226 7       801.633          46.312    21298506.160    87213818.222 7       801.633          47.812
R14  23816268.240   126954104.159 7      6992.993          42.500    23816266.260   126954104.165 6      6992.993          41.687    23816298.720    98742200.225 6      5438.995          41.375    23816299.340    98742203.232 6      5438.995          41.750
G05  21244945.600   111642945.896 7      4889.626          47.375    21244945.000   111642945.903 7      4889.626          46.500    21244952.940    86994530.035 7      3810.098          46.500    21244953.480    86994535.039 8      3810.098          49.000
R03  21115766.160   113034349.749 7      3821.450          46.562    21115765.040   113034349.759 7      3821.450          44.500    21115781.220    87915663.926 8      2972.239          49.187    21115781.180    87915664.923 8      2972.239          49.687
R13  20592166.620   109961031.506 7      5344.896          42.562    20592165.640   109961031.518 7      5344.896          42.125
G07  23740215.140   124755669.408 6       -91.282          40.687    23740214.600   124755669.410 6       -91.282          39.625    23740229.840    97212267.518 6       -71.129          39.187    23740230.180    97212292.517 7       -71.129          46.875
R17  21412395.780   114582021.645 7      -696.952          44.625    21412395.060   114582021.657 7      -696.952          45.187    21412415.840    89119440.817 7      -542.073          47.937    21412415.680    89119439.819 8      -542.073          48.125
G06  23437150.280   123163028.465 6      -866.634          41.437    23437149.620   123163028.469 6      -866.634          38.625    23437175.360    95971279.069 6      -675.299          38.687    23437176.520    95971284.056 7      -675.299          44.312
R18  20865578.260   111381868.557 7      2255.103          44.625    20865577.520   111381868.558 7      2255.103          46.500    20865593.460    86630402.823 8      1753.969          49.875    20865593.400    86630403.826 8      1753.969          50.250
R01  23805438.060   127253687.781 6       847.277          38.187    23805435.300   127253687.756 6       847.277          37.750    23805474.640    98975236.334 5       658.993          35.750    23805473.500    98975232.344 6       658.993          36.750
R12  21047975.160   112434500.197 7      2071.966          46.437    21047975.380   112434500.201 7      2071.966          47.687    21047991.860    87449129.767 8      1611.529          48.500    21047992.180    87449129.761 8      1611.529          49.312
R02  21108382.560   112638372.266 8      1952.439          48.500    21108381.880   112638372.270 7      1952.439          47.437    21108397.500    87607678.627 8      1518.563          48.187    21108397.500    87607683.633 8      1518.563          49.187
G20  20068652.580   105461477.491 7      3389.384          46.937    20068649.560   105461477.498 6      3389.384          40.937    20068657.660    82177792.045 6      2641.079          40.687
G22  23812801.700   125137112.602 7      5151.628          43.187    23812801.980   125137112.615 4      5151.628          27.937    23812831.940    97509454.083 4      4014.255          28.000
G14  23343090.020   122668779.662 7      4756.133          44.062    23343088.480   122668779.672 5      4756.133          31.625    23343115.680    95586148.618 5      3706.078          31.375    23343115.840    95586176.637 7      3706.078          46.125
> 2024 10 07 12 25 37.0000000  0 17
G13  20797433.880   109291255.506 7      3586.887          46.812    20797432.600   109291255.514 6      3586.887          38.312    20797441.240    85162040.952 6      2794.977          37.937
G11  21084412.600   110799329.344 7       819.080          47.500    21084411.900   110799329.352 6       819.080          40.625    21084421.800    86337175.836 6       638.244          39.750    21084422.200    86337175.839 8       638.244          52.000
G30  21298298.680   111923313.058 7      1028.113          46.250    21298297.120   111923313.068 7      1028.113          47.000    21298309.080    87213011.708 7       801.127          46.937    21298309.920    87213016.701 8       801.127          48.062
R14  23814956.280   126947111.100 7      6992.747          42.500    23814954.500   126947111.098 6      6992.747          41.687    23814987.280    98736761.171 6      5438.803          41.375    23814987.280    98736764.176 6      5438.803          41.250
G05  21244015.240   111638056.322 7      4889.137          47.687    21244014.540   111638056.329 7      4889.137          46.812    21244022.400    86990719.979 7      3809.717          46.750    21244023.200    86990724.985 8      3809.717          49.125
R03  21115052.040   113030528.205 7      3821.282          46.312    21115051.240   113030528.220 7      3821.282          44.437    21115067.380    87912691.612 8      2972.108          49.250    21115067.020    87912692.616 8      2972.108          50.125
R13  20591165.520   109955686.754 7      5344.167          42.812    20591164.580   109955686.768 7      5344.167          42.125
G07  23740232.520   124755760.724 6       -91.585          41.500    23740232.000   124755760.732 6       -91.585          40.062    23740247.340    97212338.670 6       -71.365          39.375    23740247.820    97212363.673 7       -71.365          46.500
R17  21412525.540   114582718.580 7      -697.378          45.000    21412525.320   114582718.590 7      -697.378          45.312    21412545.900    89119982.859 7      -542.405          47.875    21412546.060    89119981.861 8      -542.405          48.250
G06  23437315.340   123163895.025 6      -866.826          41.312    23437314.620   123163895.033 6      -866.826          38.687    23437340.180    95971954.288 6      -675.449          38.750    23437341.760    95971959.278 7      -675.449          44.500
R18  20865155.380   111379613.834 7      2253.947          45.812    20865155.000   111379613.830 7      2253.947          45.750    20865171.120    86628649.143 8      1753.070          49.875    20865170.780    86628650.147 8      1753.070          50.500
R01  23805279.640   127252840.628 6       846.922          36.625    23805277.600   127252840.627 6       846.922          37.750    23805316.560    98974577.431 5       658.717          35.750    23805314.940    98974573.428 6       658.717          36.750
R12  21047587.120   112432428.490 7      2071.051          47.250    21047587.420   112432428.491 7      2071.051          47.062    21047603.920    87447518.438 8      1610.818          48.750    21047604.060    87447518.439 8      1610.818          49.000
R02  21108016.940   112636419.772 8      1952.248          48.687    21108016.040   112636419.768 7      1952.248          46.875    21108031.680    87606160.010 8      1518.415          48.687    21108031.820    87606165.019 8      1518.415          48.812
G20  20068007.660   105458088.311 7      3388.678          46.750    20068004.540   105458088.316 6      3388.678          41.000    20068012.720    82175151.125 6      2640.529          40.562
G22  23811821.400   125131960.849 7      5151.455          43.875    23811821.580   125131960.854 4      5151.455          27.937    23811851.700    97505439.728 4      4014.121          28.000
G14  23342184.680   122664023.634 7      4755.737          43.625    23342183.420   122664023.639 5      4755.737          31.625    23342210.560    95582442.635 5      3705.769          31.375    23342210.720    95582470.654 7      3705.769          46.312
> 2024 10 07 12 25 38.0000000  0 17
G13  20796751.320   109287668.687 7      3586.738          47.000    20796750.000   109287668.697 6      3586.738          38.500    20796758.600    85159246.028 6      2794.861          38.187
G11  21084256.680   110798510.470 7       818.615          47.562    21084256.040   110798510.481 6       818.615          39.687    21084265.960    86336537.747 6       637.882          39.562    21084266.280    86336537.749 8       637.882          51.250
G30  21298103.220   111922285.097 7      1027.774          46.000    21298101.460   111922285.104 7      1027.774          46.875    21298113.440    87212210.693 7       800.863          46.687    21298114.480    87212215.689 8       800.863          48.250
R14  23813644.140   126940118.082 7      6993.109          42.312    23813642.620   126940118.085 6      6993.109          41.562    23813675.280    98731322.151 6      5439.085          41.312    23813675.420    98731325.153 6      5439.085          41.625
G05  21243084.780   111633167.163 7      4889.140          47.750    21243084.140   111633167.165 7      4889.140          46.687    21243092.080    86986910.243 7      3809.719          46.437    21243092.660    86986915.247 8      3809.719          48.750
R03  21114338.240   113026706.854 7      3821.349          46.125    21114337.200   113026706.866 7      3821.349          45.250    21114353.440    87909719.456 8      2972.161          49.562    21114353.280    87909720.460 8      2972.161          50.000
R13  20590164.380   109950342.826 7      5343.659          42.312    20590164.080   109950342.832 6      5343.659          41.875
G07  23740250.140   124755852.427 6       -91.730          41.125    23740249.420   124755852.440 6       -91.730          39.687    23740264.700    97212410.120 6       -71.478          39.625    23740265.060    97212435.122 7       -71.478          46.437
R17  21412655.760   114583416.104 7      -697.633          46.187    21412655.940   114583416.111 7      -697.633          45.000    21412676.140    89120525.370 7      -542.604          47.812    21412676.240    89120524.377 7      -542.604          47.750
G06  23437480.180   123164761.898 7      -866.901          42.437    23437479.620   123164761.909 6      -866.901          38.750    23437505.040    95972629.747 6      -675.507          38.875    23437506.180    95972634.737 7      -675.507          44.375
R18  20864733.640   111377360.131 7      2253.203          46.125    20864732.600   111377360.132 7      2253.203          45.562    20864748.780    86626896.261 8      1752.491          49.875    20864748.200    86626897.263 8      1752.491          50.125
R01  23805121.140   127251993.713 6       847.138          36.625    23805119.160   127251993.717 6       847.138          37.750    23805158.340    98973918.680 5       658.885          35.750    23805156.800    98973914.668 6       658.885          36.750
R12  21047199.940   112430357.842 7      2070.299          47.937    21047200.040   112430357.854 7      2070.299          47.875    21047216.280    87445907.941 8      1610.232          48.875    21047216.640    87445907.938 8      1610.232          48.937
R02  21107650.960   112634467.511 8      1952.294          48.875    21107650.240   112634467.504 7      1952.294          47.187    21107665.800    87604641.582 8      1518.451          48.875    21107665.780    87604646.587 8      1518.451          48.812
G20  20067362.900   105454699.751 7      3388.438          47.000    20067359.700   105454699.761 6      3388.438          41.000    20067368.040    82172510.693 6      2640.341          40.687
G22  23810841.060   125126809.291 7      5151.586          43.000    23810841.380   125126809.296 4      5151.586          27.312    23810871.340    97501425.518 4      4014.223          28.000
G14  23341279.780   122659267.966 7      4755.774          43.937    23341278.500   122659267.973 5      4755.774          31.437    23341305.560    95578736.940 5      3705.798          31.375    23341305.540    95578764.959 7      3705.798          46.187
> 2024 10 07 12 25 39.0000000  0 17
G13  20796068.920   109284082.383 8      3586.140          48.000    20796067.460   109284082.393 6      3586.140          37.875    20796076.160    85156451.507 6      2794.395          37.750
G11  21084101.060   110797692.335 8       817.861          48.125    21084100.400   110797692.345 6       817.861          39.937    21084110.240    86335900.235 6       637.294          39.437    21084110.460    86335900.233 8       637.294          51.937
G30  21297907.600   111921257.803 7      1027.115          46.562    21297906.020   111921257.802 7      1027.115          47.250    21297917.980    87211410.196 7       800.349          46.937    21297919.200    87211415.194 8       800.349          48.312
R14  23812332.200   126933125.119 7      6993.164          42.312    23812330.440   126933125.112 6      6993.164          41.562    23812363.520    98725883.171 6      5439.127          41.875    23812363.640    98725886.172 6      5439.127          41.625
G05  21242154.460   111628278.440 7      4888.673          47.687    21242153.960   111628278.445 7      4888.673          47.000    21242161.800    86983100.850 7      3809.355          47.062    21242162.440    86983105.857 8      3809.355          48.937
R03  21113624.300   113022885.682 7      3821.233          46.062    21113623.420   113022885.700 7      3821.233          45.125    21113639.640    87906747.442 8      2972.070          49.500    21113639.580    87906748.444 8      2972.070          49.562
R13  20589164.220   109944999.734 7      5342.723          42.562    20589163.420   109944999.737 7      5342.723          42.250
G07  23740268.200   124755944.498 6       -91.959          41.375    23740267.020   124755944.508 6       -91.959          40.000    23740282.220    97212481.856 6       -71.656          39.125    23740282.720    97212506.853 7       -71.656          46.562
R17  21412786.520   114584114.190 7      -698.207          44.750    21412786.160   114584114.204 7      -698.207          45.187    21412806.560    89121068.319 7      -543.050          47.812    21412806.700    89121067.322 7      -543.050          47.875
G06  23437645.340   123165629.087 7      -867.240          42.312    23437644.640   123165629.092 6      -867.240          38.750    23437670.080    95973305.446 6      -675.771          38.437    23437671.520    95973310.434 7      -675.771          44.687
R18  20864311.640   111375107.435 7      2252.339          45.125    20864310.820   111375107.433 7      2252.339          45.937    20864326.800    86625144.158 8      1751.820          49.562    20864326.560    86625145.161 8      1751.820          50.000
R01  23804962.660   127251147.068 6       846.879          36.625    23804960.960   127251147.050 6       846.879          36.750    23805000.360    98973260.118 6       658.683          36.062    23804998.740    98973256.104 6       658.683          36.750
R12  21046812.400   112428288.261 7      2069.244          47.437    21046812.760   112428288.267 7      2069.244          47.375    21046828.980    87444298.265 8      1609.412          48.937    21046829.220    87444298.265 8      1609.412          49.000
R02  21107285.460   112632515.500 8      1951.998          49.000    21107284.620   112632515.490 7      1951.998          47.250    21107299.840    87603123.347 8      1518.221          48.437    21107300.040    87603128.350 8      1518.221          48.437
G20  20066718.320   105451311.859 7      3387.697          46.875    20066715.020   105451311.871 6      3387.697          41.250    20066723.200    82169870.777 6      2639.764          40.625
G22  23809860.740   125121657.932 7      5151.265          43.437    23809861.260   125121657.939 4      5151.265          27.312    23809891.040    97497411.466 4      4013.973          27.437
G14  23340374.920   122654512.719 7      4755.137          43.312    23340373.640   122654512.729 5      4755.137          31.437    23340400.680    95575031.569 5      3705.301          31.375    23340400.680    95575059.594 7      3705.301          46.062
> 2024 10 07 12 25 40.0000000  0 17
G13  20795386.480   109280496.336 7      3585.774          45.875    20795384.960   109280496.343 6      3585.774          37.750    20795393.860    85153657.187 6      2794.109          37.750
G11  21083945.560   110796874.712 7       817.223          47.500    21083944.880   110796874.722 6       817.223          39.875    21083954.780    86335263.120 6       636.797          39.125    21083954.840    86335263.120 8       636.797          51.625
G30  21297712.200   111920230.945 7      1026.476          46.250    21297710.600   111920230.947 7      1026.476          46.625    21297722.640    87210610.049 7       799.852          46.500    21297723.480    87210615.045 8       799.852          48.000
R14  23811020.080   126926131.986 7      6993.048          42.812    23811018.560   126926131.989 7      6993.048          42.062    23811051.360    98720444.070 7      5439.037          42.125    23811052.240    98720447.077 7      5439.037          42.125
G05  21241224.160   111623389.920 7      4888.297          46.562    21241223.620   111623389.924 7      4888.297          46.625    21241231.440    86979291.616 7      3809.062          47.000    21241232.020    86979296.622 8      3809.062          48.625
R03  21112910.460   113019064.510 7      3821.036          45.875    21112910.000   113019064.536 7      3821.036          44.312    21112925.740    87903775.420 8      2971.917          49.625    21112925.740    87903776.421 8      2971.917          49.750
R13  20588163.800   109939657.200 7      5342.082          42.562    20588162.800   109939657.206 7      5342.082          42.250
G07  23740285.660   124756036.764 6       -92.358          41.125    23740284.620   124756036.768 6       -92.358          39.375    23740299.800    97212553.736 6       -71.967          39.062    23740300.020    97212578.731 7       -71.967          46.250
R17  21412916.900   114584812.607 7      -698.729          45.437    21412916.680   114584812.630 7      -698.729          45.125    21412937.120    89121611.526 7      -543.456          47.437    21412936.980    89121610.534 7      -543.456          47.937
G06  23437810.600   123166496.331 7      -867.377          42.187    23437809.640   123166496.341 6      -867.377          38.625    23437835.060    95973981.194 6      -675.878          38.625    23437836.200    95973986.175 7      -675.878          44.000
R18  20863889.920   111372855.587 7      2251.316          45.750    20863889.000   111372855.574 7      2251.316          45.500    20863904.820    86623392.712 8      1751.024          49.937    20863904.720    86623393.718 8      1751.024          50.375
R01  23804805.120   127250300.385 6       846.483          36.625    23804803.020   127250300.389 6       846.483          36.750    23804841.780    98972601.568 6       658.376          36.062    23804841.060    98972597.567 6       658.376          36.750
R12  21046425.060   112426219.505 7      2068.265          47.125    21046425.260   112426219.514 7      2068.265          47.250    21046441.520    87442689.234 8      1608.651          48.375    21046441.820    87442689.235 8      1608.651          48.812
R02  21106919.800   112630563.510 8      1951.835          48.062    21106918.540   112630563.503 7      1951.835          47.562    21106934.100    87601605.127 8      1518.094          48.375    21106934.220    87601610.127 8      1518.094          48.437
G20  20066073.780   105447924.381 7      3387.128          46.312    20066070.400   105447924.389 6      3387.128          40.812    20066078.520    82167231.182 6      2639.320          40.562
G22  23808880.580   125116506.549 7      5151.360          43.312    23808880.980   125116506.554 4      5151.360          27.312    23808910.760    97493397.400 4      4014.047          27.437
G14  23339469.780   122649757.616 7      4754.911          43.250    23339468.800   122649757.626 5      4754.911          31.437    23339495.840    95571326.310 5      3705.126          31.375    23339495.700    95571354.327 7      3705.126          46.187
> 2024 10 07 12 25 41.0000000  0 17
G13  20794704.260   109276910.539 7      3585.655          46.750    20794702.560   109276910.544 6      3585.655          38.250    20794711.600    85150863.055 6      2794.017          37.875
G11  21083790.120   110796057.583 8       816.839          48.625    21083789.620   110796057.590 6       816.839          40.250    21083799.280    86334626.389 6       636.498          39.937    21083799.400    86334626.388 8       636.498          50.687
G30  21297516.840   111919204.479 7      1026.223          46.812    21297515.300   111919204.484 7      1026.223          46.875    21297527.260    87209810.205 7       799.655          46.437    21297528.380    87209815.201 8       799.655          48.250
R14  23809708.220   126919138.671 7      6993.304          43.062    23809706.960   126919138.672 7      6993.304          42.062    23809739.880    98715004.815 7      5439.236          42.125    23809740.140    98715007.822 7      5439.236          42.062
G05  21240293.880   111618501.578 7      4888.175          47.562    21240293.620   111618501.580 7      4888.175          46.750    21240301.360    86975482.518 7      3808.967          47.000    21240301.960    86975487.524 8      3808.967          48.312
R03  21112196.520   113015243.280 7      3821.148          46.750    21112196.540   113015243.311 7      3821.148          44.750    21112211.800    87900803.353 8      2972.004          49.500    21112211.880    87900804.357 8      2972.004          49.125
R13  20587163.200   109934315.237 6      5341.679          41.937    20587162.280   109934315.246 7      5341.679          42.250
G07  23740303.060   124756129.137 6       -92.384          40.687    23740302.060   124756129.139 6       -92.384          39.437    23740317.400    97212625.709 6       -71.987          39.375    23740317.800    97212650.710 7       -71.987          46.437
R17  21413047.140   114585511.338 7      -698.934          45.250    21413047.660   114585511.352 7      -698.934          45.375    21413067.660    89122154.960 7      -543.615          47.375    21413067.620    89122153.964 7      -543.615          47.187
G06  23437975.280   123167363.653 6      -867.410          41.437    23437974.680   123167363.661 6      -867.410          38.250    23438000.100    95974657.001 6      -675.904          38.062    23438001.540    95974661.986 7      -675.904          44.000
R18  20863468.120   111370604.526 7      2250.591          46.125    20863467.260   111370604.517 7      2250.591          45.875    20863483.020    86621641.887 8      1750.459          48.750    20863483.080    86621642.891 8      1750.459          49.625
R01  23804646.940   127249453.678 6       846.640          37.375    23804645.000   127249453.682 6       846.640          36.750    23804683.060    98971942.985 6       658.498          36.062    23804682.400    98971938.978 6       658.498          36.750
R12  21046037.720   112424151.528 7      2067.545          47.625    21046038.040   112424151.545 7      2067.545          46.937    21046054.460    87441080.814 8      1608.091          48.187    21046054.580    87441080.817 8      1608.091          48.562
R02  21106553.620   112628611.526 8      1951.928          48.875    21106552.800   112628611.524 7      1951.928          46.812    21106568.300    87600086.913 8      1518.166          48.250    21106568.660    87600091.915 7      1518.166          47.750
G20  20065429.080   105444537.290 7      3386.821          46.625    20065425.880   105444537.298 6      3386.821          41.250    20065433.900    82164591.888 6      2639.081          40.937
G22  23807900.060   125111355.143 7      5151.403          43.312    23807900.720   125111355.151 4      5151.403          27.312    23807930.260    97489383.313 4      4014.080          27.437
G14  23338564.760   122645002.628 7      4755.093          42.375    23338563.980   122645002.636 5      4755.093          31.687    23338590.960    95567621.142 5      3705.267          31.375    23338590.700    95567649.163 7      3705.267          46.250
> 2024 10 07 12 25 42.0000000  0 17
G13  20794021.840   109273325.075 7      3585.399          46.625    20794020.260   109273325.083 6      3585.399          38.125    20794029.200    85148069.192 6      2793.817          38.062
G11  21083634.680   110795241.042 7       816.295          47.437    21083634.360   110795241.052 6       816.295          39.687    21083643.900    86333990.120 6       636.074          39.562    21083644.120    86333990.120 8       636.074          51.750
G30  21297321.480   111918178.536 7      1025.780          46.125    21297320.080   111918178.538 7      1025.780          46.312    21297332.000    87209010.765 7       799.309          46.187    21297332.920    87209015.763 7       799.309          47.875
R14  23808396.440   126912145.274 7      6993.516          43.062    23808395.100   126912145.267 6      6993.516          41.500    23808428.100    98709565.500 7      5439.401          42.000    23808428.060    98709568.503 6      5439.401          41.875
G05  21239363.800   111613613.491 7      4888.005          46.375    21239363.360   111613613.493 7      4888.005          46.437    21239371.160    86971673.624 7      3808.835          46.687    21239371.600    86971678.626 8      3808.835          48.937
R03  21111482.780   113011422.124 7      3821.209          45.812    21111482.880   113011422.147 7      3821.209          44.750    21111498.320    87897831.341 8      2972.051          49.687    21111498.160    87897832.343 8      2972.051          49.687
R13  20586162.980   109928973.982 6      5341.001          41.937    20586161.980   109928973.993 7      5341.001          42.250
G07  23740320.760   124756221.764 6       -92.709          41.625    23740319.680   124756221.767 6       -92.709          39.312    23740335.160    97212697.881 6       -72.241          39.187    23740335.380    97212722.882 7       -72.241          46.437
R17  21413177.980   114586210.477 7      -699.411          46.562    21413178.420   114586210.495 7      -699.411          44.812    21413198.300    89122698.723 7      -543.987          47.437    21413198.220    89122697.731 7      -543.987          47.625
G06  23438140.180   123168231.134 6      -867.536          41.000    23438139.940   123168231.139 6      -867.536          38.812    23438165.140    95975332.929 6      -676.002          38.812    23438166.820    95975337.916 7      -676.002          43.875
R18  20863046.560   111368354.330 7      2249.793          45.375    20863045.400   111368354.331 7      2249.793          45.625    20863061.300    86619891.739 8      1749.839          49.375    20863061.400    86619892.745 8      1749.839          49.437
R01  23804488.340   127248607.076 6       846.535          37.375    23804486.240   127248607.085 6       846.535          36.750    23804525.000    98971284.486 6       658.416          36.062    23804524.140    98971280.468 6       658.416          36.750
R12  21045650.920   112422084.479 8      2066.701          48.250    21045651.300   112422084.491 7      2066.701          47.000    21045667.540    87439473.111 8      1607.434          48.750    21045667.800    87439473.116 8      1607.434          48.687
R02  21106187.800   112626659.633 8      1951.942          48.000    21106186.900   112626659.633 7      1951.942          47.062    21106202.320    87598568.774 8      1518.177          48.500    21106202.840    87598573.776 8      1518.177          48.187
G20  20064784.420   105441150.704 7      3386.405          46.562    20064781.380   105441150.706 6      3386.405          41.000    20064789.520    82161952.988 6      2638.757          40.750
G22  23806919.640   125106203.774 7      5151.509          42.500    23806920.520   125106203.776 4      5151.509          27.312    23806949.800    97485369.251 4      4014.163          27.437
G14  23337659.720   122640247.927 7      4754.702          42.812    23337659.280   122640247.932 5      4754.702          31.687    23337685.920    95563916.196 5      3704.962          31.500    23337686.000    95563944.218 7      3704.962          46.375
> 2024 10 07 12 25 43.0000000  0 17
G13  20793339.740   109269740.145 7      3584.937          47.375    20793337.980   109269740.153 6      3584.937          38.062    20793347.160    85145275.738 6      2793.457          38.000
G11  21083479.280   110794425.269 7       815.599          46.812    21083478.940   110794425.276 6       815.599          39.937    21083488.640    86333354.444 6       635.532          39.875    21083489.120    86333354.440 8       635.532          51.375
G30  21297126.220   111917153.276 7      1025.108          46.000    21297124.940   111917153.278 7      1025.108          46.687    21297136.960    87208211.859 7       798.786          46.625    21297137.500    87208216.857 7       798.786          47.812
R14  23807084.360   126905151.978 7      6993.440          42.937    23807083.280   126905151.973 6      6993.440          41.500    23807116.540    98704126.263 7      5439.342          42.187    23807116.460    98704129.268 7      5439.342          42.687
G05  21238433.740   111608725.846 7      4887.724          47.375    21238433.360   111608725.848 7      4887.724          47.000    21238441.100    86967865.069 7      3808.616          47.062    21238441.380    86967870.073 8      3808.616          48.750
R03  21110768.880   113007601.236 7      3820.970          45.875    21110769.220   113007601.261 7      3820.970          45.125    21110784.560    87894859.539 8      2971.865          49.875    21110784.380    87894860.539 8      2971.865          49.812
R13  20585163.480   109923633.594 7      5340.131          42.562    20585161.860   109923633.606 7      5340.131          42.125
G07  23740338.660   124756314.760 6       -92.892          41.875    23740337.360   124756314.765 6       -92.892          39.000    23740352.740    97212770.335 6       -72.383          39.062    23740353.080    97212795.336 7       -72.383          46.250
R17  21413308.620   114586910.190 7      -699.797          46.500    21413309.220   114586910.199 7      -699.797          45.687    21413329.000    89123242.925 7      -544.286          47.312    21413329.140    89123241.931 7      -544.286          47.875
G06  23438305.520   123169098.924 7      -867.822          42.062    23438305.120   123169098.934 6      -867.822          38.687    23438330.380    95976009.104 6      -676.225          38.687    23438331.720    95976014.094 7      -676.225          44.000
R18  20862625.500   111366105.213 7      2248.786          46.000    20862624.400   111366105.209 7      2248.786          45.687    20862639.940    86618142.417 8      1749.056          49.875    20862639.800    86618143.421 8      1749.056          49.812
R01  23804330.080   127247760.706 6       846.629          37.375    23804328.000   127247760.710 6       846.629          36.937    23804366.720    98970626.154 6       658.489          36.812    23804366.040    98970622.149 6       658.489          37.437
R12  21045263.900   112420018.508 7      2065.709          47.250    21045264.400   112420018.520 7      2065.709          47.312    21045280.820    87437866.248 8      1606.663          48.937    21045281.020    87437866.252 8      1606.663          49.312
R02  21105821.980   112624707.966 8      1951.876          48.437    21105821.200   112624707.967 7      1951.876          47.000    21105836.740    87597050.806 8      1518.125          48.312    21105836.860    87597055.811 8      1518.125          48.312
G20  20064140.100   105437764.777 7      3385.813          46.500    20064137.140   105437764.779 6      3385.813          41.062    20064145.200    82159314.599 6      2638.296          40.687
G22  23805939.380   125101052.652 7      5151.307          42.437    23805940.220   125101052.654 4      5151.307          27.312    23805969.440    97481355.383 4      4014.006          27.437
G14  23336755.620   122635493.594 7      4754.452          42.687    23336754.580   122635493.602 5      4754.452          31.687    23336781.080    95560211.540 5      3704.768          31.500    23336781.460    95560239.565 7      3704.768          45.812
> 2024 10 07 12 25 44.0000000  0 17
G13  20792657.660   109266155.263 7      3584.847          46.812    20792655.720   109266155.270 6      3584.847          37.812    20792664.920    85142482.325 6      2793.387          37.687
G11  21083324.060   110793609.779 7       815.362          47.562    21083323.800   110793609.784 6       815.362          39.500    21083333.460    86332718.988 6       635.347          39.875    21083334.120    86332718.986 8       635.347          51.750
G30  21296931.300   111916128.234 7      1024.868          46.000    21296929.980   111916128.236 7      1024.868          47.062    21296941.880    87207413.123 7       798.598          46.937    21296942.420    87207418.119 7       798.598          47.875
R14  23805772.600   126898158.312 7      6993.838          43.437    23805771.080   126898158.299 7      6993.838          42.000    23805804.380    98698686.737 7      5439.651          42.500    23805804.700    98698689.742 7      5439.651          42.812
G05  21237503.340   111603838.208 7      4887.625          46.812    21237503.280   111603838.210 7      4887.625          47.000    21237510.980    86964056.520 7      3808.539          46.812    21237511.540    86964061.524 8      3808.539          48.625
R03  21110054.960   113003780.120 7      3821.201          46.937    21110055.420   113003780.146 7      3821.201          45.375    21110070.880    87891887.563 8      2972.045          50.125    21110070.660    87891888.566 8      2972.045          50.250
R13  20584163.480   109918293.554 6      5339.864          41.250    20584162.040   109918293.563 7      5339.864          42.000
G07  23740356.780   124756407.730 6       -92.910          41.687    23740355.100   124756407.727 6       -92.910          40.375    23740370.440    97212842.766 6       -72.397          39.500    23740370.600    97212867.761 7       -72.397          46.375
R17  21413439.220   114587610.036 7      -699.934          45.812    21413440.160   114587610.054 7      -699.934          45.187    21413459.760    89123787.242 7      -544.393          47.500    21413459.820    89123786.250 7      -544.393          47.437
G06  23438470.440   123169966.588 6      -867.653          41.562    23438470.160   123169966.588 6      -867.653          39.125    23438495.540    95976685.176 6      -676.093          39.187    23438496.400    95976690.155 7      -676.093          44.000
R18  20862204.200   111363856.699 7      2248.200          45.812    20862203.300   111363856.692 7      2248.200          46.125    20862218.640    86616393.564 8      1748.600          49.937    20862218.500    86616394.568 8      1748.600          49.125
R01  23804171.660   127246914.170 6       846.590          37.375    23804169.800   127246914.171 6       846.590          36.937    23804208.840    98969967.702 6       658.459          36.812    23804207.700    98969963.695 6       658.459          37.437
R12  21044877.180   112417953.139 7      2065.086          47.625    21044877.900   112417953.148 7      2065.086          47.562    21044894.220    87436259.849 8      1606.178          48.625    21044894.420    87436259.852 8      1606.178          48.937
R02  21105456.280   112622756.086 8      1952.021          48.687    21105455.560   112622756.089 7      1952.021          47.125    21105470.960    87595532.675 8      1518.238          48.875    21105471.240    87595537.680 8      1518.238          48.562
G20  20063495.780   105434379.052 7      3385.570          45.687    20063492.860   105434379.054 6      3385.570          41.187    20063500.900    82156676.372 6      2638.107          40.687
G22  23804959.240   125095901.293 6      5151.475          41.187    23804960.060   125095901.295 4      5151.475          27.375    23804989.220    97477341.331 4      4014.137          27.437
G14  23335850.900   122630739.248 7      4754.401          43.437    23335849.860   122630739.258 5      4754.401          31.125    23335876.340    95556506.873 5      3704.728          31.500    23335876.460    95556534.882 7      3704.728          46.375
> 2024 10 07 12 25 45.0000000  0 17
G13  20791975.480   109262570.659 7      3584.459          47.062    20791973.660   109262570.669 6      3584.459          38.250    20791982.820    85139689.127 6      2793.085          37.625
G11  21083169.060   110792794.813 7       814.725          47.437    21083168.740   110792794.820 6       814.725          40.312    21083178.540    86332083.945 6       634.850          39.937    21083178.960    86332083.945 8       634.850          51.937
G30  21296736.280   111915103.628 7      1024.332          46.562    21296734.960   111915103.625 7      1024.332          46.812    21296746.920    87206614.725 7       798.181          46.625    21296747.580    87206619.725 7       798.181          47.812
R14  23804460.540   126891164.483 7      6993.873          43.375    23804459.120   126891164.481 7      6993.873          42.375    23804492.280    98693247.098 7      5439.679          42.125    23804492.840    98693250.110 7      5439.679          42.812
G05  21236573.420   111598950.762 7      4887.345          47.500    21236573.140   111598950.770 7      4887.345          46.687    21236580.900    86960248.125 7      3808.320          46.625    21236581.500    86960253.127 8      3808.320          48.625
R03  21109341.460   112999959.023 7      3820.967          46.500    21109341.720   112999959.038 7      3820.967          45.312    21109357.180    87888915.594 8      2971.863          49.937    21109356.900    87888916.596 8      2971.863          50.187
R13  20583163.340   109912954.162 6      5338.986          41.250    20583162.360   109912954.163 7      5338.986          42.000
G07  23740374.140   124756500.836 6       -93.237          41.312    23740372.920   124756500.838 6       -93.237          40.125    23740388.220    97212915.312 6       -72.653          39.687    23740388.460    97212940.313 7       -72.653          46.437
R17  21413570.120   114588310.281 7      -700.413          45.625    21413570.840   114588310.299 7      -700.413          45.437    21413590.780    89124331.869 7      -544.766          47.375    21413590.640    89124330.872 7      -544.766          47.562
G06  23438635.840   123170834.318 6      -867.789          41.937    23438635.240   123170834.323 6      -867.789          38.750    23438660.520    95977361.302 6      -676.199          38.687    23438661.680    95977366.296 7      -676.199          44.000
R18  20861783.360   111361608.988 7      2247.278          44.937    20861782.300   111361608.981 7      2247.278          45.625    20861797.620    86614645.345 8      1747.883          49.687    20861797.780    86614646.344 8      1747.883          49.812
R01  23804013.720   127246067.640 6       846.405          37.375    23804011.740   127246067.636 6       846.405          36.937    23804050.180    98969309.250 6       658.315          36.812    23804049.500    98969305.251 6       658.315          37.437
R12  21044490.600   112415888.560 7      2064.128          47.250    21044491.360   112415888.569 7      2064.128          47.687    21044507.700    87434654.061 8      1605.433          48.812    21044507.820    87434654.068 8      1605.433          49.312
R02  21105090.320   112620804.240 8      1951.727          48.750    21105089.600   112620804.246 7      1951.727          47.312    21105105.360    87594014.571 8      1518.010          48.875    21105105.760    87594019.573 8      1518.010          48.750
G20  20062851.600   105430993.753 7      3385.020          46.625    20062848.760   105430993.758 6      3385.020          40.875    20062856.740    82154038.474 6      2637.678          40.375
G22  23803978.880   125090749.929 6      5151.338          41.750    23803979.640   125090749.933 4      5151.338          27.375    23804008.660    97473327.277 4      4014.029          27.312
G14  23334946.080   122625985.078 7      4753.931          43.250    23334945.240   122625985.085 5      4753.931          31.125    23334971.580    95552802.335 5      3704.361          31.187    23334971.660    95552830.352 7      3704.361          46.250
> 2024 10 07 12 25 46.0000000  0 17
G13  20791293.500   109258986.551 7      3583.952          46.625    20791291.660   109258986.558 6      3583.952          38.562    20791300.800    85136896.315 6      2792.690          38.187
G11  21083014.040   110791980.590 8       813.930          48.562    21083013.820   110791980.597 6       813.930          39.875    21083023.520    86331449.479 6       634.231          39.625    21083023.840    86331449.483 8       634.231          51.500
G30  21296541.580   111914079.650 7      1023.779          46.562    21296539.980   111914079.655 7      1023.779          46.687    21296552.080    87205816.828 7       797.750          46.875    21296552.680    87205821.828 7       797.750          47.812
R14  23803148.400   126884170.745 7      6993.829          43.375    23803147.540   126884170.743 7      6993.829          42.375    23803180.160    98687807.516 7      5439.645          42.125    23803180.820    98687810.523 7      5439.645          43.000
G05  21235643.560   111594063.750 7      4886.869          47.187    21235643.200   111594063.755 7      4886.869          46.875    21235650.920    86956440.065 7      3807.949          47.000    21235651.440    86956445.067 8      3807.949          48.437
R03  21108627.380   112996138.103 7      3820.887          46.312    21108627.840   112996138.129 7      3820.887          45.437    21108643.400    87885943.776 8      2971.801          49.687    21108643.100    87885944.781 8      2971.801          50.125
R13  20582163.540   109907615.543 7      5338.209          42.250    20582162.440   109907615.541 7      5338.209          42.250
G07  23740391.980   124756594.325 6       -93.583          41.500    23740390.760   124756594.333 6       -93.583          40.000    23740405.960    97212988.155 6       -72.922          39.562    23740406.620    97213013.152 7       -72.922          46.562
R17  21413701.120   114589011.107 7      -701.008          45.937    21413701.780   114589011.119 7      -701.008          45.750    21413721.580    89124876.936 7      -545.229          47.375    21413721.380    89124875.936 7      -545.229          47.625
G06  23438801.460   123171702.347 6      -868.105          41.937    23438800.460   123171702.360 6      -868.105          38.875    23438825.700    95978037.672 6      -676.445          38.437    23438827.080    95978042.670 7      -676.445          43.750
R18  20861362.340   111359362.294 7      2246.332          45.187    20861361.580   111359362.289 7      2246.332          45.250    20861376.820    86612897.910 8      1747.147          48.875    20861376.640    86612898.911 8      1747.147          49.062
R01  23803855.380   127245221.294 6       846.538          37.625    23803853.200   127245221.261 6       846.538          36.937    23803891.740    98968650.927 6       658.419          36.812    23803890.680    98968646.924 6       658.419          37.437
R12  21044104.520   112413825.012 7      2063.052          47.187    21044105.060   112413825.018 7      2063.052          47.375    21044121.280    87433049.086 8      1604.596          48.750    21044121.840    87433049.089 8      1604.596          49.500
R02  21104724.660   112618852.640 8      1951.560          48.000    21104723.880   112618852.646 7      1951.560          46.875    21104739.440    87592496.654 8      1517.880          48.250    21104739.900    87592501.654 8      1517.880          48.437
G20  20062207.500   105427609.090 7      3384.409          46.187    20062204.620   105427609.100 6      3384.409          41.125    20062212.700    82151401.081 6      2637.202          40.687
G22  23802998.600   125085598.746 6      5151.234          41.937    23802999.660   125085598.756 4      5151.234          27.375    23803028.200    97469313.366 4      4013.949          27.312
G14  23334041.460   122621231.228 7      4753.811          43.312    23334040.500   122621231.233 5      4753.811          31.125    23334066.820    95549098.055 5      3704.268          31.187    23334067.240    95549126.074 7      3704.268          46.250
> 2024 10 07 12 25 47.0000000  0 17
G13  20790611.580   109255402.866 7      3583.386          46.312    20790609.680   109255402.871 6      3583.386          37.750    20790618.760    85134103.832 6      2792.249          37.500
G11  21082859.260   110791167.023 7       813.241          47.687    21082859.100   110791167.031 6       813.241          39.875    21082868.720    86330815.527 6       633.695          39.437    21082869.020    86330815.525 8       633.695          52.000
G30  21296346.960   111913056.298 7      1023.048          46.500    21296345.320   111913056.303 7      1023.048          47.125    21296357.300    87205019.409 7       797.180          46.937    21296358.080    87205024.409 7       797.180          47.875
R14  23801836.380   126877177.020 7      6993.647          43.312    23801835.740   126877177.018 7      6993.647          42.125    23801868.200    98682367.946 6      5439.503          41.875    23801868.680    98682370.959 7      5439.503          42.500
G05  21234713.520   111589177.082 7      4886.484          46.562    21234713.360   111589177.090 7      4886.484          46.187    21234721.080    86952632.272 7      3807.650          46.750    21234721.640    86952637.276 8      3807.650          49.250
R03  21107913.280   112992317.362 7      3820.630          46.312    21107913.960   112992317.396 7      3820.630          45.375    21107929.400    87882972.097 8      2971.601          49.437    21107929.260    87882973.100 8      2971.601          49.750
R13  20581164.140   109902277.673 7      5337.514          42.500    20581163.060   109902277.669 6      5337.514          41.750
G07  23740410.080   124756688.117 6       -93.912          41.875    23740408.600   124756688.117 6       -93.912          40.125    23740423.920    97213061.227 6       -73.178          39.812    23740424.460    97213086.229 7       -73.178          46.437
R17  21413832.080   114589712.392 7      -701.604          44.375    21413832.820   114589712.413 7      -701.604          45.625    21413852.640    89125422.375 7      -545.692          47.625    21413852.500    89125421.374 7      -545.692          47.437
G06  23438966.480   123172570.621 6      -868.331          40.750    23438965.720   123172570.631 6      -868.331          38.312    23438991.000    95978714.223 6      -676.622          38.000    23438992.220    95978719.212 7      -676.622          43.437
R18  20860941.760   111357116.603 7      2245.210          46.312    20860940.840   111357116.601 7      2245.210          45.750    20860956.080    86611151.260 8      1746.275          49.375    20860955.960    86611152.265 8      1746.275          48.937
R01  23803696.880   127244375.122 6       846.208          37.625    23803694.480   127244375.112 6       846.208          36.937    23803733.920    98967992.773 6       658.162          36.875    23803732.380    98967988.769 6       658.162          37.562
R12  21043718.700   112411762.447 7      2062.053          47.562    21043718.600   112411762.461 7      2062.053          47.312    21043735.280    87431444.875 8      1603.819          49.125    21043735.800    87431444.878 8      1603.819          48.812
R02  21104358.780   112616901.259 8      1951.232          48.812    21104358.320   112616901.260 7      1951.232          47.750    21104373.880    87590978.907 8      1517.625          48.375    21104374.220    87590983.907 8      1517.625          48.437
G20  20061563.600   105424225.012 7      3383.766          45.750    20061560.600   105424225.017 6      3383.766          41.687    20061568.720    82148764.131 6      2636.701          40.875
G22  23802018.360   125080447.736 7      5150.913          42.375    23802019.360   125080447.749 4      5150.913          27.375    23802048.180    97465299.595 4      4013.698          27.312
G14  23333136.820   122616477.747 7      4753.242          42.937    23333135.840   122616477.757 5      4753.242          31.375    23333162.200    95545394.062 5      3703.825          31.187    23333162.620    95545422.085 7      3703.825          46.000
> 2024 10 07 12 25 48.0000000  0 17
G13  20789929.620   109251819.237 7      3583.427          47.062    20789927.820   109251819.244 6      3583.427          38.000    20789936.800    85131311.400 6      2792.281          38.250
G11  21082704.520   110790353.773 7       813.021          47.250    21082704.360   110790353.775 6       813.021          39.812    21082713.880    86330181.813 6       633.523          39.687    21082714.220    86330181.817 8       633.523          52.062
G30  21296152.240   111912033.161 7      1022.854          45.937    21296150.540   111912033.174 7      1022.854          47.000    21296162.640    87204222.163 7       797.029          47.125    21296163.320    87204227.165 7       797.029          47.812
R14  23800524.280   126870182.922 7      6994.052          44.187    23800523.500   126870182.930 7      6994.052          42.687    23800556.280    98676928.098 7      5439.818          42.312    23800556.600    98676931.105 7      5439.818          43.312
G05  21233783.680   111584290.427 7      4886.453          47.312    21233783.440   111584290.432 7      4886.453          47.062    21233791.200    86948824.493 7      3807.626          46.875    21233791.980    86948829.495 8      3807.626          49.125
R03  21107199.680   112988496.442 7      3820.868          45.562    21107200.000   112988496.465 7      3820.868          45.437    21107215.620    87880000.266 8      2971.786          50.187    21107215.400    87880001.269 8      2971.786          50.187
R13  20580164.640   109896940.206 6      5337.174          41.687    20580163.220   109896940.215 6      5337.174          41.750
G07  23740427.760   124756781.864 7       -93.745          42.437    23740426.380   124756781.861 6       -93.745          40.125    23740441.680    97213134.269 6       -73.048          40.062    23740441.900    97213159.270 7       -73.048          46.562
R17  21413963.220   114590413.788 7      -701.670          46.625    21413964.220   114590413.813 7      -701.670          45.062    21413983.560    89125967.894 7      -545.744          47.000    21413983.420    89125966.891 7      -545.744          47.625
G06  23439132.000   123173438.782 6      -868.294          41.187    23439131.100   123173438.795 6      -868.294          38.750    23439156.220    95979390.687 6      -676.592          38.687    23439157.340    95979395.675 7      -676.592          43.562
R18  20860521.140   111354871.529 7      2244.622          45.562    20860520.640   111354871.533 7      2244.622          45.937    20860535.460    86609405.091 8      1745.817          49.562    20860535.360    86609406.094 8      1745.817          50.312
R01  23803538.160   127243528.776 6       846.162          37.625    23803536.820   127243528.785 6       846.162          37.125    23803575.740    98967334.483 6       658.126          36.875    23803574.420    98967330.477 6       658.126          37.562
R12  21043332.500   112409700.555 7      2061.453          47.000    21043332.760   112409700.567 7      2061.453          46.812    21043349.420    87429841.181 8      1603.352          49.500    21043349.820    87429841.182 8      1603.352          49.187
R02  21103993.220   112614949.691 8      1951.535          48.437    21103992.460   112614949.686 7      1951.535          47.500    21104008.200    87589461.014 8      1517.861          48.875    21104008.620    87589466.010 8      1517.861          48.500
G20  20060919.720   105420841.143 7      3383.659          45.750    20060916.600   105420841.147 6      3383.659          41.187    20060924.860    82146127.349 6      2636.618          40.562
G22  23801038.400   125075296.496 7      5151.096          42.125    23801039.060   125075296.508 4      5151.096          27.375    23801067.780    97461285.635 4      4013.841          27.312
G14  23332232.580   122611724.210 7      4753.421          44.187    23332231.300   122611724.217 5      4753.421          31.375    23332257.740    95541690.023 5      3703.964          31.250    23332257.900    95541718.042 7      3703.964          46.125
> 2024 10 07 12 25 49.0000000  0 17
G13  20789247.560   109248235.936 7      3583.212          46.937    20789245.840   109248235.943 6      3583.212          38.125    20789254.980    85128519.215 6      2792.113          38.000
G11  21082549.880   110789541.094 8       812.446          48.187    21082549.780   110789541.097 6       812.446          40.000    21082559.220    86329548.551 6       633.075          39.687    21082559.660    86329548.553 8       633.075          51.500
G30  21295957.580   111911010.507 7      1022.407          46.687    21295956.060   111911010.520 7      1022.407          47.000    21295968.040    87203425.288 7       796.681          46.750    21295968.620    87203430.286 8       796.681          48.000
R14  23799212.280   126863188.749 7      6994.346          43.187    23799211.240   126863188.744 7      6994.346          42.687    23799244.520    98671488.173 7      5440.047          42.125    23799244.500    98671491.174 7      5440.047          43.000
G05  21232853.900   111579403.998 7      4886.362          47.375    21232853.520   111579404.006 7      4886.362          46.562    21232861.460    86945016.884 7      3807.555          46.687    21232862.100    86945021.888 8      3807.555          48.812
R03  21106485.620   112984675.559 7      3821.018          45.687    21106486.180   112984675.585 7      3821.018          45.187    21106501.840    87877028.468 8      2971.903          49.375    21106501.960    87877029.469 8      2971.903          50.000
R13  20579165.240   109891603.413 6      5336.416          41.687    20579163.520   109891603.430 6      5336.416          41.687
G07  23740445.560   124756875.832 7       -94.001          42.062    23740444.320   124756875.829 6       -94.001          40.062    23740459.640    97213207.485 6       -73.247          39.625    23740459.620    97213232.482 7       -73.247          46.187
R17  21414094.320   114591115.587 7      -701.962          46.562    21414095.480   114591115.607 7      -701.962          46.062    21414114.600    89126513.721 7      -545.970          47.312    21414114.660    89126512.716 7      -545.970          47.312
G06  23439297.180   123174307.069 6      -868.291          41.687    23439296.520   123174307.076 6      -868.291          39.187    23439321.460    95980067.239 6      -676.591          39.000    23439322.660    95980072.235 7      -676.591          43.937
R18  20860100.940   111352627.299 7      2243.914          44.562    20860100.100   111352627.302 7      2243.914          46.000    20860115.140    86607659.570 8      1745.267          49.437    20860115.160    86607660.576 8      1745.267          49.500
R01  23803380.200   127242682.427 6       846.521          37.625    23803378.940   127242682.431 6       846.521          37.125    23803417.200    98966676.158 6       658.405          36.875    23803416.160    98966672.152 6       658.405          37.562
R12  21042946.800   112407639.520 7      2060.632          47.750    21042947.020   112407639.530 7      2060.632          47.937    21042963.440    87428238.150 8      1602.714          49.000    21042963.560    87428238.151 8      1602.714          49.687
R02  21103627.280   112612998.190 8      1951.518          48.062    21103626.620   112612998.188 7      1951.518          47.125    21103642.520    87587943.176 8      1517.847          48.437    21103642.920    87587948.170 8      1517.847          48.875
G20  20060275.920   105417457.748 7      3383.218          45.875    20060272.860   105417457.758 6      3383.218          41.125    20060280.880    82143490.936 6      2636.274          40.500
G22  23800057.980   125070145.260 6      5151.354          41.750    23800058.760   125070145.268 4      5151.354          27.187    23800087.500    97457271.677 4      4014.042          27.312
G14  23331327.980   122606970.904 7      4753.119          43.750    23331326.860   122606970.909 5      4753.119          31.375    23331353.280    95537986.165 5      3703.729          31.250    23331353.400    95538014.182 7      3703.729          45.500
> 2024 10 07 12 25 50.0000000  0 17
G13  20788565.840   109244653.176 7      3582.441          47.312    20788564.020   109244653.184 6      3582.441          38.125    20788573.280    85125727.454 6      2791.512          38.125
G11  21082395.560   110788729.184 8       811.480          48.250    21082395.260   110788729.188 6       811.480          40.187    21082404.780    86328915.887 6       632.322          40.062    21082405.060    86328915.891 8       632.322          51.500
G30  21295763.220   111909988.568 7      1021.491          46.312    21295761.540   111909988.573 7      1021.491          46.000    21295773.620    87202628.966 7       795.967          46.125    21295774.080    87202633.966 7       795.967          47.687
R14  23797899.680   126856194.691 7      6993.978          43.187    23797899.380   126856194.692 7      6993.978          42.437    23797932.300    98666048.353 7      5439.760          42.000    23797932.500    98666051.353 7      5439.760          42.750
G05  21231924.200   111574518.040 7      4885.643          47.062    21231923.820   111574518.047 7      4885.643          46.875    21231931.740    86941209.646 7      3806.995          46.937    21231932.320    86941214.652 8      3806.995          48.812
R03  21105772.260   112980854.987 7      3820.364          45.750    21105772.680   112980855.010 7      3820.364          45.000    21105788.160    87874056.914 8      2971.394          50.375    21105788.060    87874057.915 8      2971.394          50.125
R13  20578165.820   109886267.492 6      5335.322          41.562    20578164.040   109886267.496 6      5335.322          41.687
G07  23740463.780   124756970.239 6       -94.889          41.812    23740462.380   124756970.241 6       -94.889          39.937    23740477.520    97213281.040 6       -73.939          40.187    23740477.780    97213306.039 7       -73.939          46.437
R17  21414225.700   114591818.050 7      -702.883          45.312    21414227.000   114591818.070 7      -702.883          45.562    21414245.960    89127060.071 7      -546.687          47.500    21414245.920    89127059.070 7      -546.687          47.562
G06  23439462.500   123175175.702 6      -868.943          41.937    23439461.960   123175175.710 6      -868.943          38.875    23439486.820    95980744.068 6      -677.098          38.937    23439488.080    95980749.064 7      -677.098          43.812
R18  20859680.460   111350384.147 7      2242.590          45.312    20859679.880   111350384.147 7      2242.590          46.125    20859694.980    86605914.890 8      1744.237          49.312    20859694.660    86605915.895 8      1744.237          49.312
R01  23803221.840   127241836.405 6       845.936          37.812    23803220.280   127241836.390 6       845.936          37.125    23803258.840    98966018.098 6       657.950          36.875    23803257.720    98966014.079 6       657.950          37.437
R12  21042561.040   112405579.530 7      2059.345          47.250    21042561.200   112405579.545 7      2059.345          46.625    21042577.800    87426635.944 8      1601.713          49.250    21042578.340    87426635.944 8      1601.713          49.500
R02  21103262.020   112611046.952 8      1951.045          48.375    21103261.060   112611046.956 7      1951.045          47.000    21103276.560    87586425.545 8      1517.480          48.437    21103277.080    87586430.543 8      1517.480          48.812
G20  20059632.460   105414075.050 7      3382.329          45.187    20059629.200   105414075.058 6      3382.329          40.750    20059637.200    82140855.066 6      2635.581          40.375
G22  23799077.760   125064994.306 6      5150.740          41.812    23799078.640   125064994.316 4      5150.740          27.187    23799107.180    97453257.942 4      4013.563          27.250
G14  23330423.460   122602217.998 7      4752.598          43.937    23330422.360   122602218.005 5      4752.598          31.000    23330448.800    95534282.616 5      3703.323          31.250    23330449.140    95534310.643 7      3703.323          45.812
> 2024 10 07 12 25 51.0000000  0 17
G13  20787884.280   109241070.742 7      3582.304          47.000    20787882.460   109241070.750 6      3582.304          38.312    20787891.500    85122935.947 6      2791.406          38.125
G11  21082240.940   110787917.853 7       811.005          47.750    21082240.960   110787917.858 6       811.005          40.062    21082250.420    86328283.678 6       631.952          39.750    21082250.600    86328283.678 8       631.952          50.875
G30  21295568.680   111908967.100 7      1021.226          45.812    21295567.260   111908967.105 7      1021.226          47.312    21295579.180    87201833.010 7       795.760          46.812    21295579.720    87201838.010 7       795.760          47.312
R14  23796587.700   126849200.494 7      6994.178          43.250    23796587.700   126849200.498 7      6994.178          42.375    23796620.080    98660608.420 7      5439.916          42.000    23796620.140    98660611.421 7      5439.916          42.625
G05  21230994.380   111569632.341 7      4885.531          47.187    21230994.020   111569632.346 7      4885.531          46.750    21231002.040    86937402.606 7      3806.907          46.875    21231002.640    86937407.616 8      3806.907          48.625
R03  21105058.340   112977034.425 7      3820.494          45.562    21105059.020   112977034.448 7      3820.494          45.562    21105074.420    87871085.368 8      2971.495          49.687    21105074.300    87871086.367 8      2971.495          49.937
R13  20577166.820   109880932.199 6      5334.991          41.875    20577165.260   109880932.216 6      5334.991          41.875
G07  23740481.660   124757064.796 7       -94.712          42.062    23740480.300   124757064.800 6       -94.712          40.187    23740495.620    97213354.714 6       -73.802          39.687    23740495.820    97213379.711 7       -73.802          46.437
R17  21414357.060   114592520.933 7      -703.058          46.250    21414358.620   114592520.948 7      -703.058          45.562    21414377.240    89127606.743 7      -546.823          46.875    21414377.360    89127605.740 7      -546.823          47.125
G06  23439627.780   123176044.454 7      -868.778          42.000    23439627.300   123176044.457 6      -868.778          38.937    23439652.200    95981420.985 6      -676.970          39.000    23439653.300    95981425.979 7      -676.970          43.750
R18  20859260.340   111348141.843 7      2241.877          45.875    20859259.680   111348141.844 7      2241.877          45.812    20859274.960    86604170.872 8      1743.682          49.250    20859274.560    86604171.873 8      1743.682          49.562
R01  23803063.420   127240990.449 6       845.588          37.812    23803062.500   127240990.443 6       845.588          37.125    23803100.340    98965360.098 6       657.680          37.187    23803099.580    98965356.084 6       657.680          37.437
R12  21042175.800   112403520.411 7      2058.712          47.312    21042175.660   112403520.422 7      2058.712          47.687    21042192.580    87425034.404 8      1601.221          49.375    21042192.660    87425034.405 8      1601.221          49.125
R02  21102896.340   112609095.777 8      1951.055          48.250    21102895.300   112609095.777 7      1951.055          47.000    21102910.880    87584907.962 8      1517.488          48.000    21102911.360    87584912.962 8      1517.488          48.125
G20  20058988.680   105410692.823 7      3381.982          46.562    20058985.600   105410692.830 6      3381.982          40.875    20058993.580    82138219.564 6      2635.310          40.500
G22  23798097.540   125059843.378 7      5150.917          42.312    23798098.360   125059843.386 4      5150.917          27.187    23798126.960    97449244.224 4      4013.701          27.250
G14  23329519.360   122597465.312 7      4752.684          43.250    23329518.040   122597465.322 5      4752.684          31.000    23329544.220    95530579.241 5      3703.390          31.250    23329544.640    95530607.260 7      3703.390          45.375
> 2024 10 07 12 25 52.0000000  0 17
G13  20787202.740   109237488.763 7      3581.764          47.687    20787200.840   109237488.768 6      3581.764          38.562    20787209.940    85120144.792 6      2790.985          37.812
G11  21082086.680   110787107.209 8       810.278          48.812    21082086.660   110787107.211 6       810.278          39.375    21082096.260    86327651.999 6       631.385          39.562    21082096.180    86327651.999 8       631.385          51.375
G30  21295374.180   111907946.270 7      1020.387          47.000    21295372.860   111907946.277 7      1020.387          46.562    21295384.940    87201037.556 7       795.107          46.562    21295385.380    87201042.561 8       795.107          48.000
R14  23795275.980   126842206.300 7      6994.111          43.937    23795275.640   126842206.309 7      6994.111          42.375    23795308.460    98655168.487 6      5439.864          41.875    23795308.020    98655171.492 7      5439.864          42.437
G05  21230064.860   111564747.034 7      4885.039          46.500    21230064.400   111564747.042 7      4885.039          46.312    21230072.440    86933595.880 7      3806.524          46.250    21230073.120    86933600.886 8      3806.524          48.937
R03  21104344.940   112973214.040 7      3820.188          46.375    21104345.540   112973214.069 7      3820.188          45.062    21104360.940    87868113.964 8      2971.257          49.250    21104360.780    87868114.965 8      2971.257          49.187
R13  20576167.760   109875597.750 6      5333.973          41.875    20576166.860   109875597.753 6      5333.973          41.875
G07  23740499.860   124757159.741 6       -95.244          41.500    23740498.520   124757159.748 6       -95.244          39.812    23740513.820    97213428.690 6       -74.216          39.125    23740514.040    97213453.695 7       -74.216          46.625
R17  21414488.440   114593224.327 7      -703.728          46.000    21414489.820   114593224.350 7      -703.728          45.875    21414508.660    89128153.823 7      -547.344          46.750    21414508.920    89128152.823 7      -547.344          46.687
G06  23439792.920   123176913.482 7      -869.235          42.562    23439792.660   123176913.484 6      -869.235          38.937    23439817.500    95982098.123 6      -677.326          38.750    23439818.780    95982103.121 7      -677.326          44.437
R18  20858840.300   111345900.589 7      2240.547          44.937    20858839.620   111345900.595 7      2240.547          45.812    20858854.980    86602427.678 8      1742.648          48.875    20858854.760    86602428.679 8      1742.648          48.875
R01  23802905.420   127240144.611 6       845.627          37.812    23802903.760   127240144.607 6       845.627          37.125    23802942.360    98964702.180 6       657.710          37.187    23802941.000    98964698.166 6       657.710          37.437
R12  21041790.340   112401462.317 7      2057.472          47.062    21041790.300   112401462.328 7      2057.472          47.437    21041807.320    87423433.664 8      1600.256          48.562    21041807.500    87423433.665 8      1600.256          48.812
R02  21102530.560   112607144.822 8      1950.783          48.875    21102529.800   112607144.818 7      1950.783          46.875    21102545.400    87583390.546 8      1517.276          48.437    21102545.660    87583395.544 8      1517.276          48.687
G20  20058345.000   105407311.216 7      3381.249          46.875    20058342.060   105407311.223 6      3381.249          41.062    20058350.180    82135584.545 6      2634.740          40.937
G22  23797117.440   125054692.634 7      5150.627          42.937    23797118.120   125054692.644 4      5150.627          27.187    23797146.820    97445230.657 4      4013.475          27.250
G14  23328614.880   122592713.036 7      4751.969          43.812    23328613.600   122592713.044 5      4751.969          31.500    23328639.760    95526876.181 5      3702.833          31.312    23328640.240    95526904.204 7      3702.833          45.750
> 2024 10 07 12 25 53.0000000  0 17
G13  20786521.020   109233907.081 7      3581.666          46.875    20786519.140   109233907.086 6      3581.666          38.250    20786528.360    85117353.873 6      2790.909          38.250
G11  21081932.680   110786297.103 7       809.990          47.625    21081932.440   110786297.111 6       809.990          39.500    21081942.140    86327020.743 6       631.161          39.437    21081942.240    86327020.743 8       631.161          51.312
G30  21295180.160   111906925.879 7      1020.292          46.000    21295178.720   111906925.881 7      1020.292          46.625    21295190.800    87200242.442 7       795.033          47.125    21295191.600    87200247.444 8       795.033          48.000
R14  23793963.680   126835211.978 7      6994.554          43.062    23793963.120   126835211.976 7      6994.554          42.250    23793995.800    98649728.450 7      5440.209          42.000    23793995.980    98649731.449 7      5440.209          42.437
G05  21229135.300   111559861.948 7      4885.113          46.875    21229134.640   111559861.950 7      4885.113          46.875    21229142.920    86929789.319 7      3806.582          46.750    21229143.440    86929794.325 8      3806.582          48.875
R03  21103631.080   112969393.618 7      3820.596          46.937    21103631.980   112969393.638 7      3820.596          45.437    21103647.200    87865142.518 8      2971.574          49.687    21103647.060    87865143.524 8      2971.574          49.937
R13  20575168.880   109870263.888 6      5333.699          40.937    20575167.520   109870263.886 6      5333.699          41.875
G07  23740517.760   124757254.831 7       -94.916          42.687    23740516.700   124757254.836 6       -94.916          40.625    23740531.720    97213502.777 6       -73.960          40.187    23740532.040    97213527.770 7       -73.960          46.250
R17  21414619.900   114593928.024 7      -703.710          47.562    21414621.280   114593928.047 7      -703.710          45.937    21414640.100    89128701.132 7      -547.330          47.187    21414640.460    89128700.130 7      -547.330          46.687
G06  23439958.640   123177782.592 7      -868.964          42.937    23439958.120   123177782.596 6      -868.964          39.187    23439983.160    95982775.320 6      -677.114          39.125    23439983.980    95982780.316 7      -677.114          44.250
R18  20858420.620   111343660.140 7      2240.223          44.937    20858419.960   111343660.141 7      2240.223          46.125    20858435.500    86600685.099 8      1742.396          49.062    20858435.040    86600686.100 8      1742.396          49.375
R01  23802747.520   127239298.811 6       845.933          37.812    23802745.360   127239298.799 6       845.933          37.437    23802784.820    98964044.298 6       657.948          37.187    23802782.240    98964040.286 6       657.948          37.437
R12  21041404.940   112399405.059 7      2056.963          46.812    21041405.000   112399405.073 7      2056.963          46.812    21041422.220    87421833.579 8      1599.860          49.500    21041422.320    87421833.578 8      1599.860          49.500
R02  21102164.680   112605193.929 8      1950.993          48.375    21102164.040   112605193.925 7      1950.993          46.812    21102179.740    87581873.181 8      1517.439          48.250    21102180.480    87581878.183 8      1517.439          48.625
G20  20057701.660   105403930.026 7      3381.134          46.750    20057698.580   105403930.036 6      3381.134          40.812    20057706.700    82132949.856 6      2634.650          40.875
G22  23796137.020   125049541.887 7      5150.862          42.687    23796137.960   125049541.892 4      5150.862          27.187    23796166.720    97441217.082 4      4013.659          27.250
G14  23327710.400   122587960.887 7      4752.091          44.375    23327709.340   122587960.897 5      4752.091          31.500    23327735.560    95523173.224 5      3702.928          31.312    23327735.860    95523201.251 7      3702.928          45.625
> 2024 10 07 12 25 54.0000000  0 17
G13  20785839.340   109230325.611 7      3581.227          47.125    20785837.740   109230325.616 6      3581.227          37.750    20785846.780    85114563.118 6      2790.566          37.687
G11  21081778.780   110785487.468 7       809.228          47.937    21081778.280   110785487.470 6       809.228          39.875    21081788.080    86326389.852 6       630.567          39.625    21081788.000    86326389.848 8       630.567          51.875
G30  21294986.060   111905905.858 7      1019.710          46.687    21294984.560   111905905.865 7      1019.710          46.812    21294996.760    87199447.623 7       794.579          46.812    21294997.440    87199452.623 7       794.579          47.625
R14  23792651.820   126828217.486 7      6994.338          43.062    23792650.980   126828217.494 7      6994.338          42.250    23792683.420    98644288.289 7      5440.041          42.187    23792684.200    98644291.290 7      5440.041          42.500
G05  21228205.780   111554977.004 7      4884.748          47.187    21228205.060   111554977.009 7      4884.748          46.750    21228213.220    86925982.869 7      3806.297          46.875    21228213.880    86925987.875 8      3806.297          49.062
R03  21102917.160   112965573.121 7      3820.381          47.125    21102918.580   112965573.141 7      3820.381          44.625    21102933.300    87862171.020 8      2971.407          49.625    21102933.280    87862172.026 8      2971.407          50.000
R13  20574169.780   109864930.522 7      5333.024          42.375    20574168.560   109864930.523 7      5333.024          42.250
G07  23740535.560   124757350.044 6       -95.266          41.937    23740534.800   124757350.044 6       -95.266          40.062    23740549.880    97213576.955 6       -74.233          39.687    23740550.240    97213601.954 7       -74.233          46.500
R17  21414751.580   114594632.020 7      -704.340          47.375    21414753.200   114594632.037 7      -704.340          45.875    21414771.840    89129248.670 7      -547.820          47.125    21414771.800    89129247.670 7      -547.820          47.250
G06  23440123.880   123178651.740 7      -869.247          42.312    23440123.560   123178651.745 6      -869.247          39.437    23440148.580    95983452.552 6      -677.336          39.437    23440149.600    95983457.550 7      -677.336          43.937
R18  20858001.220   111341420.458 7      2239.216          44.812    20858000.300   111341420.461 7      2239.216          45.437    20858015.740    86598943.123 8      1741.613          49.437    20858015.600    86598944.127 8      1741.613          48.937
R01  23802589.620   127238453.010 6       845.569          37.687    23802587.020   127238452.987 6       845.569          37.437    23802626.200    98963386.403 6       657.665          36.750    23802624.400    98963382.402 6       657.665          36.875
R12  21041020.120   112397348.586 7      2056.008          47.312    21041019.980   112397348.595 7      2056.008          46.562    21041037.180    87420234.094 8      1599.117          48.937    21041037.480    87420234.099 8      1599.117          49.812
R02  21101799.220   112603243.007 8      1950.778          48.187    21101798.300   112603243.005 7      1950.778          46.937    21101814.080    87580355.793 8      1517.272          48.000    21101814.520    87580360.797 8      1517.272          48.187
G20  20057058.280   105400549.217 7      3380.513          46.750    20057055.240   105400549.227 6      3380.513          41.062    20057063.320    82130315.455 6      2634.166          40.500
G22  23795157.040   125044391.059 7      5150.737          42.562    23795157.900   125044391.061 4      5150.737          27.187    23795186.580    97437203.440 4      4013.561          27.250
G14  23326806.100   122583208.866 7      4751.743          44.062    23326805.120   122583208.873 5      4751.743          31.500    23326831.180    95519470.367 5      3702.657          31.312    23326831.420    95519498.390 7      3702.657          45.437
> 2024 10 07 12 25 55.0000000  0 17
G13  20785157.840   109226744.546 7      3581.060          47.187    20785156.260   109226744.551 6      3581.060          38.375    20785165.260    85111772.677 6      2790.437          38.187
G11  21081624.760   110784678.455 7       808.956          47.625    21081624.380   110784678.460 6       808.956          39.687    21081633.980    86325759.449 6       630.355          39.500    21081634.140    86325759.445 8       630.355          51.500
G30  21294792.240   111904886.428 7      1019.366          47.000    21294790.580   111904886.436 7      1019.366          47.375    21294802.660    87198653.260 7       794.311          46.875    21294803.340    87198658.260 8       794.311          48.375
R14  23791339.660   126821222.983 7      6994.721          43.187    23791338.960   126821222.991 7      6994.721          42.187    23791371.080    98638848.114 7      5440.338          42.187    23791372.000    98638851.117 7      5440.338          42.625
G05  21227276.220   111550092.393 7      4884.791          47.312    21227275.480   111550092.398 7      4884.791          46.875    21227283.720    86922176.683 7      3806.331          46.562    21227284.320    86922181.685 8      3806.331          48.687
R03  21102203.660   112961752.733 7      3820.604          47.312    21102204.680   112961752.753 7      3820.604          45.187    21102219.540    87859199.607 8      2971.581          50.000    21102219.680    87859200.609 8      2971.581          49.625
R13  20573171.120   109859597.923 6      5332.515          41.125    20573170.020   109859597.927 7      5332.515          42.250
G07  23740554.140   124757445.565 7       -95.412          42.500    23740552.900   124757445.565 6       -95.412          40.500    23740568.020    97213651.383 6       -74.347          40.062    23740568.340    97213676.382 7       -74.347          46.750
R17  21414883.380   114595336.506 7      -704.486          47.312    21414884.820   114595336.531 7      -704.486          45.750    21414903.360    89129796.591 7      -547.933          46.875    21414903.700    89129795.593 7      -547.933          47.375
G06  23440289.100   123179521.107 7      -869.217          42.500    23440289.120   123179521.115 6      -869.217          39.437    23440314.140    95984129.952 6      -677.312          39.375    23440315.160    95984134.942 7      -677.312          43.937
R18  20857582.120   111339181.704 7      2238.533          45.812    20857580.860   111339181.713 7      2238.533          45.875    20857596.380    86597201.871 8      1741.081          49.437    20857596.120    86597202.876 8      1741.081          49.187
R01  23802431.020   127237607.314 6       845.919          37.687    23802428.840   127237607.283 6       845.919          37.437    23802467.820    98962728.591 6       657.937          36.750    23802466.180    98962724.573 6       657.937          36.875
R12  21040635.500   112395293.064 7      2055.374          46.937    21040635.180   112395293.068 7      2055.374          47.125    21040652.400    87418635.353 8      1598.624          49.375    21040652.600    87418635.353 8      1598.624          49.812
R02  21101433.560   112601292.221 8      1950.957          48.062    21101432.580   112601292.219 7      1950.957          46.875    21101448.520    87578838.510 8      1517.411          48.187    21101449.120    87578843.515 8      1517.411          48.250
G20  20056415.000   105397168.968 7      3380.207          47.687    20056412.040   105397168.973 6      3380.207          41.375    20056420.200    82127681.495 6      2633.928          41.125
G22  23794177.200   125039240.360 7      5150.914          42.562    23794177.720   125039240.365 4      5150.914          27.625    23794206.500    97433189.900 4      4013.699          27.250
G14  23325901.780   122578457.129 7      4751.850          43.312    23325901.060   122578457.139 5      4751.850          31.375    23325926.740    95515767.729 5      3702.741          31.437    23325927.120    95515795.756 7      3702.741          45.500
> 2024 10 07 12 25 56.0000000  0 17
G13  20784476.500   109223163.770 7      3580.532          47.187    20784474.760   109223163.773 6      3580.532          38.437    20784483.920    85108982.467 6      2790.025          38.000
G11  21081470.880   110783869.997 8       808.090          48.875    21081470.500   110783870.004 6       808.090          39.687    21081480.200    86325129.477 6       629.681          39.562    21081480.120    86325129.471 8       629.681          51.125
G30  21294598.260   111903867.443 7      1018.645          46.812    21294596.760   111903867.445 7      1018.645          47.625    21294608.860    87197859.239 7       793.749          47.062    21294609.200    87197864.239 8       793.749          48.000
R14  23790027.140   126814228.354 7      6994.591          43.687    23790027.020   126814228.360 7      6994.591          42.437    23790058.500    98633407.837 6      5440.238          41.937    23790059.620    98633410.844 7      5440.238          42.875
G05  21226346.580   111545208.019 8      4884.219          48.000    21226346.060   111545208.021 7      4884.219          47.250    21226354.220    86918370.675 7      3805.885          46.812    21226354.780    86918375.677 8      3805.885          49.125
R03  21101490.000   112957932.378 8      3820.233          48.187    21101490.720   112957932.403 7      3820.233          46.750    21101505.720    87856228.226 8      2971.292          49.500    21101505.620    87856229.230 8      2971.292          49.812
R13  20572172.860   109854265.936 7      5331.546          43.812    20572171.620   109854265.944 7      5331.546          42.437
G07  23740572.540   124757541.241 7       -95.872          43.187    23740571.240   124757541.243 6       -95.872          40.250    23740586.280    97213725.927 6       -74.706          40.062    23740586.560    97213750.931 7       -74.706          46.500
R17  21415015.160   114596041.398 8      -705.231          48.187    21415016.440   114596041.421 7      -705.231          47.250    21415035.140    89130344.835 7      -548.513          46.750    21415035.040    89130343.834 7      -548.513          46.875
G06  23440454.660   123180390.566 7      -869.591          43.562    23440454.740   123180390.573 6      -869.591          39.875    23440479.560    95984807.426 6      -677.603          39.687    23440480.860    95984812.416 7      -677.603          44.125
R18  20857162.640   111336943.799 7      2237.317          46.875    20857161.540   111336943.808 7      2237.317          47.000    20857177.100    86595461.276 8      1740.135          48.750    20857176.840    86595462.283 8      1740.135          48.812
R01  23802272.300   127236761.668 6       845.510          37.687    23802270.580   127236761.653 6       845.510          37.437    23802309.580    98962070.848 6       657.619          36.750    23802308.000    98962066.830 6       657.619          36.875
R12  21040250.880   112393238.365 7      2054.158          47.687    21040250.580   112393238.369 8      2054.158          48.312    21040267.920    87417037.253 8      1597.679          49.250    21040267.960    87417037.252 8      1597.679          49.562
R02  21101068.300   112599341.448 8      1950.642          48.250    21101067.140   112599341.441 7      1950.642          47.937    21101082.840    87577321.236 7      1517.166          47.750    21101083.360    87577326.239 8      1517.166          48.062
G20  20055771.960   105393789.147 7      3379.520          47.000    20055768.820   105393789.155 6      3379.520          41.312    20055777.000    82125047.865 6      2633.392          40.875
G22  23793196.760   125034089.668 7      5150.635          42.750    23793197.440   125034089.673 4      5150.635          27.625    23793226.260    97429176.366 4      4013.482          27.750
G14  23324997.780   122573705.586 7      4751.352          43.187    23324996.820   122573705.599 5      4751.352          31.375    23325022.380    95512065.245 5      3702.353          31.437    23325023.180    95512093.270 7      3702.353          45.187
> 2024 10 07 12 25 57.0000000  0 17
G13  20783795.260   109219583.270 8      3580.398          48.812    20783793.460   109219583.275 6      3580.398          38.312    20783802.540    85106192.467 6      2789.921          38.437
G11  21081317.100   110783062.048 8       807.710          48.000    21081316.680   110783062.056 6       807.710          39.875    21081326.460    86324499.899 6       629.385          39.562    21081326.700    86324499.895 8       629.385          51.750
G30  21294404.480   111902848.891 7      1018.348          47.125    21294403.040   111902848.898 7      1018.348          47.625    21294415.000    87197065.567 7       793.518          47.125    21294415.680    87197070.564 8       793.518          48.437
R14  23788715.040   126807233.555 7      6994.958          43.562    23788714.340   126807233.566 7      6994.958          42.437    23788746.540    98627967.438 7      5440.523          42.187    23788747.700    98627970.445 7      5440.523          42.937
G05  21225417.200   111540323.842 8      4884.102          48.500    21225416.580   111540323.849 7      4884.102          47.125    21225424.740    86914564.831 7      3805.794          46.562    21225425.380    86914569.835 8      3805.794          49.187
R03  21100776.280   112954112.019 8      3820.392          48.562    21100776.880   112954112.048 7      3820.392          47.000    21100791.920    87853256.841 8      2971.416          49.625    21100792.040    87853257.840 8      2971.416          49.937
R13  20571174.580   109848934.549 7      5331.065          43.812    20571173.220   109848934.544 7      5331.065          43.250
G07  23740591.020   124757637.079 7       -95.875          43.562    23740589.380   124757637.087 6       -95.875          40.875    23740604.480    97213800.603 6       -74.708          40.562    23740604.640    97213825.600 7       -74.708          46.250
R17  21415146.980   114596746.617 8      -705.412          48.312    21415148.200   114596746.645 7      -705.412          47.437    21415166.920    89130893.332 7      -548.654          46.937    21415166.840    89130892.335 7      -548.654          46.687
G06  23440620.480   123181260.117 7      -869.648          43.375    23440620.360   123181260.124 6      -869.648          39.250    23440645.160    95985484.969 6      -677.648          39.437    23440646.280    95985489.963 7      -677.648          44.000
R18  20856743.980   111334706.724 7      2236.719          47.750    20856742.340   111334706.725 7      2236.719          46.687    20856757.900    86593721.325 8      1739.670          48.875    20856758.060    86593722.330 8      1739.670          49.312
R01  23802114.120   127235915.988 6       845.737          37.687    23802112.180   127235916.013 6       845.737          37.437    23802151.620    98961413.076 6       657.795          36.750    23802150.140    98961409.073 6       657.795          36.875
R12  21039866.500   112391184.483 8      2053.479          48.687    21039866.140   112391184.487 8      2053.479          48.625    21039883.360    87415439.790 8      1597.150          49.000    21039883.440    87415439.790 8      1597.150          49.437
R02  21100702.400   112597390.686 8      1950.778          48.625    21100701.420   112597390.678 8      1950.778          48.312    21100717.420    87575803.969 8      1517.272          48.000    21100717.560    87575808.975 8      1517.272          48.187
G20  20055128.940   105390409.755 7      3379.235          46.437    20055125.700   105390409.762 6      3379.235          41.500    20055133.960    82122414.574 6      2633.170          41.062
G22  23792216.460   125028938.948 7      5150.843          43.062    23792217.260   125028938.948 4      5150.843          27.625    23792246.220    97425162.813 4      4013.644          27.750
G14  23324093.800   122568954.204 7      4751.430          43.812    23324092.740   122568954.211 5      4751.430          31.375    23324118.160    95508362.887 5      3702.413          31.437    23324118.620    95508390.914 7      3702.413          45.562
> 2024 10 07 12 25 58.0000000  0 17
G13  20783113.740   109216003.130 7      3579.924          47.375    20783112.220   109216003.132 6      3579.924          38.250    20783121.320    85103402.747 6      2789.551          38.312
G11  21081163.480   110782254.696 8       807.033          48.000    21081163.000   110782254.698 6       807.033          39.687    21081172.760    86323870.783 6       628.857          39.875    21081173.080    86323870.777 8       628.857          51.812
G30  21294210.720   111901830.867 7      1017.738          46.562    21294209.240   111901830.869 7      1017.738          47.250    21294221.280    87196272.295 7       793.042          47.062    21294221.840    87196277.291 8       793.042          48.125
R14  23787402.760   126800238.697 7      6994.864          43.562    23787402.060   126800238.701 7      6994.864          42.812    23787434.240    98622526.981 6      5440.450          41.812    23787435.540    98622529.988 7      5440.450          42.812
G05  21224487.940   111535439.959 7      4883.704          47.625    21224487.260   111535439.969 7      4883.704          46.937    21224495.420    86910759.210 7      3805.484          46.875    21224495.900    86910764.216 8      3805.484          48.937
R03  21100062.580   112950291.768 8      3820.254          48.250    21100063.100   112950291.789 7      3820.254          46.875    21100078.300    87850285.528 8      2971.309          49.812    21100078.340    87850286.527 8      2971.309          49.562
R13  20570176.220   109843603.861 7      5330.351          44.437    20570175.300   109843603.865 7      5330.351          43.250
G07  23740609.060   124757733.191 7       -96.314          42.437    23740607.500   124757733.199 6       -96.314          40.812    23740622.900    97213875.485 6       -75.050          40.250    23740622.980    97213900.486 7       -75.050          46.812
R17  21415278.580   114597452.224 7      -705.767          47.000    21415280.200   114597452.247 7      -705.767          47.375    21415298.880    89131442.121 7      -548.930          47.250    21415298.780    89131441.120 7      -548.930          47.187
G06  23440786.160   123182129.788 7      -869.753          43.000    23440785.880   123182129.798 6      -869.753          39.312    23440810.620    95986162.613 6      -677.729          39.312    23440811.500    95986167.607 7      -677.729          43.875
R18  20856325.160   111332470.576 7      2235.714          45.312    20856323.700   111332470.571 7      2235.714          46.312    20856338.880    86591982.085 8      1738.889          49.375    20856338.880    86591983.089 8      1738.889          49.000
R01  23801955.240   127235070.454 6       845.719          37.687    23801954.660   127235070.466 6       845.719          37.312    23801992.640    98960755.385 6       657.781          36.625    23801991.760    98960751.384 6       657.781          37.375
R12  21039482.340   112389131.525 7      2052.505          47.937    21039481.680   112389131.532 7      2052.505          47.562    21039499.100    87413843.045 8      1596.393          49.250    21039499.200    87413843.047 8      1596.393          49.687
R02  21100336.860   112595440.073 8      1950.584          48.250    21100335.840   112595440.063 7      1950.584          47.562    21100351.780    87574286.819 8      1517.121          48.250    21100352.200    87574291.817 7      1517.121          47.937
G20  20054485.900   105387030.883 7      3378.617          46.312    20054482.820   105387030.890 6      3378.617          41.000    20054490.900    82119781.682 6      2632.688          40.500
G22  23791236.600   125023788.306 7      5150.544          43.562    23791236.920   125023788.311 4      5150.544          27.625    23791266.080    97421149.324 4      4013.411          27.750
G14  23323189.580   122564203.084 7      4751.107          44.187    23323188.580   122564203.094 5      4751.107          31.437    23323213.900    95504660.734 5      3702.162          31.312    23323214.460    95504688.756 7      3702.162          45.437
> 2024 10 07 12 25 59.0000000  0 17
G13  20782432.580   109212423.245 7      3579.818          47.375    20782430.840   109212423.245 6      3579.818          38.375    20782440.120    85100613.224 6      2789.469          38.125
G11  21081009.860   110781447.851 7       806.619          47.000    21081009.540   110781447.853 6       806.619          40.000    21081019.260    86323242.064 6       628.535          39.375    21081019.480    86323242.062 8       628.535          52.125
G30  21294017.240   111900813.266 7      1017.453          47.562    21294015.580   111900813.271 7      1017.453          47.062    21294027.660    87195479.357 7       792.821          47.125    21294028.140    87195484.357 8       792.821          48.187
R14  23786090.600   126793243.690 7      6995.161          43.562    23786089.600   126793243.686 7      6995.161          42.125    23786121.760    98617086.409 6      5440.681          41.812    23786123.220    98617089.416 7      5440.681          42.375
G05  21223558.660   111530556.260 7      4883.689          46.937    21223557.820   111530556.265 7      4883.689          46.812    21223565.960    86906953.726 7      3805.472          47.000    21223566.300    86906958.732 8      3805.472          49.250
R03  21099349.120   112946471.474 7      3820.373          45.312    21099349.520   112946471.497 7      3820.373          45.250    21099364.720    87847314.188 8      2971.401          49.625    21099364.780    87847315.188 8      2971.401          49.562
R13  20569177.820   109838273.772 7      5329.925          42.437    20569176.940   109838273.781 7      5329.925          42.750
G07  23740627.340   124757829.416 7       -96.181          42.375    23740625.900   124757829.427 6       -96.181          40.312    23740641.100    97213950.459 6       -74.946          39.875    23740641.560    97213975.454 7       -74.946          46.187
R17  21415410.380   114598158.194 7      -706.045          46.875    21415411.940   114598158.209 7      -706.045          46.062    21415430.720    89131991.194 7      -549.146          46.687    21415430.480    89131990.187 7      -549.146          46.625
G06  23440951.740   123182999.562 7      -869.750          42.562    23440951.380   123182999.572 6      -869.750          38.937    23440976.220    95986840.332 6      -677.728          38.937    23440977.160    95986845.328 7      -677.728          43.437
R18  20855906.300   111330235.201 7      2235.053          45.125    20855905.120   111330235.194 7      2235.053          45.500    20855919.860    86590243.456 8      1738.374          48.875    20855919.780    86590244.462 8      1738.374          48.562
R01  23801797.280   127234224.950 6       845.703          38.500    23801796.760   127234224.949 6       845.703          37.312    23801834.480    98960097.721 6       657.769          36.625    23801833.360    98960093.717 6       657.769          37.375
R12  21039097.680   112387079.380 7      2051.812          47.062    21039097.720   112387079.383 7      2051.812          47.375    21039114.960    87412246.931 8      1595.854          49.125    21039114.960    87412246.934 8      1595.854          49.875
R02  21099971.240   112593489.479 8      1950.713          48.625    21099970.220   112593489.474 7      1950.713          46.812    21099986.400    87572769.688 8      1517.221          48.250    21099986.820    87572774.692 8      1517.221          48.250
G20  20053842.900   105383652.415 7      3378.331          46.875    20053839.800   105383652.423 6      3378.331          40.812    20053848.020    82117149.106 6      2632.465          40.625
G22  23790256.400   125018637.641 7      5150.727          42.312    23790256.680   125018637.649 4      5150.727          27.625    23790285.960    97417135.817 4      4013.553          27.750
G14  23322285.360   122559452.120 7      4751.002          43.750    23322284.480   122559452.127 5      4751.002          31.437    23322309.860    95500958.698 5      3702.079          31.312    23322310.460    95500986.726 7      3702.079          45.125
> 2024 10 07 12 26  0.0000000  0 17
G13  20781751.560   109208843.628 7      3579.404          47.250    20781749.760   109208843.630 6      3579.404          38.312    20781758.920    85097823.916 6      2789.146          38.187
G11  21080856.300   110780641.503 8       806.045          48.125    21080856.080   110780641.508 6       806.045          40.125    21080865.700    86322613.739 6       628.087          39.812    21080866.380    86322613.735 8       628.087          51.875
G30  21293823.840   111899796.078 7      1016.890          46.312    21293822.000   111899796.085 7      1016.890          46.812    21293834.140    87194686.745 7       792.382          46.875    21293834.640    87194691.745 8       792.382          48.000
R14  23784778.420   126786248.534 7      6995.316          43.500    23784778.060   126786248.513 7      6995.316          42.125    23784809.460    98611645.714 6      5440.801          41.375    23784810.920    98611648.719 7      5440.801          42.375
G05  21222629.300   111525672.753 7      4883.306          47.375    21222628.540   111525672.763 7      4883.306          47.000    21222636.680    86903148.402 7      3805.173          47.125    21222636.900    86903153.410 8      3805.173          48.937
R03  21098635.280   112942651.170 7      3820.183          45.937    21098636.240   112942651.190 7      3820.183          45.250    21098651.100    87844342.842 8      2971.253          49.187    21098651.240    87844343.846 8      2971.253          49.750
R13  20568179.800   109832944.291 7      5329.135          42.750    20568179.000   109832944.306 6      5329.135          41.937
G07  23740645.500   124757925.815 7       -96.549          42.250    23740644.360   124757925.814 6       -96.549          40.562    23740659.400    97214025.558 6       -75.233          40.500    23740659.920    97214050.556 7       -75.233          46.437
R17  21415542.060   114598864.502 7      -706.508          46.500    21415543.940   114598864.525 7      -706.508          45.125    21415562.680    89132540.535 7      -549.507          46.875    21415562.560    89132539.532 7      -549.507          46.750
G06  23441117.420   123183869.428 7      -869.992          42.500    23441117.040   123183869.436 6      -869.992          39.062    23441141.620    95987518.119 6      -677.916          39.125    23441142.500    95987523.117 7      -677.916          43.750
R18  20855487.640   111328000.614 7      2234.110          45.062    20855486.440   111328000.612 7      2234.110          46.000    20855501.320    86588505.446 8      1737.641          48.625    20855501.220    86588506.448 8      1737.641          48.750
R01  23801639.900   127233379.369 6       845.754          38.500    23801638.980   127233379.359 6       845.754          37.312    23801676.420    98959440.011 6       657.809          36.625    23801675.820    98959435.999 6       657.809          37.375
R12  21038713.500   112385028.051 7      2050.865          46.625    21038713.700   112385028.060 7      2050.865          47.250    21038730.960    87410651.460 8      1595.117          49.375    21038731.060    87410651.460 8      1595.117          49.500
R02  21099606.060   112591538.935 8      1950.474          48.312    21099604.880   112591538.928 7      1950.474          47.062    21099620.740    87571252.595 8      1517.035          48.437    21099621.120    87571257.597 8      1517.035          48.437
G20  20053200.120   105380274.360 7      3377.795          46.750    20053196.980   105380274.370 6      3377.795          40.812    20053205.320    82114516.859 6      2632.048          40.812
G22  23789276.060   125013486.947 7      5150.701          42.562    23789276.520   125013486.955 4      5150.701          27.625    23789305.740    97413122.285 4      4013.533          27.750
G14  23321381.400   122554701.310 7      4750.775          44.000    23321380.480   122554701.320 5      4750.775          31.437    23321405.760    95497256.789 5      3701.902          31.312    23321406.120    95497284.817 7      3701.902          45.062
> 2024 10 07 12 26  1.0000000  0 17
G13  20781070.300   109205264.315 7      3579.140          47.250    20781068.720   109205264.320 6      3579.140          38.187    20781077.880    85095034.843 6      2788.941          38.062
G11  21080703.080   110779835.719 7       805.487          47.437    21080702.800   110779835.724 6       805.487          39.750    21080712.440    86321985.851 6       627.652          39.562    21080712.940    86321985.845 8       627.652          51.500
G30  21293630.400   111898779.381 7      1016.391          47.125    21293628.740   111898779.388 7      1016.391          47.250    21293640.600    87193894.512 7       791.993          47.000    21293641.380    87193899.514 7       791.993          47.812
R14  23783466.160   126779253.287 7      6995.213          43.500    23783465.420   126779253.283 6      6995.213          41.875    23783497.420    98606204.978 6      5440.721          41.437    23783498.160    98606207.983 7      5440.721          42.000
G05  21221700.180   111520789.493 7      4883.086          46.937    21221699.280   111520789.498 7      4883.086          46.687    21221707.280    86899343.264 7      3805.002          47.125    21221707.860    86899348.270 8      3805.002          48.937
R03  21097921.800   112938830.876 7      3820.257          46.437    21097922.180   112938830.896 7      3820.257          45.250    21097937.640    87841371.498 8      2971.311          49.375    21097937.420    87841372.502 8      2971.311          49.937
R13  20567181.940   109827615.462 7      5328.459          42.750    20567181.020   109827615.471 6      5328.459          41.937
G07  23740663.740   124758022.408 7       -96.775          42.187    23740662.600   124758022.405 6       -96.775          40.437    23740677.800    97214100.813 6       -75.409          40.187    23740678.020    97214125.810 7       -75.409          46.500
R17  21415674.320   114599571.203 7      -706.915          46.312    21415675.860   114599571.226 7      -706.915          45.750    21415694.640    89133090.183 7      -549.823          46.500    21415694.580    89133089.180 7      -549.823          47.125
G06  23441282.760   123184739.381 7      -870.009          42.875    23441282.760   123184739.386 6      -870.009          39.562    23441307.360    95988195.978 6      -677.929          39.125    23441308.100    95988200.974 7      -677.929          43.750
R18  20855068.820   111325766.886 7      2233.275          45.250    20855068.140   111325766.884 7      2233.275          45.375    20855082.420    86586768.098 8      1736.992          48.375    20855082.720    86586769.104 8      1736.992          48.625
R01  23801482.060   127232533.892 6       845.316          38.500    23801480.420   127232533.901 6       845.316          37.312    23801518.320    98958782.376 6       657.468          36.625    23801517.540    98958778.366 6       657.468          37.187
R12  21038329.560   112382977.580 7      2050.089          46.062    21038329.900   112382977.589 7      2050.089          47.062    21038347.000    87409056.649 8      1594.514          49.125    21038347.100    87409056.650 8      1594.514          49.750
R02  21099240.280   112589588.424 8      1950.448          48.125    21099239.520   112589588.419 7      1950.448          47.000    21099255.240    87569735.528 8      1517.015          48.625    21099255.660    87569740.530 8      1517.015          48.312
G20  20052557.380   105376896.770 7      3377.353          47.125    20052554.340   105376896.775 6      3377.353          41.375    20052562.520    82111884.965 6      2631.704          40.625
G22  23788295.940   125008336.300 6      5150.605          41.625    23788296.460   125008336.310 4      5150.605          27.625    23788325.500    97409108.790 4      4013.459          27.750
G14  23320477.540   122549950.726 7      4750.495          43.312    23320476.480   122549950.737 5      4750.495          31.062    23320501.760    95493555.054 5      3701.685          31.187    23320502.020    95493583.069 7      3701.685          45.062
> 2024 10 07 12 26  2.0000000  0 17
G13  20780389.240   109201685.421 7      3578.747          45.812    20780387.820   109201685.426 6      3578.747          37.812    20780396.880    85092246.096 6      2788.634          38.000
G11  21080549.720   110779030.595 7       804.878          47.000    21080549.420   110779030.597 6       804.878          39.687    21080559.180    86321358.470 6       627.178          39.250    21080559.760    86321358.468 8       627.178          51.750
G30  21293436.980   111897763.241 7      1015.921          47.062    21293435.380   111897763.246 7      1015.921          46.937    21293447.240    87193102.712 7       791.627          46.937    21293447.940    87193107.708 7       791.627          47.812
R14  23782153.620   126772257.982 7      6995.407          42.687    23782153.040   126772257.967 6      6995.407          41.875    23782184.760    98600764.173 6      5440.872          41.437    23782185.880    98600767.172 6      5440.872          41.187
G05  21220770.820   111515906.559 7      4882.874          47.062    21220770.020   111515906.561 7      4882.874          46.500    21220778.140    86895538.382 7      3804.837          46.625    21220778.680    86895543.389 8      3804.837          48.750
R03  21097208.160   112935010.726 7      3820.174          45.812    21097208.360   112935010.752 7      3820.174          44.812    21097223.760    87838400.275 8      2971.246          48.562    21097223.920    87838401.279 8      2971.246          50.000
R13  20566184.340   109822287.365 7      5327.900          42.812    20566183.440   109822287.374 6      5327.900          41.937
G07  23740681.980   124758119.258 7       -96.904          42.562    23740681.120   124758119.258 6       -96.904          39.812    23740696.320    97214176.273 6       -75.510          39.500    23740696.640    97214201.276 7       -75.510          46.062
R17  21415806.700   114600278.378 7      -707.307          46.500    21415808.100   114600278.409 7      -707.307          45.375    21415827.000    89133640.203 7      -550.128          46.812    21415826.760    89133639.198 7      -550.128          47.125
G06  23441447.840   123185609.573 7      -870.193          43.125    23441448.440   123185609.580 6      -870.193          39.500    23441472.960    95988874.017 6      -678.073          39.500    23441473.840    95988879.011 7      -678.073          43.250
R18  20854650.380   111323534.121 7      2232.451          46.437    20854650.180   111323534.117 7      2232.451          46.000    20854664.000    86585031.495 8      1736.351          48.125    20854664.400    86585032.503 8      1736.351          48.312
R01  23801323.720   127231688.492 6       845.535          38.500    23801322.920   127231688.485 6       845.535          37.187    23801360.640    98958124.793 6       657.639          36.687    23801359.900    98958120.783 6       657.639          37.187
R12  21037946.100   112380928.089 7      2049.118          46.500    21037946.180   112380928.093 7      2049.118          47.062    21037963.360    87407462.600 8      1593.759          49.125    21037963.560    87407462.601 8      1593.759          49.625
R02  21098874.640   112587638.030 8      1950.400          48.687    21098873.820   112587638.020 7      1950.400          46.562    21098889.840    87568218.547 8      1516.978          48.562    21098889.860    87568223.551 8      1516.978          48.125
G20  20051914.640   105373519.740 7      3376.871          46.875    20051911.600   105373519.745 6      3376.871          40.937    20051919.880    82109253.511 6      2631.328          40.375
G22  23787315.740   125003185.751 6      5150.562          41.875    23787316.440   125003185.763 4      5150.562          27.625    23787345.380    97405095.374 4      4013.425          27.625
G14  23319573.520   122545200.437 7      4750.274          44.000    23319572.700   122545200.447 5      4750.274          31.062    23319597.720    95489853.547 5      3701.512          31.187    23319598.300    95489881.551 7      3701.512          44.750
> 2024 10 07 12 26  3.0000000  0 17
G13  20779708.440   109198106.965 7      3578.259          47.000    20779706.780   109198106.967 6      3578.259          38.937    20779715.920    85089457.685 6      2788.254          38.250
G11  21080396.740   110778226.146 7       804.075          47.375    21080396.380   110778226.149 6       804.075          39.687    21080406.120    86320731.618 6       626.552          39.250    21080406.540    86320731.617 8       626.552          51.250
G30  21293243.540   111896747.710 7      1015.239          47.500    21293242.160   111896747.713 7      1015.239          47.312    21293254.000    87192311.386 7       791.096          47.187    21293254.640    87192316.382 8       791.096          48.187
R14  23780841.860   126765262.674 7      6995.373          42.187    23780840.840   126765262.669 6      6995.373          41.750    23780872.260    98595323.382 6      5440.845          41.187    23780873.400    98595326.379 6      5440.845          41.187
G05  21219841.960   111511024.008 7      4882.381          47.437    21219840.840   111511024.013 7      4882.381          46.687    21219848.960    86891733.799 7      3804.453          46.875    21219849.420    86891738.802 8      3804.453          49.125
R03  21096494.600   112931190.756 7      3819.888          46.375    21096494.860   112931190.782 7      3819.888          45.250    21096510.280    87835429.189 8      2971.024          49.937    21096510.180    87835430.193 8      2971.024          49.875
R13  20565186.700   109816960.044 7      5326.987          43.187    20565185.540   109816960.056 7      5326.987          42.312
G07  23740700.540   124758216.450 7       -97.342          42.875    23740699.660   124758216.452 6       -97.342          41.000    23740714.760    97214252.001 6       -75.851          40.500    23740715.100    97214277.008 7       -75.851          46.375
R17  21415938.420   114600986.064 7      -707.931          47.062    21415940.080   114600986.095 7      -707.931          46.062    21415959.060    89134190.615 7      -550.613          47.125    21415959.180    89134189.614 7      -550.613          47.750
G06  23441613.860   123186480.004 7      -870.502          43.250    23441614.060   123186480.006 6      -870.502          40.000    23441638.680    95989552.242 6      -678.313          40.000    23441639.880    95989557.238 7      -678.313          43.562
R18  20854232.600   111321302.342 7      2231.347          46.125    20854231.880   111321302.335 7      2231.347          45.875    20854245.920    86583295.665 8      1735.492          48.062    20854246.240    86583296.670 8      1735.492          48.187
R01  23801165.340   127230843.311 6       845.088          37.625    23801165.000   127230843.299 6       845.088          37.187    23801202.040    98957467.389 6       657.290          36.687    23801201.600    98957463.373 6       657.290          37.187
R12  21037562.460   112378879.562 7      2048.068          46.125    21037562.320   112378879.563 7      2048.068          47.187    21037580.020    87405869.302 8      1592.942          49.375    21037579.940    87405869.300 8      1592.942          49.875
R02  21098509.360   112585687.785 8      1950.237          48.000    21098508.480   112585687.775 7      1950.237          47.125    21098524.300    87566701.688 8      1516.851          48.750    21098524.880    87566706.686 8      1516.851          48.750
G20  20051272.280   105370143.293 7      3376.190          45.937    20051269.200   105370143.300 6      3376.190          40.687    20051277.300    82106622.513 6      2630.798          40.500
G22  23786336.080   124998035.377 7      5150.346          42.500    23786336.340   124998035.390 4      5150.346          27.625    23786365.300    97401082.092 4      4013.257          27.625
G14  23318669.260   122540450.463 7      4750.009          43.750    23318668.880   122540450.471 5      4750.009          31.250    23318693.980    95486152.278 5      3701.305          31.187    23318694.220    95486180.283 7      3701.305          44.937
