     3.05           OBSERVATION DATA    MIXED               RINEX VERSION / TYPE
TPS2RIN 1.0.28.3459 TPS-USER            20260427 143338 UTC PGM / RUN BY / DATE
Win64 build Jun 01, 2022 (c) Topcon Positioning Systems     COMMENT
SRC: 20240402_LM06.tps                                      COMMENT
Observer            Agency                                  OBSERVER / AGENCY
O0M3X53SBGM         TPS HIPER_SR        4.8 HSR Jul,08,2022 REC # / TYPE / VERS
FW: 4.8 HSR Jul,08,2022 p3                                  COMMENT
SN: HiPer SR 1212-12575                                     COMMENT
000                 TPSHIPER_SR     NONE                    ANT # / TYPE
        1.8000        0.0000        0.0000                  ANTENNA: DELTA H/E/N
DELTA H stands for **SLANT** height here!                   COMMENT
LM.006                                                      MARKER NAME
  5390177.3258 -1600539.8902  3005686.5238                  APPROX POSITION XYZ
  2024     4     2    15    19   37.0000000     GPS         TIME OF FIRST OBS
  2024     4     2    15    34   38.0000000     GPS         TIME OF LAST OBS
     1.000                                                  INTERVAL
   902 EPOCHS                                               COMMENT
G   12 C1C L1C D1C C1W L1W D1W C2W L2W D2W C2X L2X D2X      SYS / # / OBS TYPES
R   12 C1C L1C D1C C1P L1P D1P C2P L2P D2P C2C L2C D2C      SYS / # / OBS TYPES
    17                                                      # OF SATELLITES
   G02   902   902   902   902   902   902   902   902   902PRN / # OF OBS
           0     0     0                                    PRN / # OF OBS
   G07   902   902   902   902   902   902   902   902   902PRN / # OF OBS
         902   902   902                                    PRN / # OF OBS
   G08   902   902   902   902   902   902   902   902   902PRN / # OF OBS
         902   902   902                                    PRN / # OF OBS
   G10   902   902   902   902   902   902   902   902   902PRN / # OF OBS
         902   902   902                                    PRN / # OF OBS
   G16   902   902   902   902   902   902   902   902   902PRN / # OF OBS
           0     0     0                                    PRN / # OF OBS
   G21   902   902   902   902   902   902   902   902   902PRN / # OF OBS
           0     0     0                                    PRN / # OF OBS
   G23   902   902   902   902   902   902   902   902   902PRN / # OF OBS
         902   902   902                                    PRN / # OF OBS
   G26   902   902   902   902   902   902   902   902   902PRN / # OF OBS
         902   902   902                                    PRN / # OF OBS
   G27   902   902   902   902   902   902   902   902   902PRN / # OF OBS
         902   902   902                                    PRN / # OF OBS
   R01   902   902   902   902   902   902   902   902   902PRN / # OF OBS
         902   902   902                                    PRN / # OF OBS
   R02   902   902   902   902   902   902   902   902   902PRN / # OF OBS
         902   902   902                                    PRN / # OF OBS
   R14   902   902   902   902   902   902   902   902   902PRN / # OF OBS
         902   902   902                                    PRN / # OF OBS
   R15   902   902   902   902   902   902   902   902   902PRN / # OF OBS
         902   902   902                                    PRN / # OF OBS
   R16   902   902   902   902   902   902   902   902   902PRN / # OF OBS
         902   902   902                                    PRN / # OF OBS
   R17   902   902   902   902   902   902   902   902   902PRN / # OF OBS
         902   902   902                                    PRN / # OF OBS
   R18   902   902   902   902   902   902   902   902   902PRN / # OF OBS
         902   902   902                                    PRN / # OF OBS
   R24   902   902   902   902   902   902   902   902   902PRN / # OF OBS
         902   902   902                                    PRN / # OF OBS
G L1C                                                       SYS / PHASE SHIFT
G L1W -0.25000                                              SYS / PHASE SHIFT
G L2W  0.00000                                              SYS / PHASE SHIFT
G L2X  0.25000                                              SYS / PHASE SHIFT
R L1C                                                       SYS / PHASE SHIFT
R L1P -0.25000                                              SYS / PHASE SHIFT
R L2P -0.25000                                              SYS / PHASE SHIFT
R L2C                                                       SYS / PHASE SHIFT
  8 R01  1 R02 -4 R14 -7 R15  0 R16 -1 R17  4 R18 -3 R24  2 GLONASS SLOT / FRQ #
                                                            GLONASS COD/PHS/BIS
               *** Undefined LeapSeconds ***                COMMENT
                                                            END OF HEADER
> 2024 04 02 15 19 37.0000000  0 17
G02  21894346.640   115055579.645 7      4002.686    21894345.280   115055579.652 6      4002.686    21894354.340    89653741.782 6      3118.976
G26  23475148.520   123362734.088 6      -770.693    23475146.580   123362734.093 6      -770.693    23475166.680    96126864.589 6      -600.540    23475166.760    96126869.597 7      -600.540
R02  23376936.800   124743782.802 7      5785.426    23376934.380   124743782.790 6      5785.426    23376959.640    97023030.577 7      4499.776    23376959.900    97023032.577 7      4499.776
G27  21036110.280   110545481.792 7      1754.431    21036108.980   110545481.802 8      1754.431    21036119.940    86139372.273 8      1367.089    21036120.280    86139373.272 8      1367.089
R14  19910266.160   106132875.715 8      -166.149    19910266.180   106132875.715 8      -166.149    19910282.440    82547850.522 8      -129.227    19910282.720    82547848.521 8      -129.227
G16  21203292.540   111424024.224 7       399.056    21203291.020   111424024.229 6       399.056    21203303.620    86823943.021 6       310.953
G10  22168398.840   116495723.904 7      1587.290    22168397.320   116495723.917 7      1587.290    22168412.100    90775888.912 7      1236.849    22168411.580    90775941.918 8      1236.849
G21  20567192.820   108081325.806 8      3143.816    20567191.120   108081325.808 6      3143.816    20567199.520    84219251.849 6      2449.727
R17  20252583.560   108375653.558 7      2309.128    20252582.400   108375653.564 7      2309.128    20252595.260    84292227.641 8      1795.988    20252595.240    84292227.645 8      1795.988
G08  20966040.380   110177274.899 7      3435.153    20966039.400   110177274.904 7      3435.153    20966048.880    85852458.044 7      2676.742    20966049.960    85852461.048 8      2676.742
R15  19850065.400   106072717.689 8      3969.529    19850063.380   106072717.679 7      3969.529    19850075.140    82501050.224 8      3087.411    19850075.260    82501048.228 8      3087.411
R01  22652708.940   121091768.566 6      3980.899    22652709.660   121091768.575 6      3980.899    22652734.780    94182585.993 6      3096.255    22652733.900    94182581.983 6      3096.255
R24  21654885.520   115798386.208 7       235.876    21654884.940   115798386.199 7       235.876    21654900.420    90065475.133 7       183.459    21654900.160    90065462.130 7       183.459
G23  24276526.040   127574003.203 6       -93.529    24276524.500   127574003.210 4       -93.529    24276538.500    99408362.339 4       -72.880    24276538.460    99408373.340 7       -72.880
R16  23693456.360   126566174.907 7      6607.723    23693457.160   126566174.930 7      6607.723    23693470.040    98440411.662 7      5139.340    23693469.840    98440413.657 7      5139.340
G07  23804455.280   125093251.538 7      3107.012    23804453.840   125093251.548 6      3107.012    23804464.400    97475287.516 6      2421.048    23804463.960    97475294.527 7      2421.048
R18  22253091.060   118788538.934 7      4312.474    22253091.780   118788538.935 7      4312.474    22253107.780    92391166.133 7      3354.146    22253108.080    92391168.140 7      3354.146
> 2024 04 02 15 19 38.0000000  0 17
G02  21893584.820   115051577.097 7      4002.502    21893583.760   115051577.104 6      4002.502    21893592.420    89650622.918 6      3118.833
G26  23475295.020   123363504.878 6      -770.795    23475293.280   123363504.880 6      -770.795    23475313.380    96127465.194 6      -600.620    23475313.600    96127470.202 7      -600.620
R02  23375852.520   124737997.301 7      5785.704    23375850.020   124737997.288 6      5785.704    23375875.440    97018530.736 7      4499.992    23375875.840    97018532.740 7      4499.992
G27  21035776.180   110543727.325 8      1754.523    21035775.180   110543727.327 8      1754.523    21035786.100    86138005.143 8      1367.161    21035786.400    86138006.141 8      1367.161
R14  19910297.400   106133042.079 8      -166.546    19910297.480   106133042.077 8      -166.546    19910313.800    82547979.906 8      -129.536    19910314.020    82547977.903 8      -129.536
G16  21203216.580   111423625.345 7       398.870    21203215.140   111423625.353 6       398.870    21203227.700    86823632.205 6       310.808
G10  22168096.660   116494136.802 7      1586.943    22168095.340   116494136.807 7      1586.943    22168110.120    90774652.203 7      1236.579    22168109.620    90774705.211 8      1236.579
G21  20566594.620   108078182.154 8      3143.575    20566593.020   108078182.159 6      3143.575    20566601.120    84216802.254 6      2449.539
R17  20252151.800   108373344.479 7      2309.108    20252150.780   108373344.497 7      2309.108    20252163.840    84290431.695 8      1795.973    20252163.220    84290431.695 8      1795.973
G08  20965386.680   110173839.748 7      3435.149    20965385.700   110173839.753 7      3435.149    20965395.180    85849781.301 7      2676.739    20965396.280    85849784.303 8      2676.739
R15  19849322.560   106068748.484 8      3968.881    19849320.580   106068748.480 7      3968.881    19849332.400    82497963.067 8      3086.908    19849332.080    82497961.071 8      3086.908
R01  22651963.820   121087787.851 6      3980.780    22651964.520   121087787.866 6      3980.780    22651990.020    94179489.904 6      3096.162    22651989.020    94179485.901 6      3096.162
R24  21654841.040   115798150.134 7       236.185    21654840.520   115798150.125 7       236.185    21654856.320    90065291.508 7       183.699    21654855.960    90065278.499 7       183.699
G23  24276543.660   127574096.944 6       -93.801    24276542.340   127574096.952 4       -93.801    24276556.420    99408435.387 4       -73.091    24276556.620    99408446.400 7       -73.091
R16  23692219.360   126559567.262 7      6607.604    23692220.040   126559567.293 7      6607.604    23692232.820    98435272.380 7      5139.247    23692232.960    98435274.377 7      5139.247
G07  23803864.180   125090144.801 7      3106.526    23803862.540   125090144.811 6      3106.526    23803873.240    97472866.682 6      2420.670    23803873.060    97472873.678 7      2420.670
R18  22252283.020   118784226.560 7      4312.331    22252283.960   118784226.556 7      4312.331    22252299.560    92387812.058 7      3354.035    22252300.060    92387814.063 7      3354.035
> 2024 04 02 15 19 39.0000000  0 17
G02  22192616.280   116622998.890 7      4002.001    22192615.280   116622998.895 6      4002.001    22192623.960    90875107.436 6      3118.442
G26  23775234.020   124939695.003 6      -771.034    23775232.280   124939695.006 6      -771.034    23775252.540    97355665.290 6      -600.806    23775252.600    97355670.298 7      -600.806
R02  23674561.700   126331967.663 7      5785.280    23674559.480   126331967.651 6      5785.280    23674584.780    98258285.459 7      4499.662    23674585.360    98258287.458 7      4499.662
G27  21335235.240   112117394.742 8      1754.210    21335234.000   112117394.744 8      1754.210    21335245.060    87364239.490 8      1366.917    21335245.080    87364240.489 8      1366.917
R14  20210120.880   107731271.407 8      -167.383    20210121.360   107731271.407 8      -167.383    20210137.480    83791047.157 8      -130.186    20210137.860    83791045.156 8      -130.186
G16  21502933.180   112998647.298 7       398.114    21502931.860   112998647.310 6       398.114    21502944.300    88050922.035 6       310.219
G10  22467587.620   118067971.831 7      1586.177    22467586.260   118067971.833 7      1586.177    22467600.940    92001017.156 7      1235.982    22467600.500    92001070.164 8      1235.982
G21  20865789.540   109650462.079 8      3142.909    20865787.900   109650462.084 6      3142.909    20865796.140    85441955.444 6      2449.020
R17  20551513.220   109975287.916 7      2308.723    20551512.400   109975287.925 7      2308.723    20551525.280    85536387.693 8      1795.674    20551524.660    85536387.689 8      1795.674
G08  21264526.200   111745828.121 7      3434.871    21264525.160   111745828.126 7      3434.871    21264534.720    87074707.308 7      2676.523    21264535.500    87074710.307 8      2676.523
R15  20148372.860   107666784.030 7      3967.945    20148370.860   107666784.029 8      3967.945    20148383.000    83740879.603 8      3086.180    20148383.000    83740877.603 8      3086.180
R01  22951012.440   122686374.279 6      3979.607    22951012.860   122686374.291 6      3979.607    22951039.380    95422834.922 6      3095.250    22951038.000    95422830.923 6      3095.250
R24  21954589.680   117401039.183 7       236.118    21954588.760   117401039.182 7       236.118    21954604.540    91311982.984 7       183.647    21954604.500    91311969.977 7       183.647
G23  24576354.240   129149610.941 6       -94.359    24576352.660   129149610.946 4       -94.359    24576366.720   100636108.633 4       -73.526    24576366.920   100636119.646 7       -73.526
R16  23990776.120   128154403.923 7      6607.248    23990776.380   128154403.945 7      6607.248    23990789.840    99675700.888 7      5138.971    23990789.500    99675702.885 7      5138.971
G07  24103065.820   126662461.589 7      3106.071    24103064.440   126662461.597 6      3106.071    24103075.280    98698048.591 6      2420.315    24103075.440    98698055.589 7      2420.315
R18  22551268.120   120380231.237 7      4312.000    22551269.320   120380231.235 7      4312.000    22551285.260    93629149.033 7      3353.778    22551285.100    93629151.041 7      3353.778
> 2024 04 02 15 19 40.0000000  0 17
G02  22191854.740   116618997.183 7      4001.361    22191853.860   116618997.188 6      4001.361    22191862.480    90871989.225 6      3117.944
G26  23775381.200   124940466.211 6      -771.492    23775379.020   124940466.216 6      -771.492    23775399.160    97356266.227 6      -601.162    23775399.360    97356271.237 7      -601.162
R02  23673478.040   126326182.381 7      5785.085    23673475.660   126326182.384 6      5785.085    23673500.520    98253785.803 7      4499.510    23673501.080    98253787.806 7      4499.510
G27  21334901.500   112115640.703 8      1753.786    21334900.320   112115640.705 8      1753.786    21334911.220    87362872.700 8      1366.586    21334911.320    87362873.704 8      1366.586
R14  20210152.520   107731439.216 8      -168.273    20210152.840   107731439.216 8      -168.273    20210169.020    83791177.665 8      -130.879    20210169.240    83791175.664 8      -130.879
G16  21502857.760   112998249.386 7       397.605    21502856.100   112998249.396 6       397.605    21502868.580    88050611.962 6       309.822
G10  22467285.720   118066385.958 7      1585.509    22467284.300   118066385.966 7      1585.509    22467299.280    91999781.416 7      1235.461    22467298.840    91999834.421 8      1235.461
G21  20865191.440   109647319.423 8      3142.332    20865189.780   109647319.428 6      3142.332    20865198.200    85439506.622 6      2448.570
R17  20551081.660   109972979.423 8      2308.251    20551080.920   109972979.435 7      2308.251    20551093.960    85534592.199 8      1795.306    20551093.260    85534592.193 8      1795.306
G08  21263872.600   111742393.309 7      3434.576    21263871.560   111742393.311 8      3434.576    21263880.960    87072030.829 7      2676.293    21263881.880    87072033.830 8      2676.293
R15  20147630.500   107662816.602 8      3966.890    20147628.800   107662816.598 7      3966.890    20147640.520    83737793.822 8      3085.359    20147640.280    83737791.819 8      3085.359
R01  22950268.220   122682394.917 6      3978.931    22950267.920   122682394.924 6      3978.931    22950294.320    95419739.869 6      3094.724    22950292.920    95419735.874 6      3094.724
R24  21954545.780   117400803.091 7       235.981    21954544.720   117400803.081 7       235.981    21954560.300    91311799.344 7       183.541    21954560.100    91311786.341 7       183.541
G23  24576372.200   129149705.532 6       -94.966    24576370.600   129149705.537 4       -94.966    24576384.620   100636182.340 4       -73.999    24576384.880   100636193.351 7       -73.999
R16  23989539.240   128147796.807 7      6607.039    23989539.360   128147796.824 7      6607.039    23989552.800    99670562.015 7      5138.808    23989552.580    99670564.010 7      5138.808
G07  24102474.900   126659355.955 7      3105.214    24102473.460   126659355.957 6      3105.214    24102484.200    98695628.610 6      2419.648    24102484.620    98695635.611 7      2419.648
R18  22550460.800   120375919.533 7      4311.458    22550460.960   120375919.539 7      4311.458    22550477.600    93625795.500 7      3353.356    22550477.840    93625797.508 7      3353.356
> 2024 04 02 15 19 41.0000000  0 17
G02  22191093.520   116614995.828 7      4001.244    22191092.400   116614995.836 6      4001.244    22191101.180    90868871.290 6      3117.853
G26  23775527.860   124941237.566 6      -771.379    23775525.800   124941237.574 6      -771.379    23775545.860    97356867.279 6      -601.074    23775545.920    97356872.291 7      -601.074
R02  23672393.840   126320397.162 7      5785.216    23672391.440   126320397.163 6      5785.216    23672416.280    98249286.180 7      4499.612    23672416.740    98249288.181 7      4499.612
G27  21334567.760   112113886.824 8      1753.781    21334566.540   112113886.829 8      1753.781    21334577.480    87361506.042 8      1366.582    21334577.560    87361507.045 8      1366.582
R14  20210184.140   107731607.699 8      -168.744    20210184.340   107731607.702 8      -168.744    20210200.580    83791308.699 8      -131.245    20210200.920    83791306.698 8      -131.245
G16  21502782.140   112997851.927 7       397.287    21502780.400   112997851.934 6       397.287    21502792.980    88050302.246 6       309.574
G10  22466984.040   118064800.685 7      1584.961    22466982.620   118064800.695 7      1584.961    22466997.540    91998546.138 7      1235.034    22466997.200    91998599.147 8      1235.034
G21  20864593.600   109644177.240 8      3142.011    20864591.960   109644177.245 6      3142.011    20864600.220    85437058.172 6      2448.320
R17  20550650.320   109970671.193 8      2308.138    20550649.480   109970671.216 7      2308.138    20550662.480    85532796.915 8      1795.219    20550662.000    85532796.913 8      1795.219
G08  21263218.980   111738958.625 7      3434.649    21263218.000   111738958.628 7      3434.649    21263227.380    87069354.446 8      2676.350    21263228.240    87069357.452 8      2676.350
R15  20146888.240   107658850.048 8      3966.081    20146886.140   107658850.050 7      3966.081    20146898.220    83734708.724 8      3084.730    20146897.760    83734706.722 8      3084.730
R01  22949524.240   122678416.196 6      3978.430    22949523.380   122678416.187 6      3978.430    22949550.220    95416645.317 6      3094.335    22949548.880    95416641.309 6      3094.335
R24  21954501.740   117400566.974 7       236.229    21954500.740   117400566.965 7       236.229    21954516.200    91311615.694 7       183.733    21954515.860    91311602.687 7       183.733
G23  24576390.600   129149800.511 6       -95.252    24576388.480   129149800.522 4       -95.252    24576402.760   100636256.352 4       -74.222    24576403.140   100636267.361 7       -74.222
R16  23988302.480   128141189.968 7      6606.784    23988302.620   128141189.988 7      6606.784    23988316.160    99665423.361 7      5138.610    23988315.900    99665425.352 7      5138.610
G07  24101884.080   126656250.797 7      3104.964    24101882.600   126656250.799 6      3104.964    24101893.300    98693209.004 6      2419.453    24101893.960    98693216.009 7      2419.453
R18  22549653.000   120371608.076 7      4311.442    22549653.120   120371608.093 7      4311.442    22549669.780    93622442.158 7      3353.344    22549670.200    93622444.164 7      3353.344
> 2024 04 02 15 19 42.0000000  0 17
G02  22190332.320   116610994.973 7      4000.681    22190330.980   116610994.980 6      4000.681    22190339.860    90865753.743 6      3117.414
G26  23775674.800   124942009.219 7      -771.639    23775672.700   124942009.226 6      -771.639    23775692.820    97357468.564 6      -601.277    23775692.520    97357473.568 7      -601.277
R02  23671309.780   126314612.039 7      5785.109    23671307.300   126314612.045 6      5785.109    23671332.060    98244786.638 7      4499.529    23671332.920    98244788.637 7      4499.529
G27  21334234.240   112112133.206 8      1753.611    21334232.860   112112133.211 8      1753.611    21334243.800    87360139.582 8      1366.450    21334244.040    87360140.587 8      1366.450
R14  20210215.780   107731776.976 8      -169.538    20210216.140   107731776.974 8      -169.538    20210232.400    83791440.347 8      -131.863    20210232.820    83791438.347 8      -131.863
G16  21502706.800   112997455.022 7       396.715    21502704.860   112997455.032 6       396.715    21502717.540    88049992.963 6       309.129
G10  22466682.420   118063216.079 7      1584.336    22466681.200   118063216.084 7      1584.336    22466696.120    91997311.380 7      1234.547    22466695.800    91997364.383 8      1234.547
G21  20863995.820   109641035.628 8      3141.422    20863994.120   109641035.633 6      3141.422    20864002.440    85434610.160 6      2447.862
R17  20550219.100   109968363.316 7      2307.821    20550218.140   109968363.336 7      2307.821    20550231.260    85531001.897 8      1794.972    20550230.700    85531001.898 8      1794.972
G08  21262565.620   111735524.179 7      3434.464    21262564.400   111735524.181 7      3434.464    21262573.780    87066678.254 8      2676.206    21262574.860    87066681.253 8      2676.206
R15  20146145.980   107654884.416 8      3965.279    20146143.920   107654884.420 7      3965.279    20146156.080    83731624.342 8      3084.106    20146155.900    83731622.341 8      3084.106
R01  22948779.980   122674438.189 6      3977.559    22948778.920   122674438.182 6      3977.559    22948806.320    95413551.334 6      3093.657    22948804.740    95413547.329 6      3093.657
R24  21954457.820   117400330.927 7       236.223    21954456.520   117400330.931 7       236.223    21954471.740    91311432.102 7       183.729    21954471.920    91311419.094 7       183.729
G23  24576408.620   129149895.977 6       -95.699    24576406.560   129149895.987 4       -95.699    24576420.980   100636330.743 4       -74.571    24576421.560   100636341.746 7       -74.571
R16  23987066.000   128134583.509 7      6606.287    23987065.860   128134583.526 7      6606.287    23987079.400    99660284.998 7      5138.223    23987079.220    99660286.991 7      5138.223
G07  24101293.260   126653146.274 7      3104.312    24101291.960   126653146.284 6      3104.312    24101302.500    98690789.902 6      2418.945    24101302.960    98690796.902 7      2418.945
R18  22548845.120   120367297.031 7      4310.923    22548845.640   120367297.051 7      4310.923    22548862.200    93619089.135 7      3352.940    22548862.340    93619091.139 7      3352.940
> 2024 04 02 15 19 43.0000000  0 17
G02  22189571.060   116606994.516 7      4000.396    22189569.600   116606994.524 6      4000.396    22189578.560    90862636.510 6      3117.192
G26  23775821.580   124942781.094 6      -771.955    23775819.600   124942781.101 6      -771.955    23775839.680    97358070.023 6      -601.524    23775839.440    97358075.032 7      -601.524
R02  23670225.000   126308826.932 7      5785.212    23670223.240   126308826.938 6      5785.212    23670247.960    98240287.106 7      4499.609    23670248.720    98240289.106 7      4499.609
G27  21333900.400   112110379.808 8      1753.447    21333899.200   112110379.818 8      1753.447    21333910.080    87358773.300 8      1366.322    21333910.620    87358774.303 8      1366.322
R14  20210247.720   107731946.928 8      -170.139    20210248.060   107731946.928 8      -170.139    20210264.340    83791572.527 8      -132.330    20210264.620    83791570.528 8      -132.330
G16  21502631.000   112997058.577 7       396.410    21502629.440   112997058.590 6       396.410    21502642.100    88049684.041 6       308.891
G10  22466381.160   118061632.072 7      1583.917    22466379.840   118061632.077 7      1583.917    22466394.680    91996077.088 7      1234.221    22466394.360    91996130.090 8      1234.221
G21  20863398.060   109637894.485 7      3141.082    20863396.340   109637894.490 6      3141.082    20863404.540    85432162.521 6      2447.596
R17  20549787.980   109966055.674 7      2307.700    20549786.960   109966055.692 7      2307.700    20549800.060    85529207.061 8      1794.878    20549799.600    85529207.067 8      1794.878
G08  21261911.980   111732089.900 7      3434.354    21261911.000   111732089.905 7      3434.354    21261920.220    87064002.196 7      2676.120    21261921.020    87064005.196 8      2676.120
R15  20145404.160   107650919.652 8      3964.517    20145402.140   107650919.651 7      3964.517    20145414.180    83728540.630 8      3083.513    20145413.760    83728538.632 8      3083.513
R01  22948036.020   122670460.773 6      3977.368    22948034.760   122670460.777 6      3977.368    22948061.500    95410457.803 6      3093.508    22948060.640    95410453.804 6      3093.508
R24  21954413.740   117400094.901 7       236.228    21954412.700   117400094.902 7       236.228    21954427.660    91311248.522 7       183.733    21954427.780    91311235.513 7       183.733
G23  24576426.560   129149991.847 6       -95.838    24576424.740   129149991.857 4       -95.838    24576439.240   100636405.445 4       -74.679    24576439.900   100636416.440 7       -74.679
R16  23985829.000   128127977.301 7      6606.425    23985829.080   128127977.324 7      6606.425    23985842.800    99655146.834 7      5138.331    23985842.760    99655148.829 7      5138.331
G07  24100702.280   126650042.288 7      3103.890    24100701.280   126650042.293 6      3103.890    24100711.900    98688371.207 6      2418.616    24100712.640    98688378.211 7      2418.616
R18  22548037.540   120362986.315 7      4310.753    22548038.120   120362986.334 7      4310.753    22548054.680    93615736.360 7      3352.808    22548054.920    93615738.366 7      3352.808
> 2024 04 02 15 19 44.0000000  0 17
G02  22188809.840   116602994.436 7      3999.849    22188808.440   116602994.441 6      3999.849    22188817.360    90859519.562 6      3116.765
G26  23775968.200   124943553.098 6      -772.244    23775966.480   124943553.111 6      -772.244    23775986.580    97358671.585 6      -601.749    23775986.300    97358676.595 7      -601.749
R02  23669140.660   126303041.874 7      5784.925    23669139.540   126303041.880 6      5784.925    23669163.780    98235787.608 7      4499.386    23669164.840    98235789.605 7      4499.386
G27  21333566.820   112108626.573 8      1753.128    21333565.660   112108626.578 8      1753.128    21333576.480    87357407.132 8      1366.074    21333577.100    87357408.134 8      1366.074
R14  20210279.800   107732117.554 8      -170.962    20210279.880   107732117.554 8      -170.962    20210296.200    83791705.226 8      -132.970    20210296.840    83791703.227 8      -132.970
G16  21502555.840   112996662.584 7       395.699    21502554.100   112996662.596 6       395.699    21502566.800    88049375.466 6       308.337
G10  22466079.940   118060048.640 7      1583.213    22466078.540   118060048.650 7      1583.213    22466093.300    91994843.248 7      1233.673    22466093.060    91994896.254 8      1233.673
G21  20862800.500   109634753.806 7      3140.487    20862798.660   109634753.808 6      3140.487    20862806.780    85429715.240 6      2447.132
R17  20549356.860   109963748.260 7      2307.230    20549355.900   109963748.275 7      2307.230    20549368.720    85527412.403 8      1794.512    20549368.420    85527412.410 8      1794.512
G08  21261258.460   111728655.737 7      3434.105    21261257.440   111728655.739 7      3434.105    21261266.740    87061326.225 7      2675.926    21261267.560    87061329.225 8      2675.926
R15  20144662.380   107646955.682 8      3963.601    20144660.280   107646955.675 7      3963.601    20144672.380    83725457.540 8      3082.801    20144672.420    83725455.542 8      3082.801
R01  22947291.880   122666484.022 6      3976.404    22947291.000   122666484.015 6      3976.404    22947317.580    95407364.783 6      3092.758    22947316.680    95407360.779 6      3092.758
R24  21954369.640   117399858.846 7       236.053    21954368.380   117399858.847 7       236.053    21954383.220    91311064.913 7       183.597    21954383.520    91311051.902 7       183.597
G23  24576444.420   129150088.085 6       -96.304    24576442.960   129150088.090 4       -96.304    24576457.400   100636480.432 4       -75.042    24576458.220   100636491.433 7       -75.042
R16  23984592.200   128121371.435 7      6605.781    23984592.180   128121371.441 7      6605.781    23984606.180    99650008.930 7      5137.830    23984605.900    99650010.923 7      5137.830
G07  24100111.760   126646938.814 7      3103.248    24100110.700   126646938.816 6      3103.248    24100121.220    98685952.909 6      2418.116    24100121.680    98685959.910 7      2418.116
R18  22547229.540   120358675.902 7      4310.303    22547230.880   120358675.917 7      4310.303    22547247.200    93612383.819 7      3352.458    22547247.080    93612385.827 7      3352.458
> 2024 04 02 15 19 45.0000000  0 17
G02  22188048.620   116598994.729 7      3999.317    22188047.320   116598994.733 6      3999.317    22188056.280    90856402.911 6      3116.351
G26  23776115.040   124944325.270 6      -772.368    23776113.480   124944325.273 6      -772.368    23776133.540    97359273.269 6      -601.845    23776133.500    97359278.282 7      -601.845
R02  23668056.180   126297256.863 7      5784.871    23668055.440   126297256.874 6      5784.871    23668079.740    98231288.147 7      4499.344    23668080.760    98231290.144 7      4499.344
G27  21333233.080   112106873.499 8      1752.864    21333231.920   112106873.506 8      1752.864    21333242.900    87356041.100 8      1365.868    21333243.260    87356042.102 8      1365.868
R14  20210311.920   107732288.870 8      -171.802    20210311.980   107732288.871 8      -171.802    20210328.440    83791838.468 8      -133.624    20210328.640    83791836.466 8      -133.624
G16  21502480.520   112996267.011 7       395.249    21502478.980   112996267.024 6       395.249    21502491.380    88049067.222 6       307.986
G10  22465779.080   118058465.808 7      1582.378    22465777.320   118058465.815 7      1582.378    22465792.280    91993609.870 7      1233.021    22465792.060    91993662.876 8      1233.021
G21  20862202.820   109631613.593 8      3139.885    20862201.220   109631613.598 6      3139.885    20862209.520    85427268.319 6      2446.664
R17  20548925.620   109961441.119 7      2306.793    20548924.680   109961441.131 7      2306.793    20548937.680    85525617.956 8      1794.173    20548937.320    85525617.960 8      1794.173
G08  21260605.040   111725221.710 7      3433.907    21260603.900   111725221.713 7      3433.907    21260613.360    87058650.356 7      2675.771    21260614.240    87058653.358 8      2675.771
R15  20143920.840   107642992.551 8      3962.583    20143918.580   107642992.547 7      3962.583    20143930.720    83722375.100 8      3082.009    20143930.400    83722373.102 8      3082.009
R01  22946547.820   122662507.827 6      3975.779    22946547.360   122662507.831 6      3975.779    22946573.400    95404272.207 6      3092.273    22946572.640    95404268.198 6      3092.273
R24  21954325.340   117399622.761 7       235.889    21954324.060   117399622.757 7       235.889    21954338.920    91310881.281 7       183.469    21954339.280    91310868.268 7       183.469
G23  24576462.980   129150184.736 6       -97.009    24576461.320   129150184.746 4       -97.009    24576475.860   100636555.750 4       -75.592    24576476.220   100636566.751 7       -75.592
R16  23983355.360   128114765.793 7      6605.454    23983355.520   128114765.800 6      6605.454    23983369.440    99644871.202 7      5137.575    23983369.540    99644873.195 7      5137.575
G07  24099521.500   126643835.873 7      3102.483    24099520.180   126643835.875 6      3102.483    24099530.800    98683535.029 6      2417.520    24099531.140    98683542.036 7      2417.520
R18  22546422.220   120354365.765 7      4309.889    22546423.540   120354365.774 7      4309.889    22546439.720    93609031.479 7      3352.136    22546439.800    93609033.487 7      3352.136
> 2024 04 02 15 19 46.0000000  0 17
G02  22187287.620   116594995.260 7      3999.491    22187286.220   116594995.270 6      3999.491    22187295.240    90853286.451 6      3116.486
G26  23776261.740   124945097.508 6      -772.114    23776260.400   124945097.516 6      -772.114    23776280.440    97359875.026 6      -601.647    23776280.720    97359880.040 7      -601.647
R02  23666971.680   126291471.831 7      5785.239    23666971.760   126291471.842 6      5785.239    23666995.900    98226788.680 7      4499.630    23666996.460    98226790.679 7      4499.630
G27  21332899.440   112105120.490 7      1753.192    21332898.340   112105120.492 8      1753.192    21332909.360    87354675.111 8      1366.124    21332909.760    87354676.117 8      1366.124
R14  20210344.260   107732460.757 8      -171.953    20210344.340   107732460.747 8      -171.953    20210360.500    83791972.135 8      -133.742    20210360.880    83791970.135 8      -133.742
G16  21502405.460   112995871.782 7       395.199    21502403.660   112995871.795 6       395.199    21502416.060    88048759.245 6       307.947
G10  22465477.680   118056883.414 7      1582.319    22465476.080   118056883.416 7      1582.319    22465491.100    91992376.834 7      1232.976    22465490.960    91992429.844 8      1232.976
G21  20861605.340   109628473.720 7      3139.893    20861603.620   109628473.725 6      3139.893    20861611.920    85424821.663 6      2446.670
R17  20548494.720   109959134.098 8      2307.155    20548493.540   109959134.110 7      2307.155    20548506.460    85523823.602 8      1794.454    20548506.260    85523823.602 8      1794.454
G08  21259951.680   111721787.731 7      3434.139    21259950.360   111721787.728 7      3434.139    21259959.820    87055974.522 7      2675.953    21259960.600    87055977.524 8      2675.953
R15  20143179.480   107639030.111 8      3962.309    20143177.040   107639030.107 8      3962.309    20143189.260    83719293.201 8      3081.796    20143189.200    83719291.205 8      3081.796
R01  22945804.000   122658532.126 6      3975.783    22945803.240   122658532.133 6      3975.783    22945830.000    95401180.014 6      3092.276    22945829.160    95401176.017 6      3092.276
R24  21954280.980   117399386.498 7       236.432    21954279.460   117399386.496 7       236.432    21954294.640    91310697.523 7       183.891    21954295.140    91310684.511 7       183.891
G23  24576481.320   129150281.620 6       -96.801    24576479.660   129150281.631 4       -96.801    24576494.180   100636631.242 4       -75.430    24576494.780   100636642.241 7       -75.430
R16  23982118.740   128108160.285 7      6605.593    23982119.520   128108160.305 6      6605.593    23982132.680    99639733.578 7      5137.684    23982132.860    99639735.575 7      5137.684
G07  24098931.220   126640733.271 7      3102.658    24098929.700   126640733.276 6      3102.658    24098940.420    98681117.420 6      2417.656    24098940.780    98681124.418 7      2417.656
R18  22545615.100   120350055.755 7      4310.071    22545616.260   120350055.754 7      4310.071    22545632.400    93605679.260 7      3352.277    22545632.580    93605681.266 7      3352.277
> 2024 04 02 15 19 47.0000000  0 17
G02  22186526.500   116590996.220 7      3998.793    22186525.340   116590996.225 6      3998.793    22186534.180    90850170.322 6      3115.942
G26  23776408.920   124945869.983 6      -772.663    23776407.460   124945869.990 6      -772.663    23776427.480    97360476.952 6      -602.075    23776427.640    97360481.956 7      -602.075
R02  23665887.880   126285686.908 7      5784.873    23665887.420   126285686.917 6      5784.873    23665911.660    98222289.299 7      4499.346    23665912.080    98222291.297 7      4499.346
G27  21332565.880   112103367.699 7      1752.618    21332564.820   112103367.701 8      1752.618    21332575.760    87353309.296 8      1365.676    21332576.240    87353310.299 8      1365.676
R14  20210377.160   107732633.379 8      -172.995    20210376.760   107732633.372 8      -172.995    20210393.020    83792106.390 8      -134.551    20210393.280    83792104.393 8      -134.551
G16  21502330.440   112995477.029 7       394.438    21502328.600   112995477.042 6       394.438    21502341.120    88048451.637 6       307.355
G10  22465176.860   118055301.651 7      1581.396    22465175.180   118055301.664 7      1581.396    22465190.120    91991144.299 7      1232.257    22465189.680    91991197.307 8      1232.257
G21  20861007.960   109625334.359 8      3139.093    20861006.220   109625334.362 6      3139.093    20861014.520    85422375.412 6      2446.046
R17  20548063.840   109956827.387 8      2306.579    20548062.620   109956827.407 7      2306.579    20548075.480    85522029.502 8      1794.006    20548075.380    85522029.502 8      1794.006
G08  21259298.180   111718353.907 7      3433.688    21259297.100   111718353.902 7      3433.688    21259306.460    87053298.813 8      2675.601    21259307.340    87053301.815 8      2675.601
R15  20142438.560   107635068.572 8      3961.078    20142435.680   107635068.566 7      3961.078    20142447.940    83716212.000 8      3080.838    20142447.620    83716210.001 8      3080.838
R01  22945060.420   122654557.129 6      3974.629    22945059.240   122654557.127 6      3974.629    22945085.780    95398088.358 6      3091.378    22945085.020    95398084.353 6      3091.378
R24  21954236.180   117399150.266 7       236.175    21954235.540   117399150.262 7       236.175    21954250.320    91310513.773 7       183.691    21954251.100    91310500.763 7       183.691
G23  24576500.220   129150378.975 6       -97.542    24576498.080   129150378.985 4       -97.542    24576512.760   100636707.099 4       -76.007    24576513.400   100636718.096 7       -76.007
R16  23980882.640   128101555.070 7      6605.047    23980883.020   128101555.064 7      6605.047    23980896.160    99634596.177 7      5137.259    23980896.140    99634598.174 7      5137.259
G07  24098341.080   126637631.287 7      3101.776    24098339.400   126637631.291 6      3101.776    24098350.100    98678700.287 6      2416.968    24098350.720    98678707.281 7      2416.968
R18  22544807.740   120345746.096 7      4309.513    22544808.880   120345746.094 7      4309.513    22544825.160    93602327.298 7      3351.843    22544825.040    93602329.307 7      3351.843
> 2024 04 02 15 19 48.0000000  0 17
G02  22185765.860   116586997.590 7      3998.218    22185764.520   116586997.598 6      3998.218    22185773.360    90847054.508 6      3115.494
G26  23776556.140   124946642.641 6      -773.049    23776554.520   124946642.654 6      -773.049    23776574.480    97361079.015 6      -602.376    23776574.520    97361084.021 7      -602.376
R02  23664803.700   126279902.063 7      5784.464    23664803.720   126279902.066 7      5784.464    23664827.780    98217789.965 7      4499.027    23664828.500    98217791.962 7      4499.027
G27  21332232.340   112101615.084 7      1752.320    21332231.300   112101615.089 8      1752.320    21332242.240    87351943.616 8      1365.444    21332242.740    87351944.619 8      1365.444
R14  20210409.340   107732806.681 8      -173.849    20210409.400   107732806.676 8      -173.849    20210425.500    83792241.172 8      -135.216    20210425.840    83792239.173 8      -135.216
G16  21502255.260   112995082.749 7       393.842    21502253.540   112995082.759 6       393.842    21502266.200    88048144.398 6       306.890
G10  22464875.800   118053720.484 7      1580.656    22464874.360   118053720.492 7      1580.656    22464889.200    91989912.219 7      1231.680    22464888.960    91989965.227 8      1231.680
G21  20860410.700   109622195.479 8      3138.364    20860408.980   109622195.482 6      3138.364    20860417.180    85419929.533 6      2445.478
R17  20547632.660   109954520.915 7      2306.172    20547631.540   109954520.930 7      2306.172    20547644.420    85520235.575 8      1793.690    20547644.260    85520235.575 8      1793.690
G08  21258644.700   111714920.233 7      3433.385    21258643.700   111714920.230 7      3433.385    21258653.040    87050623.223 8      2675.365    21258653.940    87050626.225 8      2675.365
R15  20141696.800   107631107.907 8      3960.031    20141694.360   107631107.900 7      3960.031    20141706.620    83713131.480 8      3080.024    20141706.600    83713129.482 8      3080.024
R01  22944316.520   122650582.703 6      3973.977    22944316.200   122650582.699 6      3973.977    22944341.940    95394997.151 6      3090.871    22944341.540    95394993.156 6      3090.871
R24  21954192.500   117398913.997 7       235.964    21954191.780   117398913.990 7       235.964    21954205.900    91310330.004 7       183.527    21954206.460    91310316.994 7       183.527
G23  24576518.060   129150476.679 6       -97.942    24576516.700   129150476.690 4       -97.942    24576531.420   100636783.230 4       -76.318    24576531.960   100636794.235 7       -76.318
R16  23979645.840   128094950.112 7      6604.536    23979646.440   128094950.116 7      6604.536    23979659.820    99629458.989 7      5136.861    23979659.980    99629460.982 7      5136.861
G07  24097750.560   126634529.825 7      3100.992    24097749.220   126634529.827 6      3100.992    24097760.120    98676283.557 6      2416.357    24097761.100    98676290.554 7      2416.357
R18  22544000.580   120341436.780 7      4308.896    22544001.780   120341436.784 7      4308.896    22544017.740    93598975.615 7      3351.363    22544018.080    93598977.621 7      3351.363
> 2024 04 02 15 19 49.0000000  0 17
G02  22185005.120   116582999.362 7      3998.025    22185003.540   116582999.367 6      3998.025    22185012.480    90843939.006 6      3115.344
G26  23776703.280   124947415.499 6      -772.987    23776701.580   124947415.509 6      -772.987    23776721.480    97361681.240 6      -602.327    23776721.520    97361686.246 7      -602.327
R02  23663719.980   126274117.170 7      5784.829    23663719.800   126274117.184 7      5784.829    23663743.560    98213290.595 7      4499.311    23663744.240    98213292.597 7      4499.311
G27  21331898.920   112099862.685 7      1752.284    21331897.840   112099862.690 8      1752.284    21331908.820    87350578.108 8      1365.416    21331909.240    87350579.113 8      1365.416
R14  20210441.840   107732980.654 8      -174.337    20210441.780   107732980.652 8      -174.337    20210458.180    83792376.479 8      -135.595    20210458.400    83792374.482 8      -135.595
G16  21502180.120   112994688.947 7       393.477    21502178.680   112994688.955 6       393.477    21502191.360    88047837.533 6       306.605
G10  22464574.960   118052139.927 7      1580.244    22464573.440   118052139.935 7      1580.244    22464588.420    91988680.619 7      1231.359    22464588.080    91988733.624 8      1231.359
G21  20859813.420   109619057.078 8      3138.169    20859811.700   109619057.083 6      3138.169    20859820.020    85417484.025 6      2445.326
R17  20547201.540   109952214.731 8      2305.970    20547200.260   109952214.746 7      2305.970    20547213.360    85518441.877 8      1793.533    20547212.800    85518441.877 8      1793.533
G08  21257991.200   111711486.745 7      3433.289    21257990.340   111711486.740 8      3433.289    21257999.640    87047947.780 7      2675.290    21258000.620    87047950.780 8      2675.290
R15  20140955.780   107627148.134 8      3959.242    20140953.240   107627148.133 8      3959.242    20140965.620    83710051.663 8      3079.410    20140965.820    83710049.667 8      3079.410
R01  22943573.060   122646608.946 6      3973.319    22943572.420   122646608.963 6      3973.319    22943598.660    95391906.473 6      3090.359    22943598.520    95391902.476 6      3090.359
R24  21954148.540   117398677.728 7       236.215    21954147.820   117398677.732 7       236.215    21954161.780    91310146.239 7       183.723    21954162.340    91310133.232 7       183.723
G23  24576536.900   129150574.862 6       -98.471    24576535.520   129150574.872 4       -98.471    24576550.040   100636859.736 4       -76.730    24576550.860   100636870.743 7       -76.730
R16  23978409.760   128088345.478 7      6604.421    23978410.220   128088345.487 7      6604.421    23978423.340    99624322.049 7      5136.772    23978423.420    99624324.038 7      5136.772
G07  24097160.560   126631428.910 7      3100.622    24097159.180   126631428.918 6      3100.622    24097169.780    98673867.262 6      2416.069    24097170.660    98673874.267 7      2416.069
R18  22543193.240   120337127.761 7      4308.796    22543194.320   120337127.775 7      4308.796    22543210.800    93595624.176 7      3351.286    22543210.660    93595626.186 7      3351.286
> 2024 04 02 15 19 50.0000000  0 17
G02  22184244.280   116579001.697 7      3997.432    22184242.660   116579001.699 6      3997.432    22184251.640    90840823.948 6      3114.882
G26  23776850.700   124948188.720 6      -773.363    23776848.640   124948188.730 6      -773.363    23776868.660    97362283.746 6      -602.620    23776869.220    97362288.750 7      -602.620
R02  23662636.140   126268332.442 7      5784.707    23662635.780   126268332.456 7      5784.707    23662659.460    98208791.362 7      4499.217    23662660.160    98208793.364 7      4499.217
G27  21331565.540   112098110.638 8      1751.933    21331564.420   112098110.643 8      1751.933    21331575.440    87349212.872 8      1365.143    21331575.940    87349213.874 8      1365.143
R14  20210474.680   107733155.470 8      -175.158    20210474.740   107733155.468 8      -175.158    20210490.980    83792512.438 8      -136.234    20210491.240    83792510.441 8      -136.234
G16  21502105.420   112994295.739 7       392.934    21502103.820   112994295.755 6       392.934    21502116.520    88047531.135 6       306.183
G10  22464274.340   118050560.135 7      1579.504    22464273.000   118050560.140 7      1579.504    22464287.840    91987449.607 7      1230.782    22464287.440    91987502.615 8      1230.782
G21  20859216.280   109615919.328 8      3137.496    20859214.520   109615919.332 6      3137.496    20859222.800    85415039.029 6      2444.802
R17  20546770.720   109949908.968 7      2305.580    20546769.500   109949908.983 7      2305.580    20546782.640    85516648.503 8      1793.229    20546782.200    85516648.503 8      1793.229
G08  21257337.820   111708053.552 7      3433.030    21257337.040   111708053.551 7      3433.030    21257346.400    87045272.562 7      2675.088    21257347.320    87045275.568 8      2675.088
R15  20140214.920   107623189.379 8      3958.242    20140212.300   107623189.378 7      3958.242    20140224.920    83706972.632 8      3078.633    20140224.940    83706970.633 8      3078.633
R01  22942829.980   122642635.985 6      3972.602    22942829.440   122642635.997 6      3972.602    22942855.160    95388816.403 6      3089.802    22942854.900    95388812.408 6      3089.802
R24  21954104.080   117398441.668 7       235.945    21954104.300   117398441.677 7       235.945    21954117.420    91309962.636 7       183.513    21954118.380    91309949.629 7       183.513
G23  24576555.900   129150673.594 6       -98.920    24576554.460   129150673.601 4       -98.920    24576568.840   100636936.668 4       -77.080    24576569.420   100636947.656 7       -77.080
R16  23977173.360   128081741.291 7      6604.083    23977174.040   128081741.308 7      6604.083    23977187.520    99619185.460 7      5136.509    23977187.180    99619187.448 7      5136.509
G07  24096570.180   126628328.673 7      3100.046    24096569.060   126628328.678 6      3100.046    24096579.740    98671451.487 6      2415.621    24096581.040    98671458.493 7      2415.621
R18  22542386.120   120332819.217 7      4308.432    22542386.880   120332819.218 7      4308.432    22542403.620    93592273.078 7      3351.003    22542403.760    93592275.082 7      3351.003
> 2024 04 02 15 19 51.0000000  0 17
G02  22183483.840   116575004.362 7      3997.216    22183482.120   116575004.364 6      3997.216    22183490.880    90837709.148 6      3114.714
G26  23776997.660   124948962.090 6      -773.439    23776995.980   124948962.098 6      -773.439    23777015.760    97362886.366 6      -602.680    23777016.040    97362891.374 7      -602.680
R02  23661552.180   126262547.738 7      5784.758    23661551.480   126262547.744 7      5784.758    23661575.420    98204292.138 7      4499.256    23661575.840    98204294.139 7      4499.256
G27  21331232.140   112096358.730 8      1751.887    21331231.040   112096358.735 8      1751.887    21331242.040    87347847.747 8      1365.107    21331242.620    87347848.746 8      1365.107
R14  20210507.780   107733330.934 8      -175.776    20210507.620   107733330.926 8      -175.776    20210523.900    83792648.897 8      -136.715    20210524.300    83792646.898 8      -136.715
G16  21502030.520   112993902.970 7       392.611    21502029.100   112993902.978 6       392.611    21502041.680    88047225.075 6       305.930
G10  22463973.680   118048980.892 7      1579.039    22463972.420   118048980.894 7      1579.039    22463987.340    91986219.028 7      1230.420    22463987.240    91986272.034 8      1230.420
G21  20858619.360   109612782.000 8      3137.193    20858617.540   109612782.005 6      3137.193    20858625.960    85412594.363 6      2444.566
R17  20546339.800   109947603.408 8      2305.481    20546338.760   109947603.417 7      2305.481    20546351.840    85514855.286 8      1793.152    20546351.220    85514855.288 8      1793.152
G08  21256684.460   111704620.458 7      3433.118    21256683.720   111704620.458 7      3433.118    21256693.020    87042597.420 7      2675.157    21256693.960    87042600.424 8      2675.157
R15  20139474.200   107619231.402 8      3957.655    20139471.700   107619231.398 7      3957.655    20139484.160    83703894.199 8      3078.176    20139484.220    83703892.200 8      3078.176
R01  22942086.660   122638663.620 6      3972.173    22942086.460   122638663.624 6      3972.173    22942112.340    95385726.794 6      3089.468    22942112.040    95385722.797 6      3089.468
R24  21954059.560   117398205.511 7       236.190    21954060.160   117398205.528 7       236.190    21954073.280    91309778.959 7       183.703    21954074.300    91309765.952 7       183.703
G23  24576574.940   129150772.669 6       -99.262    24576573.500   129150772.674 4       -99.262    24576587.840   100637013.868 4       -77.347    24576588.260   100637024.864 7       -77.347
R16  23975936.680   128075137.362 7      6603.937    23975937.800   128075137.389 7      6603.937    23975951.320    99614049.066 7      5136.396    23975951.080    99614051.061 7      5136.396
G07  24095980.540   126625228.935 7      3099.589    24095979.300   126625228.943 6      3099.589    24095990.020    98669036.111 6      2415.265    24095990.860    98669043.117 7      2415.265
R18  22541579.140   120328510.913 7      4308.320    22541579.680   120328510.911 7      4308.320    22541596.660    93588922.181 7      3350.915    22541596.800    93588924.189 7      3350.915
> 2024 04 02 15 19 52.0000000  0 17
G02  22182723.000   116571007.419 7      3996.761    22182721.520   116571007.426 6      3996.761    22182730.340    90834594.655 6      3114.359
G26  23777145.000   124949735.616 6      -773.546    23777142.880   124949735.623 6      -773.546    23777162.940    97363489.113 6      -602.763    23777163.280    97363494.119 7      -602.763
R02  23660468.040   126256763.146 7      5784.498    23660467.780   126256763.166 7      5784.498    23660491.400    98199793.011 7      4499.054    23660491.820    98199795.014 7      4499.054
G27  21330898.860   112094607.011 7      1751.541    21330897.780   112094607.018 8      1751.541    21330908.620    87346482.773 8      1364.837    21330909.360    87346483.771 8      1364.837
R14  20210540.560   107733507.090 8      -176.523    20210540.600   107733507.083 8      -176.523    20210556.960    83792785.902 8      -137.296    20210557.500    83792783.905 8      -137.296
G16  21501955.920   112993510.653 7       392.029    21501954.480   112993510.663 6       392.029    21501967.200    88046919.367 6       305.477
G10  22463673.300   118047402.232 7      1578.375    22463671.980   118047402.242 7      1578.375    22463686.920    91984988.910 7      1229.902    22463686.740    91985041.916 8      1229.902
G21  20858022.320   109609645.157 7      3136.572    20858020.600   109609645.162 6      3136.572    20858029.040    85410150.069 6      2444.082
R17  20545909.340   109945298.105 7      2305.157    20545908.140   109945298.114 7      2305.157    20545921.080    85513062.276 8      1792.900    20545920.700    85513062.279 8      1792.900
G08  21256031.180   111701187.519 7      3432.907    21256030.380   111701187.519 8      3432.907    21256039.820    87039922.407 8      2674.992    21256040.640    87039925.411 8      2674.992
R15  20138733.820   107615274.264 8      3956.753    20138731.160   107615274.257 8      3956.753    20138743.680    83700816.426 8      3077.475    20138743.400    83700814.432 8      3077.475
R01  22941344.660   122634691.899 6      3971.493    22941343.380   122634691.887 6      3971.493    22941369.200    95382637.678 6      3088.939    22941369.140    95382633.681 6      3088.939
R24  21954015.360   117397969.317 7       236.242    21954016.060   117397969.334 7       236.242    21954029.400    91309595.248 7       183.744    21954030.180    91309582.243 7       183.744
G23  24576593.920   129150872.137 6       -99.626    24576592.600   129150872.139 4       -99.626    24576606.880   100637091.370 4       -77.630    24576607.060   100637102.367 7       -77.630
R16  23974700.540   128068533.723 7      6603.622    23974701.540   128068533.740 7      6603.622    23974715.700    99608912.896 7      5136.150    23974715.180    99608914.891 7      5136.150
G07  24095391.040   126622129.718 7      3099.041    24095389.580   126622129.722 6      3099.041    24095400.220    98666621.136 6      2414.837    24095400.900    98666628.130 7      2414.837
R18  22540772.120   120324202.927 7      4307.853    22540772.460   120324202.944 7      4307.853    22540789.500    93585571.544 7      3350.552    22540789.960    93585573.550 7      3350.552
> 2024 04 02 15 19 53.0000000  0 17
G02  22181962.540   116567010.867 7      3996.329    22181960.900   116567010.869 6      3996.329    22181969.900    90831480.455 6      3114.023
G26  23777291.980   124950509.346 6      -773.938    23777290.240   124950509.356 6      -773.938    23777310.320    97364092.013 6      -603.069    23777310.320    97364097.022 7      -603.069
R02  23659384.280   126250978.693 7      5784.261    23659383.940   126250978.697 7      5784.261    23659407.400    98195293.973 7      4498.869    23659408.000    98195295.975 7      4498.869
G27  21330565.560   112092855.468 8      1751.293    21330564.400   112092855.473 8      1751.293    21330575.420    87345117.925 8      1364.644    21330576.100    87345118.926 8      1364.644
R14  20210573.940   107733683.966 8      -177.315    20210573.760   107733683.961 8      -177.315    20210590.200    83792923.462 8      -137.912    20210590.540    83792921.462 8      -137.912
G16  21501881.140   112993118.769 7       391.605    21501879.840   112993118.784 6       391.605    21501892.440    88046613.995 6       305.147
G10  22463373.100   118045824.166 7      1577.683    22463371.700   118045824.173 7      1577.683    22463386.700    91983759.244 7      1229.363    22463386.440    91983812.249 8      1229.363
G21  20857425.380   109606508.783 7      3135.988    20857423.620   109606508.791 6      3135.988    20857432.260    85407706.142 6      2443.627
R17  20545478.400   109942993.056 7      2304.923    20545477.280   109942993.071 7      2304.923    20545490.320    85511269.458 8      1792.718    20545489.840    85511269.459 8      1792.718
G08  21255378.020   111697754.741 7      3432.583    21255377.160   111697754.741 8      3432.583    21255386.500    87037247.509 8      2674.740    21255387.220    87037250.513 8      2674.740
R15  20137993.640   107611317.991 8      3955.796    20137990.480   107611317.979 7      3955.796    20138003.440    83697739.317 8      3076.730    20138003.200    83697737.323 8      3076.730
R01  22940601.960   122630720.801 6      3970.678    22940599.900   122630720.803 6      3970.678    22940626.340    95379549.071 6      3088.305    22940626.120    95379545.080 6      3088.305
R24  21953971.480   117397733.093 7       236.093    21953972.380   117397733.113 7       236.093    21953985.060    91309411.512 7       183.628    21953985.780    91309398.511 7       183.628
G23  24576613.220   129150971.990 6      -100.185    24576611.560   129150971.995 4      -100.185    24576625.760   100637169.182 4       -78.066    24576625.860   100637180.181 7       -78.066
R16  23973464.600   128061930.341 7      6603.221    23973465.480   128061930.355 7      6603.221    23973479.600    99603776.932 7      5135.838    23973478.980    99603778.923 7      5135.838
G07  24094801.480   126619031.039 7      3098.307    24094799.860   126619031.046 6      3098.307    24094810.640    98664206.581 6      2414.265    24094811.200    98664213.594 7      2414.265
R18  22539964.620   120319895.247 7      4307.450    22539965.600   120319895.259 7      4307.450    22539982.660    93582221.135 7      3350.239    22539982.640    93582223.145 7      3350.239
> 2024 04 02 15 19 54.0000000  0 17
G02  22181202.120   116563014.654 7      3996.150    22181200.460   116563014.659 6      3996.150    22181209.340    90828366.525 6      3113.883
G26  23777439.320   124951283.232 6      -773.987    23777437.440   124951283.239 6      -773.987    23777457.540    97364695.039 6      -603.107    23777457.800    97364700.045 7      -603.107
R02  23658300.020   126245194.269 7      5784.399    23658299.680   126245194.265 7      5784.399    23658323.540    98190794.969 7      4498.977    23658324.040    98190796.966 7      4498.977
G27  21330232.360   112091104.062 8      1751.374    21330231.120   112091104.072 8      1751.374    21330242.040    87343753.193 8      1364.707    21330242.540    87343754.192 8      1364.707
R14  20210607.140   107733861.490 8      -177.769    20210607.100   107733861.488 8      -177.769    20210623.540    83793061.532 8      -138.265    20210623.840    83793059.532 8      -138.265
G16  21501806.660   112992727.319 7       391.311    21501805.480   112992727.329 6       391.311    21501817.840    88046308.958 6       304.918
G10  22463072.880   118044246.638 7      1577.311    22463071.520   118044246.646 7      1577.311    22463086.320    91982530.002 7      1229.074    22463086.160    91982583.001 8      1229.074
G21  20856828.660   109603372.833 7      3135.756    20856826.820   109603372.838 6      3135.756    20856835.380    85405262.544 6      2443.446
R17  20545047.860   109940688.256 8      2304.852    20545046.640   109940688.271 7      2304.852    20545059.620    85509476.832 8      1792.663    20545058.880    85509476.834 8      1792.663
G08  21254724.920   111694322.039 7      3432.736    21254723.880   111694322.041 7      3432.736    21254733.220    87034572.678 7      2674.860    21254733.940    87034575.682 8      2674.860
R15  20137253.560   107607362.539 8      3955.120    20137250.400   107607362.532 7      3955.120    20137263.120    83694662.854 8      3076.205    20137263.020    83694660.858 8      3076.205
R01  22939859.160   122626750.297 6      3970.155    22939857.260   122626750.314 6      3970.155    22939883.380    95376460.928 6      3087.898    22939883.100    95376456.929 6      3087.898
R24  21953927.140   117397496.800 7       236.383    21953928.520   117397496.825 7       236.383    21953941.060    91309227.729 7       183.854    21953941.700    91309214.732 7       183.854
G23  24576632.100   129151072.209 6      -100.407    24576630.680   129151072.214 4      -100.407    24576644.880   100637247.273 4       -78.240    24576645.020   100637258.278 7       -78.240
R16  23972228.660   128055327.183 7      6603.107    23972228.780   128055327.200 7      6603.107    23972243.220    99598641.145 7      5135.750    23972243.080    99598643.140 7      5135.750
G07  24094211.680   126615932.838 7      3097.979    24094210.280   126615932.843 6      3097.979    24094221.060    98661792.397 6      2414.010    24094221.520    98661799.409 7      2414.010
R18  22539157.960   120315587.814 7      4307.365    22539158.880   120315587.825 7      4307.365    22539175.680    93578870.911 7      3350.173    22539175.800    93578872.917 7      3350.173
> 2024 04 02 15 19 55.0000000  0 17
G02  22180441.660   116559018.886 7      3995.400    22180439.940   116559018.893 6      3995.400    22180448.960    90825252.947 6      3113.299
G26  23777586.360   124952057.319 6      -774.450    23777584.900   124952057.322 6      -774.450    23777604.880    97365298.222 6      -603.467    23777605.260    97365303.224 7      -603.467
R02  23657216.420   126239409.888 7      5784.134    23657215.840   126239409.884 7      5784.134    23657239.400    98186296.008 7      4498.771    23657240.100    98186298.005 7      4498.771
G27  21329899.060   112089352.887 7      1750.848    21329897.860   112089352.895 8      1750.848    21329908.860    87342388.635 8      1364.297    21329909.320    87342389.638 8      1364.297
R14  20210640.640   107734039.739 8      -178.850    20210640.540   107734039.742 8      -178.850    20210656.960    83793200.161 8      -139.106    20210657.220    83793198.164 8      -139.106
G16  21501732.340   112992336.355 7       390.494    21501731.120   112992336.367 6       390.494    21501743.540    88046004.307 6       304.281
G10  22462772.680   118042669.773 7      1576.314    22462771.580   118042669.775 7      1576.314    22462786.280    91981301.273 7      1228.296    22462786.240    91981354.279 8      1228.296
G21  20856231.820   109600237.390 7      3135.037    20856230.360   109600237.397 6      3135.037    20856238.700    85402819.348 6      2442.886
R17  20544616.880   109938383.734 8      2304.187    20544615.920   109938383.754 7      2304.187    20544628.960    85507684.430 8      1792.145    20544628.380    85507684.434 8      1792.145
G08  21254071.820   111690889.544 7      3432.230    21254070.760   111690889.541 7      3432.230    21254080.140    87031898.007 7      2674.465    21254080.880    87031901.013 8      2674.465
R15  20136513.320   107603407.976 7      3953.941    20136510.240   107603407.969 7      3953.941    20136523.000    83691587.081 8      3075.288    20136522.820    83691585.083 8      3075.288
R01  22939115.820   122622780.466 6      3969.307    22939114.220   122622780.467 6      3969.307    22939141.080    95373373.286 6      3087.239    22939140.820    95373369.295 6      3087.239
R24  21953883.120   117397260.555 7       236.047    21953884.240   117397260.578 7       236.047    21953897.140    91309043.977 7       183.592    21953897.680    91309030.984 7       183.592
G23  24576651.120   129151172.880 6      -101.171    24576649.720   129151172.882 4      -101.171    24576664.160   100637325.712 4       -78.835    24576663.840   100637336.715 7       -78.835
R16  23970992.560   128048724.324 7      6602.526    23970992.680   128048724.331 7      6602.526    23971006.940    99593505.575 7      5135.298    23971006.920    99593507.575 7      5135.298
G07  24093622.100   126612835.218 7      3097.043    24093620.820   126612835.231 6      3097.043    24093631.560    98659378.667 6      2413.280    24093632.000    98659385.675 7      2413.280
R18  22538351.260   120311280.716 7      4306.711    22538352.000   120311280.733 7      4306.711    22538368.740    93575520.958 7      3349.664    22538368.940    93575522.965 7      3349.664
> 2024 04 02 15 19 56.0000000  0 17
G02  22179681.260   116555023.684 7      3994.811    22179679.740   116555023.692 6      3994.811    22179688.600    90822139.805 6      3112.839
G26  23777734.040   124952831.788 6      -774.778    23777732.260   124952831.793 6      -774.778    23777752.220    97365901.694 6      -603.723    23777751.900    97365906.692 7      -603.723
R02  23656132.560   126233625.651 7      5783.983    23656131.860   126233625.658 7      5783.983    23656155.320    98181797.157 7      4498.654    23656156.040    98181799.158 7      4498.654
G27  21329565.820   112087602.080 7      1750.493    21329564.800   112087602.085 8      1750.493    21329575.700    87341024.359 8      1364.021    21329576.100    87341025.359 8      1364.021
R14  20210674.400   107734218.798 8      -179.638    20210674.200   107734218.798 8      -179.638    20210690.560    83793339.417 8      -139.718    20210690.860    83793337.420 8      -139.718
G16  21501657.880   112991946.026 7       389.780    21501656.940   112991946.039 6       389.780    21501669.460    88045700.147 6       303.725
G10  22462472.920   118041093.635 7      1575.599    22462471.600   118041093.648 7      1575.599    22462486.420    91980073.120 7      1227.740    22462486.220    91980126.122 8      1227.740
G21  20855635.400   109597102.609 8      3134.358    20855633.700   109597102.614 6      3134.358    20855642.180    85400376.663 6      2442.357
R17  20544186.200   109936079.613 8      2303.739    20544185.320   109936079.625 7      2303.739    20544198.380    85505892.332 8      1791.797    20544197.900    85505892.334 8      1791.797
G08  21253418.700   111687457.376 8      3431.835    21253417.740   111687457.375 8      3431.835    21253427.020    87029223.588 8      2674.157    21253427.940    87029226.591 8      2674.157
R15  20135773.320   107599454.431 8      3952.891    20135770.400   107599454.427 7      3952.891    20135783.120    83688512.098 8      3074.471    20135782.960    83688510.099 8      3074.471
R01  22938373.160   122618811.423 6      3968.389    22938371.860   122618811.446 6      3968.389    22938398.140    95370286.282 6      3086.525    22938398.180    95370282.293 6      3086.525
R24  21953838.940   117397024.465 7       235.819    21953839.900   117397024.491 7       235.819    21953853.060    91308860.351 7       183.415    21953853.640    91308847.354 7       183.415
G23  24576670.220   129151274.094 6      -101.555    24576669.020   129151274.099 4      -101.555    24576683.300   100637404.576 4       -79.134    24576683.280   100637415.575 7       -79.134
R16  23969756.600   128042121.903 6      6601.991    23969755.960   128042121.907 7      6601.991    23969770.740    99588370.359 7      5134.882    23969771.140    99588372.359 7      5134.882
G07  24093032.380   126609738.297 7      3096.330    24093031.380   126609738.307 6      3096.330    24093042.360    98656965.479 6      2412.725    24093042.960    98656972.488 7      2412.725
R18  22537544.100   120306974.128 7      4306.205    22537545.360   120306974.135 7      4306.205    22537561.940    93572171.388 7      3349.270    22537561.980    93572173.390 7      3349.270
> 2024 04 02 15 19 57.0000000  0 17
G02  22178921.120   116551028.809 7      3994.667    22178919.560   116551028.817 6      3994.667    22178928.400    90819026.919 6      3112.728
G26  23777881.180   124953606.364 6      -774.617    23777879.680   124953606.372 6      -774.617    23777899.620    97366505.258 6      -603.598    23777899.140    97366510.262 7      -603.598
R02  23655048.840   126227841.345 7      5784.390    23655047.840   126227841.349 7      5784.390    23655071.400    98177298.244 7      4498.970    23655071.880    98177300.247 7      4498.970
G27  21329232.920   112085851.394 7      1750.624    21329231.660   112085851.399 8      1750.624    21329242.500    87339660.186 8      1364.123    21329242.840    87339661.190 8      1364.123
R14  20210707.860   107734398.459 8      -179.913    20210707.940   107734398.454 8      -179.913    20210724.360    83793479.141 8      -139.932    20210724.560    83793477.142 8      -139.932
G16  21501583.900   112991556.079 7       389.828    21501582.680   112991556.087 6       389.828    21501595.160    88045396.280 6       303.762
G10  22462172.920   118039518.060 7      1575.303    22462171.700   118039518.068 7      1575.303    22462186.520    91978845.399 7      1227.509    22462186.620    91978898.399 8      1227.509
G21  20855038.860   109593968.248 8      3134.196    20855037.300   109593968.256 6      3134.196    20855045.760    85397934.306 6      2442.231
R17  20543755.880   109933775.680 8      2303.939    20543754.840   109933775.692 7      2303.939    20543767.820    85504100.380 8      1791.953    20543767.640    85504100.380 8      1791.953
G08  21252765.280   111684025.283 7      3432.072    21252764.560   111684025.285 7      3432.072    21252773.940    87026549.232 7      2674.342    21252774.580    87026552.234 8      2674.342
R15  20135033.640   107595501.680 7      3952.394    20135030.780   107595501.670 7      3952.394    20135043.400    83685437.733 8      3074.085    20135043.360    83685435.733 8      3074.085
R01  22937630.560   122614842.950 6      3968.183    22937628.980   122614842.972 6      3968.183    22937655.720    95367199.712 6      3086.364    22937655.440    95367195.713 6      3086.364
R24  21953794.660   117396788.317 7       236.166    21953795.860   117396788.329 7       236.166    21953808.960    91308676.665 7       183.685    21953809.360    91308663.666 7       183.685
G23  24576689.540   129151375.640 6      -101.662    24576688.360   129151375.645 4      -101.662    24576702.520   100637483.705 4       -79.217    24576702.580   100637494.720 7       -79.217
R16  23968520.700   128035519.702 7      6602.063    23968519.660   128035519.703 6      6602.063    23968534.440    99583235.320 7      5134.938    23968535.080    99583237.319 7      5134.938
G07  24092443.460   126606641.838 7      3096.216    24092442.240   126606641.848 6      3096.216    24092453.100    98654552.648 6      2412.636    24092454.120    98654559.653 7      2412.636
R18  22536737.820   120302667.773 7      4306.291    22536738.540   120302667.782 7      4306.291    22536755.200    93568822.015 7      3349.337    22536755.200    93568824.019 7      3349.337
> 2024 04 02 15 19 58.0000000  0 17
G02  22178160.840   116547034.157 7      3994.635    22178159.400   116547034.167 6      3994.635    22178168.280    90815914.208 6      3112.702
G26  23778028.580   124954380.999 6      -774.481    23778027.180   124954381.004 6      -774.481    23778047.100    97367108.867 6      -603.492    23778046.800    97367113.861 7      -603.492
R02  23653964.860   126222056.948 7      5784.592    23653964.100   126222056.944 7      5784.592    23653987.320    98172799.262 7      4499.127    23653987.740    98172801.261 7      4499.127
G27  21328899.840   112084100.726 7      1750.767    21328898.560   112084100.739 8      1750.767    21328909.360    87338296.032 8      1364.234    21328909.820    87338297.037 8      1364.234
R14  20210741.580   107734578.664 8      -180.350    20210741.720   107734578.659 8      -180.350    20210758.280    83793619.296 8      -140.272    20210758.540    83793617.301 8      -140.272
G16  21501509.920   112991166.460 7       389.539    21501508.520   112991166.465 6       389.539    21501520.820    88045092.674 6       303.537
G10  22461873.200   118037942.921 7      1575.015    22461871.960   118037942.921 7      1575.015    22461886.800    91977618.014 7      1227.285    22461886.840    91977671.016 8      1227.285
G21  20854442.680   109590834.219 7      3133.931    20854440.960   109590834.226 6      3133.931    20854449.280    85395492.203 6      2442.024
R17  20543325.620   109931471.880 8      2303.840    20543324.060   109931471.901 7      2303.840    20543337.320    85502308.546 8      1791.876    20543336.880    85502308.542 8      1791.876
G08  21252112.460   111680593.190 8      3432.262    21252111.420   111680593.190 7      3432.262    21252120.920    87023874.870 7      2674.490    21252121.680    87023877.876 8      2674.490
R15  20134293.860   107591549.626 7      3951.864    20134290.940   107591549.616 7      3951.864    20134303.800    83682363.912 8      3073.672    20134303.880    83682361.911 8      3073.672
R01  22936888.560   122610874.942 6      3967.879    22936887.220   122610874.951 6      3967.879    22936913.560    95364113.498 6      3086.128    22936913.140    95364109.489 6      3086.128
R24  21953750.820   117396551.978 7       236.590    21953751.360   117396551.987 7       236.590    21953764.780    91308492.842 7       184.014    21953765.280    91308479.843 7       184.014
G23  24576709.340   129151477.483 6      -102.013    24576708.000   129151477.485 4      -102.013    24576721.820   100637563.067 4       -79.491    24576721.760   100637574.078 7       -79.491
R16  23967284.360   128028917.655 7      6602.072    23967284.340   128028917.651 6      6602.072    23967298.420    99578100.388 7      5134.945    23967299.080    99578102.385 7      5134.945
G07  24091854.300   126603545.784 7      3095.894    24091853.040   126603545.789 6      3095.894    24091864.000    98652140.132 6      2412.385    24091864.840    98652147.147 7      2412.385
R18  22535931.280   120298361.583 7      4306.208    22535931.860   120298361.581 7      4306.208    22535947.940    93565472.752 7      3349.273    22535948.500    93565474.758 7      3349.273
> 2024 04 02 15 19 59.0000000  0 17
G02  22177400.920   116543039.931 7      3993.932    22177399.220   116543039.938 6      3993.932    22177408.280    90812801.830 6      3112.155
G26  23778176.380   124955155.820 6      -774.986    23778174.540   124955155.824 6      -774.986    23778194.480    97367712.616 6      -603.885    23778194.440    97367717.622 7      -603.885
R02  23652880.600   126216272.647 7      5784.243    23652879.760   126216272.651 7      5784.243    23652903.420    98168300.355 7      4498.855    23652903.820    98168302.356 7      4498.855
G27  21328566.720   112082350.292 8      1750.205    21328565.420   112082350.300 8      1750.205    21328576.280    87336932.053 8      1363.796    21328576.940    87336933.056 8      1363.796
R14  20210775.440   107734759.613 8      -181.428    20210775.480   107734759.605 8      -181.428    20210792.100    83793760.019 8      -141.111    20210792.540    83793758.022 8      -141.111
G16  21501435.800   112990777.299 7       388.866    21501434.440   112990777.304 6       388.866    21501446.920    88044789.427 6       303.013
G10  22461573.740   118036368.405 7      1573.997    22461572.260   118036368.407 7      1573.997    22461587.180    91976391.122 7      1226.491    22461587.120    91976444.124 8      1226.491
G21  20853846.400   109587700.670 7      3133.175    20853844.520   109587700.675 6      3133.175    20853853.160    85393050.479 6      2441.435
R17  20542894.760   109929168.365 7      2303.281    20542893.760   109929168.387 7      2303.281    20542906.800    85500516.925 8      1791.441    20542906.500    85500516.919 8      1791.441
G08  21251459.340   111677161.276 8      3431.698    21251458.340   111677161.279 7      3431.698    21251467.780    87021200.655 8      2674.050    21251468.740    87021203.659 8      2674.050
R15  20133554.760   107587598.454 8      3950.648    20133551.660   107587598.447 7      3950.648    20133564.460    83679290.776 8      3072.726    20133564.300    83679288.777 8      3072.726
R01  22936145.780   122606907.559 6      3966.888    22936144.820   122606907.579 6      3966.888    22936172.100    95361027.775 6      3085.357    22936170.840    95361023.771 6      3085.357
R24  21953706.760   117396315.682 7       236.307    21953707.000   117396315.689 7       236.307    21953720.560    91308309.050 7       183.795    21953720.980    91308296.047 7       183.795
G23  24576728.320   129151579.675 6      -102.478    24576727.420   129151579.682 4      -102.478    24576741.220   100637642.699 4       -79.853    24576741.480   100637653.716 7       -79.853
R16  23966048.900   128022315.897 6      6601.451    23966048.460   128022315.906 6      6601.451    23966062.340    99572965.696 7      5134.462    23966062.980    99572967.691 7      5134.462
G07  24091265.480   126600450.263 7      3095.152    24091264.040   126600450.265 6      3095.152    24091274.980    98649728.032 6      2411.807    24091276.040    98649735.049 7      2411.807
R18  22535124.680   120294055.694 7      4305.450    22535125.320   120294055.695 7      4305.450    22535141.420    93562123.740 7      3348.683    22535141.860    93562125.746 7      3348.683
> 2024 04 02 15 20  0.0000000  0 17
G02  22176640.720   116539046.204 7      3993.470    22176639.100   116539046.214 6      3993.470    22176648.180    90809689.837 6      3111.794
G26  23778323.820   124955930.953 6      -775.204    23778322.100   124955930.958 6      -775.204    23778342.120    97368316.605 6      -604.055    23778342.000    97368321.612 7      -604.055
R02  23651796.500   126210488.634 7      5783.898    23651796.100   126210488.635 7      5783.898    23651819.620    98163801.666 7      4498.588    23651820.100    98163803.665 7      4498.588
G27  21328233.440   112080600.153 7      1749.978    21328232.420   112080600.158 8      1749.978    21328243.300    87335568.300 8      1363.620    21328244.140    87335569.303 8      1363.620
R14  20210809.720   107734941.401 8      -182.246    20210809.700   107734941.393 8      -182.246    20210826.120    83793901.402 8      -141.747    20210826.380    83793899.405 8      -141.747
G16  21501361.980   112990388.718 7       388.317    21501360.580   112990388.728 6       388.317    21501372.940    88044486.633 6       302.584
G10  22461274.100   118034794.564 7      1573.479    22461272.520   118034794.568 7      1573.479    22461287.800    91975164.753 7      1226.088    22461287.660    91975217.756 8      1226.088
G21  20853250.260   109584567.733 8      3132.582    20853248.260   109584567.738 6      3132.582    20853256.960    85390609.234 6      2440.973
R17  20542464.420   109926865.218 7      2302.950    20542463.340   109926865.235 7      2302.950    20542476.200    85498725.578 8      1791.184    20542476.000    85498725.574 8      1791.184
G08  21250806.100   111673729.631 8      3431.451    21250805.380   111673729.633 8      3431.451    21250814.820    87018526.637 8      2673.858    21250815.560    87018529.641 8      2673.858
R15  20132815.340   107583648.222 8      3949.833    20132812.280   107583648.213 7      3949.833    20132825.180    83676218.367 8      3072.092    20132824.960    83676216.369 8      3072.092
R01  22935403.680   122602940.943 6      3966.185    22935403.040   122602940.958 6      3966.185    22935429.140    95357942.635 6      3084.810    22935428.860    95357938.622 6      3084.810
R24  21953662.180   117396079.480 7       236.058    21953662.720   117396079.489 7       236.058    21953676.300    91308125.331 7       183.601    21953676.740    91308112.326 7       183.601
G23  24576748.120   129151682.426 6      -102.909    24576746.940   129151682.434 4      -102.909    24576760.760   100637722.763 4       -80.189    24576760.900   100637733.768 7       -80.189
R16  23964812.940   128015714.544 7      6601.068    23964813.340   128015714.545 7      6601.068    23964826.820    99567831.296 7      5134.164    23964827.380    99567833.291 7      5134.164
G07  24090676.560   126597355.389 6      3094.548    24090675.060   126597355.394 6      3094.548    24090686.080    98647316.442 6      2411.336    24090686.720    98647323.452 7      2411.336
R18  22534318.140   120289750.190 7      4305.173    22534318.420   120289750.191 7      4305.173    22534334.400    93558775.013 7      3348.468    22534335.220    93558777.021 7      3348.468
> 2024 04 02 15 20  1.0000000  0 17
G02  22175880.740   116535052.850 7      3993.100    22175879.200   116535052.857 6      3993.100    22175888.180    90806578.140 6      3111.507
G26  23778471.200   124956706.273 6      -775.375    23778469.600   124956706.278 6      -775.375    23778489.680    97368920.743 6      -604.188    23778489.620    97368925.741 7      -604.188
R02  23650712.820   126204704.651 7      5783.869    23650712.560   126204704.649 7      5783.869    23650735.960    98159303.006 7      4498.564    23650735.940    98159305.007 7      4498.564
G27  21327900.420   112078850.176 8      1749.900    21327899.300   112078850.178 8      1749.900    21327910.280    87334204.673 8      1363.559    21327910.900    87334205.673 8      1363.559
R14  20210843.920   107735123.850 8      -182.829    20210843.740   107735123.842 8      -182.829    20210860.340    83794043.294 8      -142.201    20210860.600    83794041.297 8      -142.201
G16  21501288.180   112990000.578 7       387.873    21501286.680   112990000.588 6       387.873    21501299.100    88044184.178 6       302.239
G10  22460974.780   118033221.314 7      1572.928    22460973.160   118033221.316 7      1572.928    22460988.240    91973938.837 7      1225.658    22460988.380    91973991.839 8      1225.658
G21  20852654.200   109581435.228 8      3132.239    20852652.320   109581435.235 6      3132.239    20852660.740    85388168.323 6      2440.706
R17  20542033.800   109924562.261 7      2302.832    20542033.140   109924562.279 7      2302.832    20542046.020    85496934.392 8      1791.091    20542045.500    85496934.388 8      1791.091
G08  21250153.460   111670298.092 7      3431.430    21250152.440   111670298.095 7      3431.430    21250161.780    87015852.714 7      2673.842    21250162.780    87015855.717 8      2673.842
R15  20132076.280   107579698.819 8      3949.034    20132073.280   107579698.809 7      3949.034    20132086.160    83673146.613 8      3071.471    20132085.860    83673144.612 8      3071.471
R01  22934661.960   122598974.945 6      3965.579    22934660.960   122598974.957 6      3965.579    22934687.540    95354857.974 6      3084.339    22934686.480    95354853.979 6      3084.339
R24  21953617.940   117395843.192 7       236.215    21953618.560   117395843.204 7       236.215    21953632.300    91307941.550 7       183.723    21953632.700    91307928.545 7       183.723
G23  24576767.660   129151785.546 6      -103.261    24576766.580   129151785.553 4      -103.261    24576780.380   100637803.118 4       -80.463    24576780.480   100637814.125 7       -80.463
R16  23963577.500   128009113.424 7      6600.964    23963578.160   128009113.425 7      6600.964    23963591.040    99562697.087 7      5134.083    23963591.520    99562699.080 7      5134.083
G07  24090087.580   126594261.035 7      3094.088    24090086.400   126594261.034 6      3094.088    24090097.240    98644905.251 6      2410.978    24090097.660    98644912.265 7      2410.978
R18  22533511.480   120285444.974 7      4304.996    22533512.320   120285444.986 7      4304.996    22533528.000    93555426.518 7      3348.330    22533528.360    93555428.528 7      3348.330
> 2024 04 02 15 20  2.0000000  0 17
G02  22175120.920   116531059.756 7      3993.159    22175119.360   116531059.761 6      3993.159    22175128.300    90803466.639 6      3111.553
G26  23778618.560   124957481.627 6      -775.218    23778617.100   124957481.632 6      -775.218    23778637.220    97369524.915 6      -604.066    23778637.240    97369529.917 7      -604.066
R02  23649628.840   126198920.563 7      5784.229    23649628.380   126198920.567 7      5784.229    23649652.020    98154804.277 7      4498.845    23649652.280    98154806.275 7      4498.845
G27  21327567.420   112077100.252 8      1750.080    21327566.480   112077100.259 8      1750.080    21327577.200    87332841.098 8      1363.699    21327577.760    87332842.097 8      1363.699
R14  20210878.060   107735306.816 8      -183.042    20210878.260   107735306.809 8      -183.042    20210894.680    83794185.593 8      -142.366    20210895.180    83794183.596 8      -142.366
G16  21501214.260   112989612.762 7       387.851    21501212.880   112989612.769 6       387.851    21501225.320    88043881.974 6       302.222
G10  22460675.580   118031648.542 7      1572.623    22460674.160   118031648.544 7      1572.623    22460689.020    91972713.307 7      1225.421    22460689.120    91972766.307 8      1225.421
G21  20852058.180   109578303.082 7      3132.171    20852056.020   109578303.084 6      3132.171    20852064.760    85385727.688 6      2440.653
R17  20541603.540   109922259.425 8      2302.941    20541602.760   109922259.443 7      2302.941    20541615.840    85495143.299 8      1791.176    20541615.040    85495143.297 8      1791.176
G08  21249500.460   111666866.591 7      3431.667    21249499.400   111666866.588 7      3431.667    21249508.840    87013178.812 7      2674.026    21249509.960    87013181.810 8      2674.026
R15  20131337.440   107575750.139 8      3948.511    20131334.500   107575750.132 8      3948.511    20131347.200    83670075.416 8      3071.064    20131346.960    83670073.415 8      3071.064
R01  22933920.680   122595009.441 6      3965.255    22933919.120   122595009.461 6      3965.255    22933945.760    95351773.720 6      3084.087    22933944.400    95351769.725 6      3084.087
R24  21953574.000   117395606.787 7       236.592    21953574.060   117395606.799 7       236.592    21953588.360    91307757.673 7       184.016    21953588.400    91307744.674 7       184.016
G23  24576787.160   129151888.962 6      -103.490    24576786.220   129151888.967 4      -103.490    24576800.020   100637883.704 4       -80.642    24576800.560   100637894.713 7       -80.642
R16  23962341.940   128002512.446 7      6601.212    23962342.000   128002512.447 7      6601.212    23962355.400    99557562.979 7      5134.276    23962355.560    99557564.972 7      5134.276
G07  24089498.920   126591167.077 7      3093.879    24089497.560   126591167.077 6      3093.879    24089508.520    98642494.375 6      2410.814    24089508.820    98642501.385 7      2410.814
R18  22532705.060   120281139.983 7      4304.970    22532705.720   120281139.984 7      4304.970    22532721.180    93552078.201 7      3348.310    22532721.780    93552080.207 7      3348.310
> 2024 04 02 15 20  3.0000000  0 17
G02  22174361.300   116527067.093 7      3992.425    22174359.600   116527067.098 6      3992.425    22174368.620    90800355.475 6      3110.981
G26  23778766.160   124958257.189 6      -775.674    23778764.440   124958257.197 6      -775.674    23778784.880    97370129.247 6      -604.421    23778784.960    97370134.249 7      -604.421
R02  23648544.680   126193136.526 7      5783.970    23648545.040   126193136.530 7      5783.970    23648568.060    98150305.567 7      4498.643    23648568.280    98150307.569 7      4498.643
G27  21327234.300   112075350.551 7      1749.572    21327233.520   112075350.553 8      1749.572    21327244.200    87331477.686 8      1363.303    21327244.660    87331478.686 8      1363.303
R14  20210912.700   107735490.494 8      -184.090    20210912.420   107735490.487 8      -184.090    20210929.140    83794328.450 8      -143.181    20210929.440    83794326.455 8      -143.181
G16  21501140.820   112989225.429 7       387.087    21501139.140   112989225.434 6       387.087    21501151.600    88043580.146 6       301.626
G10  22460376.380   118030076.372 7      1571.853    22460374.940   118030076.374 7      1571.853    22460389.800    91971488.238 7      1224.820    22460389.820    91971541.235 8      1224.820
G21  20851462.200   109575171.441 8      3131.332    20851460.180   109575171.446 6      3131.332    20851468.880    85383287.454 6      2439.999
R17  20541173.040   109919956.907 8      2302.349    20541172.320   109919956.927 7      2302.349    20541185.420    85493352.450 8      1790.716    20541184.620    85493352.450 8      1790.716
G08  21248847.340   111663435.258 8      3431.273    21248846.300   111663435.255 7      3431.273    21248855.760    87010505.048 7      2673.719    21248856.840    87010508.050 8      2673.719
R15  20130598.360   107571802.363 7      3947.254    20130595.580   107571802.356 7      3947.254    20130608.420    83667004.923 8      3070.087    20130608.220    83667002.925 8      3070.087
R01  22933179.100   122591044.613 6      3964.273    22933178.060   122591044.620 6      3964.273    22933203.880    95348689.980 6      3083.324    22933202.720    95348685.983 6      3083.324
R24  21953529.660   117395370.371 7       236.471    21953530.160   117395370.385 7       236.471    21953544.540    91307573.790 7       183.922    21953544.260    91307560.793 7       183.922
G23  24576807.020   129151992.765 6      -103.917    24576806.100   129151992.767 4      -103.917    24576819.800   100637964.589 4       -80.974    24576819.980   100637975.586 7       -80.974
R16  23961105.800   127995911.809 7      6600.440    23961106.860   127995911.808 7      6600.440    23961120.120    99552429.146 7      5133.676    23961119.840    99552431.145 7      5133.676
G07  24088910.280   126588073.661 7      3093.108    24088908.840   126588073.661 6      3093.108    24088919.880    98640083.919 6      2410.214    24088920.000    98640090.933 7      2410.214
R18  22531898.980   120276835.303 7      4304.479    22531899.520   120276835.302 7      4304.479    22531914.700    93548730.111 7      3347.928    22531915.680    93548732.113 7      3347.928
> 2024 04 02 15 20  4.0000000  0 17
G02  22173601.720   116523074.953 7      3991.872    22173599.940   116523074.958 6      3991.872    22173608.920    90797244.718 6      3110.550
G26  23778913.960   124959033.098 6      -775.949    23778912.080   124959033.108 6      -775.949    23778932.400    97370733.849 6      -604.636    23778932.680    97370738.853 7      -604.636
R02  23647461.140   126187352.668 7      5783.785    23647460.720   126187352.653 7      5783.785    23647484.240    98145806.995 7      4498.499    23647484.380    98145808.994 7      4498.499
G27  21326901.460   112073601.184 7      1749.175    21326900.600   112073601.191 8      1749.175    21326911.420    87330114.545 8      1362.993    21326911.740    87330115.543 8      1362.993
R14  20210947.160   107735675.003 8      -184.932    20210947.180   107735674.996 8      -184.932    20210963.760    83794471.947 8      -143.836    20210964.220    83794469.950 8      -143.836
G16  21501067.120   112988838.711 7       386.431    21501065.560   112988838.716 6       386.431    21501078.060    88043278.803 6       301.115
G10  22460077.400   118028504.948 7      1571.005    22460075.800   118028504.953 7      1571.005    22460090.700    91970263.758 7      1224.159    22460090.800    91970316.755 8      1224.159
G21  20850866.400   109572040.425 8      3130.695    20850864.460   109572040.430 6      3130.695    20850873.180    85380847.701 6      2439.503
R17  20540743.020   109917654.825 7      2301.887    20540742.160   109917654.843 7      2301.887    20540755.220    85491561.942 8      1790.357    20540754.480    85491561.946 8      1790.357
G08  21248194.240   111660004.232 7      3430.851    21248193.460   111660004.232 7      3430.851    21248202.900    87007831.524 7      2673.391    21248203.860    87007834.527 8      2673.391
R15  20129859.600   107567855.615 8      3946.252    20129856.900   107567855.611 7      3946.252    20129869.920    83663935.229 8      3069.307    20129870.060    83663933.234 8      3069.307
R01  22932437.660   122587080.582 6      3963.450    22932436.100   122587080.581 6      3963.450    22932462.540    95345606.841 6      3082.683    22932461.200    95345602.835 6      3082.683
R24  21953485.640   117395134.129 7       236.197    21953486.240   117395134.130 7       236.197    21953500.400    91307390.029 7       183.709    21953500.260    91307377.028 7       183.709
G23  24576827.300   129152097.135 6      -104.674    24576826.000   129152097.135 4      -104.674    24576839.600   100638045.919 4       -81.564    24576839.600   100638056.928 7       -81.564
R16  23959870.120   127989311.573 7      6600.106    23959870.500   127989311.577 7      6600.106    23959884.700    99547295.642 7      5133.416    23959884.180    99547297.641 7      5133.416
G07  24088321.740   126584980.931 7      3092.333    24088320.400   126584980.936 6      3092.333    24088331.480    98637674.001 6      2409.610    24088331.900    98637681.014 7      2409.610
R18  22531092.260   120272531.059 7      4304.053    22531093.340   120272531.052 7      4304.053    22531108.680    93545382.376 7      3347.597    22531109.000    93545384.380 7      3347.597
> 2024 04 02 15 20  5.0000000  0 17
G02  22172842.200   116519083.264 7      3991.506    22172840.300   116519083.272 6      3991.506    22172849.200    90794134.320 6      3110.265
G26  23779061.220   124959809.253 6      -776.083    23779059.740   124959809.258 6      -776.083    23779080.160    97371338.637 6      -604.740    23779080.320    97371343.639 7      -604.740
R02  23646377.180   126181568.872 7      5783.845    23646376.980   126181568.864 7      5783.845    23646400.560    98141308.484 7      4498.546    23646400.580    98141310.479 7      4498.546
G27  21326568.620   112071852.056 8      1749.110    21326567.700   112071852.058 8      1749.110    21326578.560    87328751.580 8      1362.943    21326579.000    87328752.580 8      1362.943
R14  20210981.940   107735860.280 8      -185.576    20210982.080   107735860.276 8      -185.576    20210998.580    83794616.045 8      -144.337    20210999.020    83794614.048 8      -144.337
G16  21500993.520   112988452.502 7       385.986    21500992.220   112988452.513 6       385.986    21501004.460    88042977.857 6       300.769
G10  22459778.500   118026934.181 7      1570.545    22459776.940   118026934.184 7      1570.545    22459791.740    91969039.782 7      1223.801    22459791.680    91969092.779 8      1223.801
G21  20850270.560   109568909.940 8      3130.330    20850268.680   109568909.942 6      3130.330    20850277.400    85378408.362 6      2439.218
R17  20540312.960   109915353.038 7      2301.767    20540311.980   109915353.053 7      2301.767    20540325.000    85489771.656 8      1790.263    20540324.520    85489771.661 8      1790.263
G08  21247541.440   111656573.406 8      3430.818    21247540.600   111656573.411 7      3430.818    21247550.140    87005158.147 7      2673.365    21247551.240    87005161.150 8      2673.365
R15  20129121.440   107563909.803 8      3945.526    20129118.760   107563909.791 7      3945.526    20129131.460    83660866.257 8      3068.742    20129131.420    83660864.261 8      3068.742
R01  22931696.000   122583117.166 6      3963.163    22931693.840   122583117.173 6      3963.163    22931721.260    95342524.211 6      3082.460    22931719.880    95342520.207 6      3082.460
R24  21953441.280   117394897.876 7       236.396    21953442.100   117394897.885 7       236.396    21953456.320    91307206.277 7       183.864    21953456.160    91307193.278 7       183.864
G23  24576847.100   129152201.944 6      -104.930    24576845.960   129152201.941 4      -104.930    24576859.520   100638127.588 4       -81.763    24576859.900   100638138.587 7       -81.763
R16  23958634.720   127982711.703 7      6599.755    23958635.100   127982711.713 7      6599.755    23958648.760    99542162.397 7      5133.143    23958648.840    99542164.396 7      5133.143
G07  24087733.080   126581888.784 7      3091.975    24087731.920   126581888.792 6      3091.975    24087743.140    98635264.536 6      2409.332    24087743.060    98635271.546 7      2409.332
R18  22530286.540   120268227.194 7      4303.759    22530286.800   120268227.197 7      4303.759    22530302.500    93542034.929 7      3347.368    22530303.040    93542036.935 7      3347.368
> 2024 04 02 15 20  6.0000000  0 17
G02  22172082.580   116515092.005 7      3991.119    22172080.640   116515092.009 6      3991.119    22172089.720    90791024.252 6      3109.962
G26  23779209.100   124960585.648 6      -776.410    23779207.620   124960585.653 6      -776.410    23779227.960    97371943.620 6      -604.995    23779227.980    97371948.618 7      -604.995
R02  23645293.580   126175785.174 7      5783.742    23645292.980   126175785.169 7      5783.742    23645316.680    98136810.048 7      4498.466    23645316.920    98136812.039 7      4498.466
G27  21326235.720   112070103.169 7      1748.748    21326235.040   112070103.177 8      1748.748    21326245.760    87327388.810 8      1362.661    21326246.040    87327389.807 8      1362.661
R14  20211017.100   107736046.314 8      -186.337    20211016.900   107736046.307 8      -186.337    20211033.540    83794760.723 8      -144.929    20211033.860    83794758.726 8      -144.929
G16  21500920.100   112988066.770 7       385.557    21500918.860   112988066.780 6       385.557    21500931.040    88042677.282 6       300.434
G10  22459479.660   118025364.035 7      1569.987    22459478.060   118025364.034 7      1569.987    22459493.000    91967816.288 7      1223.367    22459492.800    91967869.290 8      1223.367
G21  20849674.960   109565779.967 8      3129.821    20849673.180   109565779.975 6      3129.821    20849681.800    85375969.425 6      2438.821
R17  20539883.000   109913051.513 8      2301.457    20539882.100   109913051.528 7      2301.457    20539894.880    85487981.577 8      1790.022    20539894.640    85487981.581 8      1790.022
G08  21246888.680   111653142.777 7      3430.621    21246887.820   111653142.779 8      3430.621    21246897.240    87002484.929 8      2673.212    21246898.440    87002487.933 8      2673.212
R15  20128382.960   107559964.867 8      3944.639    20128380.420   107559964.857 7      3944.639    20128393.200    83657797.969 8      3068.053    20128393.280    83657795.973 8      3068.053
R01  22930954.080   122579154.469 6      3962.474    22930953.060   122579154.467 6      3962.474    22930980.440    95339442.125 6      3081.924    22930978.860    95339438.122 6      3081.924
R24  21953397.200   117394661.689 7       236.275    21953398.180   117394661.699 7       236.275    21953412.360    91307022.572 7       183.770    21953411.980    91307009.571 7       183.770
G23  24576866.940   129152307.200 6      -105.490    24576866.040   129152307.202 4      -105.490    24576879.540   100638209.610 4       -82.200    24576879.660   100638220.623 7       -82.200
R16  23957399.260   127976112.141 7      6599.533    23957399.160   127976112.136 7      6599.533    23957413.480    99537029.397 7      5132.970    23957413.520    99537031.397 7      5132.970
G07  24087144.700   126578797.210 7      3091.350    24087143.700   126578797.220 6      3091.350    24087154.900    98632855.517 6      2408.844    24087154.940    98632862.528 7      2408.844
R18  22529480.120   120263923.660 7      4303.401    22529480.500   120263923.660 7      4303.401    22529496.520    93538687.742 7      3347.090    22529496.820    93538689.748 7      3347.090
> 2024 04 02 15 20  7.0000000  0 17
G02  22171323.180   116511101.015 7      3990.818    22171321.080   116511101.020 6      3990.818    22171330.160    90787914.392 6      3109.728
G26  23779357.100   124961362.122 6      -776.693    23779355.320   124961362.124 6      -776.693    23779375.740    97372548.654 6      -605.215    23779375.740    97372553.646 7      -605.215
R02  23644209.540   126170001.457 7      5783.772    23644208.820   126170001.458 7      5783.772    23644232.640    98132311.589 7      4498.490    23644233.020    98132313.582 7      4498.490
G27  21325903.100   112068354.315 8      1748.807    21325902.220   112068354.320 8      1748.807    21325912.940    87326026.062 8      1362.707    21325913.480    87326027.059 8      1362.707
R14  20211052.040   107736232.887 8      -186.883    20211051.900   107736232.882 8      -186.883    20211068.660    83794905.827 8      -145.354    20211069.120    83794903.830 8      -145.354
G16  21500846.940   112987681.400 7       385.120    21500845.340   112987681.407 6       385.120    21500857.700    88042376.987 6       300.094
G10  22459180.900   118023794.374 7      1569.347    22459179.380   118023794.376 7      1569.347    22459194.280    91966593.176 7      1222.868    22459194.160    91966646.182 8      1222.868
G21  20849079.580   109562650.360 8      3129.367    20849077.540   109562650.365 6      3129.367    20849086.220    85373530.773 6      2438.468
R17  20539452.880   109910750.129 8      2301.259    20539451.980   109910750.144 7      2301.259    20539464.960    85486191.618 8      1789.868    20539464.700    85486191.619 8      1789.868
G08  21246235.880   111649712.172 7      3430.462    21246234.900   111649712.169 7      3430.462    21246244.480    86999811.724 8      2673.087    21246245.540    86999814.732 8      2673.087
R15  20127644.940   107556020.636 8      3943.783    20127642.200   107556020.627 7      3943.783    20127655.000    83654730.234 8      3067.386    20127655.200    83654728.240 8      3067.386
R01  22930212.920   122575192.276 6      3961.886    22930212.100   122575192.288 6      3961.886    22930239.160    95336360.441 6      3081.467    22930238.160    95336356.435 6      3081.467
R24  21953353.240   117394425.343 7       236.358    21953354.080   117394425.355 7       236.358    21953368.220    91306838.739 7       183.834    21953367.860    91306825.733 7       183.834
G23  24576887.220   129152412.721 7      -105.729    24576886.220   129152412.721 4      -105.729    24576899.580   100638291.838 4       -82.386    24576899.980   100638302.847 7       -82.386
R16  23956163.840   127969512.765 7      6599.146    23956163.860   127969512.763 7      6599.146    23956177.540    99531896.548 7      5132.669    23956177.840    99531898.545 7      5132.669
G07  24086556.580   126575706.054 7      3090.923    24086555.520   126575706.064 6      3090.923    24086566.580    98630446.822 6      2408.512    24086567.240    98630453.830 7      2408.512
R18  22528674.160   120259620.304 7      4303.163    22528674.720   120259620.302 7      4303.163    22528690.520    93535340.698 7      3346.904    22528690.600    93535342.702 7      3346.904
> 2024 04 02 15 20  8.0000000  0 17
G02  22170563.720   116507110.381 7      3990.382    22170561.800   116507110.380 6      3990.382    22170570.780    90784804.806 6      3109.389
G26  23779504.500   124962138.679 6      -776.658    23779503.080   124962138.679 6      -776.658    23779523.480    97373153.758 6      -605.188    23779523.740    97373158.754 7      -605.188
R02  23643125.780   126164217.796 7      5783.573    23643125.380   126164217.789 7      5783.573    23643148.760    98127813.182 7      4498.335    23643149.140    98127815.176 7      4498.335
G27  21325570.380   112066605.641 7      1748.532    21325569.480   112066605.646 8      1748.532    21325580.220    87324663.457 8      1362.492    21325580.380    87324664.458 8      1362.492
R14  20211087.220   107736420.099 8      -187.631    20211086.900   107736420.091 8      -187.631    20211103.640    83795051.426 8      -145.935    20211104.160    83795049.431 8      -145.935
G16  21500773.700   112987296.434 7       384.654    21500772.160   112987296.444 6       384.654    21500784.500    88042077.006 6       299.730
G10  22458882.420   118022225.260 7      1568.738    22458880.880   118022225.265 7      1568.738    22458895.680    91965370.490 7      1222.393    22458895.320    91965423.496 8      1222.393
G21  20848484.140   109559521.189 7      3128.801    20848482.100   109559521.193 6      3128.801    20848490.700    85371092.460 6      2438.027
R17  20539022.700   109908448.995 7      2300.923    20539021.920   109908449.012 7      2300.923    20539034.880    85484401.847 8      1789.607    20539034.560    85484401.843 8      1789.607
G08  21245582.980   111646281.666 8      3430.353    21245582.180   111646281.666 7      3430.353    21245591.700    86997138.605 8      2673.002    21245592.620    86997141.607 8      2673.002
R15  20126907.200   107552077.183 8      3942.965    20126904.200   107552077.176 7      3942.965    20126917.080    83651663.102 8      3066.751    20126917.160    83651661.108 8      3066.751
R01  22929471.660   122571230.680 6      3961.137    22929471.120   122571230.697 6      3961.137    22929497.720    95333279.214 6      3080.884    22929496.840    95333275.211 6      3080.884
R24  21953308.860   117394188.903 7       236.349    21953309.840   117394188.912 7       236.349    21953324.020    91306654.837 7       183.827    21953323.920    91306641.829 7       183.827
G23  24576907.560   129152518.594 6      -106.132    24576906.420   129152518.597 4      -106.132    24576919.700   100638374.343 4       -82.700    24576919.960   100638385.362 7       -82.700
R16  23954928.360   127962913.600 7      6598.896    23954928.680   127962913.593 7      6598.896    23954942.280    99526763.866 7      5132.475    23954942.520    99526765.859 7      5132.475
G07  24085968.440   126572615.370 7      3090.469    24085967.380   126572615.372 6      3090.469    24085978.400    98628038.491 6      2408.157    24085978.620    98628045.497 7      2408.157
R18  22527867.680   120255317.231 7      4302.838    22527868.560   120255317.235 7      4302.838    22527884.380    93531993.874 7      3346.652    22527884.640    93531995.876 7      3346.652
> 2024 04 02 15 20  9.0000000  0 17
G02  22169804.340   116503120.248 7      3989.819    22169802.480   116503120.253 6      3989.819    22169811.700    90781695.620 6      3108.950
G26  23779652.160   124962915.594 6      -777.155    23779650.760   124962915.599 6      -777.155    23779671.380    97373759.148 6      -605.575    23779671.500    97373764.142 7      -605.575
R02  23642041.840   126158434.312 7      5783.470    23642041.380   126158434.310 7      5783.470    23642064.940    98123314.913 7      4498.254    23642065.200    98123316.906 7      4498.254
G27  21325237.700   112064857.251 8      1748.247    21325236.740   112064857.256 8      1748.247    21325247.500    87323301.071 8      1362.270    21325247.740    87323302.075 8      1362.270
R14  20211122.620   107736608.070 8      -188.336    20211122.140   107736608.063 8      -188.336    20211138.840    83795197.616 8      -146.484    20211139.320    83795195.619 8      -146.484
G16  21500700.580   112986912.047 7       384.030    21500699.040   112986912.057 6       384.030    21500711.440    88041777.473 6       299.244
G10  22458583.960   118020656.855 7      1567.969    22458582.360   118020656.860 7      1567.969    22458597.100    91964148.358 7      1221.794    22458596.860    91964201.362 8      1221.794
G21  20847888.660   109556392.595 7      3128.285    20847886.720   109556392.598 6      3128.285    20847895.380    85368654.595 6      2437.625
R17  20538592.880   109906148.240 8      2300.581    20538592.020   109906148.255 7      2300.581    20538604.940    85482612.367 8      1789.341    20538604.780    85482612.363 8      1789.341
G08  21244930.280   111642851.436 7      3430.084    21244929.460   111642851.433 7      3430.084    21244939.040    86994465.694 7      2672.793    21244939.880    86994468.694 8      2672.793
R15  20126169.360   107548134.713 8      3941.989    20126166.520   107548134.704 7      3941.989    20126179.140    83648596.730 8      3065.991    20126179.360    83648594.736 8      3065.991
R01  22928731.120   122567269.835 6      3960.451    22928730.040   122567269.852 6      3960.451    22928757.320    95330198.567 6      3080.351    22928756.140    95330194.561 6      3080.351
R24  21953264.760   117393952.575 7       236.222    21953265.400   117393952.587 7       236.222    21953279.640    91306471.018 7       183.728    21953279.400    91306458.010 7       183.728
G23  24576927.560   129152625.006 7      -106.748    24576926.700   129152625.011 4      -106.748    24576940.000   100638457.269 4       -83.181    24576940.620   100638468.281 7       -83.181
R16  23953692.960   127956314.825 7      6598.597    23953693.740   127956314.823 7      6598.597    23953706.780    99521631.479 7      5132.242    23953707.280    99521633.472 7      5132.242
G07  24085380.320   126569525.341 7      3089.754    24085379.380   126569525.346 6      3089.754    24085390.300    98625630.678 6      2407.600    24085391.060    98625637.684 7      2407.600
R18  22527061.780   120251014.599 7      4302.358    22527062.700   120251014.611 7      4302.358    22527078.420    93528647.389 7      3346.279    22527078.960    93528649.391 7      3346.279
> 2024 04 02 15 20 10.0000000  0 17
G02  22169045.140   116499130.394 7      3989.878    22169043.300   116499130.402 6      3989.878    22169052.460    90778586.649 6      3108.996
G26  23779800.460   124963692.567 6      -776.832    23779798.600   124963692.564 6      -776.832    23779819.060    97374364.569 6      -605.324    23779819.260    97374369.569 7      -605.324
R02  23640957.640   126152650.777 7      5783.783    23640957.500   126152650.772 7      5783.783    23640981.280    98118816.595 7      4498.498    23640981.280    98118818.588 7      4498.498
G27  21324905.000   112063108.954 8      1748.386    21324904.180   112063108.961 8      1748.386    21324914.940    87321938.759 8      1362.378    21324914.980    87321939.763 8      1362.378
R14  20211157.980   107736796.607 8      -188.691    20211157.520   107736796.600 8      -188.691    20211174.260    83795344.247 8      -146.760    20211174.600    83795342.250 8      -146.760
G16  21500627.480   112986528.003 8       383.969    21500625.960   112986528.016 6       383.969    21500638.180    88041478.215 6       299.197
G10  22458285.640   118019088.931 7      1567.801    22458283.980   118019088.931 7      1567.801    22458298.880    91962926.597 7      1221.663    22458298.920    91962979.601 8      1221.663
G21  20847293.380   109553264.388 8      3128.103    20847291.520   109553264.393 6      3128.103    20847300.120    85366217.036 6      2437.483
R17  20538162.960   109903847.619 8      2300.647    20538162.100   109903847.634 8      2300.647    20538175.080    85480822.995 8      1789.392    20538174.740    85480822.991 8      1789.392
G08  21244277.580   111639421.257 7      3430.274    21244276.700   111639421.254 8      3430.274    21244286.140    86991792.829 7      2672.940    21244286.960    86991795.833 8      2672.940
R15  20125431.900   107544193.021 8      3941.419    20125428.800   107544193.008 8      3941.419    20125441.620    83645530.967 8      3065.548    20125441.500    83645528.973 8      3065.548
R01  22927989.720   122563309.530 6      3960.207    22927989.400   122563309.542 6      3960.207    22928015.620    95327118.342 6      3080.161    22928015.020    95327114.330 6      3080.161
R24  21953220.540   117393716.169 7       236.505    21953220.940   117393716.184 7       236.505    21953234.980    91306287.141 7       183.949    21953235.200    91306274.138 7       183.949
G23  24576948.120   129152731.694 7      -106.638    24576947.160   129152731.696 4      -106.638    24576960.400   100638540.401 4       -83.095    24576960.660   100638551.406 7       -83.095
R16  23952457.720   127949716.234 7      6598.621    23952458.760   127949716.241 7      6598.621    23952471.780    99516499.246 7      5132.261    23952471.920    99516501.239 7      5132.261
G07  24084792.420   126566435.759 7      3089.495    24084791.520   126566435.763 6      3089.495    24084802.360    98623223.213 6      2407.399    24084803.040    98623230.209 7      2407.399
R18  22526255.600   120246712.149 7      4302.521    22526256.440   120246712.155 7      4302.521    22526272.760    93525301.049 7      3346.405    22526272.720    93525303.055 7      3346.405
> 2024 04 02 15 20 11.0000000  0 17
G02  22168285.760   116495140.981 7      3989.032    22168284.040   116495140.986 6      3989.032    22168293.260    90775478.020 6      3108.337
G26  23779948.520   124964469.758 6      -777.448    23779946.460   124964469.757 6      -777.448    23779966.920    97374970.170 6      -605.804    23779967.340    97374975.172 7      -605.804
R02  23639874.120   126146867.271 7      5783.315    23639873.100   126146867.269 7      5783.315    23639897.140    98114318.311 7      4498.134    23639897.680    98114320.306 7      4498.134
G27  21324572.160   112061360.874 8      1747.832    21324571.500   112061360.879 8      1747.832    21324582.260    87320576.613 8      1361.947    21324582.420    87320577.614 8      1361.947
R14  20211193.260   107736985.863 8      -189.812    20211193.060   107736985.859 8      -189.812    20211209.760    83795491.438 8      -147.632    20211210.200    83795489.441 8      -147.632
G16  21500554.500   112986144.441 7       383.204    21500552.940   112986144.448 6       383.204    21500565.140    88041179.327 6       298.601
G10  22457987.360   118017521.625 7      1566.927    22457985.800   118017521.632 7      1566.927    22458000.740    91961705.322 7      1220.982    22458000.540    91961758.327 8      1220.982
G21  20846698.160   109550136.681 8      3127.318    20846696.260   109550136.680 6      3127.318    20846704.840    85363779.857 6      2436.871
R17  20537733.320   109901547.274 8      2300.051    20537732.400   109901547.289 8      2300.051    20537745.220    85479033.831 8      1788.929    20537744.880    85479033.832 8      1788.929
G08  21243624.980   111635991.250 8      3429.761    21243624.020   111635991.247 7      3429.761    21243633.400    86989120.095 7      2672.541    21243634.320    86989123.095 8      2672.541
R15  20124694.240   107540252.215 8      3940.250    20124691.380   107540252.200 8      3940.250    20124704.100    83642465.888 8      3064.639    20124704.320    83642463.894 8      3064.639
R01  22927248.980   122559349.885 6      3959.271    22927248.860   122559349.891 6      3959.271    22927275.040    95324038.618 6      3079.433    22927274.440    95324034.615 6      3079.433
R24  21953176.500   117393479.793 7       236.288    21953176.740   117393479.797 7       236.288    21953190.680    91306103.280 7       183.780    21953190.900    91306090.273 7       183.780
G23  24576968.040   129152838.815 6      -107.407    24576967.500   129152838.823 4      -107.407    24576980.980   100638623.876 4       -83.694    24576981.080   100638634.885 7       -83.694
R16  23951222.800   127943117.946 7      6597.997    23951223.880   127943117.957 7      6597.997    23951236.820    99511367.240 7      5131.775    23951236.620    99511369.237 7      5131.775
G07  24084204.720   126563346.704 7      3088.578    24084203.640   126563346.706 6      3088.578    24084214.520    98620816.152 6      2406.685    24084215.060    98620823.154 7      2406.685
R18  22525449.520   120242410.013 7      4301.891    22525450.500   120242410.019 7      4301.891    22525466.480    93521954.945 7      3345.916    22525466.620    93521956.951 7      3345.916
> 2024 04 02 15 20 12.0000000  0 17
G02  22167526.660   116491151.942 7      3988.634    22167524.940   116491151.944 6      3988.634    22167534.080    90772369.675 6      3108.026
G26  23780096.360   124965247.156 6      -777.725    23780094.360   124965247.153 6      -777.725    23780114.920    97375575.923 6      -606.019    23780115.540    97375580.919 7      -606.019
R02  23638790.360   126141083.778 7      5783.297    23638789.220   126141083.784 7      5783.297    23638813.420    98109820.039 7      4498.120    23638813.720    98109822.034 7      4498.120
G27  21324239.620   112059612.965 7      1747.675    21324238.800   112059612.975 8      1747.675    21324249.600    87319214.606 8      1361.824    21324249.900    87319215.609 8      1361.824
R14  20211229.040   107737175.834 8      -190.528    20211228.800   107737175.829 8      -190.528    20211245.360    83795639.187 8      -148.188    20211245.840    83795637.190 8      -148.188
G16  21500481.560   112985761.333 7       382.711    21500479.980   112985761.343 6       382.711    21500492.280    88040880.795 6       298.216
G10  22457689.180   118015954.928 7      1566.256    22457687.600   118015954.930 7      1566.256    22457702.480    91960484.523 7      1220.459    22457702.120    91960537.529 8      1220.459
G21  20846103.080   109547009.438 7      3126.856    20846101.220   109547009.443 6      3126.856    20846109.840    85361343.050 6      2436.511
R17  20537303.080   109899247.175 8      2299.792    20537302.320   109899247.192 7      2299.792    20537315.200    85477244.872 8      1788.727    20537314.860    85477244.872 8      1788.727
G08  21242972.300   111632561.386 8      3429.592    21242971.300   111632561.385 7      3429.592    21242980.840    86986447.473 7      2672.410    21242981.540    86986450.471 8      2672.410
R15  20123957.040   107536312.254 8      3939.390    20123954.120   107536312.237 8      3939.390    20123966.920    83639401.478 8      3063.970    20123966.960    83639399.480 8      3063.970
R01  22926508.380   122555390.865 6      3958.485    22926508.060   122555390.880 6      3958.485    22926535.000    95320959.410 6      3078.822    22926534.300    95320955.404 6      3078.822
R24  21953132.160   117393243.391 7       236.223    21953132.140   117393243.397 7       236.223    21953146.060    91305919.413 7       183.729    21953146.660    91305906.406 7       183.729
G23  24576988.880   129152946.346 6      -107.977    24576988.060   129152946.354 4      -107.977    24577001.360   100638707.669 4       -84.138    24577001.680   100638718.678 7       -84.138
R16  23949987.780   127936519.953 7      6597.628    23949988.680   127936519.962 7      6597.628    23950002.520    99506235.457 7      5131.488    23950002.320    99506237.456 7      5131.488
G07  24083616.980   126560258.181 7      3087.965    24083615.820   126560258.183 6      3087.965    24083626.900    98618409.506 6      2406.206    24083627.480    98618416.514 7      2406.206
R18  22524643.900   120238108.165 7      4301.573    22524643.900   120238108.163 7      4301.573    22524660.340    93518609.068 7      3345.668    22524660.660    93518611.080 7      3345.668
> 2024 04 02 15 20 13.0000000  0 17
G02  22166767.800   116487163.236 7      3988.634    22166765.900   116487163.241 6      3988.634    22166775.020    90769261.599 6      3108.026
G26  23780243.960   124966024.660 6      -777.572    23780242.280   124966024.670 6      -777.572    23780262.860    97376181.776 6      -605.900    23780263.380    97376186.772 7      -605.900
R02  23637706.160   126135300.315 7      5783.536    23637705.620   126135300.324 7      5783.536    23637729.580    98105321.777 7      4498.306    23637730.020    98105323.776 7      4498.306
G27  21323907.360   112057865.219 7      1747.700    21323906.300   112057865.227 8      1747.700    21323916.980    87317852.718 8      1361.844    21323917.360    87317853.721 8      1361.844
R14  20211264.980   107737366.479 8      -190.954    20211264.440   107737366.474 8      -190.954    20211281.260    83795787.452 8      -148.520    20211281.460    83795785.452 8      -148.520
G16  21500409.160   112985378.654 7       382.475    21500407.220   112985378.666 6       382.475    21500419.440    88040582.599 6       298.033
G10  22457391.120   118014388.775 7      1565.886    22457389.620   118014388.780 7      1565.886    22457404.520    91959264.142 7      1220.171    22457403.800    91959317.154 8      1220.171
G21  20845508.200   109543882.637 7      3126.668    20845506.120   109543882.641 6      3126.668    20845514.740    85358906.584 6      2436.364
R17  20536873.160   109896947.292 8      2299.775    20536872.720   109896947.313 7      2299.775    20536885.520    85475456.076 8      1788.714    20536884.860    85475456.079 8      1788.714
G08  21242319.600   111629131.634 7      3429.658    21242318.660   111629131.634 7      3429.658    21242328.260    86983774.936 8      2672.461    21242328.660    86983777.937 8      2672.461
R15  20123220.420   107532373.113 8      3938.732    20123217.020   107532373.104 7      3938.732    20123229.640    83636337.706 8      3063.458    20123229.680    83636335.712 8      3063.458
R01  22925768.400   122551432.447 6      3958.129    22925768.240   122551432.451 6      3958.129    22925794.040    95317880.642 6      3078.545    22925793.500    95317876.637 6      3078.545
R24  21953087.740   117393006.902 7       236.500    21953087.940   117393006.909 7       236.500    21953101.740    91305735.468 7       183.945    21953102.640    91305722.460 7       183.945
G23  24577009.980   129153054.198 6      -107.905    24577008.540   129153054.206 4      -107.905    24577021.920   100638791.713 4       -84.082    24577022.060   100638802.714 7       -84.082
R16  23948752.180   127929922.180 7      6597.750    23948753.060   127929922.186 7      6597.750    23948766.820    99501103.850 7      5131.583    23948766.500    99501105.855 7      5131.583
G07  24083029.320   126557170.146 7      3087.830    24083028.360   126557170.148 6      3087.830    24083039.400    98616003.241 6      2406.101    24083039.860    98616010.251 7      2406.101
R18  22523838.020   120233806.579 7      4301.622    22523838.000   120233806.580 7      4301.622    22523854.460    93515263.402 7      3345.706    22523854.900    93515265.415 7      3345.706
> 2024 04 02 15 20 14.0000000  0 17
G02  22166008.820   116483174.963 7      3988.067    22166006.900   116483174.974 6      3988.067    22166016.120    90766153.861 6      3107.585
G26  23780391.960   124966802.402 6      -777.911    23780390.380   124966802.410 6      -777.911    23780410.940    97376787.805 6      -606.164    23780411.120    97376792.809 7      -606.164
R02  23636622.540   126129516.967 7      5783.353    23636622.040   126129516.973 7      5783.353    23636645.940    98100823.611 7      4498.164    23636646.140    98100825.608 7      4498.164
G27  21323574.620   112056117.670 7      1747.499    21323573.760   112056117.673 8      1747.499    21323584.520    87316490.983 8      1361.687    21323584.880    87316491.987 8      1361.687
R14  20211300.860   107737557.841 8      -191.700    20211300.540   107737557.839 8      -191.700    20211317.040    83795936.280 8      -149.100    20211317.400    83795934.283 8      -149.100
G16  21500336.140   112984996.455 7       381.910    21500334.540   112984996.470 6       381.910    21500346.760    88040284.776 6       297.593
G10  22457093.100   118012823.244 7      1565.218    22457091.700   118012823.247 7      1565.218    22457106.600    91958044.248 7      1219.650    22457105.980    91958097.260 8      1219.650
G21  20844913.380   109540756.337 8      3126.105    20844911.300   109540756.342 6      3126.105    20844919.900    85356470.508 6      2435.926
R17  20536443.660   109894647.680 8      2299.512    20536443.120   109894647.700 7      2299.512    20536455.680    85473667.489 8      1788.509    20536455.520    85473667.491 8      1788.509
G08  21241666.980   111625702.051 7      3429.550    21241666.000   111625702.051 7      3429.550    21241675.480    86981102.529 7      2672.377    21241676.000    86981105.533 8      2672.377
R15  20122483.000   107528434.825 8      3937.824    20122480.000   107528434.821 7      3937.824    20122492.720    83633274.595 8      3062.752    20122492.640    83633272.601 8      3062.752
R01  22925027.660   122547474.654 6      3957.500    22925027.920   122547474.663 6      3957.500    22925053.920    95314802.375 6      3078.056    22925053.400    95314798.366 6      3078.056
R24  21953043.960   117392770.409 7       236.452    21953044.060   117392770.413 7       236.452    21953057.440    91305551.520 7       183.907    21953058.180    91305538.515 7       183.907
G23  24577030.280   129153162.489 6      -108.463    24577029.160   129153162.499 4      -108.463    24577042.640   100638876.099 4       -84.517    24577042.480   100638887.110 7       -84.517
R16  23947517.520   127923324.708 7      6597.362    23947518.380   127923324.731 7      6597.362    23947531.940    99495972.491 7      5131.282    23947531.400    99495974.495 7      5131.282
G07  24082441.740   126554082.660 7      3087.209    24082440.960   126554082.662 6      3087.209    24082451.760    98613597.410 6      2405.618    24082452.280    98613604.414 7      2405.618
R18  22523032.480   120229505.367 7      4301.106    22523032.300   120229505.363 7      4301.106    22523048.480    93511918.015 7      3345.304    22523049.120    93511920.027 7      3345.304
> 2024 04 02 15 20 15.0000000  0 17
G02  22165249.820   116479187.238 7      3987.569    22165248.080   116479187.237 6      3987.569    22165257.480    90763046.540 6      3107.196
G26  23780539.780   124967580.455 6      -778.083    23780538.420   124967580.465 6      -778.083    23780559.100    97377394.076 6      -606.299    23780559.200    97377399.074 7      -606.299
R02  23635539.040   126123733.869 7      5783.197    23635538.300   126123733.862 7      5783.197    23635562.240    98096325.636 7      4498.042    23635562.680    98096327.633 7      4498.042
G27  21323242.160   112054370.468 7      1747.153    21323241.260   112054370.470 8      1747.153    21323252.080    87315129.527 8      1361.418    21323252.160    87315130.531 8      1361.418
R14  20211336.900   107737750.056 8      -192.480    20211336.440   107737750.053 8      -192.480    20211353.200    83796085.772 8      -149.707    20211353.400    83796083.773 8      -149.707
G16  21500263.360   112984614.866 7       381.316    21500261.900   112984614.878 6       381.316    21500274.060    88039987.425 6       297.129
G10  22456795.280   118011258.458 7      1564.503    22456793.980   118011258.463 7      1564.503    22456808.880    91956824.936 7      1219.093    22456808.140    91956877.946 8      1219.093
G21  20844318.540   109537630.671 7      3125.481    20844316.400   109537630.676 6      3125.481    20844325.080    85354034.924 6      2435.440
R17  20536013.860   109892348.499 7      2299.083    20536013.440   109892348.508 7      2299.083    20536026.080    85471879.227 8      1788.175    20536025.520    85471879.227 8      1788.175
G08  21241014.620   111622272.775 8      3429.244    21241013.380   111622272.770 7      3429.244    21241022.980    86978430.366 7      2672.138    21241023.660    86978433.366 8      2672.138
R15  20121745.940   107524497.546 8      3936.953    20121743.380   107524497.537 7      3936.953    20121755.820    83630212.257 8      3062.074    20121755.840    83630210.260 8      3062.074
R01  22924287.900   122543517.636 6      3956.807    22924288.280   122543517.640 6      3956.807    22924313.640    95311724.703 6      3077.517    22924312.420    95311720.691 6      3077.517
R24  21952999.480   117392534.068 7       236.361    21952999.700   117392534.077 7       236.361    21953013.400    91305367.699 7       183.836    21953014.060    91305354.696 7       183.836
G23  24577050.940   129153271.331 6      -109.021    24577049.820   129153271.341 4      -109.021    24577063.400   100638960.918 4       -84.952    24577063.220   100638971.925 7       -84.952
R16  23946282.240   127916727.656 7      6597.083    23946283.380   127916727.665 7      6597.083    23946296.880    99490841.446 7      5131.064    23946296.860    99490843.450 7      5131.064
G07  24081854.300   126550995.863 7      3086.642    24081853.560   126550995.862 6      3086.642    24081864.320    98611192.105 6      2405.176    24081864.780    98611199.124 7      2405.176
R18  22522226.740   120225204.571 7      4300.799    22522226.460   120225204.556 7      4300.799    22522242.920    93508572.954 7      3345.066    22522243.480    93508574.966 7      3345.066
> 2024 04 02 15 20 16.0000000  0 17
G02  22164491.200   116475199.780 7      3987.179    22164489.280   116475199.779 6      3987.179    22164498.620    90759939.432 6      3106.893
G26  23780688.300   124968358.592 6      -778.122    23780686.500   124968358.602 6      -778.122    23780707.120    97378000.410 6      -606.329    23780707.200    97378005.410 7      -606.329
R02  23634455.540   126117950.739 7      5783.096    23634454.680   126117950.732 7      5783.096    23634478.140    98091827.638 7      4497.963    23634478.620    98091829.635 7      4497.963
G27  21322909.620   112052623.332 8      1747.045    21322908.780   112052623.337 8      1747.045    21322919.540    87313768.116 8      1361.334    21322919.660    87313769.117 8      1361.334
R14  20211373.000   107737942.851 8      -193.153    20211372.540   107737942.857 8      -193.153    20211389.240    83796235.721 8      -150.230    20211389.680    83796233.723 8      -150.230
G16  21500190.640   112984233.613 7       380.925    21500189.300   112984233.623 6       380.925    21500201.540    88039690.335 6       296.825
G10  22456497.700   118009694.157 7      1563.976    22456496.360   118009694.157 7      1563.976    22456511.240    91955605.999 7      1218.682    22456510.540    91955659.013 8      1218.682
G21  20843723.800   109534505.367 7      3124.984    20843721.800   109534505.375 6      3124.984    20843730.240    85351599.625 6      2435.053
R17  20535584.420   109890049.462 8      2298.866    20535583.480   109890049.471 7      2298.866    20535596.500    85470091.083 8      1788.007    20535596.020    85470091.083 8      1788.007
G08  21240361.900   111618843.528 7      3429.157    21240360.800   111618843.525 7      3429.157    21240370.480    86975758.227 8      2672.071    21240371.260    86975761.229 8      2672.071
R15  20121009.680   107520561.005 8      3936.115    20121006.640   107520560.996 7      3936.115    20121019.220    83627150.501 8      3061.423    20121019.080    83627148.504 8      3061.423
R01  22923547.320   122539561.129 6      3956.052    22923547.460   122539561.141 6      3956.052    22923573.480    95308647.440 6      3076.930    22923572.720    95308643.435 6      3076.930
R24  21952955.420   117392297.601 7       236.366    21952955.540   117392297.618 7       236.366    21952969.320    91305183.782 7       183.840    21952969.720    91305170.781 7       183.840
G23  24577071.500   129153380.457 6      -109.338    24577070.460   129153380.465 5      -109.338    24577083.900   100639045.951 4       -85.199    24577083.960   100639056.958 7       -85.199
R16  23945047.460   127910130.788 7      6596.666    23945048.240   127910130.800 7      6596.666    23945061.820    99485710.553 7      5130.740    23945061.660    99485712.553 7      5130.740
G07  24081267.260   126547909.491 7      3086.035    24081266.200   126547909.499 6      3086.035    24081276.960    98608787.146 6      2404.703    24081277.620    98608794.157 7      2404.703
R18  22521421.240   120220903.962 7      4300.395    22521420.380   120220903.960 7      4300.395    22521437.100    93505228.050 7      3344.752    22521437.880    93505230.064 7      3344.752
> 2024 04 02 15 20 17.0000000  0 17
G02  22163732.400   116471212.787 7      3986.681    22163730.600   116471212.789 6      3986.681    22163739.900    90756832.690 6      3106.504
G26  23780836.400   124969137.020 6      -778.608    23780834.640   124969137.033 6      -778.608    23780855.100    97378606.974 6      -606.708    23780855.740    97378611.978 7      -606.708
R02  23633371.160   126112167.708 7      5782.906    23633371.060   126112167.709 7      5782.906    23633394.500    98087329.725 7      4497.816    23633394.880    98087331.722 7      4497.816
G27  21322577.100   112050876.482 8      1746.604    21322576.440   112050876.487 8      1746.604    21322587.160    87312406.932 8      1360.990    21322587.580    87312407.938 8      1360.990
R14  20211409.280   107738136.412 8      -193.987    20211409.060   107738136.413 8      -193.987    20211425.700    83796386.255 8      -150.879    20211425.980    83796384.256 8      -150.879
G16  21500118.060   112983852.891 7       380.383    21500116.780   112983852.901 6       380.383    21500129.180    88039393.664 6       296.402
G10  22456200.240   118008130.527 7      1563.183    22456198.840   118008130.529 7      1563.183    22456213.640    91954387.585 7      1218.065    22456213.100    91954440.603 8      1218.065
G21  20843129.240   109531380.621 8      3124.387    20843127.080   109531380.620 6      3124.387    20843135.740    85349164.755 6      2434.587
R17  20535154.860   109887750.749 7      2298.482    20535154.180   109887750.756 7      2298.482    20535166.820    85468303.195 8      1787.708    20535166.580    85468303.195 8      1787.708
G08  21239709.380   111615414.541 7      3428.701    21239708.240   111615414.538 8      3428.701    21239717.860    86973086.288 7      2671.715    21239718.780    86973089.287 8      2671.715
R15  20120273.140   107516625.426 8      3935.021    20120270.000   107516625.419 7      3935.021    20120282.820    83624089.492 8      3060.572    20120282.700    83624087.498 8      3060.572
R01  22922807.280   122535605.327 6      3955.280    22922807.820   122535605.334 6      3955.280    22922833.500    95305570.716 6      3076.329    22922832.640    95305566.715 6      3076.329
R24  21952910.860   117392061.185 7       236.362    21952911.800   117392061.194 7       236.362    21952925.300    91304999.895 7       183.837    21952925.640    91304986.890 7       183.837
G23  24577092.420   129153490.064 7      -109.908    24577091.420   129153490.071 5      -109.908    24577104.720   100639131.363 4       -85.642    24577104.740   100639142.370 7       -85.642
R16  23943812.840   127903534.300 7      6596.204    23943813.340   127903534.309 7      6596.204    23943826.700    99480579.943 7      5130.381    23943826.860    99480581.942 7      5130.381
G07  24080680.240   126544823.734 7      3085.320    24080678.980   126544823.736 6      3085.320    24080689.780    98606382.654 6      2404.146    24080690.300    98606389.667 7      2404.146
R18  22520615.800   120216603.759 7      4299.936    22520615.300   120216603.757 7      4299.936    22520631.580    93501883.458 7      3344.395    22520632.480    93501885.466 7      3344.395
> 2024 04 02 15 20 18.0000000  0 17
G02  22162973.680   116467226.175 7      3986.547    22162972.020   116467226.180 6      3986.547    22162981.140    90753726.244 6      3106.400
G26  23780984.460   124969915.627 6      -778.679    23780982.880   124969915.635 6      -778.679    23781003.320    97379213.670 6      -606.763    23781003.840    97379218.668 7      -606.763
R02  23632287.280   126106384.683 7      5783.172    23632287.320   126106384.683 7      5783.172    23632310.660    98082831.807 7      4498.023    23632311.060    98082833.805 7      4498.023
G27  21322244.840   112049129.774 8      1746.735    21322244.120   112049129.786 8      1746.735    21322254.740    87311045.863 8      1361.092    21322255.000    87311046.864 8      1361.092
R14  20211445.680   107738330.591 8      -194.356    20211445.480   107738330.592 8      -194.356    20211462.000    83796537.275 8      -151.166    20211462.500    83796535.278 8      -151.166
G16  21500045.800   112983472.610 7       380.234    21500044.460   112983472.620 6       380.234    21500057.000    88039097.331 6       296.286
G10  22455902.640   118006567.466 7      1562.924    22455901.560   118006567.466 7      1562.924    22455916.260    91953169.616 7      1217.863    22455915.580    91953222.630 8      1217.863
G21  20842534.540   109528256.321 8      3124.214    20842532.560   109528256.323 6      3124.214    20842541.120    85346730.240 6      2434.453
R17  20534725.640   109885452.271 8      2298.519    20534724.420   109885452.283 7      2298.519    20534737.360    85466515.492 8      1787.737    20534737.200    85466515.490 8      1787.737
G08  21239056.740   111611985.654 7      3428.906    21239055.740   111611985.657 8      3428.906    21239065.440    86970414.428 8      2671.875    21239066.140    86970417.431 8      2671.875
R15  20119536.560   107512690.696 8      3934.479    20119533.920   107512690.684 8      3934.479    20119546.420    83621029.139 8      3060.151    20119546.260    83621027.147 8      3060.151
R01  22922067.620   122531650.122 6      3955.048    22922067.540   122531650.123 6      3955.048    22922093.840    95302494.454 6      3076.148    22922092.620    95302490.442 6      3076.148
R24  21952866.400   117391824.734 7       236.587    21952867.440   117391824.743 7       236.587    21952881.040    91304815.984 7       184.012    21952881.620    91304802.977 7       184.012
G23  24577113.300   129153600.033 6      -109.921    24577112.420   129153600.041 5      -109.921    24577125.780   100639217.055 4       -85.653    24577125.780   100639228.065 7       -85.653
R16  23942577.720   127896938.062 7      6596.270    23942578.500   127896938.071 7      6596.270    23942591.560    99475449.530 7      5130.432    23942592.020    99475451.533 7      5130.432
G07  24080092.980   126541738.471 6      3085.057    24080092.040   126541738.471 6      3085.057    24080102.740    98603978.551 6      2403.940    24080103.500    98603985.566 7      2403.940
R18  22519810.080   120212303.865 7      4299.821    22519810.020   120212303.866 7      4299.821    22519826.080    93498539.104 7      3344.305    22519826.760    93498541.110 7      3344.305
> 2024 04 02 15 20 19.0000000  0 17
G02  22162214.980   116463239.797 7      3985.967    22162213.420   116463239.805 6      3985.967    22162222.500    90750619.983 6      3105.949
G26  23781132.760   124970694.224 6      -778.933    23781131.280   124970694.231 6      -778.933    23781151.620    97379820.367 6      -606.960    23781152.220    97379825.365 7      -606.960
R02  23631203.540   126100601.537 7      5782.933    23631203.620   126100601.543 7      5782.933    23631227.100    98078333.809 7      4497.836    23631227.220    98078335.807 7      4497.836
G27  21321912.480   112047383.121 8      1746.329    21321911.620   112047383.123 8      1746.329    21321922.440    87309684.824 8      1360.776    21321922.740    87309685.830 8      1360.776
R14  20211482.180   107738525.295 8      -195.295    20211482.280   107738525.298 8      -195.295    20211498.500    83796688.703 8      -151.896    20211498.980    83796686.711 8      -151.896
G16  21499973.160   112983092.629 7       379.533    21499972.260   112983092.642 6       379.533    21499984.540    88038801.240 6       295.740
G10  22455605.460   118005004.837 7      1562.131    22455604.120   118005004.837 7      1562.131    22455618.940    91951951.985 7      1217.245    22455618.300    91952005.003 8      1217.245
G21  20841940.060   109525132.347 8      3123.502    20841938.120   109525132.354 6      3123.502    20841946.720    85344295.979 6      2433.898
R17  20534296.080   109883153.882 7      2298.109    20534295.000   109883153.891 7      2298.109    20534307.860    85464727.858 8      1787.418    20534307.080    85464727.856 8      1787.418
G08  21238404.360   111608556.773 8      3428.590    21238403.260   111608556.772 7      3428.590    21238413.020    86967742.568 8      2671.628    21238413.920    86967745.567 8      2671.628
R15  20118800.720   107508756.648 8      3933.394    20118797.760   107508756.633 7      3933.394    20118810.120    83617969.319 8      3059.307    20118810.200    83617967.327 8      3059.307
R01  22921327.940   122527695.413 6      3954.124    22921326.860   122527695.417 6      3954.124    22921354.020    95299418.586 6      3075.430    22921352.740    95299414.578 6      3075.430
R24  21952822.520   117391588.112 7       236.397    21952823.200   117391588.118 7       236.397    21952836.720    91304631.939 7       183.864    21952837.100    91304618.934 7       183.864
G23  24577134.300   129153710.268 6      -110.727    24577133.340   129153710.276 5      -110.727    24577146.920   100639302.955 4       -86.281    24577146.640   100639313.970 7       -86.281
R16  23941343.180   127890341.964 7      6595.706    23941343.700   127890341.981 7      6595.706    23941356.720    99470319.233 7      5129.993    23941357.300    99470321.234 7      5129.993
G07  24079506.140   126538653.584 6      3084.361    24079505.060   126538653.589 6      3084.361    24079515.700    98601574.741 6      2403.398    24079516.100    98601581.754 7      2403.398
R18  22519004.480   120208004.091 7      4299.350    22519005.200   120208004.087 7      4299.350    22519020.960    93495194.836 7      3343.939    22519021.460    93495196.846 7      3343.939
> 2024 04 02 15 20 20.0000000  0 17
G02  22161456.440   116459254.081 7      3985.744    22161454.860   116459254.086 6      3985.744    22161464.200    90747514.233 6      3105.775
G26  23781280.800   124971473.275 6      -778.997    23781279.360   124971473.288 6      -778.997    23781299.840    97380427.422 6      -607.011    23781300.360    97380432.417 7      -607.011
R02  23630120.000   126094818.749 7      5782.900    23630119.980   126094818.752 7      5782.900    23630143.560    98073836.073 7      4497.811    23630143.860    98073838.072 7      4497.811
G27  21321580.360   112045636.907 8      1746.282    21321579.360   112045636.909 8      1746.282    21321590.080    87308324.134 8      1360.739    21321590.420    87308325.137 8      1360.739
R14  20211518.660   107738720.954 8      -195.810    20211518.860   107738720.949 8      -195.810    20211535.260    83796840.870 8      -152.297    20211535.960    83796838.873 8      -152.297
G16  21499901.160   112982713.373 7       379.196    21499900.000   112982713.383 6       379.196    21499912.320    88038505.710 6       295.478
G10  22455308.140   118003443.061 7      1561.683    22455306.840   118003443.069 7      1561.683    22455321.700    91950735.021 7      1216.896    22455320.960    91950788.039 8      1216.896
G21  20841345.640   109522009.111 8      3123.160    20841343.860   109522009.116 6      3123.160    20841352.380    85341862.290 6      2433.631
R17  20533866.340   109880856.030 8      2297.954    20533865.320   109880856.050 7      2297.954    20533878.300    85462940.642 8      1787.298    20533878.080    85462940.640 8      1787.298
G08  21237751.860   111605128.311 7      3428.518    21237750.940   111605128.308 7      3428.518    21237760.520    86965071.037 7      2671.573    21237761.520    86965074.041 8      2671.573
R15  20118064.480   107504823.690 8      3932.706    20118061.820   107504823.678 7      3932.706    20118074.200    83614910.356 8      3058.771    20118074.320    83614908.364 8      3058.771
R01  22920587.920   122523741.600 6      3953.768    22920587.200   122523741.607 6      3953.768    22920614.160    95296343.404 6      3075.153    22920613.180    95296339.403 6      3075.153
R24  21952778.380   117391351.741 7       236.545    21952778.700   117391351.748 7       236.545    21952792.420    91304448.087 7       183.979    21952793.140    91304435.075 7       183.979
G23  24577155.520   129153821.136 6      -110.915    24577154.420   129153821.147 4      -110.915    24577167.920   100639389.350 4       -86.427    24577167.960   100639400.367 7       -86.427
R16  23940108.520   127883746.426 7      6595.558    23940109.540   127883746.435 7      6595.558    23940122.200    99465189.353 7      5129.878    23940122.360    99465191.357 7      5129.878
G07  24078919.240   126535569.472 6      3084.140    24078918.060   126535569.472 6      3084.140    24078928.860    98599171.535 6      2403.226    24078929.400    98599178.545 7      2403.226
R18  22518198.840   120203704.862 7      4299.306    22518199.460   120203704.858 7      4299.306    22518215.420    93491850.993 7      3343.905    22518215.920    93491853.003 7      3343.905
> 2024 04 02 15 20 21.0000000  0 17
G02  22160698.260   116455268.662 7      3985.130    22160696.440   116455268.665 6      3985.130    22160705.860    90744408.713 6      3105.296
G26  23781428.900   124972252.447 6      -779.489    23781427.780   124972252.452 6      -779.489    23781448.060    97381034.556 6      -607.394    23781448.560    97381039.556 7      -607.394
R02  23629036.500   126089035.907 7      5782.768    23629036.520   126089035.905 7      5782.768    23629059.840    98069338.297 7      4497.708    23629060.160    98069340.296 7      4497.708
G27  21321247.920   112043890.784 8      1745.907    21321247.120   112043890.789 8      1745.907    21321257.900    87306963.517 8      1360.447    21321257.940    87306964.523 8      1360.447
R14  20211555.560   107738917.201 8      -196.704    20211555.820   107738917.193 8      -196.704    20211572.060    83796993.496 8      -152.992    20211572.760    83796991.503 8      -152.992
G16  21499829.120   112982334.477 7       378.535    21499827.960   112982334.487 6       378.535    21499840.300    88038210.456 6       294.962
G10  22455011.160   118001881.793 7      1560.940    22455009.860   118001881.795 7      1560.940    22455024.700    91949518.446 7      1216.317    22455023.960    91949571.460 8      1216.317
G21  20840751.400   109518886.256 8      3122.505    20840749.660   109518886.264 6      3122.505    20840758.100    85339428.899 6      2433.121
R17  20533437.100   109878558.379 8      2297.454    20533436.060   109878558.389 7      2297.454    20533449.020    85461153.572 8      1786.909    20533448.780    85461153.570 8      1786.909
G08  21237099.360   111601699.897 8      3428.219    21237098.580   111601699.892 8      3428.219    21237108.100    86962399.542 8      2671.340    21237108.940    86962402.548 8      2671.340
R15  20117328.640   107500891.485 8      3931.696    20117325.980   107500891.478 7      3931.696    20117338.320    83611851.975 8      3057.986    20117338.460    83611849.982 8      3057.986
R01  22919848.280   122519788.330 6      3952.870    22919847.640   122519788.347 6      3952.870    22919874.500    95293268.661 6      3074.455    22919873.320    95293264.656 6      3074.455
R24  21952734.240   117391115.250 7       236.426    21952734.240   117391115.249 7       236.426    21952747.880    91304264.139 7       183.887    21952748.580    91304251.130 7       183.887
G23  24577176.200   129153932.333 7      -111.575    24577175.600   129153932.343 4      -111.575    24577188.900   100639476.000 4       -86.941    24577189.000   100639487.016 7       -86.941
R16  23938874.000   127877151.035 7      6595.178    23938874.840   127877151.047 7      6595.178    23938887.220    99460059.601 7      5129.583    23938887.460    99460061.602 7      5129.583
G07  24078332.280   126532485.817 6      3083.380    24078331.220   126532485.820 6      3083.380    24078342.060    98596768.691 6      2402.634    24078342.600    98596775.704 7      2402.634
R18  22517393.400   120199405.881 7      4298.657    22517393.840   120199405.874 7      4298.657    22517410.100    93488507.345 7      3343.400    22517410.400    93488509.356 7      3343.400
> 2024 04 02 15 20 22.0000000  0 17
G02  22159940.120   116451283.893 7      3984.526    22159938.120   116451283.897 6      3984.526    22159947.460    90741303.702 6      3104.826
G26  23781577.440   124973032.039 6      -779.767    23781576.280   124973032.042 6      -779.767    23781596.440    97381642.023 6      -607.611    23781596.880    97381647.023 7      -607.611
R02  23627953.040   126083253.437 7      5782.370    23627952.580   126083253.437 7      5782.370    23627976.220    98064840.822 7      4497.399    23627976.500    98064842.821 7      4497.399
G27  21320915.940   112042145.101 8      1745.622    21320914.880   112042145.109 8      1745.622    21320925.660    87305603.242 8      1360.225    21320925.600    87305604.250 8      1360.225
R14  20211592.700   107739114.424 8      -197.586    20211592.780   107739114.416 8      -197.586    20211609.100    83797146.879 8      -153.678    20211609.540    83797144.884 8      -153.678
G16  21499757.240   112981956.288 7       377.945    21499756.040   112981956.298 6       377.945    21499768.400    88037915.757 6       294.502
G10  22454714.100   118000321.373 7      1560.153    22454713.040   118000321.373 7      1560.153    22454727.720    91948302.535 7      1215.703    22454727.280    91948355.547 8      1215.703
G21  20840157.340   109515764.132 8      3121.879    20840155.420   109515764.142 6      3121.879    20840163.920    85336996.081 6      2432.633
R17  20533007.540   109876261.226 8      2297.012    20533006.820   109876261.238 7      2297.012    20533019.580    85459366.901 8      1786.565    20533019.200    85459366.899 8      1786.565
G08  21236447.240   111598271.891 8      3427.911    21236446.120   111598271.890 8      3427.911    21236455.840    86959728.372 8      2671.100    21236456.900    86959731.373 8      2671.100
R15  20116593.000   107496960.403 8      3930.689    20116590.180   107496960.396 7      3930.689    20116602.760    83608794.466 8      3057.203    20116602.540    83608792.476 8      3057.203
R01  22919109.180   122515835.995 6      3951.929    22919108.580   122515836.007 6      3951.929    22919135.780    95290194.631 6      3073.723    22919134.500    95290190.619 6      3073.723
R24  21952689.960   117390879.029 7       236.111    21952690.160   117390879.025 7       236.111    21952703.260    91304080.407 7       183.642    21952704.300    91304067.398 7       183.642
G23  24577197.680   129154044.158 7      -112.005    24577196.840   129154044.162 4      -112.005    24577210.220   100639563.141 4       -87.276    24577210.000   100639574.148 7       -87.276
R16  23937639.380   127870556.216 7      6594.604    23937640.200   127870556.230 7      6594.604    23937652.980    99454930.295 7      5129.137    23937652.880    99454932.298 7      5129.137
G07  24077745.680   126529402.964 7      3082.601    24077744.620   126529402.966 6      3082.601    24077755.480    98594366.463 6      2402.027    24077755.340    98594373.474 7      2402.027
R18  22516588.460   120195107.453 7      4298.334    22516588.940   120195107.443 7      4298.334    22516604.840    93485164.133 7      3343.149    22516605.420    93485166.146 7      3343.149
> 2024 04 02 15 20 23.0000000  0 17
G02  22159181.940   116447299.404 7      3984.304    22159179.980   116447299.406 6      3984.304    22159189.200    90738198.910 6      3104.652
G26  23781726.080   124973811.705 6      -779.756    23781724.560   124973811.705 6      -779.756    23781744.840    97382249.546 6      -607.602    23781745.180    97382254.540 7      -607.602
R02  23626869.200   126077470.897 7      5782.545    23626869.060   126077470.897 7      5782.545    23626892.460    98060343.286 7      4497.535    23626892.820    98060345.282 7      4497.535
G27  21320583.740   112040399.512 8      1745.515    21320582.740   112040399.520 8      1745.515    21320593.460    87304243.035 8      1360.142    21320593.440    87304244.039 8      1360.142
R14  20211629.840   107739312.209 8      -198.126    20211629.820   107739312.204 8      -198.126    20211646.240    83797300.706 8      -154.098    20211646.680    83797298.709 8      -154.098
G16  21499685.560   112981578.454 7       377.557    21499684.220   112981578.466 6       377.557    21499696.500    88037621.337 6       294.200
G10  22454417.360   117998761.450 8      1559.594    22454416.200   117998761.450 7      1559.594    22454430.820    91947087.008 7      1215.268    22454430.560    91947140.022 8      1215.268
G21  20839563.180   109512642.397 8      3121.431    20839561.360   109512642.399 6      3121.431    20839569.880    85334563.554 6      2432.284
R17  20532578.480   109873964.206 8      2296.779    20532577.500   109873964.216 7      2296.779    20532590.380    85457580.324 8      1786.384    20532590.140    85457580.328 8      1786.384
G08  21235794.840   111594843.918 7      3427.892    21235793.860   111594843.918 8      3427.892    21235803.520    86957057.220 8      2671.085    21235804.500    86957060.226 8      2671.085
R15  20115857.420   107493030.098 8      3929.855    20115854.660   107493030.088 7      3929.855    20115867.240    83605737.554 8      3056.554    20115867.360    83605735.557 8      3056.554
R01  22918370.220   122511884.162 6      3951.515    22918369.380   122511884.171 6      3951.515    22918396.280    95287120.992 6      3073.401    22918395.320    95287116.984 6      3073.401
R24  21952645.780   117390642.648 7       236.348    21952645.720   117390642.652 7       236.348    21952659.120    91303896.553 7       183.826    21952660.260    91303883.548 7       183.826
G23  24577219.180   129154156.292 6      -112.404    24577218.180   129154156.302 4      -112.404    24577231.540   100639650.522 4       -87.588    24577231.520   100639661.533 7       -87.588
R16  23936404.300   127863961.557 7      6594.425    23936404.680   127863961.576 7      6594.425    23936418.480    99449801.114 7      5128.997    23936418.300    99449803.117 7      5128.997
G07  24077159.140   126526320.526 7      3082.186    24077158.080   126526320.531 6      3082.186    24077168.960    98591964.564 6      2401.703    24077168.680    98591971.568 7      2401.703
R18  22515782.900   120190809.230 7      4298.110    22515783.320   120190809.220 7      4298.110    22515799.680    93481821.071 7      3342.975    22515799.920    93481823.084 7      3342.975
> 2024 04 02 15 20 24.0000000  0 17
G02  22158423.980   116443315.351 7      3983.657    22158421.860   116443315.359 6      3983.657    22158431.160    90735094.459 6      3104.149
G26  23781874.420   124974591.581 6      -780.095    23781873.120   124974591.589 6      -780.095    23781893.140    97382857.244 6      -607.867    23781893.620    97382862.244 7      -607.867
R02  23625785.480   126071688.434 7      5782.346    23625785.440   126071688.437 7      5782.346    23625808.860    98055845.809 7      4497.380    23625809.380    98055847.809 7      4497.380
G27  21320251.580   112038654.150 8      1745.068    21320250.640   112038654.154 8      1745.068    21320261.340    87302883.010 8      1359.793    21320261.520    87302884.016 8      1359.793
R14  20211667.420   107739510.698 8      -198.950    20211667.280   107739510.688 8      -198.950    20211683.520    83797455.072 8      -154.739    20211684.000    83797453.075 8      -154.739
G16  21499613.620   112981201.105 7       376.979    21499612.380   112981201.113 6       376.979    21499624.640    88037327.289 6       293.750
G10  22454120.560   117997202.155 7      1558.734    22454119.520   117997202.155 7      1558.734    22454134.180    91945871.977 7      1214.598    22454133.760    91945924.985 8      1214.598
G21  20838969.400   109509521.147 8      3120.798    20838967.380   109509521.152 6      3120.798    20838975.940    85332131.414 6      2431.791
R17  20532149.320   109871667.454 8      2296.365    20532148.160   109871667.461 7      2296.365    20532161.260    85455793.959 8      1786.062    20532161.040    85455793.964 8      1786.062
G08  21235142.620   111591416.145 7      3427.532    21235141.600   111591416.145 8      3427.532    21235151.120    86954386.228 8      2670.804    21235152.040    86954389.232 8      2670.804
R15  20115122.320   107489100.677 8      3928.772    20115119.160   107489100.667 7      3928.772    20115131.880    83602681.336 8      3055.711    20115132.020    83602679.345 8      3055.711
R01  22917630.920   122507932.982 6      3950.708    22917629.280   122507932.994 6      3950.708    22917657.260    95284047.879 6      3072.773    22917656.300    95284043.865 6      3072.773
R24  21952601.460   117390406.312 7       236.084    21952601.280   117390406.321 7       236.084    21952614.420    91303712.747 7       183.621    21952615.820    91303699.740 7       183.621
G23  24577240.380   129154268.858 7      -112.984    24577239.600   129154268.868 4      -112.984    24577252.880   100639738.238 4       -88.040    24577252.940   100639749.245 7       -88.040
R16  23935169.860   127857367.215 7      6593.964    23935169.700   127857367.227 7      6593.964    23935184.040    99444672.177 7      5128.639    23935183.780    99444674.181 7      5128.639
G07  24076572.340   126523238.658 7      3081.462    24076571.480   126523238.660 6      3081.462    24076582.340    98589563.104 6      2401.139    24076582.780    98589570.106 7      2401.139
R18  22514978.080   120186511.300 7      4297.627    22514978.080   120186511.304 7      4297.627    22514994.620    93478478.256 7      3342.599    22514994.940    93478480.275 7      3342.599
> 2024 04 02 15 20 25.0000000  0 17
G02  22157665.800   116439331.806 7      3983.621    22157663.720   116439331.813 6      3983.621    22157673.000    90731990.402 6      3104.120
G26  23782022.820   124975371.789 6      -780.003    23782021.480   124975371.807 6      -780.003    23782041.700    97383465.204 6      -607.795    23782042.320    97383470.206 7      -607.795
R02  23624701.520   126065906.134 7      5782.533    23624701.520   126065906.132 7      5782.533    23624725.120    98051348.459 7      4497.525    23624725.660    98051350.454 7      4497.525
G27  21319919.520   112036909.089 8      1745.262    21319918.520   112036909.091 8      1745.262    21319929.320    87301523.219 8      1359.944    21319929.460    87301524.222 8      1359.944
R14  20211704.740   107739709.976 8      -199.371    20211704.620   107739709.963 8      -199.371    20211720.960    83797610.055 8      -155.067    20211721.320    83797608.060 8      -155.067
G16  21499541.860   112980824.346 7       376.777    21499540.800   112980824.358 6       376.777    21499552.940    88037033.706 6       293.592
G10  22453823.980   117995643.559 7      1558.509    22453822.960   117995643.564 7      1558.509    22453837.600    91944657.486 7      1214.422    22453837.340    91944710.494 8      1214.422
G21  20838375.320   109506400.492 8      3120.764    20838373.580   109506400.494 6      3120.764    20838382.080    85329699.736 6      2431.764
R17  20531720.160   109869371.085 8      2296.569    20531719.360   109869371.094 7      2296.569    20531732.160    85454007.894 8      1786.220    20531731.920    85454007.899 8      1786.220
G08  21234490.240   111587988.648 7      3427.671    21234489.360   111587988.645 7      3427.671    21234498.940    86951715.449 8      2670.913    21234499.820    86951718.455 8      2670.913
R15  20114387.040   107485172.253 8      3928.258    20114384.260   107485172.238 8      3928.258    20114396.780    83599625.890 8      3055.312    20114396.840    83599623.898 8      3055.312
R01  22916891.300   122503982.574 6      3950.388    22916890.300   122503982.591 6      3950.388    22916918.520    95280975.354 6      3072.524    22916917.180    95280971.342 6      3072.524
R24  21952557.140   117390170.091 7       236.550    21952557.200   117390170.095 7       236.550    21952570.660    91303529.003 7       183.983    21952571.380    91303516.002 7       183.983
G23  24577261.840   129154381.941 6      -112.971    24577261.200   129154381.948 4      -112.971    24577274.300   100639826.356 4       -88.030    24577274.160   100639837.363 7       -88.030
R16  23933935.020   127850773.261 7      6594.084    23933934.700   127850773.271 7      6594.084    23933949.680    99439543.546 7      5128.732    23933949.620    99439545.548 7      5128.732
G07  24075986.060   126520157.454 7      3081.177    24075985.200   126520157.457 6      3081.177    24075996.060    98587162.164 6      2400.917    24075995.900    98587169.168 7      2400.917
R18  22514173.040   120182213.846 7      4297.509    22514172.840   120182213.836 7      4297.509    22514189.380    93475135.781 7      3342.507    22514189.940    93475137.798 7      3342.507
> 2024 04 02 15 20 26.0000000  0 17
G02  22156907.540   116435348.544 7      3983.186    22156905.840   116435348.549 6      3983.186    22156915.060    90728886.564 6      3103.782
G26  23782170.880   124976152.096 6      -780.266    23782170.020   124976152.103 6      -780.266    23782190.240    97384073.221 6      -608.000    23782190.580    97384078.215 7      -608.000
R02  23623618.320   126060123.727 7      5782.487    23623617.880   126060123.723 7      5782.487    23623641.620    98046851.027 7      4497.490    23623641.860    98046853.022 7      4497.490
G27  21319587.500   112035164.112 8      1744.945    21319586.520   112035164.120 8      1744.945    21319597.200    87300163.497 8      1359.697    21319597.540    87300164.504 8      1359.697
R14  20211741.940   107739909.805 8      -200.094    20211742.140   107739909.803 8      -200.094    20211758.460    83797765.474 8      -155.629    20211758.680    83797763.477 8      -155.629
G16  21499470.440   112980447.935 7       376.231    21499469.100   112980447.945 6       376.231    21499481.380    88036740.391 6       293.167
G10  22453527.500   117994085.462 7      1557.862    22453526.460   117994085.467 7      1557.862    22453541.080    91943443.387 7      1213.918    22453541.340    91943496.395 8      1213.918
G21  20837781.680   109503280.217 8      3120.150    20837779.900   109503280.227 6      3120.150    20837788.440    85327268.359 6      2431.286
R17  20531290.800   109867074.876 8      2296.165    20531290.140   109867074.888 7      2296.165    20531302.960    85452221.956 8      1785.906    20531302.700    85452221.963 8      1785.906
G08  21233838.000   111584561.182 8      3427.543    21233837.160   111584561.179 7      3427.543    21233846.760    86949044.695 8      2670.813    21233847.380    86949047.697 8      2670.813
R15  20113652.180   107481244.558 8      3927.344    20113649.140   107481244.546 7      3927.344    20113661.780    83596571.015 8      3054.601    20113661.800    83596569.022 8      3054.601
R01  22916152.600   122500032.682 6      3949.762    22916151.600   122500032.691 6      3949.762    22916179.140    95277903.222 6      3072.037    22916178.280    95277899.208 6      3072.037
R24  21952513.220   117389933.737 7       236.424    21952512.660   117389933.738 7       236.424    21952526.760    91303345.169 7       183.886    21952527.400    91303332.173 7       183.886
G23  24577283.420   129154495.310 7      -113.465    24577282.780   129154495.320 4      -113.465    24577295.780   100639914.702 4       -88.414    24577295.960   100639925.707 7       -88.414
R16  23932701.180   127844179.487 7      6593.686    23932700.260   127844179.490 6      6593.686    23932715.520    99434415.055 7      5128.422    23932715.060    99434417.056 7      5128.422
G07  24075399.900   126517076.669 7      3080.539    24075399.060   126517076.666 6      3080.539    24075409.820    98584761.546 6      2400.420    24075409.500    98584768.550 7      2400.420
R18  22513368.280   120177916.555 7      4297.218    22513368.100   120177916.545 7      4297.218    22513384.260    93471793.452 7      3342.280    22513385.000    93471795.466 7      3342.280
> 2024 04 02 15 20 27.0000000  0 17
G02  22156149.680   116431365.508 7      3982.697    22156147.800   116431365.513 6      3982.697    22156157.140    90725782.902 6      3103.401
G26  23782319.740   124976932.384 6      -780.487    23782318.680   124976932.397 6      -780.487    23782338.700    97384681.236 6      -608.172    23782339.000    97384686.234 7      -608.172
R02  23622534.480   126054341.286 7      5782.141    23622534.380   126054341.284 7      5782.141    23622557.760    98042353.569 7      4497.220    23622558.360    98042355.568 7      4497.220
G27  21319255.380   112033419.167 8      1744.652    21319254.500   112033419.172 8      1744.652    21319265.260    87298803.791 8      1359.469    21319265.620    87298804.796 8      1359.469
R14  20211779.720   107740110.202 8      -200.974    20211779.940   107740110.195 8      -200.974    20211795.980    83797921.330 8      -156.313    20211796.360    83797919.333 8      -156.313
G16  21499398.860   112980071.801 7       375.726    21499397.520   112980071.814 6       375.726    21499409.780    88036447.291 6       292.774
G10  22453231.040   117992527.796 7      1557.102    22453230.000   117992527.801 7      1557.102    22453244.720    91942229.623 7      1213.326    22453244.860    91942282.625 8      1213.326
G21  20837187.860   109500160.268 7      3119.523    20837186.100   109500160.276 6      3119.523    20837194.620    85324837.226 6      2430.797
R17  20530861.760   109864778.742 8      2295.801    20530861.240   109864778.754 7      2295.801    20530873.860    85450436.070 8      1785.623    20530873.540    85450436.074 8      1785.623
G08  21233185.860   111581133.717 8      3427.180    21233184.920   111581133.717 7      3427.180    21233194.600    86946373.943 7      2670.530    21233195.280    86946376.948 8      2670.530
R15  20112917.260   107477317.548 8      3926.367    20112914.100   107477317.541 8      3926.367    20112926.980    83593516.675 8      3053.841    20112926.800    83593514.685 8      3053.841
R01  22915414.000   122496083.308 6      3948.768    22915412.440   122496083.304 6      3948.768    22915440.740    95274831.487 6      3071.264    22915439.380    95274827.477 6      3071.264
R24  21952468.820   117389697.208 7       236.305    21952468.160   117389697.199 7       236.305    21952482.600    91303161.190 7       183.793    21952483.460    91303148.192 7       183.793
G23  24577305.340   129154608.908 6      -113.904    24577304.420   129154608.916 4      -113.904    24577317.180   100640003.227 4       -88.756    24577317.600   100640014.232 7       -88.756
R16  23931466.440   127837585.818 7      6593.384    23931466.760   127837585.825 7      6593.384    23931480.880    99429286.644 7      5128.188    23931480.880    99429288.654 7      5128.188
G07  24074813.840   126513996.240 7      3079.959    24074812.920   126513996.240 6      3079.959    24074823.640    98582361.208 6      2399.968    24074823.400    98582368.210 7      2399.968
R18  22512562.780   120173619.445 7      4296.733    22512563.340   120173619.432 7      4296.733    22512579.120    93468451.255 7      3341.903    22512579.820    93468453.269 7      3341.903
> 2024 04 02 15 20 28.0000000  0 17
G02  22155391.780   116427382.943 7      3982.250    22155389.940   116427382.953 6      3982.250    22155399.300    90722679.610 6      3103.052
G26  23782468.840   124977712.970 6      -780.756    23782467.140   124977712.977 6      -780.756    23782487.200    97385289.475 6      -608.382    23782487.220    97385294.470 7      -608.382
R02  23621450.740   126048558.992 7      5782.099    23621451.000   126048558.992 7      5782.099    23621474.420    98037856.224 7      4497.188    23621474.820    98037858.222 7      4497.188
G27  21318923.320   112031674.464 8      1744.484    21318922.460   112031674.471 8      1744.484    21318933.160    87297444.278 8      1359.338    21318933.640    87297445.285 8      1359.338
R14  20211817.380   107740311.364 8      -201.609    20211817.540   107740311.359 8      -201.609    20211833.720    83798077.779 8      -156.807    20211834.020    83798075.780 8      -156.807
G16  21499327.400   112979696.200 7       375.212    21499326.040   112979696.215 6       375.212    21499338.400    88036154.610 6       292.373
G10  22452934.640   117990970.771 8      1556.640    22452933.740   117990970.781 7      1556.640    22452948.300    91941016.355 7      1212.966    22452948.780    91941069.355 8      1212.966
G21  20836594.360   109497040.845 7      3119.097    20836592.400   109497040.853 6      3119.097    20836601.000    85322406.509 6      2430.465
R17  20530432.960   109862482.913 8      2295.573    20530432.200   109862482.923 7      2295.573    20530444.860    85448650.425 8      1785.445    20530444.360    85448650.432 8      1785.445
G08  21232533.780   111577706.459 7      3427.106    21232532.740   111577706.461 8      3427.106    21232542.320    86943703.350 8      2670.472    21232543.160    86943706.354 8      2670.472
R15  20112182.500   107473391.477 8      3925.505    20112179.780   107473391.473 7      3925.505    20112192.200    83590463.059 8      3053.171    20112192.040    83590461.067 8      3053.171
R01  22914675.460   122492134.587 6      3948.237    22914674.080   122492134.585 6      3948.237    22914701.900    95271760.276 6      3070.851    22914700.940    95271756.268 6      3070.851
R24  21952424.660   117389460.699 7       236.427    21952424.100   117389460.695 7       236.427    21952438.520    91302977.238 7       183.888    21952439.120    91302964.235 7       183.888
G23  24577326.860   129154722.985 6      -114.374    24577326.220   129154722.995 4      -114.374    24577338.980   100640092.127 4       -89.123    24577339.020   100640103.132 7       -89.123
R16  23930232.680   127830992.572 7      6592.958    23930232.860   127830992.552 7      6592.958    23930246.760    99424158.545 7      5127.856    23930246.820    99424160.544 7      5127.856
G07  24074227.520   126510916.419 6      3079.441    24074226.880   126510916.416 6      3079.441    24074237.440    98579961.341 6      2399.565    24074237.400    98579968.343 7      2399.565
R18  22511757.940   120169322.658 7      4296.502    22511758.120   120169322.648 7      4296.502    22511774.300    93465109.316 7      3341.724    22511774.840    93465111.326 7      3341.724
> 2024 04 02 15 20 29.0000000  0 17
G02  22154634.060   116423400.866 7      3981.813    22154632.140   116423400.874 6      3981.813    22154641.480    90719576.697 6      3102.711
G26  23782617.240   124978493.813 6      -780.926    23782615.680   124978493.813 6      -780.926    23782635.880    97385897.918 6      -608.513    23782635.900    97385902.916 7      -608.513
R02  23620367.140   126042776.881 7      5782.070    23620367.800   126042776.877 7      5782.070    23620391.020    98033359.019 7      4497.165    23620391.020    98033361.018 7      4497.165
G27  21318591.400   112029930.047 8      1744.329    21318590.460   112029930.052 8      1744.329    21318601.300    87296084.990 8      1359.217    21318601.840    87296085.995 8      1359.217
R14  20211855.400   107740513.302 8      -202.310    20211855.500   107740513.303 8      -202.310    20211871.500    83798234.840 8      -157.352    20211872.060    83798232.841 8      -157.352
G16  21499256.100   112979321.158 7       374.739    21499254.620   112979321.171 6       374.739    21499267.080    88035862.362 6       292.004
G10  22452638.420   117989414.468 8      1555.945    22452637.580   117989414.468 7      1555.945    22452652.240    91939803.648 7      1212.425    22452652.400    91939856.649 8      1212.425
G21  20836000.700   109493922.008 8      3118.533    20835999.000   109493922.015 6      3118.533    20836007.620    85319976.252 6      2430.025
R17  20530003.640   109860187.481 8      2295.301    20530003.380   109860187.498 7      2295.301    20530015.800    85446865.091 8      1785.234    20530015.460    85446865.097 8      1785.234
G08  21231881.720   111574279.448 7      3427.014    21231880.620   111574279.445 7      3427.014    21231890.120    86941032.950 7      2670.401    21231891.160    86941035.953 8      2670.401
R15  20111447.820   107469466.361 8      3924.647    20111445.180   107469466.354 7      3924.647    20111457.720    83587410.193 8      3052.503    20111457.560    83587408.200 8      3052.503
R01  22913937.320   122488186.606 6      3947.585    22913935.280   122488186.607 6      3947.585    22913963.420    95268689.644 6      3070.344    22913962.220    95268685.643 6      3070.344
R24  21952380.560   117389224.293 7       236.326    21952380.300   117389224.305 7       236.326    21952394.540    91302793.376 7       183.809    21952394.960    91302780.369 7       183.809
G23  24577348.240   129154837.573 6      -114.938    24577348.160   129154837.581 4      -114.938    24577360.660   100640181.417 4       -89.562    24577360.800   100640192.420 7       -89.562
R16  23928998.440   127824399.652 7      6592.751    23928999.200   127824399.642 7      6592.751    23929012.320    99419030.727 7      5127.695    23929012.700    99419032.726 7      5127.695
G07  24073641.360   126507837.221 6      3078.883    24073640.880   126507837.218 6      3078.883    24073651.660    98577561.970 6      2399.129    24073652.140    98577568.970 7      2399.129
R18  22510953.260   120165026.279 7      4296.239    22510953.480   120165026.272 7      4296.239    22510969.620    93461767.692 7      3341.519    22510970.060    93461769.698 7      3341.519
> 2024 04 02 15 20 30.0000000  0 17
G02  22153876.480   116419419.131 7      3981.533    22153874.580   116419419.136 6      3981.533    22153883.720    90716474.048 6      3102.493
G26  23782765.820   124979274.795 6      -781.076    23782764.280   124979274.803 6      -781.076    23782784.560    97386506.473 6      -608.631    23782784.320    97386511.477 7      -608.631
R02  23619283.540   126036994.717 7      5782.276    23619284.280   126036994.723 7      5782.276    23619307.380    98028861.782 7      4497.326    23619307.600    98028863.784 7      4497.326
G27  21318259.400   112028185.790 8      1744.204    21318258.600   112028185.795 8      1744.204    21318269.340    87294725.825 8      1359.120    21318270.040    87294726.828 8      1359.120
R14  20211893.420   107740715.909 8      -202.956    20211893.540   107740715.907 8      -202.956    20211909.540    83798392.408 8      -157.855    20211909.980    83798390.411 8      -157.855
G16  21499184.880   112978946.514 7       374.456    21499183.320   112978946.527 6       374.456    21499195.900    88035570.425 6       291.784
G10  22452342.460   117987858.702 7      1555.474    22452341.460   117987858.707 7      1555.474    22452356.160    91938591.366 7      1212.058    22452356.200    91938644.368 8      1212.058
G21  20835407.340   109490803.604 7      3118.133    20835405.560   109490803.614 6      3118.133    20835414.060    85317546.332 6      2429.714
R17  20529574.720   109857892.288 7      2295.113    20529574.420   109857892.306 8      2295.113    20529586.980    85445079.943 8      1785.088    20529586.700    85445079.944 8      1785.088
G08  21231229.460   111570852.568 7      3426.783    21231228.440   111570852.568 8      3426.783    21231238.060    86938362.652 8      2670.220    21231239.160    86938365.660 8      2670.220
R15  20110713.760   107465542.041 8      3923.919    20110710.620   107465542.037 8      3923.919    20110723.340    83584357.940 8      3051.937    20110723.220    83584355.947 8      3051.937
R01  22913198.780   122484239.218 6      3947.004    22913196.880   122484239.233 6      3947.004    22913225.240    95265619.475 6      3069.892    22913223.720    95265615.467 6      3069.892
R24  21952336.140   117388987.816 7       236.567    21952336.360   117388987.814 7       236.567    21952350.720    91302609.428 7       183.997    21952350.820    91302596.427 7       183.997
G23  24577370.220   129154952.472 6      -115.116    24577370.160   129154952.480 4      -115.116    24577382.400   100640270.951 4       -89.701    24577382.580   100640281.952 7       -89.701
R16  23927764.380   127817806.999 7      6592.527    23927765.180   127817806.987 7      6592.527    23927778.620    99413903.099 7      5127.521    23927778.480    99413905.098 7      5127.521
G07  24073055.920   126504758.498 7      3078.500    24073055.080   126504758.500 6      3078.500    24073065.700    98575162.963 6      2398.831    24073065.940    98575169.967 7      2398.831
R18  22510148.540   120160730.181 7      4296.011    22510148.440   120160730.179 7      4296.011    22510164.940    93458426.290 7      3341.342    22510165.360    93458428.295 7      3341.342
> 2024 04 02 15 20 31.0000000  0 17
G02  22153119.020   116415437.822 7      3981.164    22153116.840   116415437.821 6      3981.164    22153126.160    90713371.731 6      3102.206
G26  23782914.600   124980056.025 6      -781.336    23782913.000   124980056.027 6      -781.336    23782933.100    97387115.217 6      -608.834    23782933.280    97387120.215 7      -608.834
R02  23618200.160   126031212.666 7      5782.114    23618200.720   126031212.672 7      5782.114    23618223.820    98024364.627 7      4497.200    23618224.180    98024366.630 7      4497.200
G27  21317927.560   112026441.752 8      1743.955    21317926.740   112026441.757 8      1743.955    21317937.460    87293366.830 8      1358.926    21317938.060    87293367.833 8      1358.926
R14  20211931.620   107740919.224 8      -203.611    20211931.820   107740919.222 8      -203.611    20211947.740    83798550.534 8      -158.364    20211948.280    83798548.537 8      -158.364
G16  21499113.700   112978572.384 7       373.986    21499112.180   112978572.394 6       373.986    21499124.680    88035278.885 6       291.417
G10  22452046.640   117986303.548 7      1554.984    22452045.440   117986303.550 7      1554.984    22452060.260    91937379.558 7      1211.676    22452059.980    91937432.555 8      1211.676
G21  20834813.920   109487685.708 8      3117.743    20834812.280   109487685.715 6      3117.743    20834820.780    85315116.796 6      2429.410
R17  20529145.900   109855597.401 8      2294.838    20529145.420   109855597.416 8      2294.838    20529158.120    85443295.027 8      1784.874    20529157.820    85443295.027 8      1784.874
G08  21230577.460   111567425.857 7      3426.669    21230576.460   111567425.859 8      3426.669    21230585.920    86935692.487 8      2670.131    21230586.860    86935695.493 8      2670.131
R15  20109979.040   107461618.608 8      3923.067    20109976.400   107461618.604 8      3923.067    20109989.040    83581306.378 8      3051.275    20109989.000    83581304.388 8      3051.275
R01  22912460.540   122480292.507 6      3946.360    22912458.280   122480292.513 6      3946.360    22912486.940    95262549.819 6      3069.391    22912485.500    95262545.811 6      3069.391
R24  21952292.180   117388751.349 7       236.549    21952291.400   117388751.350 7       236.549    21952306.360    91302425.511 7       183.983    21952306.440    91302412.511 7       183.983
G23  24577392.180   129155067.838 6      -115.552    24577392.040   129155067.846 4      -115.552    24577404.320   100640360.849 4       -90.040    24577404.680   100640371.860 7       -90.040
R16  23926530.380   127811214.631 7      6592.358    23926530.820   127811214.627 7      6592.358    23926544.220    99408775.702 7      5127.390    23926544.000    99408777.704 7      5127.390
G07  24072470.100   126501680.353 6      3077.914    24072469.340   126501680.358 6      3077.914    24072479.780    98572764.410 6      2398.375    24072480.020    98572771.419 7      2398.375
R18  22509343.520   120156434.413 7      4295.669    22509343.940   120156434.414 7      4295.669    22509360.420    93455085.146 7      3341.076    22509360.620    93455087.150 7      3341.076
> 2024 04 02 15 20 32.0000000  0 17
G02  22152361.300   116411456.683 7      3981.008    22152359.300   116411456.690 6      3981.008    22152368.400    90710269.554 6      3102.084
G26  23783062.880   124980837.196 6      -781.188    23783061.540   124980837.201 6      -781.188    23783081.740    97387723.916 6      -608.718    23783081.680    97387728.918 7      -608.718
R02  23617116.680   126025430.459 7      5782.364    23617117.120   126025430.460 7      5782.364    23617140.080    98019867.345 7      4497.394    23617140.440    98019869.344 7      4497.394
G27  21317595.720   112024697.687 8      1744.021    21317594.820   112024697.689 8      1744.021    21317605.640    87292007.812 8      1358.978    21317606.260    87292008.815 8      1358.978
R14  20211969.740   107741122.985 8      -204.062    20211969.980   107741122.983 8      -204.062    20211985.900    83798709.005 8      -158.715    20211986.540    83798707.009 8      -158.715
G16  21499042.540   112978198.499 7       373.696    21499041.040   112978198.512 6       373.696    21499053.400    88034987.540 6       291.192
G10  22451750.660   117984748.793 7      1554.608    22451749.620   117984748.798 7      1554.608    22451764.320    91936168.061 7      1211.383    22451764.080    91936221.062 8      1211.383
G21  20834220.740   109484568.084 7      3117.448    20834219.060   109484568.089 6      3117.448    20834227.600    85312687.479 6      2429.181
R17  20528717.060   109853302.517 8      2294.817    20528716.720   109853302.535 7      2294.817    20528729.280    85441510.119 8      1784.858    20528729.020    85441510.115 8      1784.858
G08  21229925.460   111563999.093 7      3426.722    21229924.200   111563999.093 8      3426.722    21229933.920    86933022.277 8      2670.173    21229934.780    86933025.283 8      2670.173
R15  20109245.420   107457695.830 8      3922.422    20109242.560   107457695.823 8      3922.422    20109255.100    83578255.322 8      3050.773    20109254.820    83578253.330 8      3050.773
R01  22911722.620   122476346.199 6      3946.011    22911720.560   122476346.203 6      3946.011    22911748.980    95259480.474 6      3069.120    22911747.480    95259476.469 6      3069.120
R24  21952248.000   117388514.681 7       236.658    21952247.280   117388514.680 7       236.658    21952261.940    91302241.429 7       184.067    21952262.360    91302228.428 7       184.067
G23  24577414.280   129155183.376 7      -115.746    24577413.960   129155183.388 4      -115.746    24577426.280   100640450.882 4       -90.192    24577426.740   100640461.895 7       -90.192
R16  23925295.880   127804622.347 7      6592.211    23925296.200   127804622.356 7      6592.211    23925309.900    99403648.380 7      5127.275    23925310.160    99403650.384 7      5127.275
G07  24071884.620   126498602.531 7      3077.559    24071883.520   126498602.539 6      3077.559    24071894.220    98570366.110 6      2398.098    24071894.280    98570373.114 7      2398.098
R18  22508538.920   120152138.739 7      4295.565    22508539.040   120152138.740 7      4295.565    22508556.000    93451744.069 7      3340.995    22508556.040    93451746.075 7      3340.995
> 2024 04 02 15 20 33.0000000  0 17
G02  22151603.720   116407476.104 7      3980.269    22151601.920   116407476.109 6      3980.269    22151610.980    90707167.808 6      3101.509
G26  23783211.760   124981618.730 6      -781.738    23783210.280   124981618.733 6      -781.738    23783230.500    97388332.900 6      -609.146    23783230.520    97388337.900 7      -609.146
R02  23616033.340   126019648.525 7      5781.778    23616033.300   126019648.523 7      5781.778    23616056.640    98015370.285 7      4496.938    23616057.100    98015372.286 7      4496.938
G27  21317263.980   112022953.956 8      1743.567    21317262.960   112022953.956 8      1743.567    21317273.760    87290649.056 8      1358.624    21317274.240    87290650.062 8      1358.624
R14  20212008.000   107741327.553 8      -204.990    20212008.440   107741327.557 8      -204.990    20212024.360    83798868.111 8      -159.437    20212024.740    83798866.116 8      -159.437
G16  21498971.380   112977825.218 7       372.923    21498970.040   112977825.231 6       372.923    21498982.460    88034696.666 6       290.589
G10  22451455.200   117983194.803 7      1553.539    22451453.860   117983194.800 7      1553.539    22451468.640    91934957.159 7      1210.550    22451468.400    91935010.155 8      1210.550
G21  20833627.460   109481451.086 7      3116.622    20833625.880   109481451.089 6      3116.622    20833634.400    85310258.651 6      2428.536
R17  20528288.680   109851008.034 8      2294.171    20528287.900   109851008.049 7      2294.171    20528300.680    85439725.515 8      1784.355    20528300.040    85439725.515 8      1784.355
G08  21229273.300   111560572.616 7      3426.315    21229272.260   111560572.618 7      3426.315    21229281.860    86930352.297 7      2669.856    21229282.660    86930355.305 8      2669.856
R15  20108511.220   107453774.048 8      3921.273    20108508.540   107453774.041 7      3921.273    20108521.100    83575205.048 8      3049.879    20108520.940    83575203.053 8      3049.879
R01  22910984.240   122472400.682 6      3945.043    22910981.720   122472400.689 6      3945.043    22911010.780    95256411.758 6      3068.367    22911009.400    95256407.752 6      3068.367
R24  21952203.720   117388278.113 7       236.494    21952202.840   117388278.111 7       236.494    21952217.700    91302057.422 7       183.940    21952218.220    91302044.422 7       183.940
G23  24577436.240   129155299.473 6      -116.476    24577436.020   129155299.483 4      -116.476    24577448.360   100640541.353 4       -90.760    24577448.360   100640552.360 7       -90.760
R16  23924062.120   127798030.516 7      6591.477    23924062.320   127798030.523 7      6591.477    23924075.960    99398521.397 7      5126.704    23924076.040    99398523.396 7      5126.704
G07  24071299.120   126495525.398 6      3076.731    24071297.880   126495525.400 6      3076.731    24071308.640    98567968.337 6      2397.452    24071308.980    98567975.334 7      2397.452
R18  22507734.280   120147843.524 7      4295.022    22507733.780   120147843.522 7      4295.022    22507751.420    93448403.354 7      3340.573    22507751.120    93448405.360 7      3340.573
> 2024 04 02 15 20 34.0000000  0 17
G02  22150846.400   116403495.843 7      3980.110    22150844.500   116403495.845 6      3980.110    22150853.680    90704066.310 6      3101.384
G26  23783360.220   124982400.370 6      -781.596    23783358.960   124982400.372 6      -781.596    23783379.140    97388941.967 6      -609.036    23783379.340    97388946.967 7      -609.036
R02  23614950.040   126013866.580 7      5782.014    23614950.040   126013866.572 7      5782.014    23614973.340    98010873.208 7      4497.122    23614973.500    98010875.205 7      4497.122
G27  21316932.060   112021210.359 8      1743.585    21316931.240   112021210.361 8      1743.585    21316941.980    87289290.411 8      1358.638    21316942.480    87289291.413 8      1358.638
R14  20212046.600   107741532.769 8      -205.421    20212046.860   107741532.770 8      -205.421    20212062.840    83799027.715 8      -159.772    20212063.260    83799025.718 8      -159.772
G16  21498900.580   112977452.321 7       372.780    21498899.120   112977452.333 6       372.780    21498911.520    88034406.092 6       290.478
G10  22451159.520   117981641.309 7      1553.312    22451158.180   117981641.311 7      1553.312    22451172.980    91933746.649 7      1210.373    22451172.440    91933799.648 8      1210.373
G21  20833034.600   109478334.496 8      3116.373    20833032.720   109478334.506 6      3116.373    20833041.280    85307830.147 6      2428.343
R17  20527859.820   109848713.738 8      2294.198    20527859.080   109848713.756 7      2294.198    20527871.840    85437941.065 8      1784.376    20527871.680    85437941.067 8      1784.376
G08  21228621.300   111557146.235 7      3426.455    21228620.260   111557146.235 7      3426.455    21228629.820    86927682.390 8      2669.965    21228630.760    86927685.394 8      2669.965
R15  20107777.620   107449853.073 8      3920.632    20107774.800   107449853.066 7      3920.632    20107787.380    83572155.403 8      3049.381    20107787.100    83572153.406 8      3049.381
R01  22910245.920   122468455.735 6      3944.585    22910243.920   122468455.747 6      3944.585    22910272.760    95253343.484 6      3068.011    22910271.260    95253339.479 7      3068.011
R24  21952159.840   117388041.488 7       236.745    21952158.180   117388041.476 7       236.745    21952173.340    91301873.373 7       184.135    21952173.660    91301860.370 7       184.135
G23  24577458.760   129155415.877 6      -116.464    24577458.220   129155415.884 4      -116.464    24577470.560   100640632.060 4       -90.751    24577470.340   100640643.063 7       -90.751
R16  23922828.100   127791438.867 7      6591.651    23922828.220   127791438.863 7      6591.651    23922841.980    99393394.552 7      5126.840    23922842.040    99393396.554 7      5126.840
G07  24070713.540   126492448.724 7      3076.503    24070712.560   126492448.721 6      3076.503    24070723.100    98565570.923 6      2397.275    24070723.720    98565577.930 7      2397.275
R18  22506929.240   120143548.520 7      4295.048    22506929.280   120143548.521 7      4295.048    22506946.900    93445062.812 7      3340.593    22506946.620    93445064.822 7      3340.593
> 2024 04 02 15 20 35.0000000  0 17
G02  22150088.980   116399515.921 7      3979.681    22150087.160   116399515.926 6      3979.681    22150096.280    90700965.074 6      3101.050
G26  23783509.160   124983182.153 6      -781.792    23783507.860   124983182.158 6      -781.792    23783528.120    97389551.143 6      -609.188    23783528.120    97389556.139 7      -609.188
R02  23613866.700   126008084.616 7      5781.828    23613866.280   126008084.614 7      5781.828    23613889.660    98006376.121 7      4496.977    23613889.940    98006378.118 7      4496.977
G27  21316600.300   112019466.890 7      1743.331    21316599.420   112019466.895 8      1743.331    21316610.180    87287931.860 8      1358.440    21316610.820    87287932.862 8      1358.440
R14  20212085.120   107741738.652 8      -206.262    20212085.600   107741738.652 8      -206.262    20212101.640    83799187.838 8      -160.426    20212102.000    83799185.841 8      -160.426
G16  21498829.560   112977079.852 7       372.182    21498828.320   112977079.859 6       372.182    21498840.700    88034115.846 6       290.012
G10  22450864.120   117980088.380 7      1552.576    22450862.720   117980088.385 7      1552.576    22450877.460    91932536.570 7      1209.799    22450876.880    91932589.570 8      1209.799
G21  20832441.720   109475218.333 7      3115.854    20832439.740   109475218.341 6      3115.854    20832448.240    85305401.966 6      2427.938
R17  20527431.000   109846419.686 8      2293.840    20527430.340   109846419.703 8      2293.840    20527443.100    85436156.802 8      1784.098    20527442.760    85436156.804 8      1784.098
G08  21227969.300   111553719.981 7      3426.066    21227968.240   111553719.981 7      3426.066    21227977.760    86925012.580 7      2669.662    21227978.600    86925015.581 8      2669.662
R15  20107043.960   107445932.913 8      3919.680    20107041.140   107445932.911 7      3919.680    20107053.840    83569106.385 8      3048.640    20107053.600    83569104.386 8      3048.640
R01  22909507.500   122464511.370 6      3943.979    22909505.780   122464511.379 6      3943.979    22909535.220    95250275.657 6      3067.540    22909533.700    95250271.648 6      3067.540
R24  21952115.320   117387804.783 7       236.694    21952113.980   117387804.777 7       236.694    21952128.940    91301689.263 7       184.095    21952129.540    91301676.258 7       184.095
G23  24577481.320   129155532.646 6      -117.062    24577480.340   129155532.654 4      -117.062    24577492.620   100640723.057 4       -91.217    24577492.440   100640734.066 7       -91.217
R16  23921594.400   127784847.477 7      6591.193    23921594.360   127784847.476 7      6591.193    23921607.740    99388267.912 7      5126.483    23921608.120    99388269.913 7      5126.483
G07  24070127.700   126489372.534 7      3075.915    24070127.200   126489372.531 6      3075.915    24070137.640    98563173.884 6      2396.817    24070138.320    98563180.890 7      2396.817
R18  22506124.940   120139253.777 7      4294.573    22506124.800   120139253.784 7      4294.573    22506142.400    93441722.461 7      3340.223    22506142.200    93441724.469 7      3340.223
> 2024 04 02 15 20 36.0000000  0 17
G02  22149331.700   116395536.461 7      3979.099    22149329.900   116395536.468 6      3979.099    22149339.060    90697864.200 6      3100.596
G26  23783658.040   124983964.203 6      -782.283    23783656.440   124983964.207 6      -782.283    23783676.880    97390160.530 6      -609.571    23783677.260    97390165.528 7      -609.571
R02  23612783.080   126002302.743 7      5781.788    23612782.620   126002302.736 7      5781.788    23612806.120    98001879.103 7      4496.947    23612806.600    98001881.098 7      4496.947
G27  21316268.540   112017723.680 7      1743.002    21316267.720   112017723.682 8      1743.002    21316278.500    87286573.508 8      1358.183    21316279.060    87286574.509 8      1358.183
R14  20212124.040   107741945.288 8      -207.081    20212124.460   107741945.286 8      -207.081    20212140.200    83799348.541 8      -161.063    20212140.780    83799346.546 8      -161.063
G16  21498758.980   112976707.884 7       371.587    21498757.620   112976707.897 6       371.587    21498770.000    88033825.998 6       289.548
G10  22450568.540   117978536.093 7      1551.921    22450567.320   117978536.093 7      1551.921    22450582.000    91931326.994 7      1209.289    22450581.720    91931379.993 8      1209.289
G21  20831848.820   109472102.696 7      3115.259    20831846.920   109472102.704 6      3115.259    20831855.520    85302974.199 6      2427.475
R17  20527002.240   109844125.960 8      2293.505    20527001.880   109844125.978 7      2293.505    20527014.420    85434372.789 8      1783.837    20527014.100    85434372.789 8      1783.837
G08  21227317.460   111550293.905 8      3425.879    21227316.240   111550293.905 7      3425.879    21227325.880    86922342.908 8      2669.516    21227326.680    86922345.914 8      2669.516
R15  20106310.500   107442013.637 8      3918.799    20106307.720   107442013.636 7      3918.799    20106320.240    83566058.057 8      3047.955    20106319.980    83566056.059 8      3047.955
R01  22908769.900   122460567.679 6      3943.250    22908767.460   122460567.707 6      3943.250    22908797.700    95247208.367 6      3066.972    22908796.040    95247204.368 6      3066.972
R24  21952071.320   117387568.111 7       236.563    21952069.880   117387568.112 7       236.563    21952084.400    91301505.184 7       183.993    21952085.120    91301492.183 7       183.993
G23  24577503.460   129155649.849 6      -117.369    24577502.600   129155649.857 4      -117.369    24577514.860   100640814.384 4       -91.457    24577514.760   100640825.395 7       -91.457
R16  23920360.600   127778256.408 7      6590.846    23920360.900   127778256.407 7      6590.846    23920373.840    99383141.518 7      5126.213    23920374.420    99383143.524 7      5126.213
G07  24069542.620   126486296.938 7      3075.189    24069542.040   126486296.938 6      3075.189    24069552.480    98560777.315 6      2396.251    24069552.800    98560784.318 7      2396.251
R18  22505320.460   120134959.451 7      4294.061    22505320.660   120134959.441 7      4294.061    22505337.780    93438382.423 7      3339.825    22505337.460    93438384.438 7      3339.825
> 2024 04 02 15 20 37.0000000  0 17
G02  22148574.640   116391557.540 7      3978.587    22148572.700   116391557.547 6      3978.587    22148581.880    90694763.746 6      3100.197
G26  23783806.820   124984746.577 6      -782.675    23783805.420   124984746.577 6      -782.675    23783825.700    97390770.167 6      -609.876    23783825.900    97390775.163 7      -609.876
R02  23611699.520   125996521.094 7      5781.537    23611699.200   125996521.079 7      5781.537    23611722.500    97997382.254 7      4496.751    23611723.160    97997384.247 7      4496.751
G27  21315937.020   112015980.813 8      1742.656    21315936.020   112015980.818 8      1742.656    21315946.940    87285215.428 8      1357.914    21315947.080    87285216.429 8      1357.914
R14  20212163.140   107742152.746 8      -207.908    20212163.320   107742152.741 8      -207.908    20212179.200    83799509.888 8      -161.706    20212179.620    83799507.893 8      -161.706
G16  21498688.140   112976336.532 7       371.015    21498686.860   112976336.540 6       371.015    21498699.340    88033536.624 6       289.103
G10  22450273.280   117976984.559 7      1551.153    22450272.040   117976984.562 7      1551.153    22450286.880    91930118.008 7      1208.691    22450286.320    91930171.008 8      1208.691
G21  20831256.180   109468987.687 8      3114.700    20831254.060   109468987.697 6      3114.700    20831262.700    85300546.926 6      2427.039
R17  20526573.400   109841832.644 8      2293.030    20526573.380   109841832.658 7      2293.030    20526585.960    85432589.094 8      1783.468    20526585.360    85432589.096 8      1783.468
G08  21226665.360   111546868.145 7      3425.588    21226664.300   111546868.142 8      3425.588    21226674.000    86919673.483 8      2669.289    21226674.520    86919676.486 8      2669.289
R15  20105577.240   107438095.379 8      3917.744    20105574.660   107438095.373 8      3917.744    20105587.160    83563010.520 8      3047.134    20105587.140    83563008.521 8      3047.134
R01  22908032.080   122456624.816 6      3942.449    22908029.600   122456624.823 6      3942.449    22908059.780    95244141.698 6      3066.350    22908058.640    95244137.691 7      3066.350
R24  21952026.700   117387331.612 7       236.418    21952025.800   117387331.618 7       236.418    21952039.920    91301321.236 7       183.880    21952040.920    91301308.235 7       183.880
G23  24577525.860   129155767.623 6      -117.942    24577525.100   129155767.630 4      -117.942    24577537.340   100640906.162 4       -91.903    24577537.660   100640917.173 7       -91.903
R16  23919126.860   127771665.782 7      6590.441    23919126.740   127771665.791 7      6590.441    23919140.400    99378015.478 7      5125.898    23919140.420    99378017.481 7      5125.898
G07  24068957.380   126483221.999 7      3074.617    24068956.660   126483222.001 6      3074.617    24068967.320    98558381.265 6      2395.805    24068967.860    98558388.271 7      2395.805
R18  22504516.080   120130665.595 7      4293.526    22504516.280   120130665.582 7      4293.526    22504533.320    93435042.765 7      3339.409    22504533.280    93435044.778 7      3339.409
> 2024 04 02 15 20 38.0000000  0 17
G02  22147817.620   116387579.250 7      3978.228    22147815.600   116387579.260 6      3978.228    22147824.660    90691663.786 6      3099.918
G26  23783955.720   124985529.370 6      -782.804    23783954.420   124985529.378 6      -782.804    23783974.800    97391380.131 6      -609.977    23783975.060    97391385.129 7      -609.977
R02  23610615.760   125990739.728 7      5781.565    23610615.360   125990739.721 7      5781.565    23610639.180    97992885.642 7      4496.773    23610639.520    97992887.635 7      4496.773
G27  21315605.540   112014238.369 8      1742.529    21315604.460   112014238.369 8      1742.529    21315615.320    87283857.674 8      1357.815    21315615.860    87283858.675 8      1357.815
R14  20212202.100   107742361.102 8      -208.510    20212202.360   107742361.094 8      -208.510    20212218.280    83799671.932 8      -162.174    20212218.740    83799669.937 8      -162.174
G16  21498617.780   112975965.873 7       370.601    21498616.240   112975965.881 6       370.601    21498628.600    88033247.789 6       288.780
G10  22449978.040   117975433.859 7      1550.577    22449976.960   117975433.859 7      1550.577    22449991.680    91928909.670 7      1208.242    22449991.360    91928962.674 8      1208.242
G21  20830663.420   109465873.409 8      3114.220    20830661.380   109465873.413 6      3114.220    20830670.060    85298120.215 6      2426.665
R17  20526145.140   109839539.790 7      2292.887    20526144.840   109839539.802 7      2292.887    20526157.460    85430805.766 8      1783.357    20526156.900    85430805.768 8      1783.357
G08  21226013.660   111543442.776 7      3425.496    21226012.500   111543442.771 7      3425.496    21226022.060    86917004.360 8      2669.218    21226022.960    86917007.364 8      2669.218
R15  20104844.340   107434178.244 8      3916.801    20104841.320   107434178.240 8      3916.801    20104854.120    83559963.859 8      3046.401    20104853.760    83559961.862 8      3046.401
R01  22907294.360   122452682.833 6      3941.717    22907292.680   122452682.845 6      3941.717    22907322.200    95241075.723 6      3065.780    22907320.940    95241071.722 7      3065.780
R24  21951982.640   117387095.351 7       236.418    21951982.120   117387095.352 7       236.418    21951995.640    91301137.473 7       183.880    21951996.480    91301124.468 7       183.880
G23  24577548.420   129155886.071 7      -118.533    24577547.480   129155886.076 4      -118.533    24577559.680   100640998.467 4       -92.363    24577560.060   100641009.458 7       -92.363
R16  23917892.880   127765075.709 7      6590.186    23917893.080   127765075.721 7      6590.186    23917906.740    99372889.868 7      5125.700    23917907.440    99372891.883 7      5125.700
G07  24068372.380   126480147.861 6      3074.013    24068371.680   126480147.866 6      3074.013    24068382.240    98555985.831 6      2395.335    24068382.940    98555992.839 7      2395.335
R18  22503711.700   120126372.235 7      4293.463    22503712.680   120126372.225 7      4293.463    22503728.700    93431703.492 7      3339.360    22503728.720    93431705.502 7      3339.360
> 2024 04 02 15 20 39.0000000  0 17
G02  22147060.600   116383601.185 7      3977.823    22147058.480   116383601.190 6      3977.823    22147067.720    90688563.998 6      3099.602
G26  23784104.560   124986312.187 6      -782.981    23784103.400   124986312.186 6      -782.981    23784123.860    97391990.108 6      -610.115    23784123.820    97391995.097 7      -610.115
R02  23609532.340   125984958.274 7      5781.394    23609532.040   125984958.267 7      5781.394    23609555.820    97988388.947 7      4496.640    23609556.420    97988390.945 7      4496.640
G27  21315274.000   112012495.949 7      1742.267    21315272.900   112012495.954 8      1742.267    21315283.760    87282499.938 8      1357.610    21315284.120    87282500.945 8      1357.610
R14  20212241.340   107742569.942 8      -209.171    20212241.620   107742569.940 8      -209.171    20212257.440    83799834.354 8      -162.688    20212257.900    83799832.358 8      -162.688
G16  21498547.340   112975595.504 7       370.114    21498545.760   112975595.517 6       370.114    21498558.200    88032959.183 6       288.400
G10  22449682.880   117973883.581 7      1549.933    22449681.900   117973883.581 7      1549.933    22449696.680    91927701.660 7      1207.740    22449696.400    91927754.662 8      1207.740
G21  20830070.920   109462759.430 8      3113.684    20830068.740   109462759.434 6      3113.684    20830077.480    85295693.738 6      2426.247
R17  20525716.560   109837247.014 7      2292.593    20525716.500   109837247.026 7      2292.593    20525729.000    85429022.493 8      1783.128    20525728.400    85429022.493 8      1783.128
G08  21225361.820   111540017.395 7      3425.211    21225360.700   111540017.394 7      3425.211    21225370.320    86914335.233 7      2668.995    21225370.760    86914338.237 8      2668.995
R15  20104111.420   107430261.798 8      3915.977    20104108.520   107430261.794 7      3915.977    20104121.220    83556917.728 8      3045.760    20104121.320    83556915.731 8      3045.760
R01  22906556.980   122448741.285 6      3941.156    22906555.140   122448741.310 6      3941.156    22906584.940    95238010.104 6      3065.344    22906583.720    95238006.099 7      3065.344
R24  21951938.620   117386858.857 7       236.499    21951937.940   117386858.861 7       236.499    21951951.700    91300953.532 7       183.944    21951952.060    91300940.531 7       183.944
G23  24577570.800   129156004.683 7      -118.868    24577570.100   129156004.685 4      -118.868    24577582.340   100641090.888 4       -92.625    24577582.620   100641101.903 7       -92.625
R16  23916659.200   127758485.783 7      6589.743    23916659.260   127758485.795 7      6589.743    23916673.440    99367764.365 7      5125.356    23916673.240    99367766.371 7      5125.356
G07  24067787.500   126477074.072 6      3073.534    24067786.780   126477074.077 6      3073.534    24067797.200    98553590.665 6      2394.961    24067797.080    98553597.671 7      2394.961
R18  22502907.940   120122078.995 7      4293.092    22502908.780   120122078.993 7      4293.092    22502924.140    93428364.313 7      3339.072    22502924.840    93428366.324 7      3339.072
> 2024 04 02 15 20 40.0000000  0 17
G02  22146303.600   116379623.496 7      3977.465    22146301.700   116379623.506 6      3977.465    22146310.680    90685464.504 6      3099.324
G26  23784253.400   124987095.158 6      -783.189    23784252.340   124987095.168 6      -783.189    23784272.740    97392600.221 6      -610.277    23784272.540    97392605.223 7      -610.277
R02  23608448.640   125979176.884 7      5781.309    23608448.560   125979176.882 7      5781.309    23608472.300    97983892.311 7      4496.574    23608472.600    97983894.308 7      4496.574
G27  21314942.440   112010753.692 8      1742.171    21314941.340   112010753.697 8      1742.171    21314952.260    87281142.335 8      1357.535    21314952.480    87281143.338 8      1357.535
R14  20212280.700   107742779.465 8      -209.867    20212280.780   107742779.461 8      -209.867    20212296.840    83799997.310 8      -163.230    20212297.240    83799995.315 8      -163.230
G16  21498476.780   112975225.578 7       369.645    21498475.400   112975225.588 6       369.645    21498487.820    88032670.923 6       288.035
G10  22449388.240   117972333.869 7      1549.416    22449386.940   117972333.874 7      1549.416    22449401.760    91926494.098 7      1207.337    22449401.300    91926547.102 8      1207.337
G21  20829478.440   109459645.905 8      3113.301    20829476.400   109459645.913 6      3113.301    20829485.140    85293267.617 6      2425.949
R17  20525288.600   109834954.495 8      2292.372    20525287.800   109834954.507 7      2292.372    20525300.680    85427239.423 8      1782.956    20525300.120    85427239.421 8      1782.956
G08  21224709.960   111536592.128 7      3425.229    21224708.920   111536592.131 8      3425.229    21224718.500    86911666.195 8      2669.010    21224719.100    86911669.199 8      2669.010
R15  20103378.720   107426346.188 8      3915.202    20103375.980   107426346.181 7      3915.202    20103388.340    83553872.251 8      3045.157    20103388.380    83553870.253 8      3045.157
R01  22905819.960   122444800.403 6      3940.581    22905818.020   122444800.420 6      3940.581    22905847.480    95234944.982 6      3064.897    22905846.940    95234940.968 7      3064.897
R24  21951894.220   117386622.326 7       236.478    21951893.660   117386622.341 7       236.478    21951907.500    91300769.565 7       183.928    21951908.140    91300756.562 7       183.928
G23  24577593.340   129156123.696 7      -119.189    24577592.900   129156123.701 4      -119.189    24577604.860   100641183.630 4       -92.874    24577605.060   100641194.639 7       -92.874
R16  23915425.920   127751896.110 7      6589.456    23915425.320   127751896.114 7      6589.456    23915439.720    99362639.069 7      5125.132    23915439.640    99362641.072 7      5125.132
G07  24067202.720   126474000.807 7      3073.069    24067202.080   126474000.806 6      3073.069    24067212.400    98551195.904 6      2394.599    24067212.260    98551202.911 7      2394.599
R18  22502103.320   120117786.033 7      4292.785    22502104.620   120117786.036 7      4292.785    22502119.760    93425025.351 7      3338.833    22502120.300    93425027.359 7      3338.833
> 2024 04 02 15 20 41.0000000  0 17
G02  22145546.580   116375646.220 7      3977.279    22145544.760   116375646.225 6      3977.279    22145553.800    90682365.330 6      3099.179
G26  23784403.000   124987878.332 6      -782.996    23784401.480   124987878.336 6      -782.996    23784421.720    97393210.478 6      -610.127    23784421.780    97393215.478 7      -610.127
R02  23607365.340   125973395.600 7      5781.393    23607364.820   125973395.593 7      5781.393    23607388.660    97979395.749 7      4496.639    23607389.220    97979397.750 7      4496.639
G27  21314610.840   112009011.658 8      1742.059    21314609.780   112009011.666 8      1742.059    21314620.660    87279784.902 8      1357.449    21314621.020    87279785.907 8      1357.449
R14  20212320.060   107742989.708 8      -210.378    20212320.220   107742989.701 8      -210.378    20212336.260    83800160.817 8      -163.627    20212336.720    83800158.822 8      -163.627
G16  21498406.560   112974856.126 7       369.368    21498405.200   112974856.138 6       369.368    21498417.460    88032383.032 6       287.820
G10  22449093.640   117970784.797 7      1548.931    22449092.280   117970784.797 7      1548.931    22449107.020    91925287.023 7      1206.959    22449106.640    91925340.031 8      1206.959
G21  20828886.340   109456532.901 8      3112.922    20828883.960   109456532.906 6      3112.922    20828892.600    85290841.900 6      2425.654
R17  20524860.240   109832662.262 8      2292.315    20524859.500   109832662.277 7      2292.315    20524872.360    85425456.575 8      1782.912    20524871.740    85425456.573 8      1782.912
G08  21224058.140   111533167.059 8      3425.233    21224057.140   111533167.056 7      3425.233    21224066.720    86908997.303 7      2669.013    21224067.400    86909000.307 8      2669.013
R15  20102645.980   107422431.454 8      3914.399    20102643.300   107422431.450 8      3914.399    20102655.740    83550827.456 8      3044.532    20102655.700    83550825.460 8      3044.532
R01  22905083.420   122440860.186 6      3940.211    22905081.400   122440860.185 6      3940.211    22905110.260    95231880.371 6      3064.608    22905109.640    95231876.364 7      3064.608
R24  21951850.160   117386385.806 7       236.700    21951849.840   117386385.818 7       236.700    21951863.300    91300585.599 7       184.100    21951863.740    91300572.598 7       184.100
G23  24577616.040   129156243.140 7      -119.573    24577615.460   129156243.145 4      -119.573    24577627.620   100641276.707 4       -93.173    24577627.620   100641287.721 7       -93.173
R16  23914192.260   127745306.740 7      6589.358    23914191.800   127745306.733 7      6589.358    23914206.160    99357513.992 7      5125.056    23914206.560    99357516.004 7      5125.056
G07  24066617.640   126470928.095 7      3072.646    24066617.340   126470928.098 6      3072.646    24066627.640    98548801.580 6      2394.269    24066627.800    98548808.584 7      2394.269
R18  22501299.480   120113493.447 7      4292.548    22501300.520   120113493.440 7      4292.548    22501315.580    93421686.665 7      3338.649    22501316.040    93421688.675 7      3338.649
> 2024 04 02 15 20 42.0000000  0 17
G02  22144789.860   116371669.262 7      3976.689    22144788.080   116371669.267 6      3976.689    22144797.020    90679266.403 6      3098.719
G26  23784552.280   124988661.660 6      -783.595    23784550.580   124988661.668 6      -783.595    23784570.780    97393820.858 6      -610.593    23784570.840    97393825.858 7      -610.593
R02  23606282.220   125967614.306 7      5781.210    23606281.560   125967614.296 7      5781.210    23606305.460    97974899.180 7      4496.497    23606306.140    97974901.184 7      4496.497
G27  21314279.400   112007269.730 8      1741.755    21314278.420   112007269.732 8      1741.755    21314289.260    87278427.547 8      1357.212    21314289.840    87278428.550 8      1357.212
R14  20212359.340   107743200.545 8      -211.233    20212359.720   107743200.543 8      -211.233    20212375.820    83800324.800 8      -164.292    20212376.200    83800322.803 8      -164.292
G16  21498336.240   112974487.057 7       368.760    21498334.860   112974487.067 6       368.760    21498347.240    88032095.440 6       287.345
G10  22448798.920   117969236.230 7      1548.143    22448797.460   117969236.235 8      1548.143    22448812.220    91924080.352 7      1206.345    22448811.800    91924133.351 8      1206.345
G21  20828293.860   109453420.283 8      3112.325    20828291.540   109453420.288 6      3112.325    20828300.460    85288416.483 6      2425.188
R17  20524431.620   109830370.198 7      2291.924    20524431.000   109830370.213 7      2291.924    20524443.880    85423673.856 8      1782.607    20524443.520    85423673.859 8      1782.607
G08  21223406.360   111529742.058 7      3424.810    21223405.320   111529742.063 8      3424.810    21223414.920    86906328.476 8      2668.683    21223415.560    86906331.479 8      2668.683
R15  20101913.500   107418517.485 8      3913.448    20101910.800   107418517.486 7      3913.448    20101923.280    83547783.256 8      3043.793    20101923.260    83547781.262 8      3043.793
R01  22904346.580   122436920.545 6      3939.265    22904344.860   122436920.538 6      3939.265    22904373.640    95228816.216 6      3063.873    22904372.700    95228812.206 7      3063.873
R24  21951805.520   117386149.253 7       236.359    21951805.700   117386149.273 7       236.359    21951819.680    91300401.618 7       183.835    21951819.980    91300388.619 7       183.835
G23  24577638.880   129156362.900 6      -120.144    24577638.160   129156362.907 4      -120.144    24577650.340   100641370.031 4       -93.619    24577650.420   100641381.042 7       -93.619
R16  23912959.160   127738717.545 7      6588.975    23912958.040   127738717.541 7      6588.975    23912972.180    99352389.074 7      5124.758    23912972.740    99352391.085 7      5124.758
G07  24066033.100   126467855.836 7      3071.928    24066032.580   126467855.836 6      3071.928    24066043.000    98546407.609 6      2393.710    24066042.800    98546414.614 7      2393.710
R18  22500495.600   120109201.072 7      4292.097    22500496.060   120109201.070 7      4292.097    22500511.420    93418348.157 7      3338.298    22500512.320    93418350.163 7      3338.298
> 2024 04 02 15 20 43.0000000  0 17
G02  22144033.240   116367692.782 7      3976.273    22144031.360   116367692.787 6      3976.273    22144040.520    90676167.853 6      3098.394
G26  23784701.080   124989445.212 6      -783.629    23784699.680   124989445.220 6      -783.629    23784719.800    97394431.416 6      -610.620    23784720.080    97394436.418 7      -610.620
R02  23605198.460   125961833.127 7      5781.087    23605198.500   125961833.125 7      5781.087    23605222.000    97970402.712 7      4496.401    23605222.700    97970404.715 7      4496.401
G27  21313947.920   112005528.074 8      1741.517    21313946.980   112005528.079 8      1741.517    21313957.840    87277070.412 8      1357.026    21313958.380    87277071.414 8      1357.026
R14  20212398.920   107743412.142 8      -211.889    20212399.620   107743412.134 8      -211.889    20212415.560    83800489.362 8      -164.803    20212415.880    83800487.363 8      -164.803
G16  21498265.980   112974118.521 7       368.324    21498264.640   112974118.534 6       368.324    21498277.240    88031808.261 6       287.006
G10  22448504.380   117967688.331 7      1547.598    22448503.000   117967688.330 7      1547.598    22448517.700    91922874.196 7      1205.921    22448517.320    91922927.196 8      1205.921
G21  20827701.640   109450308.225 8      3111.820    20827699.440   109450308.232 6      3111.820    20827708.240    85285991.511 6      2424.795
R17  20524003.400   109828078.449 8      2291.635    20524002.900   109828078.461 7      2291.635    20524015.780    85421891.385 8      1782.383    20524015.260    85421891.385 8      1782.383
G08  21222754.600   111526317.275 7      3424.800    21222753.740   111526317.272 7      3424.800    21222763.140    86903659.810 7      2668.675    21222764.100    86903662.809 8      2668.675
R15  20101181.320   107414604.486 8      3912.568    20101178.600   107414604.484 7      3912.568    20101191.020    83544739.812 8      3043.108    20101190.800    83544737.815 8      3043.108
R01  22903609.460   122432981.563 6      3938.759    22903608.120   122432981.575 6      3938.759    22903636.720    95225752.588 6      3063.479    22903635.880    95225748.581 7      3063.479
R24  21951761.280   117385912.770 7       236.479    21951761.680   117385912.790 7       236.479    21951775.520    91300217.678 7       183.928    21951775.720    91300204.688 7       183.928
G23  24577661.880   129156483.114 6      -120.426    24577661.060   129156483.116 4      -120.426    24577673.140   100641463.708 4       -93.838    24577673.120   100641474.723 7       -93.838
R16  23911725.500   127732128.738 7      6588.680    23911725.000   127732128.742 7      6588.680    23911738.340    99347264.440 7      5124.529    23911739.240    99347266.449 7      5124.529
G07  24065448.900   126464784.189 7      3071.458    24065448.080   126464784.186 6      3071.458    24065458.460    98544014.112 6      2393.344    24065458.480    98544021.118 7      2393.344
R18  22499691.920   120104909.078 7      4291.888    22499691.880   120104909.076 7      4291.888    22499707.740    93415009.944 7      3338.135    22499708.200    93415011.950 7      3338.135
> 2024 04 02 15 20 44.0000000  0 17
G02  22143276.280   116363716.617 7      3976.058    22143274.620   116363716.619 6      3976.058    22143283.700    90673069.545 6      3098.227
G26  23784850.540   124990228.896 6      -783.630    23784848.760   124990228.909 6      -783.630    23784868.820    97395042.074 6      -610.621    23784869.440    97395047.074 7      -610.621
R02  23604115.060   125956051.892 7      5781.311    23604115.060   125956051.893 7      5781.311    23604138.740    97965906.195 7      4496.576    23604139.380    97965908.195 7      4496.576
G27  21313616.480   112003786.537 8      1741.526    21313615.500   112003786.540 8      1741.526    21313626.460    87275713.366 8      1357.033    21313627.020    87275714.366 8      1357.033
R14  20212438.760   107743624.349 8      -212.449    20212439.340   107743624.342 8      -212.449    20212455.440    83800654.400 8      -165.238    20212455.940    83800652.405 8      -165.238
G16  21498195.880   112973750.385 7       368.006    21498194.540   112973750.395 6       368.006    21498207.000    88031521.393 6       286.758
G10  22448209.800   117966140.957 7      1547.274    22448208.540   117966140.956 7      1547.274    22448223.260    91921668.452 7      1205.668    22448222.920    91921721.452 8      1205.668
G21  20827109.520   109447196.574 8      3111.591    20827107.300   109447196.581 6      3111.591    20827115.900    85283566.848 6      2424.616
R17  20523575.540   109825786.869 8      2291.570    20523574.240   109825786.873 7      2291.570    20523587.600    85420109.043 8      1782.332    20523586.860    85420109.039 8      1782.332
G08  21222103.120   111522892.608 7      3424.717    21222101.960   111522892.608 8      3424.717    21222111.560    86900991.236 8      2668.611    21222112.520    86900994.235 8      2668.611
R15  20100449.240   107410692.272 8      3911.819    20100446.280   107410692.273 8      3911.819    20100458.780    83541696.977 8      3042.526    20100458.680    83541694.982 8      3042.526
R01  22902873.140   122429043.206 6      3938.126    22902871.800   122429043.218 6      3938.126    22902899.700    95222689.439 6      3062.987    22902899.120    95222685.431 7      3062.987
R24  21951717.440   117385676.186 7       236.693    21951717.620   117385676.198 7       236.693    21951732.120    91300033.660 7       184.094    21951731.840    91300020.665 7       184.094
G23  24577684.900   129156603.675 7      -120.699    24577684.020   129156603.675 4      -120.699    24577696.060   100641557.658 4       -94.051    24577696.200   100641568.667 7       -94.051
R16  23910492.140   127725540.166 7      6588.461    23910492.280   127725540.170 7      6588.461    23910504.680    99342139.987 7      5124.359    23910505.920    99342141.996 7      5124.359
G07  24064864.660   126461713.007 7      3071.018    24064863.700   126461713.007 6      3071.018    24064873.880    98541620.981 6      2393.001    24064874.140    98541627.986 7      2393.001
R18  22498888.120   120100617.314 7      4291.693    22498887.720   120100617.315 7      4291.693    22498903.600    93411671.916 7      3337.983    22498904.280    93411673.920 7      3337.983
> 2024 04 02 15 20 45.0000000  0 17
G02  22142520.000   116359740.891 7      3975.360    22142518.100   116359740.893 6      3975.360    22142527.120    90669971.583 6      3097.683
G26  23784999.940   124991012.808 6      -784.004    23784998.000   124991012.815 6      -784.004    23785018.020    97395652.909 6      -610.912    23785017.940    97395657.911 7      -610.912
R02  23603031.600   125950270.782 7      5781.024    23603031.780   125950270.780 7      5781.024    23603055.480    97961409.766 7      4496.352    23603055.800    97961411.764 7      4496.352
G27  21313285.120   112002045.231 8      1741.141    21313284.200   112002045.236 8      1741.141    21313295.060    87274356.505 8      1356.734    21313295.420    87274357.504 8      1356.734
R14  20212478.740   107743837.302 8      -213.414    20212479.160   107743837.297 8      -213.414    20212495.320    83800820.026 8      -165.989    20212495.920    83800818.031 8      -165.989
G16  21498125.840   112973382.742 7       367.334    21498124.780   112973382.750 6       367.334    21498137.040    88031234.910 6       286.234
G10  22447915.640   117964594.237 7      1546.403    22447914.160   117964594.239 7      1546.403    22447928.960    91920463.216 7      1204.989    22447928.660    91920516.215 8      1204.989
G21  20826517.320   109444085.467 8      3110.761    20826515.220   109444085.474 6      3110.761    20826523.800    85281142.613 6      2423.969
R17  20523147.340   109823495.634 7      2291.025    20523146.340   109823495.638 7      2291.025    20523159.320    85418326.967 8      1781.908    20523158.980    85418326.963 8      1781.908
G08  21221451.400   111519468.125 7      3424.304    21221450.400   111519468.127 7      3424.304    21221459.920    86898322.805 7      2668.289    21221460.860    86898325.805 8      2668.289
R15  20099717.540   107406780.921 8      3910.864    20099714.560   107406780.922 7      3910.864    20099727.120    83538654.815 8      3041.783    20099726.780    83538652.816 8      3041.783
R01  22902136.660   122425105.484 6      3937.345    22902134.800   122425105.498 6      3937.345    22902162.760    95219626.784 6      3062.379    22902162.360    95219622.779 7      3062.379
R24  21951673.160   117385439.548 7       236.582    21951673.640   117385439.560 7       236.582    21951688.060    91299849.604 7       184.008    21951688.000    91299836.603 7       184.008
G23  24577708.140   129156724.683 6      -121.299    24577707.060   129156724.685 4      -121.299    24577719.080   100641651.950 4       -94.519    24577719.940   100641662.959 7       -94.519
R16  23909258.220   127718951.928 7      6587.917    23909259.400   127718951.937 7      6587.917    23909271.060    99337015.793 7      5123.935    23909272.220    99337017.803 7      5123.935
G07  24064280.700   126458642.406 7      3070.172    24064279.380   126458642.405 6      3070.172    24064289.680    98539228.301 6      2392.342    24064290.160    98539235.307 7      2392.342
R18  22498083.940   120096325.881 7      4291.273    22498083.200   120096325.885 7      4291.273    22498100.180    93408334.141 7      3337.657    22498100.380    93408336.147 7      3337.657
> 2024 04 02 15 20 46.0000000  0 17
G02  22141763.440   116355765.648 7      3975.049    22141761.720   116355765.656 6      3975.049    22141770.820    90666873.998 6      3097.441
G26  23785148.800   124991797.046 6      -784.370    23785147.300   124991797.058 6      -784.370    23785167.240    97396264.003 6      -611.198    23785167.400    97396269.005 7      -611.198
R02  23601948.160   125944489.896 7      5780.780    23601948.500   125944489.897 7      5780.780    23601972.220    97956913.520 7      4496.162    23601972.600    97956915.521 7      4496.162
G27  21312953.660   112000304.243 7      1740.883    21312952.860   112000304.248 8      1740.883    21312963.800    87272999.885 8      1356.533    21312964.340    87273000.884 8      1356.533
R14  20212518.840   107744051.063 8      -214.069    20212519.360   107744051.058 8      -214.069    20212535.460    83800986.276 8      -166.498    20212535.880    83800984.279 8      -166.498
G16  21498056.240   112973015.657 7       366.916    21498054.840   112973015.662 6       366.916    21498067.280    88030948.860 6       285.909
G10  22447621.480   117963048.208 7      1545.856    22447620.020   117963048.213 7      1545.856    22447634.720    91919258.518 7      1204.563    22447634.440    91919311.522 8      1204.563
G21  20825925.340   109440974.924 7      3110.371    20825923.320   109440974.927 6      3110.371    20825932.020    85278718.809 6      2423.666
R17  20522719.360   109821204.793 8      2290.728    20522718.220   109821204.800 7      2290.728    20522731.380    85416545.200 8      1781.677    20522730.740    85416545.200 8      1781.677
G08  21220799.780   111516043.891 7      3424.212    21220798.620   111516043.893 7      3424.212    21220808.280    86895654.573 7      2668.217    21220809.320    86895657.571 8      2668.217
R15  20098985.480   107402870.553 8      3910.002    20098982.880   107402870.551 7      3910.002    20098995.240    83535613.414 8      3041.113    20098994.940    83535611.417 8      3041.113
R01  22901400.120   122421168.512 6      3936.774    22901398.480   122421168.532 6      3936.774    22901426.300    95216564.707 6      3061.935    22901425.860    95216560.704 7      3061.935
R24  21951628.880   117385203.017 7       236.566    21951629.600   117385203.034 7       236.566    21951644.000    91299665.629 7       183.995    21951643.780    91299652.624 7       183.995
G23  24577731.180   129156846.179 6      -121.636    24577730.360   129156846.181 4      -121.636    24577742.260   100641746.626 4       -94.781    24577743.040   100641757.635 7       -94.781
R16  23908025.160   127712364.088 7      6587.721    23908025.960   127712364.102 7      6587.721    23908037.600    99331891.911 7      5123.783    23908038.620    99331893.921 7      5123.783
G07  24063696.340   126455572.435 7      3069.737    24063695.280   126455572.440 6      3069.737    24063705.380    98536836.116 6      2392.003    24063705.740    98536843.124 7      2392.003
R18  22497279.480   120092034.897 7      4290.818    22497279.280   120092034.900 7      4290.818    22497296.220    93404996.715 7      3337.303    22497296.200    93404998.717 7      3337.303
> 2024 04 02 15 20 47.0000000  0 17
G02  22141007.080   116351790.834 7      3974.691    22141005.300   116351790.839 6      3974.691    22141014.280    90663776.742 6      3097.162
G26  23785298.080   124992581.460 6      -784.474    23785296.500   124992581.470 6      -784.474    23785316.600    97396875.227 6      -611.278    23785317.020    97396880.233 7      -611.278
R02  23600864.500   125938709.074 7      5780.906    23600865.220   125938709.070 7      5780.906    23600889.160    97952417.323 7      4496.260    23600889.280    97952419.322 7      4496.260
G27  21312622.480   111998563.447 8      1740.759    21312621.700   111998563.449 8      1740.759    21312632.520    87271643.412 8      1356.436    21312632.880    87271644.411 8      1356.436
R14  20212559.080   107744265.533 8      -214.711    20212559.500   107744265.528 8      -214.711    20212575.660    83801153.076 8      -166.997    20212576.120    83801151.079 8      -166.997
G16  21497986.340   112972649.053 7       366.500    21497984.960   112972649.058 6       366.500    21497997.580    88030663.188 6       285.585
G10  22447327.360   117961502.807 7      1545.209    22447325.840   117961502.807 7      1545.209    22447340.600    91918054.305 7      1204.059    22447340.360    91918107.309 8      1204.059
G21  20825333.620   109437864.892 8      3109.863    20825331.540   109437864.897 6      3109.863    20825340.040    85276295.409 6      2423.270
R17  20522291.080   109818914.208 8      2290.590    20522289.860   109818914.215 7      2290.590    20522303.460    85414763.636 8      1781.570    20522302.780    85414763.634 8      1781.570
G08  21220148.100   111512619.849 7      3424.097    21220147.040   111512619.846 8      3424.097    21220156.660    86892986.478 7      2668.128    21220157.760    86892989.476 8      2668.128
R15  20098253.860   107398961.086 8      3909.139    20098251.140   107398961.084 7      3909.139    20098263.440    83532572.709 8      3040.441    20098263.460    83532570.714 8      3040.441
R01  22900663.840   122417232.213 6      3936.066    22900662.180   122417232.233 6      3936.066    22900689.820    95213503.155 6      3061.385    22900689.080    95213499.149 7      3061.385
R24  21951584.220   117384966.528 7       236.519    21951585.180   117384966.548 7       236.519    21951600.540    91299481.690 7       183.959    21951599.760    91299468.684 7       183.959
G23  24577754.380   129156968.107 6      -122.086    24577753.620   129156968.106 4      -122.086    24577765.480   100641841.639 4       -95.132    24577765.940   100641852.648 7       -95.132
R16  23906792.200   127705776.579 7      6587.463    23906792.360   127705776.591 7      6587.463    23906804.540    99326768.287 7      5123.582    23906805.440    99326770.292 7      5123.582
G07  24063112.200   126452503.019 7      3069.236    24063111.100   126452503.021 6      3069.236    24063121.280    98534444.363 6      2391.612    24063121.540    98534451.367 7      2391.612
R18  22496475.820   120087744.235 7      4290.550    22496475.820   120087744.228 7      4290.550    22496492.480    93401659.538 7      3337.094    22496492.780    93401661.540 7      3337.094
> 2024 04 02 15 20 48.0000000  0 17
G02  22140250.760   116347816.338 7      3974.153    22140249.040   116347816.340 6      3974.153    22140258.140    90660679.734 6      3096.743
G26  23785446.820   124993365.989 6      -784.680    23785445.700   124993365.997 6      -784.680    23785465.940    97397486.544 6      -611.439    23785466.100    97397491.540 7      -611.439
R02  23599781.620   125932928.247 7      5780.690    23599782.000   125932928.240 7      5780.690    23599805.900    97947921.120 7      4496.092    23599806.240    97947923.123 7      4496.092
G27  21312291.120   111996822.780 8      1740.422    21312290.520   111996822.779 8      1740.422    21312301.300    87270287.045 8      1356.173    21312301.520    87270288.041 8      1356.173
R14  20212599.380   107744480.613 8      -215.514    20212599.960   107744480.608 8      -215.514    20212616.040    83801320.346 8      -167.622    20212616.620    83801318.353 8      -167.622
G16  21497916.760   112972282.842 7       365.857    21497915.340   112972282.853 6       365.857    21497927.840    88030377.827 6       285.083
G10  22447033.080   117959957.932 7      1544.535    22447031.940   117959957.934 7      1544.535    22447046.660    91916850.509 7      1203.534    22447046.480    91916903.512 8      1203.534
G21  20824741.960   109434755.254 7      3109.210    20824739.680   109434755.266 6      3109.210    20824748.400    85273872.321 6      2422.761
R17  20521862.980   109816623.773 8      2290.304    20521862.040   109816623.783 7      2290.304    20521875.340    85412982.191 8      1781.347    20521874.820    85412982.191 8      1781.347
G08  21219496.600   111509195.886 7      3423.788    21219495.520   111509195.881 7      3423.788    21219505.040    86890318.455 7      2667.887    21219506.100    86890321.451 8      2667.887
R15  20097522.360   107395052.417 8      3908.054    20097519.740   107395052.424 7      3908.054    20097532.160    83529532.635 8      3039.598    20097532.260    83529530.641 8      3039.598
R01  22899927.800   122413296.450 6      3935.425    22899925.560   122413296.470 6      3935.425    22899953.360    95210442.018 6      3060.886    22899952.620    95210438.012 7      3060.886
R24  21951540.180   117384729.973 7       236.451    21951540.860   117384729.988 7       236.451    21951556.320    91299297.696 7       183.906    21951555.320    91299284.693 8       183.906
G23  24577777.760   129157090.349 7      -122.508    24577776.840   129157090.354 4      -122.508    24577788.760   100641936.899 4       -95.461    24577789.420   100641947.908 7       -95.461
R16  23905559.100   127699189.265 7      6587.074    23905559.220   127699189.274 7      6587.074    23905571.800    99321644.812 7      5123.280    23905572.000    99321646.813 7      5123.280
G07  24062528.340   126449434.065 7      3068.576    24062527.080   126449434.067 6      3068.576    24062537.320    98532052.962 6      2391.098    24062537.060    98532059.964 7      2391.098
R18  22495672.060   120083453.766 7      4290.246    22495672.080   120083453.772 7      4290.246    22495688.740    93398322.524 7      3336.858    22495689.120    93398324.529 7      3336.858
> 2024 04 02 15 20 49.0000000  0 17
G02  22139494.460   116343842.283 7      3973.912    22139492.900   116343842.290 6      3973.912    22139501.780    90657583.072 6      3096.555
G26  23785596.200   124994150.771 6      -784.866    23785595.140   124994150.773 6      -784.866    23785615.260    97398098.054 6      -611.584    23785615.660    97398103.056 7      -611.584
R02  23598698.320   125927147.497 7      5780.851    23598698.560   125927147.493 7      5780.851    23598722.400    97943424.975 7      4496.217    23598722.800    97943426.978 7      4496.217
G27  21311960.040   111995082.344 7      1740.359    21311959.260   111995082.346 8      1740.359    21311970.160    87268930.855 8      1356.124    21311970.460    87268931.855 8      1356.124
R14  20212639.860   107744696.400 8      -216.071    20212640.340   107744696.395 8      -216.071    20212656.540    83801488.176 8      -168.056    20212656.780    83801486.177 8      -168.056
G16  21497847.200   112971917.134 7       365.547    21497845.900   112971917.144 6       365.547    21497858.300    88030092.855 6       284.842
G10  22446739.300   117958413.679 7      1544.114    22446738.160   117958413.679 7      1544.114    22446752.860    91915647.191 7      1203.206    22446752.700    91915700.194 8      1203.206
G21  20824150.280   109431646.138 7      3108.842    20824148.180   109431646.148 6      3108.842    20824156.700    85271449.638 6      2422.474
R17  20521435.100   109814333.630 7      2290.091    20521433.680   109814333.650 7      2290.091    20521447.460    85411200.972 8      1781.182    20521446.620    85411200.973 8      1781.182
G08  21218845.120   111505772.118 7      3423.777    21218843.940   111505772.115 7      3423.777    21218853.520    86887650.582 7      2667.878    21218854.380    86887653.579 8      2667.878
R15  20096791.240   107391144.644 8      3907.381    20096788.440   107391144.645 7      3907.381    20096800.700    83526493.250 8      3039.074    20096801.140    83526491.253 8      3039.074
R01  22899191.520   122409361.418 6      3934.737    22899189.420   122409361.428 6      3934.737    22899217.740    95207381.448 6      3060.351    22899216.440    95207377.436 6      3060.351
R24  21951496.100   117384493.423 7       236.727    21951496.240   117384493.433 7       236.727    21951512.180    91299113.702 7       184.121    21951511.040    91299100.699 7       184.121
G23  24577801.200   129157213.039 6      -122.754    24577800.240   129157213.041 4      -122.754    24577812.240   100642032.501 4       -95.653    24577812.680   100642043.510 7       -95.653
R16  23904326.400   127692602.239 7      6587.032    23904325.480   127692602.251 7      6587.032    23904338.640    99316521.572 7      5123.247    23904338.980    99316523.575 7      5123.247
G07  24061944.680   126446365.684 7      3068.231    24061943.240   126446365.684 6      3068.231    24061953.220    98529662.012 6      2390.829    24061953.840    98529669.016 7      2390.829
R18  22494868.400   120079163.689 7      4290.014    22494868.740   120079163.690 7      4290.014    22494884.920    93394985.796 7      3336.678    22494885.580    93394987.802 7      3336.678
> 2024 04 02 15 20 50.0000000  0 17
G02  22138738.420   116339868.864 7      3973.259    22138736.740   116339868.871 6      3973.259    22138745.540    90654486.907 6      3096.046
G26  23785745.940   124994935.949 6      -785.199    23785744.520   124994935.957 6      -785.199    23785764.580    97398709.880 6      -611.843    23785764.880    97398714.884 7      -611.843
R02  23597614.780   125921367.089 7      5780.396    23597615.640   125921367.087 7      5780.396    23597639.360    97938929.102 7      4495.864    23597639.560    97938931.103 7      4495.864
G27  21311628.920   111993342.333 7      1739.984    21311628.120   111993342.335 8      1739.984    21311638.960    87267575.001 8      1355.832    21311639.500    87267576.000 8      1355.832
R14  20212680.600   107744913.092 8      -217.005    20212680.900   107744913.088 8      -217.005    20212697.260    83801656.706 8      -168.782    20212697.600    83801654.707 8      -168.782
G16  21497777.700   112971552.132 7       364.809    21497776.400   112971552.142 6       364.809    21497788.860    88029808.430 6       284.267
G10  22446445.720   117956870.283 7      1543.117    22446444.400   117956870.285 7      1543.117    22446459.140    91914444.546 7      1202.429    22446458.960    91914497.552 8      1202.429
G21  20823558.680   109428537.737 7      3108.173    20823556.600   109428537.748 6      3108.173    20823565.280    85269027.507 6      2421.953
R17  20521007.120   109812044.011 8      2289.536    20521005.740   109812044.018 7      2289.536    20521019.740    85409420.149 8      1780.751    20521019.200    85409420.147 8      1780.751
G08  21218193.620   111502348.738 7      3423.386    21218192.520   111502348.740 7      3423.386    21218202.140    86884983.017 7      2667.573    21218202.780    86884986.013 8      2667.573
R15  20096060.160   107387237.990 8      3906.239    20096057.380   107387237.986 7      3906.239    20096069.700    83523454.735 8      3038.186    20096069.660    83523452.743 8      3038.186
R01  22898455.320   122405427.256 6      3933.936    22898453.360   122405427.254 6      3933.936    22898481.020    95204321.546 6      3059.728    22898480.560    95204317.536 6      3059.728
R24  21951451.820   117384257.109 7       236.377    21951451.880   117384257.113 7       236.377    21951467.820    91298929.892 7       183.849    21951466.980    91298916.887 8       183.849
G23  24577824.360   129157336.358 7      -123.363    24577823.700   129157336.363 4      -123.363    24577835.620   100642128.598 4       -96.127    24577835.780   100642139.612 7       -96.127
R16  23903092.940   127686015.785 6      6586.314    23903091.440   127686015.781 6      6586.314    23903106.200    99311398.766 7      5122.688    23903106.300    99311400.763 7      5122.688
G07  24061360.760   126443298.083 7      3067.312    24061359.540   126443298.091 6      3067.312    24061369.500    98527271.675 6      2390.114    24061370.060    98527278.684 7      2390.114
R18  22494064.380   120074874.135 7      4289.420    22494065.240   120074874.138 7      4289.420    22494081.400    93391649.482 7      3336.215    22494081.740    93391651.488 7      3336.215
> 2024 04 02 15 20 51.0000000  0 17
G02  22137982.500   116335895.555 7      3973.129    22137980.700   116335895.563 6      3973.129    22137989.500    90651390.829 6      3095.945
G26  23785895.260   124995721.044 6      -785.069    23785893.840   124995721.049 6      -785.069    23785914.040    97399321.642 6      -611.742    23785914.120    97399326.646 7      -611.742
R02  23596531.420   125915586.481 7      5780.541    23596532.160   125915586.484 7      5780.541    23596556.000    97934433.075 7      4495.976    23596556.540    97934435.077 7      4495.976
G27  21311297.800   111991602.236 8      1740.059    21311297.060   111991602.238 8      1740.059    21311307.880    87266219.079 8      1355.890    21311308.360    87266220.078 8      1355.890
R14  20212721.280   107745130.182 8      -217.458    20212721.760   107745130.180 8      -217.458    20212738.000    83801825.546 8      -169.134    20212738.440    83801823.546 8      -169.134
G16  21497708.340   112971187.294 7       364.640    21497706.820   112971187.306 6       364.640    21497719.480    88029524.136 6       284.135
G10  22446152.120   117955327.187 7      1542.819    22446150.780   117955327.189 7      1542.819    22446165.480    91913242.134 7      1202.197    22446165.460    91913295.139 8      1202.197
G21  20822967.260   109425429.542 8      3107.906    20822965.140   109425429.552 6      3107.906    20822973.820    85266605.540 6      2421.745
R17  20520579.120   109809754.371 7      2289.472    20520577.980   109809754.380 7      2289.472    20520591.980    85407639.318 8      1780.701    20520591.080    85407639.318 8      1780.701
G08  21217542.140   111498925.251 8      3423.400    21217541.060   111498925.253 7      3423.400    21217550.620    86882315.363 7      2667.585    21217551.400    86882318.358 8      2667.585
R15  20095329.360   107383331.889 8      3905.709    20095326.560   107383331.888 7      3905.709    20095338.780    83520416.661 8      3037.774    20095338.640    83520414.664 8      3037.774
R01  22897719.820   122401493.459 6      3933.413    22897717.500   122401493.468 6      3933.413    22897745.300    95201261.947 6      3059.321    22897744.280    95201257.937 6      3059.321
R24  21951407.940   117384020.479 7       236.592    21951407.400   117384020.491 7       236.592    21951423.500    91298745.848 7       184.016    21951422.860    91298732.845 8       184.016
G23  24577847.840   129157459.820 6      -123.626    24577847.220   129157459.822 4      -123.626    24577859.100   100642224.804 4       -96.332    24577859.400   100642235.816 7       -96.332
R16  23901859.720   127679429.297 6      6586.232    23901858.240   127679429.303 6      6586.232    23901873.440    99306275.956 7      5122.625    23901873.320    99306277.955 7      5122.625
G07  24060776.980   126440230.722 7      3067.168    24060775.800   126440230.729 6      3067.168    24060785.860    98524881.524 6      2390.001    24060786.360    98524888.528 7      2390.001
R18  22493260.840   120070584.613 7      4289.356    22493261.640   120070584.622 7      4289.356    22493277.860    93388313.194 7      3336.166    22493277.900    93388315.204 7      3336.166
> 2024 04 02 15 20 52.0000000  0 17
G02  22137226.420   116331922.693 7      3972.687    22137224.560   116331922.701 6      3972.687    22137233.420    90648295.094 6      3095.601
G26  23786044.900   124996506.390 6      -785.429    23786043.440   124996506.401 6      -785.429    23786063.540    97399933.596 6      -612.023    23786063.740    97399938.606 7      -612.023
R02  23595448.020   125909805.998 7      5780.457    23595448.800   125909805.999 7      5780.457    23595472.920    97929937.136 7      4495.911    23595473.160    97929939.139 7      4495.911
G27  21310966.720   111989862.380 8      1739.856    21310965.960   111989862.382 8      1739.856    21310976.820    87264863.343 8      1355.732    21310977.320    87264864.340 8      1355.732
R14  20212761.960   107745348.024 8      -218.194    20212762.420   107745348.022 8      -218.194    20212778.820    83801994.967 8      -169.707    20212779.260    83801992.968 8      -169.707
G16  21497638.900   112970822.970 7       364.167    21497637.580   112970822.980 6       364.167    21497650.300    88029240.237 6       283.766
G10  22445858.600   117953784.739 7      1542.171    22445857.240   117953784.741 7      1542.171    22445872.000    91912040.226 7      1201.692    22445871.820    91912093.230 8      1201.692
G21  20822375.920   109422321.866 7      3107.450    20822373.720   109422321.876 6      3107.450    20822382.220    85264183.975 6      2421.389
R17  20520151.460   109807465.041 7      2289.239    20520150.120   109807465.043 7      2289.239    20520164.000    85405858.722 8      1780.519    20520163.480    85405858.722 8      1780.519
G08  21216890.780   111495501.942 8      3423.338    21216889.660   111495501.941 7      3423.338    21216899.120    86879647.843 7      2667.536    21216900.000    86879650.841 8      2667.536
R15  20094598.860   107379426.702 8      3904.852    20094595.720   107379426.698 7      3904.852    20094607.840    83517379.283 8      3037.107    20094607.860    83517377.286 8      3037.107
R01  22896983.980   122397560.317 6      3933.124    22896981.860   122397560.321 6      3933.124    22897009.680    95198202.843 6      3059.096    22897008.640    95198198.838 6      3059.096
R24  21951363.260   117383783.894 7       236.647    21951363.300   117383783.909 7       236.647    21951379.160    91298561.826 7       184.059    21951378.780    91298548.818 8       184.059
G23  24577871.160   129157583.708 6      -123.964    24577870.900   129157583.710 4      -123.964    24577882.700   100642321.342 4       -96.595    24577883.320   100642332.355 7       -96.595
R16  23900626.760   127672843.169 6      6585.972    23900625.360   127672843.167 6      6585.972    23900640.420    99301153.408 7      5122.423    23900640.300    99301155.405 7      5122.423
G07  24060193.240   126437163.962 7      3066.561    24060192.200   126437163.967 6      3066.561    24060202.220    98522491.836 6      2389.528    24060203.080    98522498.837 7      2389.528
R18  22492457.440   120066295.478 7      4288.971    22492458.460   120066295.476 7      4288.971    22492474.120    93384977.194 7      3335.866    22492474.460    93384979.198 7      3335.866
> 2024 04 02 15 20 53.0000000  0 17
G02  22136470.620   116327950.199 7      3972.267    22136468.540   116327950.204 6      3972.267    22136477.540    90645199.644 6      3095.273
G26  23786194.200   124997291.879 6      -785.489    23786192.840   124997291.892 6      -785.489    23786213.080    97400545.661 6      -612.069    23786213.040    97400550.665 7      -612.069
R02  23594364.820   125904025.523 7      5780.364    23594365.380   125904025.513 7      5780.364    23594389.720    97925441.200 7      4495.838    23594389.980    97925443.208 7      4495.838
G27  21310635.660   111988122.701 8      1739.570    21310634.880   111988122.703 8      1739.570    21310645.780    87263507.745 8      1355.509    21310646.100    87263508.744 8      1355.509
R14  20212803.100   107745566.571 8      -218.946    20212803.480   107745566.572 8      -218.946    20212819.780    83802164.943 8      -170.292    20212820.060    83802162.944 8      -170.292
G16  21497569.620   112970459.095 7       363.591    21497568.320   112970459.100 6       363.591    21497581.020    88028956.691 6       283.318
G10  22445565.280   117952242.865 7      1541.549    22445563.880   117952242.864 7      1541.549    22445578.600    91910838.762 7      1201.207    22445578.540    91910891.767 8      1201.207
G21  20821784.500   109419214.658 8      3106.859    20821782.360   109419214.663 6      3106.859    20821791.120    85261762.774 6      2420.929
R17  20519723.860   109805175.936 7      2288.889    20519722.380   109805175.938 7      2288.889    20519736.260    85404078.307 8      1780.247    20519735.780    85404078.307 8      1780.247
G08  21216239.460   111492078.788 7      3422.959    21216238.280   111492078.788 7      3422.959    21216247.860    86876980.451 8      2667.241    21216248.680    86876983.448 8      2667.241
R15  20093867.980   107375522.362 8      3903.863    20093865.020   107375522.356 7      3903.863    20093877.260    83514342.574 8      3036.338    20093877.140    83514340.575 8      3036.338
R01  22896248.260   122393627.873 6      3932.091    22896247.040   122393627.880 6      3932.091    22896274.160    95195144.290 6      3058.293    22896272.700    95195140.282 6      3058.293
R24  21951319.220   117383547.272 7       236.558    21951319.160   117383547.287 7       236.558    21951334.660    91298377.784 7       183.990    21951334.580    91298364.777 7       183.990
G23  24577894.580   129157707.976 7      -124.491    24577894.560   129157707.981 4      -124.491    24577906.340   100642418.181 4       -97.006    24577906.740   100642429.194 7       -97.006
R16  23899393.740   127666257.315 6      6585.584    23899392.340   127666257.322 6      6585.584    23899407.360    99296031.084 7      5122.121    23899407.640    99296033.085 7      5122.121
G07  24059609.800   126434097.704 7      3065.965    24059608.720   126434097.709 6      3065.965    24059618.840    98520102.540 6      2389.063    24059619.780    98520109.549 7      2389.063
R18  22491654.420   120062006.583 7      4288.702    22491654.720   120062006.587 7      4288.702    22491670.520    93381641.397 7      3335.657    22491671.240    93381643.405 7      3335.657
> 2024 04 02 15 20 54.0000000  0 17
G02  22135714.660   116323978.157 7      3971.864    22135712.840   116323978.164 6      3971.864    22135721.580    90642104.548 6      3094.959
G26  23786343.640   124998077.664 6      -785.948    23786342.280   124998077.675 6      -785.948    23786362.560    97401157.955 6      -612.427    23786363.040    97401162.955 7      -612.427
R02  23593282.160   125898245.109 7      5780.320    23593282.340   125898245.113 7      5780.320    23593306.440    97920945.329 7      4495.805    23593306.760    97920947.335 7      4495.805
G27  21310304.780   111986383.281 8      1739.269    21310303.840   111986383.286 8      1739.269    21310314.700    87262152.349 8      1355.275    21310315.020    87262153.346 8      1355.275
R14  20212844.200   107745785.879 8      -219.668    20212844.660   107745785.879 8      -219.668    20212860.940    83802335.509 8      -170.853    20212861.460    83802333.512 8      -170.853
G16  21497500.660   112970095.715 7       363.136    21497499.020   112970095.717 6       363.136    21497511.660    88028673.527 6       282.963
G10  22445272.200   117950701.649 7      1540.860    22445270.660   117950701.649 7      1540.860    22445285.380    91909637.819 7      1200.670    22445285.360    91909690.831 8      1200.670
G21  20821193.320   109416107.976 8      3106.405    20821191.320   109416107.981 6      3106.405    20821199.980    85259341.985 6      2420.575
R17  20519296.100   109802887.133 8      2288.633    20519294.620   109802887.140 7      2288.633    20519308.620    85402298.131 8      1780.048    20519308.100    85402298.129 8      1780.048
G08  21215588.040   111488655.839 7      3422.803    21215586.880   111488655.839 7      3422.803    21215596.360    86874313.220 7      2667.119    21215597.100    86874316.219 8      2667.119
R15  20093137.560   107371618.955 8      3902.901    20093134.500   107371618.951 7      3902.901    20093146.800    83511306.590 8      3035.590    20093146.740    83511304.592 8      3035.590
R01  22895512.780   122389696.076 6      3931.416    22895510.620   122389696.088 6      3931.416    22895538.920    95192086.248 6      3057.768    22895537.500    95192082.241 6      3057.768
R24  21951275.200   117383310.707 7       236.511    21951275.220   117383310.713 7       236.511    21951290.420    91298193.774 7       183.953    21951290.300    91298180.765 7       183.953
G23  24577918.300   129157832.710 7      -124.973    24577918.280   129157832.712 4      -124.973    24577930.000   100642515.376 4       -97.382    24577930.400   100642526.393 7       -97.382
R16  23898161.400   127659671.810 6      6585.348    23898160.400   127659671.803 6      6585.348    23898174.400    99290909.020 7      5121.938    23898174.880    99290911.021 7      5121.938
G07  24059026.140   126431032.045 7      3065.453    24059025.120   126431032.044 6      3065.453    24059035.540    98517713.713 6      2388.665    24059035.720    98517720.720 7      2388.665
R18  22490850.920   120057718.076 7      4288.326    22490851.340   120057718.069 7      4288.326    22490866.920    93378305.881 7      3335.365    22490867.600    93378307.889 7      3335.365
> 2024 04 02 15 20 55.0000000  0 17
G02  22134958.840   116320006.580 7      3971.503    22134956.980   116320006.585 6      3971.503    22134965.840    90639009.813 6      3094.678
G26  23786493.640   124998863.647 6      -785.935    23786492.020   124998863.660 6      -785.935    23786512.160    97401770.405 6      -612.417    23786512.340    97401775.403 7      -612.417
R02  23592199.100   125892464.835 7      5780.343    23592198.880   125892464.835 7      5780.343    23592223.320    97916449.554 7      4495.822    23592223.300    97916451.555 7      4495.822
G27  21309973.820   111984644.117 7      1739.030    21309972.900   111984644.122 8      1739.030    21309983.860    87260797.152 8      1355.088    21309983.740    87260798.153 8      1355.088
R14  20212885.600   107746005.948 8      -220.339    20212886.020   107746005.946 8      -220.339    20212902.320    83802506.660 8      -171.375    20212902.620    83802504.660 8      -171.375
G16  21497431.600   112969732.868 7       362.686    21497430.020   112969732.875 6       362.686    21497442.760    88028390.785 6       282.612
G10  22444978.920   117949161.083 7      1540.335    22444977.480   117949161.080 7      1540.335    22444992.180    91908437.378 7      1200.261    22444992.080    91908490.383 8      1200.261
G21  20820602.360   109413001.869 7      3105.897    20820600.260   109413001.876 6      3105.897    20820608.920    85256921.644 6      2420.180
R17  20518868.280   109800598.692 8      2288.338    20518866.940   109800598.701 7      2288.338    20518880.940    85400518.234 8      1779.819    20518880.300    85400518.232 8      1779.819
G08  21214936.660   111485233.109 7      3422.620    21214935.560   111485233.113 7      3422.620    21214945.000    86871646.157 7      2666.977    21214945.700    86871649.161 8      2666.977
R15  20092406.900   107367716.466 8      3902.056    20092404.320   107367716.468 7      3902.056    20092416.640    83508271.323 8      3034.932    20092416.340    83508269.325 8      3034.932
R01  22894777.560   122385764.963 6      3931.108    22894775.780   122385764.972 6      3931.108    22894803.100    95189028.722 6      3057.528    22894802.160    95189024.715 6      3057.528
R24  21951231.140   117383074.162 7       236.645    21951231.200   117383074.169 7       236.645    21951245.940    91298009.787 7       184.057    21951245.920    91297996.784 7       184.057
G23  24577942.460   129157957.903 7      -125.280    24577942.120   129157957.900 4      -125.280    24577953.960   100642612.931 4       -97.621    24577954.360   100642623.932 7       -97.621
R16  23896928.600   127653086.672 7      6585.046    23896928.260   127653086.665 6      6585.046    23896941.520    99285787.244 7      5121.702    23896941.940    99285789.245 7      5121.702
G07  24058442.840   126427966.993 7      3064.847    24058441.920   126427966.995 6      3064.847    24058452.200    98515325.357 6      2388.192    24058452.480    98515332.365 7      2388.192
R18  22490047.420   120053429.936 7      4287.959    22490047.840   120053429.932 7      4287.959    22490064.020    93374970.665 7      3335.079    22490064.120    93374972.669 7      3335.079
> 2024 04 02 15 20 56.0000000  0 17
G02  22134203.260   116316035.444 7      3970.731    22134201.340   116316035.452 6      3970.731    22134210.160    90635915.430 6      3094.076
G26  23786643.020   124999649.905 6      -786.628    23786641.740   124999649.915 6      -786.628    23786661.800    97402383.070 6      -612.957    23786662.400    97402388.074 7      -612.957
R02  23591115.960   125886684.720 7      5779.898    23591115.920   125886684.713 7      5779.898    23591140.180    97911953.897 7      4495.476    23591140.200    97911955.896 7      4495.476
G27  21309642.820   111982905.160 7      1738.683    21309642.020   111982905.162 8      1738.683    21309652.940    87259442.114 8      1354.818    21309652.960    87259443.116 8      1354.818
R14  20212927.060   107746226.698 8      -221.283    20212927.540   107746226.688 8      -221.283    20212943.680    83802678.339 8      -172.109    20212944.080    83802676.340 8      -172.109
G16  21497362.620   112969370.523 7       361.935    21497361.080   112969370.528 6       361.935    21497373.760    88028108.430 6       282.028
G10  22444685.700   117947621.155 7      1539.458    22444684.440   117947621.160 7      1539.458    22444699.100    91907237.438 7      1199.578    22444698.880    91907290.444 8      1199.578
G21  20820011.400   109409896.279 7      3105.158    20820009.280   109409896.287 6      3105.158    20820017.900    85254501.706 6      2419.603
R17  20518440.920   109798310.555 8      2287.836    20518439.220   109798310.567 7      2287.836    20518453.340    85398738.577 8      1779.428    20518452.380    85398738.573 8      1779.428
G08  21214285.200   111481810.567 7      3422.256    21214284.360   111481810.569 7      3422.256    21214293.820    86868979.241 8      2666.693    21214294.400    86868982.241 8      2666.693
R15  20091676.660   107363814.860 8      3901.053    20091674.100   107363814.861 7      3901.053    20091686.400    83505236.738 8      3034.152    20091686.220    83505234.740 8      3034.152
R01  22894042.200   122381834.579 6      3929.986    22894040.220   122381834.586 6      3929.986    22894067.900    95185971.772 6      3056.656    22894066.740    95185967.766 6      3056.656
R24  21951186.900   117382837.677 7       236.180    21951186.520   117382837.681 7       236.180    21951202.020    91297825.856 7       183.695    21951201.700    91297812.848 7       183.695
G23  24577966.600   129158083.540 7      -126.132    24577965.980   129158083.543 4      -126.132    24577977.700   100642710.836 4       -98.284    24577978.400   100642721.848 7       -98.284
R16  23895695.680   127646501.898 7      6584.422    23895696.020   127646501.886 6      6584.422    23895708.540    99280665.743 7      5121.217    23895709.000    99280667.744 7      5121.217
G07  24057859.320   126424902.495 7      3064.127    24057858.920   126424902.498 6      3064.127    24057869.020    98512937.429 6      2387.631    24057869.200    98512944.435 7      2387.631
R18  22489244.460   120049142.141 7      4287.359    22489244.520   120049142.153 7      4287.359    22489260.680    93371635.732 7      3334.612    22489261.080    93371637.736 7      3334.612
> 2024 04 02 15 20 57.0000000  0 17
G02  22133447.680   116312064.742 7      3970.672    22133445.820   116312064.749 6      3970.672    22133454.420    90632821.380 6      3094.030
G26  23786793.060   125000436.377 6      -786.497    23786791.300   125000436.387 6      -786.497    23786811.460    97402995.904 6      -612.855    23786811.740    97403000.898 7      -612.855
R02  23590032.840   125880904.771 7      5780.030    23590032.520   125880904.755 7      5780.030    23590056.720    97907458.370 7      4495.579    23590057.240    97907460.370 7      4495.579
G27  21309312.000   111981166.476 7      1738.674    21309311.200   111981166.476 8      1738.674    21309322.020    87258087.290 8      1354.811    21309322.200    87258088.291 8      1354.811
R14  20212968.540   107746448.145 8      -221.737    20212969.020   107746448.146 8      -221.737    20212985.180    83802850.576 8      -172.462    20212985.840    83802848.577 8      -172.462
G16  21497293.680   112969008.685 7       361.693    21497292.220   112969008.695 6       361.693    21497304.800    88027826.476 6       281.838
G10  22444392.740   117946081.900 7      1539.044    22444391.620   117946081.905 7      1539.044    22444406.140    91906038.018 7      1199.255    22444406.100    91906091.024 8      1199.255
G21  20819420.560   109406791.226 7      3104.912    20819418.500   109406791.231 6      3104.912    20819426.920    85252082.186 6      2419.412
R17  20518013.040   109796022.718 8      2287.812    20518011.640   109796022.731 7      2287.812    20518025.820    85396959.146 8      1779.410    20518025.120    85396959.144 8      1779.410
G08  21213634.000   111478388.267 7      3422.191    21213633.060   111478388.272 7      3422.191    21213642.620    86866312.512 7      2666.643    21213643.180    86866315.516 8      2666.643
R15  20090946.780   107359914.194 8      3900.320    20090944.180   107359914.189 7      3900.320    20090956.400    83502202.881 8      3033.582    20090956.360    83502200.884 8      3033.582
R01  22893306.480   122377904.867 6      3929.477    22893304.680   122377904.876 6      3929.477    22893333.200    95182915.356 6      3056.260    22893331.660    95182911.350 6      3056.260
R24  21951142.560   117382601.223 7       236.554    21951142.280   117382601.222 7       236.554    21951157.820    91297641.937 7       183.987    21951157.680    91297628.930 7       183.987
G23  24577990.300   129158209.624 6      -126.255    24577989.980   129158209.627 4      -126.255    24578001.660   100642809.084 4       -98.380    24578002.180   100642820.093 7       -98.380
R16  23894462.920   127639917.434 7      6584.316    23894463.000   127639917.441 7      6584.316    23894475.880    99275544.503 7      5121.135    23894476.440    99275546.500 7      5121.135
G07  24057276.540   126421838.615 7      3063.668    24057276.100   126421838.620 6      3063.668    24057285.980    98510549.983 6      2387.273    24057286.100    98510556.992 7      2387.273
R18  22488440.920   120044854.701 7      4287.392    22488441.160   120044854.715 7      4287.392    22488457.740    93368301.059 7      3334.639    22488457.580    93368303.067 7      3334.639
> 2024 04 02 15 20 58.0000000  0 17
G02  22132692.080   116308094.371 7      3970.324    22132690.240   116308094.378 6      3970.324    22132698.880    90629727.591 6      3093.759
G26  23786942.660   125001222.948 6      -786.533    23786941.160   125001222.955 6      -786.533    23786961.220    97403608.809 6      -612.883    23786961.200    97403613.815 7      -612.883
R02  23588949.740   125875124.819 7      5780.147    23588949.100   125875124.803 7      5780.147    23588973.660    97902962.844 7      4495.670    23588974.200    97902964.841 7      4495.670
G27  21308981.060   111979427.879 7      1738.677    21308980.360   111979427.881 8      1738.677    21308991.240    87256732.541 8      1354.814    21308991.380    87256733.538 8      1354.814
R14  20213010.140   107746670.225 8      -222.321    20213010.460   107746670.220 8      -222.321    20213026.920    83803023.296 8      -172.917    20213027.500    83803021.297 8      -172.917
G16  21497224.780   112968647.228 7       361.352    21497223.340   112968647.238 6       361.352    21497236.060    88027544.813 6       281.573
G10  22444099.840   117944543.129 7      1538.688    22444098.760   117944543.131 7      1538.688    22444113.320    91904838.976 7      1198.978    22444113.400    91904891.979 8      1198.978
G21  20818829.680   109403686.549 7      3104.626    20818827.620   109403686.556 6      3104.626    20818836.200    85249662.961 6      2419.189
R17  20517585.560   109793735.023 8      2287.719    20517584.420   109793735.030 7      2287.719    20517598.360    85395179.823 8      1779.337    20517597.780    85395179.824 8      1779.337
G08  21212982.840   111474965.991 7      3422.345    21212981.860   111474965.996 7      3422.345    21212991.380    86863645.803 7      2666.762    21212991.940    86863648.807 8      2666.762
R15  20090217.000   107356014.262 7      3899.579    20090214.320   107356014.261 7      3899.579    20090226.600    83499169.603 8      3033.006    20090226.480    83499167.608 8      3033.006
R01  22892571.260   122373975.708 6      3928.848    22892569.840   122373975.712 6      3928.848    22892597.620    95179859.351 6      3055.771    22892596.660    95179855.350 6      3055.771
R24  21951098.200   117382364.663 7       236.793    21951097.980   117382364.664 7       236.793    21951113.440    91297457.941 7       184.173    21951113.320    91297444.938 7       184.173
G23  24578014.200   129158336.034 6      -126.636    24578014.060   129158336.031 4      -126.636    24578025.780   100642907.585 4       -98.677    24578025.900   100642918.602 7       -98.677
R16  23893230.120   127633333.138 7      6584.215    23893230.280   127633333.158 7      6584.215    23893243.480    99270423.388 7      5121.056    23893243.760    99270425.390 7      5121.056
G07  24056693.800   126418775.158 7      3063.286    24056693.120   126418775.166 6      3063.286    24056703.040    98508162.876 6      2386.976    24056703.140    98508169.884 7      2386.976
R18  22487638.020   120040567.520 7      4287.092    22487637.820   120040567.524 7      4287.092    22487654.580    93364966.587 7      3334.405    22487654.860    93364968.591 7      3334.405
> 2024 04 02 15 20 59.0000000  0 17
G02  22131936.620   116304124.326 7      3969.760    22131934.780   116304124.333 6      3969.760    22131943.480    90626634.049 6      3093.319
G26  23787092.360   125002009.642 6      -786.867    23787090.900   125002009.650 6      -786.867    23787110.840    97404221.813 6      -613.143    23787110.960    97404226.815 7      -613.143
R02  23587866.660   125869344.867 7      5779.746    23587866.160   125869344.862 7      5779.746    23587890.480    97898467.325 7      4495.358    23587890.660    97898469.325 7      4495.358
G27  21308650.160   111977689.424 7      1738.288    21308649.540   111977689.424 8      1738.288    21308660.440    87255377.890 8      1354.510    21308660.360    87255378.887 8      1354.510
R14  20213051.920   107746892.943 8      -223.213    20213052.420   107746892.939 8      -223.213    20213068.700    83803196.509 8      -173.610    20213069.140    83803194.510 8      -173.610
G16  21497156.240   112968286.157 7       360.745    21497154.640   112968286.164 6       360.745    21497167.280    88027263.453 6       281.100
G10  22443807.060   117943004.904 7      1537.828    22443806.140   117943004.909 7      1537.828    22443820.680    91903640.357 7      1198.307    22443820.620    91903693.365 8      1198.307
G21  20818238.980   109400582.307 7      3103.856    20818236.880   109400582.315 6      3103.856    20818245.420    85247244.075 6      2418.589
R17  20517158.040   109791447.526 7      2287.169    20517157.080   109791447.538 7      2287.169    20517170.820    85393400.659 8      1778.909    20517170.380    85393400.655 8      1778.909
G08  21212331.840   111471543.836 7      3421.931    21212330.600   111471543.835 7      3421.931    21212340.180    86860979.181 7      2666.440    21212340.760    86860982.182 8      2666.440
R15  20089487.060   107352115.132 8      3898.577    20089484.740   107352115.133 7      3898.577    20089496.880    83496136.948 8      3032.227    20089496.780    83496134.950 8      3032.227
R01  22891836.680   122370047.088 6      3928.156    22891834.660   122370047.084 6      3928.156    22891862.900    95176803.771 6      3055.233    22891861.680    95176799.765 6      3055.233
R24  21951053.680   117382127.993 7       236.628    21951053.680   117382128.002 7       236.628    21951069.180    91297273.867 7       184.044    21951068.960    91297260.862 7       184.044
G23  24578038.400   129158462.739 6      -127.052    24578038.100   129158462.738 4      -127.052    24578050.120   100643006.320 4       -99.001    24578050.140   100643017.329 7       -99.001
R16  23891997.600   127626749.128 7      6583.629    23891997.620   127626749.129 7      6583.629    23892010.960    99265302.469 7      5120.601    23892011.320    99265304.466 7      5120.601
G07  24056110.820   126415712.166 7      3062.608    24056110.000   126415712.171 6      3062.608    24056120.160    98505776.131 6      2386.448    24056120.160    98505783.133 6      2386.448
R18  22486834.740   120036280.550 7      4286.570    22486834.480   120036280.553 7      4286.570    22486851.560    93361632.289 7      3333.999    22486851.820    93361634.297 7      3333.999
> 2024 04 02 15 21  0.0000000  0 17
G02  22131181.220   116300154.766 7      3969.432    22131179.540   116300154.774 6      3969.432    22131188.080    90623540.890 6      3093.064
G26  23787242.160   125002796.634 6      -787.121    23787240.620   125002796.641 6      -787.121    23787260.600    97404835.053 6      -613.341    23787260.580    97404840.054 7      -613.341
R02  23586783.340   125863565.000 7      5779.882    23586783.160   125863564.998 7      5779.882    23586807.380    97893971.870 7      4495.464    23586807.380    97893973.867 7      4495.464
G27  21308319.440   111975951.253 7      1738.081    21308318.820   111975951.250 8      1738.081    21308329.660    87254023.467 8      1354.349    21308329.760    87254024.466 8      1354.349
R14  20213093.880   107747116.451 8      -223.848    20213094.320   107747116.446 8      -223.848    20213110.740    83803370.341 8      -174.104    20213111.160    83803368.341 8      -174.104
G16  21497087.680   112967925.643 7       360.346    21497086.080   112967925.650 6       360.346    21497098.680    88026982.525 6       280.789
G10  22443514.780   117941467.370 7      1537.226    22443513.600   117941467.369 7      1537.226    22443528.020    91902442.280 7      1197.838    22443528.060    91902495.282 8      1197.838
G21  20817648.080   109397478.620 7      3103.478    20817646.260   109397478.630 6      3103.478    20817654.720    85244825.620 6      2418.294
R17  20516730.800   109789160.417 8      2287.005    20516729.420   109789160.424 7      2287.005    20516743.380    85391621.788 8      1778.782    20516742.920    85391621.786 8      1778.782
G08  21211680.800   111468121.917 7      3421.826    21211679.560   111468121.919 7      3421.826    21211689.040    86858312.753 8      2666.358    21211689.700    86858315.754 8      2666.358
R15  20088757.840   107348216.975 8      3897.732    20088755.220   107348216.987 7      3897.732    20088767.300    83493105.054 8      3031.569    20088767.240    83493103.058 8      3031.569
R01  22891101.220   122366119.212 6      3927.436    22891099.720   122366119.221 6      3927.436    22891127.660    95173748.785 6      3054.672    22891127.020    95173744.782 6      3054.672
R24  21951009.620   117381891.397 7       236.604    21951009.480   117381891.407 7       236.604    21951025.120    91297089.842 7       184.026    21951024.820    91297076.837 7       184.026
G23  24578062.540   129158589.955 6      -127.431    24578062.420   129158589.952 4      -127.431    24578074.160   100643105.453 4       -99.297    24578074.280   100643116.473 7       -99.297
R16  23890765.420   127620165.476 7      6583.556    23890765.200   127620165.464 7      6583.556    23890778.580    99260181.838 7      5120.543    23890779.040    99260183.835 7      5120.543
G07  24055527.760   126412649.805 7      3062.175    24055527.380   126412649.810 6      3062.175    24055537.420    98503389.875 6      2386.111    24055537.620    98503396.876 6      2386.111
R18  22486031.740   120031993.961 6      4286.480    22486031.740   120031993.962 7      4286.480    22486048.580    93358298.282 7      3333.929    22486048.780    93358300.288 7      3333.929
> 2024 04 02 15 21  1.0000000  0 17
G02  22130425.920   116296185.651 7      3968.804    22130424.360   116296185.656 6      3968.804    22130432.800    90620448.079 6      3092.575
G26  23787391.700   125003583.851 6      -787.442    23787390.420   125003583.861 6      -787.442    23787410.300    97405448.464 6      -613.591    23787410.700    97405453.466 7      -613.591
R02  23585700.180   125857785.205 7      5779.614    23585699.640   125857785.209 7      5779.614    23585724.080    97889476.476 7      4495.255    23585724.340    97889478.479 7      4495.255
G27  21307988.760   111974213.326 8      1737.628    21307988.040   111974213.328 8      1737.628    21307999.000    87252669.236 8      1353.996    21307998.920    87252670.235 8      1353.996
R14  20213135.860   107747340.673 8      -224.686    20213136.320   107747340.666 8      -224.686    20213152.740    83803544.723 8      -174.756    20213153.020    83803542.724 8      -174.756
G16  21497019.000   112967565.620 7       359.671    21497017.680   112967565.633 6       359.671    21497030.280    88026701.986 6       280.263
G10  22443222.060   117939930.471 7      1536.449    22443221.220   117939930.474 7      1536.449    22443235.560    91901244.697 7      1197.233    22443235.660    91901297.703 8      1197.233
G21  20817057.680   109394375.469 7      3102.741    20817055.680   109394375.477 6      3102.741    20817064.400    85242407.582 6      2417.720
R17  20516303.260   109786873.610 7      2286.526    20516302.280   109786873.628 7      2286.526    20516316.000    85389843.171 8      1778.409    20516315.520    85389843.171 8      1778.409
G08  21211029.360   111464700.190 7      3421.522    21211028.440   111464700.197 7      3421.522    21211037.860    86855646.476 7      2666.121    21211038.380    86855649.478 8      2666.121
R15  20088028.080   107344319.763 8      3896.594    20088025.920   107344319.775 7      3896.594    20088038.160    83490073.886 8      3030.684    20088038.000    83490071.887 8      3030.684
R01  22890366.900   122362192.047 6      3926.703    22890365.300   122362192.048 6      3926.703    22890392.680    95170694.327 6      3054.103    22890392.100    95170690.320 6      3054.103
R24  21950965.340   117381654.840 7       236.423    21950965.280   117381654.849 7       236.423    21950980.760    91296905.848 7       183.885    21950980.280    91296892.843 7       183.885
G23  24578087.120   129158717.618 6      -128.059    24578086.780   129158717.618 4      -128.059    24578098.360   100643204.937 4       -99.786    24578098.480   100643215.953 7       -99.786
R16  23889532.780   127613582.190 7      6583.007    23889532.500   127613582.169 7      6583.007    23889546.280    99255061.496 7      5120.117    23889546.200    99255063.495 7      5120.117
G07  24054945.600   126409588.048 7      3061.359    24054944.860   126409588.047 6      3061.359    24054954.820    98501004.078 6      2385.475    24054955.080    98501011.077 6      2385.475
R18  22485228.600   120027707.757 6      4285.828    22485228.900   120027707.760 7      4285.828    22485245.660    93354964.576 7      3333.422    22485245.580    93354966.580 7      3333.422
> 2024 04 02 15 21  2.0000000  0 17
G02  22129670.680   116292217.035 7      3968.499    22129669.060   116292217.040 6      3968.499    22129677.660    90617355.653 6      3092.337
G26  23787541.340   125004371.355 6      -787.464    23787540.220   125004371.363 6      -787.464    23787560.280    97406062.095 6      -613.609    23787560.360    97406067.089 7      -613.609
R02  23584616.920   125852005.595 7      5779.628    23584616.860   125852005.601 7      5779.628    23584640.980    97884981.215 7      4495.266    23584641.240    97884983.219 7      4495.266
G27  21307658.240   111972475.672 8      1737.619    21307657.420   111972475.677 8      1737.619    21307668.280    87251315.218 8      1353.989    21307668.400    87251316.222 8      1353.989
R14  20213178.060   107747565.666 8      -225.134    20213178.500   107747565.653 8      -225.134    20213194.940    83803719.703 8      -175.105    20213195.320    83803717.706 8      -175.105
G16  21496950.800   112967206.168 7       359.352    21496949.360   112967206.181 6       359.352    21496961.880    88026421.887 6       280.014
G10  22442929.780   117938394.270 7      1535.992    22442929.020   117938394.269 7      1535.992    22442943.240    91900047.655 7      1196.877    22442943.020    91900100.659 8      1196.877
G21  20816467.140   109391272.875 8      3102.472    20816465.360   109391272.883 6      3102.472    20816473.860    85239989.977 6      2417.510
R17  20515875.780   109784587.130 7      2286.503    20515874.820   109784587.150 7      2286.503    20515888.640    85388064.795 8      1778.392    20515888.000    85388064.796 8      1778.392
G08  21210378.400   111461278.728 7      3421.562    21210377.260   111461278.728 7      3421.562    21210386.760    86852980.398 7      2666.152    21210387.420    86852983.397 8      2666.152
R15  20087299.180   107340423.506 8      3895.985    20087296.780   107340423.509 7      3895.985    20087308.980    83487043.457 8      3030.211    20087308.800    83487041.458 8      3030.211
R01  22889631.840   122358265.614 6      3926.191    22889630.380   122358265.615 6      3926.191    22889658.840    95167640.458 6      3053.704    22889657.640    95167636.456 6      3053.704
R24  21950921.020   117381418.421 7       236.560    21950921.080   117381418.433 7       236.560    21950936.400    91296721.963 7       183.991    21950936.240    91296708.958 7       183.991
G23  24578111.780   129158845.775 6      -128.337    24578111.020   129158845.778 4      -128.337    24578122.700   100643304.804 4      -100.003    24578122.800   100643315.820 7      -100.003
R16  23888300.520   127606999.288 7      6582.791    23888300.620   127606999.281 7      6582.791    23888313.820    99249941.467 7      5119.949    23888314.200    99249943.473 7      5119.949
G07  24054363.040   126406526.903 7      3060.951    24054362.340   126406526.900 6      3060.951    24054372.160    98498618.767 6      2385.156    24054372.480    98498625.767 7      2385.156
R18  22484425.740   120023421.910 7      4285.912    22484426.300   120023421.911 7      4285.912    22484442.500    93351631.141 7      3333.487    22484442.820    93351633.150 7      3333.487
> 2024 04 02 15 21  3.0000000  0 17
G02  22128915.580   116288248.934 7      3967.838    22128913.900   116288248.942 6      3967.838    22128922.520    90614263.630 6      3091.822
G26  23787691.700   125005159.182 6      -787.949    23787690.260   125005159.184 6      -787.949    23787710.220    97406675.976 6      -613.986    23787710.480    97406680.972 7      -613.986
R02  23583533.960   125846226.249 7      5779.142    23583533.720   125846226.249 7      5779.142    23583557.980    97880486.153 7      4494.889    23583558.080    97880488.153 7      4494.889
G27  21307327.600   111970738.350 7      1737.157    21307326.720   111970738.352 8      1737.157    21307337.620    87249961.454 8      1353.629    21307337.760    87249962.460 8      1353.629
R14  20213220.460   107747791.484 8      -226.288    20213220.940   107747791.477 8      -226.288    20213237.340    83803895.331 8      -176.002    20213237.940    83803893.334 8      -176.002
G16  21496882.640   112966847.318 7       358.584    21496880.980   112966847.325 6       358.584    21496893.460    88026142.251 6       279.416
G10  22442637.820   117936858.793 7      1535.084    22442636.840   117936858.806 7      1535.084    22442651.060    91898851.188 7      1196.169    22442650.720    91898904.191 8      1196.169
G21  20815876.860   109388170.922 8      3101.598    20815875.140   109388170.927 6      3101.598    20815883.420    85237572.868 6      2416.830
R17  20515448.560   109782301.035 8      2285.914    20515447.780   109782301.045 7      2285.914    20515461.480    85386286.715 8      1777.933    20515460.800    85386286.715 8      1777.933
G08  21209727.160   111457857.585 8      3420.928    21209726.320   111457857.584 7      3420.928    21209735.760    86850314.565 8      2665.658    21209736.400    86850317.567 8      2665.658
R15  20086570.320   107336528.263 8      3894.862    20086567.780   107336528.259 8      3894.862    20086579.960    83484013.809 8      3029.337    20086579.940    83484011.813 8      3029.337
R01  22888897.660   122354339.982 6      3925.146    22888895.940   122354339.989 6      3925.146    22888924.140    95164587.204 6      3052.892    22888923.020    95164583.198 6      3052.892
R24  21950876.540   117381182.154 7       236.103    21950877.000   117381182.169 7       236.103    21950892.000    91296538.192 7       183.635    21950891.920    91296525.189 7       183.635
G23  24578136.100   129158974.469 6      -129.047    24578135.440   129158974.473 4      -129.047    24578147.120   100643405.087 4      -100.556    24578147.420   100643416.106 7      -100.556
R16  23887068.260   127600416.843 7      6582.139    23887068.360   127600416.847 7      6582.139    23887081.800    99244821.796 7      5119.442    23887081.940    99244823.795 7      5119.442
G07  24053780.820   126403466.412 7      3060.144    24053779.980   126403466.420 6      3060.144    24053789.900    98496233.971 6      2384.528    24053790.280    98496240.979 6      2384.528
R18  22483623.320   120019136.581 7      4284.965    22483623.740   120019136.585 7      4284.965    22483639.640    93348298.110 7      3332.750    22483639.960    93348300.112 7      3332.750
> 2024 04 02 15 21  4.0000000  0 17
G02  22128160.480   116284281.301 7      3967.346    22128158.860   116284281.309 6      3967.346    22128167.600    90611171.972 6      3091.438
G26  23787841.780   125005947.264 6      -788.229    23787840.240   125005947.264 6      -788.229    23787860.100    97407290.061 6      -614.205    23787859.900    97407295.055 7      -614.205
R02  23582451.080   125840447.054 7      5779.071    23582450.880   125840447.058 7      5779.071    23582474.760    97875991.222 7      4494.833    23582475.160    97875993.224 7      4494.833
G27  21306996.980   111969001.285 8      1736.861    21306996.240   111969001.289 8      1736.861    21307007.160    87248607.899 8      1353.398    21307007.160    87248608.906 8      1353.398
R14  20213262.920   107748018.020 8      -226.935    20213263.400   107748018.013 8      -226.935    20213279.880    83804071.519 8      -176.505    20213280.360    83804069.522 8      -176.505
G16  21496814.380   112966488.987 7       357.989    21496812.820   112966488.997 6       357.989    21496825.280    88025863.024 6       278.952
G10  22442345.780   117935323.994 7      1534.353    22442344.740   117935323.994 7      1534.353    22442359.000    91897655.234 7      1195.600    22442358.920    91897708.234 8      1195.600
G21  20815286.600   109385069.484 8      3101.071    20815284.960   109385069.492 6      3101.071    20815293.420    85235156.168 6      2416.419
R17  20515022.180   109780015.272 8      2285.538    20515020.840   109780015.273 7      2285.538    20515034.300    85384508.895 8      1777.641    20515033.920    85384508.895 8      1777.641
G08  21209076.040   111454436.620 8      3420.789    21209075.300   111454436.624 7      3420.789    21209084.720    86847648.878 7      2665.550    21209085.280    86847651.880 8      2665.550
R15  20085841.460   107332633.911 8      3893.781    20085839.040   107332633.912 7      3893.781    20085851.180    83480984.872 8      3028.496    20085851.200    83480982.876 8      3028.496
R01  22888163.760   122350415.030 6      3924.531    22888161.960   122350415.037 6      3924.531    22888189.580    95161534.477 6      3052.413    22888189.280    95161530.480 6      3052.413
R24  21950832.340   117380945.856 7       236.261    21950832.500   117380945.860 7       236.261    21950847.680    91296354.392 7       183.758    21950848.120    91296341.387 7       183.758
G23  24578160.700   129159103.624 6      -129.439    24578160.160   129159103.626 4      -129.439    24578171.740   100643505.730 4      -100.861    24578171.840   100643516.733 7      -100.861
R16  23885836.660   127593834.729 7      6581.941    23885835.960   127593834.728 7      6581.941    23885849.880    99239702.372 7      5119.288    23885849.440    99239704.372 7      5119.288
G07  24053198.660   126400406.528 7      3059.582    24053197.800   126400406.536 6      3059.582    24053207.580    98493849.644 6      2384.090    24053208.080    98493856.652 6      2384.090
R18  22482820.440   120014851.549 7      4284.991    22482821.120   120014851.547 7      4284.991    22482836.780    93344965.309 7      3332.770    22482837.020    93344967.311 7      3332.770
> 2024 04 02 15 21  5.0000000  0 17
G02  22127405.600   116280313.944 7      3967.362    22127404.020   116280313.954 6      3967.362    22127412.660    90608080.527 6      3091.451
G26  23787991.500   125006735.409 6      -788.049    23787990.260   125006735.411 6      -788.049    23788010.160    97407904.198 6      -614.064    23788009.800    97407909.202 7      -614.064
R02  23581367.880   125834667.852 7      5779.378    23581368.100   125834667.850 7      5779.378    23581391.840    97871496.273 7      4495.072    23581392.040    97871498.272 7      4495.072
G27  21306666.320   111967264.309 7      1737.122    21306665.680   111967264.306 8      1737.122    21306676.600    87247254.399 8      1353.601    21306676.680    87247255.407 8      1353.601
R14  20213305.740   107748245.150 8      -227.193    20213306.160   107748245.142 8      -227.193    20213322.420    83804248.163 8      -176.706    20213323.080    83804246.166 8      -176.706
G16  21496746.120   112966130.993 7       357.983    21496744.680   112966131.003 6       357.983    21496757.260    88025584.060 6       278.948
G10  22442054.020   117933789.652 7      1534.266    22442052.800   117933789.660 7      1534.266    22442067.060    91896459.646 7      1195.532    22442066.760    91896512.649 8      1195.532
G21  20814696.500   109381968.412 8      3101.077    20814694.840   109381968.414 6      3101.077    20814703.280    85232739.750 6      2416.423
R17  20514594.900   109777729.672 7      2285.737    20514593.340   109777729.684 7      2285.737    20514607.040    85382731.208 8      1777.795    20514606.840    85382731.209 8      1777.795
G08  21208425.420   111451015.712 8      3421.036    21208424.340   111451015.715 7      3421.036    21208433.800    86844983.228 7      2665.742    21208434.700    86844986.228 8      2665.742
R15  20085112.920   107328740.261 8      3893.457    20085110.400   107328740.259 7      3893.457    20085122.440    83477956.472 8      3028.244    20085122.520    83477954.477 8      3028.244
R01  22887429.720   122346490.604 6      3924.439    22887428.360   122346490.608 6      3924.439    22887455.720    95158482.169 6      3052.342    22887454.620    95158478.160 6      3052.342
R24  21950788.640   117380709.432 7       236.600    21950788.280   117380709.439 7       236.600    21950803.600    91296170.506 7       184.022    21950803.360    91296157.499 7       184.022
G23  24578185.180   129159233.058 6      -129.410    24578184.800   129159233.061 4      -129.410    24578196.280   100643606.581 4      -100.839    24578196.820   100643617.599 7      -100.839
R16  23884604.180   127587252.781 7      6582.165    23884603.600   127587252.779 7      6582.165    23884617.640    99234583.077 7      5119.461    23884617.920    99234585.076 7      5119.461
G07  24052616.540   126397347.078 7      3059.431    24052615.540   126397347.083 6      3059.431    24052625.340    98491465.657 6      2383.972    24052626.200    98491472.655 6      2383.972
R18  22482017.920   120010566.746 7      4284.996    22482017.840   120010566.744 7      4284.996    22482033.800    93341632.688 7      3332.775    22482034.400    93341634.688 7      3332.775
> 2024 04 02 15 21  6.0000000  0 17
G02  22126650.700   116276346.978 7      3966.684    22126649.100   116276346.985 6      3966.684    22126657.660    90604989.391 6      3090.923
G26  23788141.420   125007523.743 6      -788.529    23788140.260   125007523.748 6      -788.529    23788160.000    97408518.485 6      -614.438    23788159.920    97408523.474 7      -614.438
R02  23580285.280   125828888.685 7      5779.003    23580285.160   125828888.677 7      5779.003    23580308.740    97867001.354 7      4494.780    23580309.060    97867003.352 7      4494.780
G27  21306336.020   111965527.517 7      1736.552    21306335.260   111965527.519 8      1736.552    21306346.180    87245901.055 8      1353.157    21306346.300    87245902.064 8      1353.157
R14  20213348.460   107748472.968 8      -228.285    20213348.800   107748472.960 8      -228.285    20213365.120    83804425.347 8      -177.555    20213365.580    83804423.352 8      -177.555
G16  21496678.180   112965773.459 7       357.186    21496676.540   112965773.466 6       357.186    21496689.240    88025305.453 6       278.327
G10  22441761.960   117932255.926 8      1533.295    22441760.900   117932255.931 7      1533.295    22441775.240    91895264.536 7      1194.776    22441774.900    91895317.544 8      1194.776
G21  20814106.560   109378867.831 7      3100.168    20814104.900   109378867.838 6      3100.168    20814113.200    85230323.714 6      2415.715
R17  20514167.660   109775444.358 7      2285.051    20514166.380   109775444.368 7      2285.051    20514179.940    85380953.742 8      1777.262    20514179.380    85380953.740 8      1777.262
G08  21207774.420   111447594.947 7      3420.596    21207773.320   111447594.949 7      3420.596    21207782.800    86842317.699 7      2665.400    21207783.740    86842320.700 8      2665.400
R15  20084384.600   107324847.484 8      3892.221    20084381.640   107324847.483 7      3892.221    20084394.160    83474928.759 8      3027.283    20084394.080    83474926.765 8      3027.283
R01  22886695.180   122342566.844 6      3923.246    22886694.220   122342566.859 6      3923.246    22886721.540    95155430.383 6      3051.414    22886720.520    95155426.377 6      3051.414
R24  21950744.240   117380473.024 7       236.267    21950744.000   117380473.025 7       236.267    21950759.280    91295986.621 7       183.763    21950759.100    91295973.612 7       183.763
G23  24578209.860   129159362.892 6      -130.173    24578209.500   129159362.897 4      -130.173    24578221.100   100643707.754 4      -101.433    24578221.440   100643718.770 7      -101.433
R16  23883372.000   127580671.124 7      6581.332    23883371.660   127580671.138 7      6581.332    23883385.700    99229464.019 7      5118.814    23883385.380    99229466.022 7      5118.814
G07  24052034.240   126394288.162 7      3058.561    24052033.540   126394288.161 6      3058.561    24052043.300    98489082.077 6      2383.294    24052043.440    98489089.085 7      2383.294
R18  22481214.740   120006282.263 7      4284.253    22481215.200   120006282.261 7      4284.253    22481231.420    93338300.321 7      3332.197    22481231.680    93338302.319 7      3332.197
> 2024 04 02 15 21  7.0000000  0 17
G02  22125895.860   116272380.367 7      3966.331    22125894.220   116272380.374 6      3966.331    22125902.640    90601898.533 6      3090.647
G26  23788291.320   125008312.209 6      -788.559    23788290.340   125008312.219 6      -788.559    23788310.020    97409132.865 6      -614.462    23788310.440    97409137.865 7      -614.462
R02  23579202.620   125823109.477 7      5779.066    23579201.860   125823109.475 7      5779.066    23579225.780    97862506.411 7      4494.829    23579225.920    97862508.410 7      4494.829
G27  21306005.380   111963790.864 8      1736.511    21306004.780   111963790.869 8      1736.511    21306015.640    87244547.817 8      1353.125    21306015.980    87244548.822 8      1353.125
R14  20213391.280   107748701.390 8      -228.796    20213391.640   107748701.383 8      -228.796    20213408.040    83804602.998 8      -177.953    20213408.700    83804601.001 8      -177.953
G16  21496610.220   112965416.321 7       356.910    21496608.660   112965416.326 6       356.910    21496621.300    88025027.160 6       278.111
G10  22441470.040   117930722.730 7      1532.819    22441469.120   117930722.735 7      1532.819    22441483.360    91894069.842 7      1194.404    22441483.420    91894122.848 8      1194.404
G21  20813516.840   109375767.654 8      3099.932    20813515.000   109375767.656 6      3099.932    20813523.240    85227907.992 6      2415.532
R17  20513740.380   109773159.205 8      2284.977    20513739.340   109773159.217 7      2284.977    20513752.820    85379176.403 8      1777.204    20513752.560    85379176.403 8      1777.204
G08  21207123.320   111444174.305 7      3420.480    21207122.340   111444174.310 7      3420.480    21207131.920    86839652.266 8      2665.309    21207132.620    86839655.265 8      2665.309
R15  20083656.220   107320955.547 8      3891.428    20083653.320   107320955.548 8      3891.428    20083665.660    83471901.695 8      3026.666    20083665.660    83471899.700 8      3026.666
R01  22885961.700   122338643.672 6      3922.802    22885960.280   122338643.681 6      3922.802    22885987.280    95152379.026 6      3051.068    22885986.880    95152375.025 6      3051.068
R24  21950699.880   117380236.541 7       236.499    21950699.660   117380236.537 7       236.499    21950715.040    91295802.686 7       183.943    21950714.720    91295789.678 7       183.943
G23  24578234.740   129159493.062 6      -130.337    24578234.120   129159493.067 4      -130.337    24578245.720   100643809.189 4      -101.561    24578246.080   100643820.199 7      -101.561
R16  23882139.960   127574089.678 7      6581.277    23882139.840   127574089.671 7      6581.277    23882153.660    99224345.108 7      5118.771    23882153.640    99224347.105 7      5118.771
G07  24051452.380   126391229.723 7      3058.134    24051451.500   126391229.720 6      3058.134    24051461.240    98486698.872 6      2382.961    24051461.380    98486705.878 7      2382.961
R18  22480412.180   120001998.020 7      4284.125    22480412.540   120001998.029 7      4284.125    22480429.120    93334968.137 7      3332.097    22480429.200    93334970.141 7      3332.097
