     3.05           OBSERVATION DATA    MIXED               RINEX VERSION / TYPE
TPS2RIN 1.0.28.3459 TPS-USER            20260427 143651 UTC PGM / RUN BY / DATE
Win64 build Jun 01, 2022 (c) Topcon Positioning Systems     COMMENT
SRC: 20240708_LM008G3.tps                                   COMMENT
Observer            Agency                                  OBSERVER / AGENCY
O0M3X53SBGM         TPS HIPER_SR        4.8 HSR Jul,08,2022 REC # / TYPE / VERS
FW: 4.8 HSR Jul,08,2022 p3                                  COMMENT
SN: HiPer SR 1212-12575                                     COMMENT
000                 TPSHIPER_SR     NONE                    ANT # / TYPE
        1.77100        0.0000        0.0000                  ANTENNA: DELTA H/E/N
LM008G3                                                     MARKER NAME
  5389690.5332 -1601101.4179  3006200.3071                  APPROX POSITION XYZ
  2024     7     8    10    29   49.0000000     GPS         TIME OF FIRST OBS
  2024     7     8    10    55   51.0000000     GPS         TIME OF LAST OBS
     1.000                                                  INTERVAL
  1562 EPOCHS                                               COMMENT
G   12 C1C L1C D1C C1W L1W D1W C2W L2W D2W C2X L2X D2X      SYS / # / OBS TYPES
R   12 C1C L1C D1C C1P L1P D1P C2P L2P D2P C2C L2C D2C      SYS / # / OBS TYPES
    16                                                      # OF SATELLITES
   G02  1562  1562  1562  1562  1562  1562  1562  1562  1562PRN / # OF OBS
           0     0     0                                    PRN / # OF OBS
   G03  1562  1562  1562  1562  1562  1562  1562  1562  1562PRN / # OF OBS
        1562  1562  1562                                    PRN / # OF OBS
   G04    60    60    60    60    60    60    60    60    60PRN / # OF OBS
          60    60    60                                    PRN / # OF OBS
   G08  1562  1562  1562  1562  1562  1562  1562  1562  1562PRN / # OF OBS
        1562  1562  1562                                    PRN / # OF OBS
   G14  1562  1562  1562  1562  1562  1562  1562  1562  1562PRN / # OF OBS
        1562  1562  1562                                    PRN / # OF OBS
   G16   822   822   822   822   822   822   821   821   821PRN / # OF OBS
           0     0     0                                    PRN / # OF OBS
   G21  1562  1562  1562  1562  1562  1562  1562  1562  1562PRN / # OF OBS
           0     0     0                                    PRN / # OF OBS
   G27  1562  1562  1562  1562  1562  1562  1562  1562  1562PRN / # OF OBS
        1562  1562  1562                                    PRN / # OF OBS
   G32  1562  1562  1562  1562  1562  1562  1562  1562  1562PRN / # OF OBS
        1562  1562  1562                                    PRN / # OF OBS
   R03  1562  1562  1562  1562  1562  1562  1562  1562  1562PRN / # OF OBS
        1562  1562  1562                                    PRN / # OF OBS
   R04  1562  1562  1562  1562  1562  1562  1562  1562  1562PRN / # OF OBS
        1562  1562  1562                                    PRN / # OF OBS
   R05  1378  1378  1378  1374  1374  1374  1374  1374  1374PRN / # OF OBS
        1373  1373  1373                                    PRN / # OF OBS
   R09  1562  1562  1562  1562  1562  1562  1562  1562  1562PRN / # OF OBS
        1562  1562  1562                                    PRN / # OF OBS
   R10   330   330   330   326   326   326     0     0     0PRN / # OF OBS
           0     0     0                                    PRN / # OF OBS
   R16  1562  1562  1562  1562  1562  1562  1562  1562  1562PRN / # OF OBS
        1562  1562  1562                                    PRN / # OF OBS
   R18  1562  1562  1562  1562  1562  1562  1562  1562  1562PRN / # OF OBS
        1562  1562  1562                                    PRN / # OF OBS
G L1C                                                       SYS / PHASE SHIFT
G L1W -0.25000                                              SYS / PHASE SHIFT
G L2W  0.00000                                              SYS / PHASE SHIFT
G L2X  0.25000                                              SYS / PHASE SHIFT
R L1C                                                       SYS / PHASE SHIFT
R L1P -0.25000                                              SYS / PHASE SHIFT
R L2P -0.25000                                              SYS / PHASE SHIFT
R L2C                                                       SYS / PHASE SHIFT
  7 R03  5 R04  6 R05  1 R09 -2 R10 -7 R16 -1 R18 -3        GLONASS SLOT / FRQ #
                                                            GLONASS COD/PHS/BIS
               *** Undefined LeapSeconds ***                COMMENT
                                                            END OF HEADER
> 2024 07 08 10 29 49.0000000  0 13
G02  21336722.620   112125221.547 7      2613.307    21336720.980   112125221.554 6      2613.307    21336722.300    87370300.795 6      2036.343
G03  21428303.520   112606514.635 7      5732.436    21428303.000   112606514.640 7      5732.436    21428309.140    87745373.404 7      4466.834    21428309.980    87745376.402 8      4466.834
G14  23342774.740   122667122.817 7      5506.216    23342774.160   122667122.830 5      5506.216    23342780.100    95584779.210 5      4290.558    23342780.740    95584800.206 8      4290.558
G08  20731799.140   108946326.975 7      1995.772    20731798.080   108946326.980 8      1995.772    20731803.520    84893257.081 8      1555.147    20731804.720    84893261.090 8      1555.147
G21  21158660.440   111189496.676 7      1665.249    21158656.340   111189496.683 6      1665.249    21158659.260    86641158.012 6      1297.597
R16  21361256.380   114107954.030 7      -546.166    21361256.120   114107954.034 7      -546.166    21361265.880    88750652.535 8      -424.796    21361266.240    88750651.543 8      -424.796
G27  22847579.660   120064796.488 7       525.111    22847578.300   120064796.493 7       525.111    22847586.480    93556998.033 7       409.177    22847586.840    93556999.041 7       409.177
R18  21277158.340   113578890.714 7      1789.329    21277158.800   113578890.715 7      1789.329    21277167.920    88339195.943 8      1391.700    21277168.020    88339197.947 8      1391.700
R04  21076781.260   112865267.297 7      6083.344    21076782.580   112865267.331 7      6083.344    21076793.300    87784165.758 8      4731.490    21076792.920    87784166.764 8      4731.490
R03  20944382.980   112116925.920 7      2775.386    20944383.160   112116925.941 7      2775.386    20944392.980    87202093.236 8      2158.633    20944393.340    87202093.236 8      2158.633
G16  24963823.000   131185660.258 6      -828.557    24963821.240   131185660.263 4      -828.557    24963832.520   102222582.600 4      -645.629
R09  21175529.380   113076140.241 7      2883.000    21175528.440   113076140.242 7      2883.000    21175537.680    87948150.636 8      2242.333    21175537.520    87948152.632 8      2242.333
G32  24754240.720   130084416.959 6      2730.994    24754238.800   130084416.961 5      2730.994    24754251.240   101364520.887 5      2128.048    24754252.060   101364524.894 6      2128.048
> 2024 07 08 10 29 50.0000000  0 13
G02  21336225.520   112122608.152 8      2613.364    21336223.700   112122608.157 6      2613.364    21336224.980    87368264.379 6      2036.387
G03  21427212.980   112600782.335 7      5732.147    21427212.200   112600782.335 7      5732.147    21427218.340    87740906.672 7      4466.608    21427218.920    87740909.668 8      4466.608
G14  23341726.640   122661616.539 7      5506.112    23341726.380   122661616.546 5      5506.112    23341732.140    95580488.597 5      4290.477    23341732.960    95580509.587 7      4290.477
G08  20731419.520   108944331.281 7      1995.563    20731418.300   108944331.283 8      1995.563    20731423.800    84891701.994 8      1554.984    20731424.920    84891705.997 8      1554.984
G21  21158343.600   111187831.329 7      1665.419    21158339.340   111187831.339 6      1665.419    21158342.320    86639860.343 6      1297.729
R16  21361358.560   114108500.247 7      -546.372    21361358.280   114108500.248 7      -546.372    21361368.160    88751077.366 8      -424.956    21361368.460    88751076.372 8      -424.956
G27  22847479.540   120064271.289 7       525.080    22847478.440   120064271.289 7       525.080    22847486.640    93556588.775 7       409.153    22847486.640    93556589.780 7       409.153
R18  21276823.160   113577101.348 7      1789.407    21276823.580   113577101.352 7      1789.407    21276832.740    88337804.214 7      1391.761    21276832.720    88337806.216 8      1391.761
R04  21075645.260   112859184.066 7      6083.030    21075646.040   112859184.102 7      6083.030    21075656.900    87779434.352 8      4731.246    21075656.400    87779435.356 8      4731.246
R03  20943864.340   112114150.727 7      2774.850    20943864.480   112114150.750 7      2774.850    20943874.620    87199934.761 8      2158.216    20943874.900    87199934.759 8      2158.216
G16  24963980.580   131186488.806 7      -828.505    24963979.040   131186488.811 4      -828.505    24963990.320   102223228.205 4      -645.588
R09  21174989.600   113073257.497 7      2882.360    21174988.800   113073257.482 7      2882.360    21174998.020    87945908.501 8      2241.836    21174997.540    87945910.497 8      2241.836
G32  24753720.920   130081686.112 6      2730.659    24753719.500   130081686.124 5      2730.659    24753731.600   101362392.952 5      2127.786    24753732.720   101362396.973 6      2127.786
> 2024 07 08 10 29 52.0000000  0 13
G02  21335230.840   112117381.946 7      2612.840    21335229.060   112117381.953 6      2612.840    21335230.320    87364192.010 6      2035.979
G03  21425031.460   112589319.206 7      5731.026    21425030.980   112589319.203 7      5731.026    21425036.920    87731974.368 7      4465.734    21425037.920    87731977.369 8      4465.734
G14  23339631.220   122650605.429 7      5505.010    23339631.120   122650605.436 5      5505.010    23339637.040    95571908.505 5      4289.618    23339637.440    95571929.510 7      4289.618
G08  20730660.160   108940341.169 8      1994.548    20730659.040   108940341.174 8      1994.548    20730664.460    84888592.818 8      1554.193    20730665.520    84888596.825 8      1554.193
G21  21157710.160   111184501.173 7      1664.841    21157705.740   111184501.175 6      1664.841    21157708.760    86637265.409 6      1297.279
R16  21361563.260   114109594.073 7      -547.431    21361563.080   114109594.071 7      -547.431    21361572.840    88751928.116 8      -425.780    21361573.200    88751927.115 8      -425.780
G27  22847279.520   120063221.898 7       524.303    22847278.700   120063221.898 7       524.303    22847286.900    93555771.061 7       408.548    22847287.180    93555772.069 7       408.548
R18  21276153.160   113573522.878 7      1789.060    21276153.480   113573522.885 7      1789.060    21276162.120    88335020.966 7      1391.491    21276162.820    88335022.968 7      1391.491
R04  21073373.300   112847019.178 7      6081.901    21073374.520   112847019.209 7      6081.901    21073385.280    87769972.787 8      4730.367    21073385.320    87769973.789 8      4730.367
R03  20942828.280   112108603.171 7      2772.770    20942828.480   112108603.191 7      2772.770    20942838.500    87195619.991 8      2156.599    20942838.500    87195619.981 8      2156.599
G16  24964295.740   131188146.019 7      -828.849    24964294.420   131188146.021 4      -828.849    24964305.720   102224519.509 4      -645.856
R09  21173910.440   113067494.704 7      2880.575    21173909.980   113067494.694 7      2880.575    21173919.040    87941426.335 8      2240.448    21173918.720    87941428.327 8      2240.448
G32  24752682.420   130076226.098 6      2729.328    24752680.800   130076226.098 5      2729.328    24752692.360   101358138.390 5      2126.749    24752692.580   101358142.391 6      2126.749
> 2024 07 08 10 29 53.0000000  0 13
G02  21334733.540   112114769.174 7      2612.719    21334731.860   112114769.181 6      2612.719    21334733.380    87362156.080 6      2035.885
G03  21423941.140   112583588.408 7      5730.570    21423940.380   112583588.410 7      5730.570    21423946.420    87727508.819 7      4465.379    21423947.160    87727511.825 8      4465.379
G14  23338583.720   122645100.601 7      5504.601    23338583.620   122645100.605 5      5504.601    23338589.380    95567619.035 5      4289.299    23338590.100    95567640.038 7      4289.299
G08  20730280.600   108938346.804 8      1994.111    20730279.480   108938346.809 8      1994.111    20730284.980    84887038.768 8      1553.853    20730285.900    84887042.773 8      1553.853
G21  21157393.080   111182836.357 7      1664.765    21157388.920   111182836.362 6      1664.765    21157391.940    86635968.147 6      1297.220
R16  21361665.880   114110141.738 7      -547.885    21361665.840   114110141.736 7      -547.885    21361675.100    88752354.056 7      -426.133    21361675.920    88752353.056 8      -426.133
G27  22847179.980   120062697.727 7       523.936    22847178.940   120062697.737 7       523.936    22847187.160    93555362.614 7       408.262    22847187.800    93555363.622 7       408.262
R18  21275817.920   113571733.830 7      1788.972    21275818.340   113571733.834 7      1788.972    21275826.960    88333629.477 7      1391.423    21275827.440    88333631.484 8      1391.423
R04  21072237.720   112840937.569 7      6081.273    21072238.740   112840937.609 7      6081.273    21072249.580    87765242.651 8      4729.879    21072249.100    87765243.659 8      4729.879
R03  20942310.560   112105830.804 7      2771.899    20942310.540   112105830.819 7      2771.899    20942320.600    87193463.701 8      2155.921    20942320.600    87193463.695 8      2155.921
G16  24964453.560   131188974.711 6      -828.669    24964452.140   131188974.719 4      -828.669    24964463.580   102225165.235 4      -645.716
R09  21173371.240   113064614.765 7      2879.507    21173371.120   113064614.747 7      2879.507    21173379.740    87939186.366 8      2239.616    21173379.040    87939188.360 8      2239.616
G32  24752162.980   130073496.919 6      2729.030    24752161.420   130073496.922 5      2729.030    24752172.980   101356011.753 5      2126.517    24752173.420   101356015.758 6      2126.517
> 2024 07 08 10 29 54.0000000  0 13
G02  21334236.460   112112156.564 7      2612.517    21334234.520   112112156.569 6      2612.517    21334236.180    87360120.285 6      2035.727
G03  21422850.420   112577858.081 7      5730.166    21422849.900   112577858.081 7      5730.166    21422855.980    87723043.627 7      4465.065    21422856.420    87723046.627 8      4465.065
G14  23337536.600   122639596.203 7      5504.217    23337536.220   122639596.216 5      5504.217    23337541.800    95563329.915 5      4289.000    23337542.680    95563350.923 7      4289.000
G08  20729901.180   108936352.836 8      1993.800    20729899.960   108936352.836 8      1993.800    20729905.640    84885485.018 8      1553.610    20729906.460    84885489.025 8      1553.610
G21  21157076.020   111181171.669 7      1664.642    21157072.180   111181171.674 6      1664.642    21157075.120    86634670.988 6      1297.124
R16  21361768.180   114110689.806 7      -548.330    21361768.340   114110689.812 7      -548.330    21361777.900    88752780.342 7      -426.479    21361778.460    88752779.343 8      -426.479
G27  22847080.340   120062173.826 7       523.977    22847079.180   120062173.831 7       523.977    22847087.480    93554954.372 7       408.294    22847088.240    93554955.375 7       408.294
R18  21275482.960   113569944.806 7      1789.027    21275483.300   113569944.815 7      1789.027    21275491.480    88332238.020 7      1391.466    21275492.280    88332240.029 7      1391.466
R04  21071101.940   112834856.467 7      6080.857    21071103.100   112834856.506 7      6080.857    21071114.080    87760512.907 8      4729.556    21071113.840    87760513.911 8      4729.556
R03  20941792.720   112103059.322 7      2771.070    20941792.980   112103059.351 7      2771.070    20941803.000    87191308.117 8      2155.277    20941803.080    87191308.115 8      2155.277
G16  24964611.360   131189803.444 6      -828.744    24964609.780   131189803.449 4      -828.744    24964621.180   102225810.988 4      -645.774
R09  21172832.200   113061735.662 7      2878.682    21172832.200   113061735.644 7      2878.682    21172840.240    87936947.068 8      2238.975    21172840.060    87936949.060 8      2238.975
G32  24751644.100   130070768.297 6      2728.561    24751642.220   130070768.300 5      2728.561    24751653.640   101353885.558 5      2126.152    24751653.700   101353889.561 6      2126.152
> 2024 07 08 10 29 55.0000000  0 13
G02  21333739.140   112109544.045 7      2612.446    21333737.480   112109544.052 6      2612.446    21333739.040    87358084.553 6      2035.672
G03  21421760.100   112572128.143 7      5729.720    21421759.620   112572128.148 7      5729.720    21421765.580    87718578.742 7      4464.717    21421766.100    87718581.740 8      4464.717
G14  23336489.140   122634092.208 7      5503.741    23336488.720   122634092.223 5      5503.741    23336494.400    95559041.093 5      4288.629    23336495.200    95559062.088 8      4288.629
G08  20729521.640   108934359.202 8      1993.430    20729520.720   108934359.204 8      1993.430    20729526.200    84883931.541 8      1553.322    20729526.940    84883935.546 8      1553.322
G21  21156759.080   111179507.053 7      1664.498    21156755.400   111179507.063 6      1664.498    21156758.520    86633373.886 6      1297.011
R16  21361870.940   114111238.235 7      -548.680    21361870.900   114111238.241 7      -548.680    21361880.500    88753206.889 8      -426.751    21361881.000    88753205.895 8      -426.751
G27  22846980.580   120061650.230 7       523.397    22846979.520   120061650.232 7       523.397    22846987.840    93554546.371 7       407.842    22846988.440    93554547.368 7       407.842
R18  21275148.060   113568155.814 7      1788.929    21275148.020   113568155.818 7      1788.929    21275156.500    88330846.570 7      1391.390    21275157.200    88330848.582 7      1391.390
R04  21069966.240   112828775.825 7      6080.366    21069967.420   112828775.870 7      6080.366    21069978.780    87755783.521 8      4729.174    21069978.380    87755784.523 8      4729.174
R03  20941274.820   112100288.668 7      2770.202    20941275.300   112100288.699 7      2770.202    20941285.480    87189153.157 8      2154.602    20941285.480    87189153.160 8      2154.602
G16  24964769.120   131190632.113 7      -828.730    24964767.400   131190632.123 4      -828.730    24964778.660   102226456.694 4      -645.764
R09  21172292.880   113058857.339 7      2877.818    21172293.440   113058857.326 7      2877.818    21172301.260    87934708.388 8      2238.303    21172301.220    87934710.381 8      2238.303
G32  24751125.120   130068040.156 6      2727.713    24751123.260   130068040.161 5      2727.713    24751134.460   101351759.730 5      2125.491    24751135.540   101351763.732 6      2125.491
> 2024 07 08 10 29 56.0000000  0 13
G02  21333242.160   112106931.643 7      2612.269    21333240.500   112106931.648 6      2612.269    21333241.900    87356048.911 6      2035.534
G03  21420669.700   112566398.625 7      5729.273    21420669.320   112566398.624 7      5729.273    21420675.320    87714114.179 7      4464.369    21420675.960    87714117.179 8      4464.369
G14  23335441.600   122628588.570 7      5503.392    23335441.440   122628588.582 5      5503.392    23335447.240    95554752.542 5      4288.357    23335447.840    95554773.547 7      4288.357
G08  20729142.360   108932365.909 8      1993.105    20729141.340   108932365.912 8      1993.105    20729146.960    84882378.324 8      1553.069    20729147.740    84882382.331 8      1553.069
G21  21156442.320   111177842.499 7      1664.463    21156438.700   111177842.507 6      1664.463    21156441.680    86632076.832 6      1296.984
R16  21361973.660   114111787.067 8      -549.096    21361973.760   114111787.073 7      -549.096    21361983.440    88753633.754 8      -427.075    21361983.860    88753632.762 8      -427.075
G27  22846880.860   120061126.813 7       523.228    22846879.840   120061126.815 7       523.228    22846888.200    93554138.515 7       407.710    22846888.780    93554139.523 7       407.710
R18  21274812.760   113566366.849 7      1788.935    21274812.900   113566366.839 7      1788.935    21274821.220    88329455.140 7      1391.394    21274821.680    88329457.152 7      1391.394
R04  21068830.720   112822695.614 7      6079.942    21068832.340   112822695.661 7      6079.942    21068843.160    87751054.476 8      4728.844    21068842.920    87751055.474 8      4728.844
R03  20940757.480   112097518.827 7      2769.367    20940758.120   112097518.859 7      2769.367    20940768.020    87186998.841 8      2153.952    20940767.920    87186998.847 8      2153.952
G16  24964926.740   131191460.766 7      -828.738    24964924.940   131191460.774 4      -828.738    24964936.400   102227102.390 4      -645.770
R09  21171754.160   113055979.821 7      2877.097    21171754.480   113055979.812 7      2877.097    21171762.220    87932470.324 8      2237.742    21171762.060    87932472.318 8      2237.742
G32  24750606.060   130065312.428 6      2727.595    24750604.260   130065312.425 5      2727.595    24750615.380   101349634.221 5      2125.399    24750616.080   101349638.217 6      2125.399
> 2024 07 08 10 29 57.0000000  0 13
G02  21332745.200   112104319.352 7      2612.133    21332743.220   112104319.359 6      2612.133    21332744.820    87354013.361 6      2035.429
G03  21419579.720   112560669.527 7      5728.657    21419579.160   112560669.530 7      5728.657    21419585.140    87709649.953 7      4463.889    21419586.100    87709652.953 8      4463.889
G14  23334394.320   122623085.344 6      5502.883    23334394.200   122623085.352 5      5502.883    23334400.000    95550464.320 5      4287.961    23334400.640    95550485.323 7      4287.961
G08  20728763.340   108930372.995 8      1992.636    20728762.080   108930372.995 8      1992.636    20728767.640    84880825.402 8      1552.703    20728768.480    84880829.405 8      1552.703
G21  21156125.740   111176178.048 7      1664.221    21156121.920   111176178.053 6      1664.221    21156124.980    86630779.853 6      1296.796
R16  21362076.300   114112336.315 7      -549.576    21362076.540   114112336.308 7      -549.576    21362086.220    88754060.935 8      -427.448    21362086.420    88754059.943 8      -427.448
G27  22846781.500   120060603.687 7       522.834    22846780.300   120060603.692 7       522.834    22846788.680    93553730.885 7       407.403    22846789.100    93553731.892 7       407.403
R18  21274477.240   113564577.910 7      1788.805    21274477.680   113564577.906 7      1788.805    21274485.840    88328063.743 7      1391.293    21274486.700    88328065.755 7      1391.293
R04  21067695.540   112816615.861 7      6079.385    21067697.100   112816615.898 7      6079.385    21067707.840    87746325.780 8      4728.410    21067707.340    87746326.775 8      4728.410
R03  20940240.120   112094749.841 7      2768.321    20940240.860   112094749.869 7      2768.321    20940250.780    87184845.183 8      2153.139    20940250.580    87184845.187 8      2153.139
G16  24965084.060   131192289.367 7      -828.737    24965082.640   131192289.372 4      -828.737    24965094.240   102227748.041 4      -645.769
R09  21171215.400   113053103.153 7      2876.058    21171215.580   113053103.149 7      2876.058    21171223.560    87930232.924 8      2236.934    21171223.360    87930234.922 8      2236.934
G32  24750087.080   130062585.230 6      2726.793    24750085.400   130062585.229 5      2726.793    24750096.640   101347509.131 5      2124.774    24750097.120   101347513.149 6      2124.774
> 2024 07 08 10 29 58.0000000  0 13
G02  21332248.240   112101707.258 8      2612.107    21332246.140   112101707.262 6      2612.107    21332247.680    87351977.961 6      2035.408
G03  21418489.540   112554940.898 7      5728.441    21418489.000   112554940.902 7      5728.441    21418494.920    87705186.086 7      4463.720    21418495.780    87705189.090 8      4463.720
G14  23333346.980   122617582.549 7      5502.712    23333347.020   122617582.562 5      5502.712    23333352.700    95546176.433 5      4287.827    23333353.340    95546197.445 7      4287.827
G08  20728384.080   108928380.511 8      1992.302    20728382.980   108928380.514 8      1992.302    20728388.420    84879272.815 8      1552.443    20728389.240    84879276.820 8      1552.443
G21  21155809.020   111174513.726 7      1664.350    21155805.340   111174513.734 6      1664.350    21155808.240    86629482.980 6      1296.896
R16  21362179.320   114112886.010 7      -549.887    21362179.300   114112886.008 7      -549.887    21362189.240    88754488.478 8      -427.690    21362189.440    88754487.488 8      -427.690
G27  22846682.060   120060080.869 7       522.724    22846680.940   120060080.874 7       522.724    22846689.320    93553323.490 7       407.318    22846689.520    93553324.499 7       407.318
R18  21274142.420   113562789.022 7      1788.981    21274142.620   113562789.012 7      1788.981    21274150.400    88326672.379 7      1391.430    21274151.400    88326674.390 7      1391.430
R04  21066560.560   112810536.611 7      6079.083    21066561.200   112810536.653 7      6079.083    21066572.700    87741597.481 8      4728.176    21066572.360    87741598.474 8      4728.176
R03  20939722.940   112091981.748 7      2767.697    20939723.880   112091981.774 7      2767.697    20939733.620    87182692.221 8      2152.653    20939733.500    87182692.228 8      2152.653
G16  24965241.820   131193118.023 7      -828.638    24965240.280   131193118.031 4      -828.638    24965251.860   102228393.739 4      -645.692
R09  21170676.740   113050227.417 7      2875.340    21170677.020   113050227.421 7      2875.340    21170685.120    87927996.242 8      2236.375    21170685.000    87927998.238 8      2236.375
G32  24749568.060   130059858.578 6      2726.434    24749566.700   130059858.581 5      2726.434    24749577.800   101345384.466 5      2124.494    24749578.360   101345388.448 6      2124.494
> 2024 07 08 10 29 59.0000000  0 13
G02  21331751.180   112099095.297 7      2611.877    21331749.120   112099095.305 6      2611.877    21331750.880    87349942.668 6      2035.229
G03  21417399.520   112549212.712 7      5727.962    21417398.920   112549212.711 7      5727.962    21417404.740    87700722.565 7      4463.347    21417405.960    87700725.566 8      4463.347
G14  23332299.800   122612080.209 7      5502.130    23332299.980   122612080.222 5      5502.130    23332305.720    95541888.897 5      4287.374    23332306.260    95541909.908 7      4287.374
G08  20728005.140   108926388.377 7      1991.986    20728003.980   108926388.377 8      1991.986    20728009.380    84877720.501 8      1552.197    20728010.180    84877724.502 8      1552.197
G21  21155492.420   111172849.522 7      1664.178    21155488.620   111172849.529 6      1664.178    21155491.600    86628186.200 6      1296.762
R16  21362282.720   114113436.116 7      -550.203    21362282.500   114113436.104 7      -550.203    21362292.300    88754916.311 8      -427.936    21362292.540    88754915.317 8      -427.936
G27  22846582.540   120059558.337 7       522.321    22846581.380   120059558.339 7       522.321    22846589.860    93552916.312 7       407.003    22846589.780    93552917.321 7       407.003
R18  21273807.320   113561000.169 7      1788.815    21273807.360   113561000.164 7      1788.815    21273815.540    88325281.045 7      1391.300    21273816.300    88325283.047 7      1391.300
R04  21065425.240   112804457.836 7      6078.594    21065425.900   112804457.888 7      6078.594    21065437.440    87736869.560 8      4727.795    21065437.140    87736870.556 8      4727.795
R03  20939206.000   112089214.549 7      2766.759    20939206.860   112089214.575 7      2766.759    20939216.720    87180539.949 8      2151.923    20939216.420    87180539.954 8      2151.923
G16  24965399.820   131193946.663 7      -828.589    24965398.120   131193946.668 4      -828.589    24965409.540   102229039.424 4      -645.654
R09  21170138.420   113047352.490 7      2874.514    21170138.600   113047352.488 7      2874.514    21170146.520    87925760.167 8      2235.733    21170146.540    87925762.169 8      2235.733
G32  24749049.200   130057132.405 6      2725.913    24749047.960   130057132.410 5      2725.913    24749058.960   101343260.171 5      2124.088    24749059.600   101343264.151 6      2124.088
> 2024 07 08 10 30  0.0000000  0 13
G02  21331254.180   112096483.534 7      2611.618    21331252.140   112096483.539 6      2611.618    21331253.800    87347907.528 6      2035.027
G03  21416309.440   112543485.028 7      5727.397    21416309.000   112543485.030 7      5727.397    21416314.940    87696259.434 7      4462.907    21416315.740    87696262.432 8      4462.907
G14  23331252.840   122606578.334 6      5501.611    23331253.000   122606578.345 5      5501.611    23331258.680    95537601.728 5      4286.970    23331259.440    95537622.732 7      4286.970
G08  20727626.020   108924396.719 8      1991.327    20727624.880   108924396.719 8      1991.327    20727630.360    84876168.557 8      1551.683    20727631.300    84876172.560 8      1551.683
G21  21155176.000   111171185.489 7      1663.874    21155171.920   111171185.496 6      1663.874    21155175.000    86626889.551 6      1296.525
R16  21362385.660   114113986.681 7      -550.824    21362385.440   114113986.677 7      -550.824    21362395.220    88755344.539 8      -428.419    21362395.280    88755343.542 8      -428.419
G27  22846483.560   120059036.139 7       521.913    22846482.080   120059036.138 7       521.913    22846490.560    93552509.400 7       406.685    22846490.640    93552510.399 7       406.685
R18  21273471.980   113559211.438 7      1788.582    21273472.840   113559211.437 7      1788.582    21273480.180    88323889.806 7      1391.119    21273481.260    88323891.810 7      1391.119
R04  21064290.120   112798379.649 7      6077.918    21064290.840   112798379.691 7      6077.918    21064302.440    87732142.074 8      4727.269    21064301.920    87732143.073 8      4727.269
R03  20938689.560   112086448.311 7      2765.637    20938690.000   112086448.342 7      2765.637    20938699.820    87178388.435 8      2151.051    20938699.720    87178388.442 8      2151.051
G16  24965557.640   131194775.343 6      -828.720    24965555.820   131194775.348 4      -828.720    24965567.240   102229685.143 4      -645.756
R09  21169599.760   113044478.452 7      2873.537    21169600.540   113044478.450 7      2873.537    21169607.980    87923524.814 8      2234.973    21169608.280    87923526.815 8      2234.973
G32  24748530.760   130054406.807 6      2725.343    24748529.400   130054406.818 5      2725.343    24748540.180   101341136.316 5      2123.644    24748541.360   101341140.303 6      2123.644
> 2024 07 08 10 30  1.0000000  0 13
G02  21330757.100   112093871.923 7      2611.775    21330755.180   112093871.928 6      2611.775    21330756.800    87345872.506 6      2035.149
G03  21415219.680   112537757.799 7      5727.227    21415219.180   112537757.804 7      5727.227    21415225.140    87691796.660 7      4462.775    21415225.780    87691799.660 8      4462.775
G14  23330206.280   122601076.877 6      5501.551    23330205.940   122601076.887 5      5501.551    23330211.760    95533314.880 5      4286.923    23330212.300    95533335.889 7      4286.923
G08  20727247.080   108922405.418 8      1991.279    20727245.940   108922405.425 8      1991.279    20727251.440    84874616.898 8      1551.646    20727252.480    84874620.901 8      1551.646
G21  21154859.020   111169521.568 7      1664.079    21154855.320   111169521.573 6      1664.079    21154858.180    86625592.987 6      1296.685
R16  21362488.760   114114537.653 7      -550.953    21362488.620   114114537.654 7      -550.953    21362498.600    88755773.060 8      -428.519    21362498.460    88755772.057 8      -428.519
G27  22846384.320   120058514.227 7       521.953    22846382.800   120058514.232 7       521.953    22846391.320    93552102.712 7       406.717    22846391.580    93552103.697 7       406.717
R18  21273137.280   113557422.772 7      1788.889    21273137.480   113557422.767 7      1788.889    21273145.200    88322498.619 7      1391.358    21273145.920    88322500.615 7      1391.358
R04  21063155.340   112792301.963 7      6077.658    21063156.520   112792301.994 7      6077.658    21063167.340    87727414.980 8      4727.067    21063167.000    87727415.982 8      4727.067
R03  20938173.140   112083682.954 7      2765.160    20938173.480   112083682.977 7      2765.160    20938183.340    87176237.591 8      2150.680    20938183.320    87176237.593 8      2150.680
G16  24965715.620   131195604.046 6      -828.366    24965713.480   131195604.054 4      -828.366    24965724.920   102230330.877 4      -645.480
R09  21169062.140   113041605.303 7      2873.024    21169062.240   113041605.309 7      2873.024    21169069.940    87921290.145 8      2234.574    21169069.900    87921292.152 8      2234.574
G32  24748011.900   130051681.733 6      2725.013    24748011.000   130051681.737 5      2725.013    24748021.540   101339012.871 5      2123.387    24748023.420   101339016.862 6      2123.387
> 2024 07 08 10 30  2.0000000  0 13
G02  21330260.240   112091260.628 8      2611.087    21330258.240   112091260.633 6      2611.087    21330259.860    87343837.729 6      2034.613
G03  21414129.980   112532031.189 7      5726.170    21414129.520   112532031.192 7      5726.170    21414135.340    87687334.365 7      4461.950    21414136.000    87687337.367 8      4461.950
G14  23329159.520   122595576.006 6      5500.462    23329158.940   122595576.021 5      5500.462    23329164.960    95529028.495 5      4286.074    23329165.700    95529049.514 7      4286.074
G08  20726868.160   108920414.682 8      1990.383    20726867.160   108920414.684 8      1990.383    20726872.680    84873065.671 8      1550.948    20726873.600    84873069.674 8      1550.948
G21  21154542.260   111167857.908 7      1663.423    21154538.780   111167857.913 6      1663.423    21154541.660    86624296.625 6      1296.174
R16  21362592.100   114115089.180 7      -551.897    21362591.640   114115089.181 7      -551.897    21362601.660    88756202.021 8      -429.253    21362601.540    88756201.018 8      -429.253
G27  22846285.020   120057992.775 7       521.114    22846283.700   120057992.777 7       521.114    22846292.040    93551696.373 7       406.063    22846292.120    93551697.366 7       406.063
R18  21272802.440   113555634.311 7      1788.307    21272802.540   113555634.314 7      1788.307    21272810.060    88321107.596 7      1390.906    21272811.020    88321109.596 7      1390.906
R04  21062020.420   112786224.911 7      6076.648    21062021.360   112786224.953 7      6076.648    21062032.560    87722688.391 8      4726.282    21062032.240    87722689.397 8      4726.282
R03  20937656.560   112080918.643 7      2763.627    20937657.220   112080918.666 7      2763.627    20937666.980    87174087.574 8      2149.488    20937666.820    87174087.576 8      2149.488
G16  24965873.040   131196432.918 7      -829.091    24965871.400   131196432.925 4      -829.091    24965882.540   102230976.739 4      -646.045
R09  21168524.320   113038733.177 7      2871.517    21168524.220   113038733.183 7      2871.517    21168531.880    87919056.265 8      2233.402    21168532.120    87919058.269 8      2233.402
G32  24747493.520   130048957.275 6      2723.952    24747492.420   130048957.283 5      2723.952    24747503.120   101336889.921 5      2122.560    24747504.360   101336893.933 6      2122.560
> 2024 07 08 10 30  3.0000000  0 13
G02  21329763.160   112088649.564 7      2610.908    21329761.380   112088649.571 6      2610.908    21329763.000    87341803.137 6      2034.474
G03  21413040.340   112526305.098 7      5725.800    21413039.840   112526305.095 7      5725.800    21413045.540    87682872.474 7      4461.662    21413046.320    87682875.473 8      4461.662
G14  23328112.780   122590075.639 6      5500.139    23328112.080   122590075.652 5      5500.139    23328118.380    95524742.501 4      4285.822    23328119.000    95524763.512 7      4285.822
G08  20726489.500   108918424.416 8      1990.014    20726488.440   108918424.421 8      1990.014    20726494.000    84871514.812 8      1550.660    20726494.800    84871518.813 8      1550.660
G21  21154225.780   111166194.456 7      1663.397    21154222.220   111166194.461 6      1663.397    21154225.160    86623000.426 6      1296.153
R16  21362695.720   114115641.206 7      -552.295    21362695.080   114115641.199 7      -552.295    21362705.240    88756631.364 8      -429.563    21362704.860    88756630.362 8      -429.563
G27  22846185.840   120057471.678 7       520.828    22846184.420   120057471.683 7       520.828    22846192.900    93551290.315 7       405.840    22846192.840    93551291.314 7       405.840
R18  21272467.360   113553845.975 7      1788.292    21272467.580   113553845.982 7      1788.292    21272475.160    88319716.660 7      1390.894    21272476.000    88319718.658 7      1390.894
R04  21060885.860   112780148.438 7      6076.203    21060886.340   112780148.475 7      6076.203    21060897.780    87717962.241 8      4725.935    21060897.260    87717963.249 8      4725.935
R03  20937140.340   112078155.301 7      2762.813    20937140.960   112078155.324 7      2762.813    20937150.580    87171938.306 8      2148.854    20937150.680    87171938.312 8      2148.854
G16  24966030.680   131197261.863 7      -829.020    24966029.200   131197261.865 4      -829.020    24966040.340   102231622.660 4      -645.990
R09  21167986.340   113035861.961 7      2870.723    21167986.160   113035861.964 7      2870.723    21167993.940    87916823.095 8      2232.785    21167994.300    87916825.099 8      2232.785
G32  24746974.900   130046233.451 6      2723.623    24746974.020   130046233.453 5      2723.623    24746984.880   101334767.455 5      2122.304    24746985.800   101334771.431 6      2122.304
> 2024 07 08 10 30  4.0000000  0 13
G02  21329266.520   112086038.549 7      2610.856    21329264.520   112086038.557 6      2610.856    21329266.180    87339768.574 6      2034.433
G03  21411950.860   112520579.350 7      5725.483    21411950.280   112520579.350 7      5725.483    21411956.060    87678410.850 7      4461.415    21411956.880    87678413.846 7      4461.415
G14  23327066.140   122584575.590 6      5499.887    23327065.340   122584575.608 5      5499.887    23327071.720    95520456.753 4      4285.626    23327072.080    95520477.768 7      4285.626
G08  20726110.860   108916434.439 8      1989.733    20726109.680   108916434.441 8      1989.733    20726115.240    84869964.173 8      1550.441    20726116.020    84869968.180 8      1550.441
G21  21153909.460   111164531.027 7      1663.250    21153905.660   111164531.034 6      1663.250    21153908.720    86621704.246 6      1296.039
R16  21362799.120   114116193.537 7      -552.590    21362798.460   114116193.533 7      -552.590    21362808.480    88757060.953 8      -429.792    21362808.420    88757059.955 8      -429.792
G27  22846086.780   120056950.762 7       520.690    22846085.300   120056950.770 7       520.690    22846093.820    93550884.396 7       405.733    22846093.600    93550885.404 7       405.733
R18  21272132.100   113552057.584 7      1788.282    21272132.360   113552057.587 7      1788.282    21272140.420    88318325.691 7      1390.886    21272141.060    88318327.691 7      1390.886
R04  21059751.240   112774072.302 7      6075.894    21059752.020   112774072.342 7      6075.894    21059763.200    87713236.360 8      4725.695    21059762.580    87713237.368 8      4725.695
R03  20936624.100   112075392.738 7      2762.036    20936624.520   112075392.774 7      2762.036    20936634.460    87169789.662 8      2148.250    20936634.540    87169789.664 8      2148.250
G16  24966188.860   131198090.711 6      -828.998    24966186.940   131198090.716 4      -828.998    24966198.180   102232268.505 4      -645.973
R09  21167449.200   113032991.500 7      2870.024    21167448.620   113032991.499 7      2870.024    21167456.540    87914590.506 8      2232.241    21167456.680    87914592.502 8      2232.241
G32  24746456.460   130043510.021 6      2723.242    24746455.840   130043510.021 5      2723.242    24746466.480   101332645.304 5      2122.007    24746467.860   101332649.301 6      2122.007
> 2024 07 08 10 30  5.0000000  0 13
G02  21328769.540   112083427.669 7      2610.769    21328767.740   112083427.679 6      2610.769    21328769.320    87337734.124 6      2034.366
G03  21410861.380   112514854.066 7      5724.979    21410860.860   112514854.068 7      5724.979    21410866.640    87673949.596 7      4461.023    21410867.360    87673952.591 8      4461.023
G14  23326019.340   122579076.017 6      5499.313    23326018.920   122579076.032 5      5499.313    23326025.080    95516171.375 4      4285.179    23326025.580    95516192.386 7      4285.179
G08  20725731.940   108914444.856 7      1989.331    20725731.100   108914444.859 8      1989.331    20725736.620    84868413.853 8      1550.128    20725737.480    84868417.858 8      1550.128
G21  21153592.660   111162867.706 7      1663.151    21153589.300   111162867.713 6      1663.151    21153592.100    86620408.149 6      1295.962
R16  21362902.340   114116746.298 7      -553.008    21362902.100   114116746.299 7      -553.008    21362912.020    88757490.878 8      -430.117    21362911.960    88757489.878 8      -430.117
G27  22845987.720   120056430.141 7       520.349    22845986.160   120056430.148 7       520.349    22845994.740    93550478.717 7       405.466    22845994.880    93550479.723 7       405.466
R18  21271797.060   113550269.259 7      1788.211    21271797.080   113550269.265 7      1788.211    21271805.380    88316934.765 7      1390.831    21271805.860    88316936.765 7      1390.831
R04  21058616.460   112767996.689 7      6075.272    21058617.620   112767996.720 7      6075.272    21058628.560    87708510.880 8      4725.212    21058628.480    87708511.890 8      4725.212
R03  20936108.260   112072631.071 7      2761.146    20936108.520   112072631.102 7      2761.146    20936118.400    87167641.693 8      2147.558    20936118.700    87167641.695 8      2147.558
G16  24966346.900   131198919.530 6      -828.821    24966344.520   131198919.535 4      -828.821    24966355.920   102232914.326 4      -645.834
R09  21166911.800   113030121.881 7      2869.142    21166911.160   113030121.885 7      2869.142    21166918.980    87912358.590 8      2231.555    21166919.080    87912360.581 8      2231.555
G32  24745938.300   130040787.130 6      2722.569    24745937.560   130040787.132 5      2722.569    24745948.280   101330523.564 5      2121.482    24745950.000   101330527.555 6      2121.482
> 2024 07 08 10 30  6.0000000  0 13
G02  21328272.840   112080817.133 7      2610.476    21328270.980   112080817.146 6      2610.476    21328272.600    87335699.942 6      2034.137
G03  21409772.000   112509129.406 7      5724.410    21409771.480   112509129.406 7      5724.410    21409777.220    87669488.818 7      4460.579    21409778.040    87669491.819 8      4460.579
G14  23324972.620   122573577.027 6      5498.718    23324972.340   122573577.040 4      5498.718    23324978.600    95511886.448 4      4284.715    23324979.260    95511907.465 7      4284.715
G08  20725353.640   108912455.844 8      1988.795    20725352.620   108912455.843 8      1988.795    20725358.140    84866863.971 8      1549.710    20725359.140    84866867.972 8      1549.710
G21  21153276.140   111161204.668 7      1662.980    21153272.700   111161204.673 6      1662.980    21153275.520    86619112.278 6      1295.829
R16  21363005.560   114117299.705 7      -553.631    21363005.380   114117299.704 7      -553.631    21363015.640    88757921.304 8      -430.602    21363015.720    88757920.297 8      -430.602
G27  22845888.720   120055909.981 7       520.016    22845887.380   120055909.986 7       520.016    22845895.860    93550073.390 7       405.207    22845896.460    93550074.394 8       405.207
R18  21271462.320   113548481.145 7      1788.089    21271462.000   113548481.146 7      1788.089    21271470.860    88315544.006 7      1390.736    21271470.940    88315546.008 7      1390.736
R04  21057482.120   112761921.752 7      6074.651    21057483.380   112761921.781 7      6074.651    21057494.240    87703785.936 8      4724.729    21057493.980    87703786.944 8      4724.729
R03  20935592.500   112069870.473 7      2760.145    20935592.800   112069870.501 7      2760.145    20935602.700    87165494.557 8      2146.779    20935603.120    87165494.561 8      2146.779
G16  24966504.460   131199748.525 7      -828.891    24966502.320   131199748.530 4      -828.891    24966513.700   102233560.284 4      -645.889
R09  21166374.520   113027253.306 7      2868.150    21166373.940   113027253.310 7      2868.150    21166381.840    87910127.476 8      2230.783    21166382.040    87910129.462 8      2230.783
G32  24745420.420   130038064.919 6      2721.973    24745419.600   130038064.916 5      2721.973    24745430.180   101328402.357 5      2121.018    24745431.900   101328406.333 6      2121.018
> 2024 07 08 10 30  7.0000000  0 13
G02  21327776.000   112078206.621 7      2610.437    21327774.160   112078206.633 6      2610.437    21327775.900    87333665.777 6      2034.106
G03  21408682.620   112503405.064 8      5724.094    21408682.160   112503405.069 7      5724.094    21408687.960    87665028.292 7      4460.333    21408688.560    87665031.296 8      4460.333
G14  23323926.520   122568078.342 6      5498.322    23323926.020   122568078.355 4      5498.322    23323932.240    95507601.762 4      4284.407    23323932.800    95507622.767 7      4284.407
G08  20724975.300   108910467.083 8      1988.581    20724974.220   108910467.086 8      1988.581    20724979.700    84865314.285 8      1549.544    20724980.640    84865318.286 8      1549.544
G21  21152959.920   111159541.631 7      1663.046    21152956.280   111159541.633 6      1663.046    21152959.000    86617816.400 6      1295.880
R16  21363109.280   114117853.409 7      -553.894    21363109.180   114117853.415 7      -553.894    21363119.360    88758351.960 8      -430.806    21363119.340    88758350.956 8      -430.806
G27  22845789.780   120055389.977 7       519.862    22845788.400   120055389.982 7       519.862    22845797.020    93549668.188 7       405.088    22845797.720    93549669.181 7       405.088
R18  21271127.340   113546692.962 7      1788.091    21271127.040   113546692.965 7      1788.091    21271136.080    88314153.197 7      1390.738    21271136.180    88314155.203 7      1390.738
R04  21056347.700   112755847.188 7      6074.377    21056348.780   112755847.225 7      6074.377    21056359.660    87699061.286 8      4724.516    21056359.660    87699062.296 8      4724.516
R03  20935076.780   112067110.597 7      2759.393    20935077.000   112067110.633 7      2759.393    20935087.260    87163347.991 8      2146.195    20935087.500    87163347.997 8      2146.195
G16  24966661.820   131200577.462 6      -829.033    24966660.020   131200577.469 4      -829.033    24966671.560   102234206.202 4      -645.999
R09  21165837.340   113024385.438 7      2867.407    21165837.000   113024385.436 7      2867.407    21165845.140    87907896.914 8      2230.205    21165845.080    87907898.900 8      2230.205
G32  24744902.380   130035343.100 6      2721.410    24744901.740   130035343.094 5      2721.410    24744912.500   101326281.450 5      2120.580    24744913.700   101326285.443 6      2120.580
> 2024 07 08 10 30  8.0000000  0 13
G02  21327279.180   112075596.303 7      2610.096    21327277.500   112075596.308 6      2610.096    21327279.220    87331631.757 6      2033.841
G03  21407593.500   112497681.209 7      5723.473    21407592.900   112497681.214 7      5723.473    21407598.760    87660568.151 7      4459.849    21407599.320    87660571.154 8      4459.849
G14  23322880.440   122562580.088 6      5497.946    23322879.560   122562580.103 4      5497.946    23322885.940    95503317.410 4      4284.114    23322886.460    95503338.421 7      4284.114
G08  20724596.940   108908478.754 7      1987.988    20724595.720   108908478.756 8      1987.988    20724601.340    84863764.938 8      1549.082    20724602.280    84863768.943 8      1549.082
G21  21152643.720   111157878.756 7      1662.644    21152639.840   111157878.756 6      1662.644    21152642.720    86616520.652 6      1295.567
R16  21363213.300   114118407.575 7      -554.502    21363212.980   114118407.573 7      -554.502    21363223.080    88758782.966 8      -431.279    21363223.180    88758781.965 8      -431.279
G27  22845690.740   120054870.307 7       519.368    22845689.480   120054870.304 7       519.368    22845698.120    93549263.242 7       404.702    22845699.020    93549264.233 7       404.702
R18  21270792.120   113544904.874 7      1787.900    21270792.000   113544904.878 7      1787.900    21270801.360    88312762.460 7      1390.589    21270801.240    88312764.462 7      1390.589
R04  21055213.300   112749773.200 7      6073.624    21055214.840   112749773.226 7      6073.624    21055225.400    87694337.066 8      4723.930    21055225.340    87694338.072 8      4723.930
R03  20934561.240   112064351.650 7      2758.339    20934561.520   112064351.678 7      2758.339    20934571.780    87161202.135 8      2145.375    20934572.000    87161202.137 8      2145.375
G16  24966819.580   131201406.404 7      -829.130    24966817.760   131201406.412 4      -829.130    24966829.340   102234852.117 4      -646.075
R09  21165300.260   113021518.454 7      2866.476    21165300.020   113021518.458 7      2866.476    21165308.360    87905667.040 8      2229.481    21165308.500    87905669.026 8      2229.481
G32  24744384.460   130032621.785 6      2720.890    24744384.020   130032621.784 5      2720.890    24744394.700   101324160.958 5      2120.174    24744396.080   101324164.979 6      2120.174
> 2024 07 08 10 30  9.0000000  0 13
G02  21326782.540   112072985.985 7      2610.291    21326780.900   112072985.990 6      2610.291    21326782.360    87329597.743 6      2033.993
G03  21406504.440   112491957.684 7      5723.340    21406503.880   112491957.684 7      5723.340    21406509.520    87656108.261 7      4459.746    21406510.240    87656111.261 8      4459.746
G14  23321834.120   122557082.125 6      5497.806    23321833.220   122557082.143 4      5497.806    23321839.720    95499033.290 4      4284.005    23321840.340    95499054.296 7      4284.005
G08  20724218.460   108906490.674 7      1987.955    20724217.440   108906490.677 8      1987.955    20724222.980    84862215.787 8      1549.056    20724223.820    84862219.790 8      1549.056
G21  21152327.200   111156215.840 7      1662.876    21152323.420   111156215.842 6      1662.876    21152326.320    86615224.873 6      1295.748
R16  21363317.060   114118961.986 7      -554.555    21363316.840   114118961.982 7      -554.555    21363326.680    88759214.169 8      -431.320    21363327.060    88759213.168 8      -431.320
G27  22845591.980   120054350.768 7       519.464    22845590.640   120054350.773 7       519.464    22845599.160    93548858.406 7       404.777    22845599.680    93548859.401 7       404.777
R18  21270457.140   113543116.723 7      1788.159    21270457.100   113543116.724 7      1788.159    21270466.460    88311371.684 8      1390.791    21270466.220    88311373.686 8      1390.791
R04  21054079.360   112743699.487 7      6073.677    21054080.080   112743699.510 7      6073.677    21054091.420    87689613.067 8      4723.971    21054090.960    87689614.067 8      4723.971
R03  20934046.140   112061593.430 7      2757.944    20934046.640   112061593.453 7      2757.944    20934056.600    87159056.843 8      2145.068    20934057.100    87159056.845 8      2145.068
G16  24966977.020   131202235.226 7      -828.797    24966975.540   131202235.231 4      -828.797    24966987.220   102235497.938 4      -645.816
R09  21164763.720   113018652.215 7      2865.938    21164763.820   113018652.216 7      2865.938    21164771.360    87903437.733 8      2229.063    21164771.820    87903439.723 8      2229.063
G32  24743866.620   130029900.895 6      2720.665    24743866.260   130029900.892 5      2720.665    24743876.800   101322040.786 5      2119.999    24743878.100   101322044.758 6      2119.999
> 2024 07 08 10 30 10.0000000  0 13
G02  21326285.660   112070375.851 7      2609.996    21326284.180   112070375.855 6      2609.996    21326285.760    87327563.872 6      2033.763
G03  21405415.400   112486234.633 7      5722.767    21405414.660   112486234.632 7      5722.767    21405420.560    87651648.745 7      4459.299    21405421.300    87651651.745 8      4459.299
G14  23320787.800   122551584.654 6      5497.242    23320787.180   122551584.669 4      5497.242    23320793.520    95494749.546 4      4283.565    23320794.040    95494770.552 7      4283.565
G08  20723840.360   108904503.023 7      1987.382    20723839.320   108904503.022 8      1987.382    20723844.700    84860666.966 8      1548.610    20723845.540    84860670.966 8      1548.610
G21  21152011.080   111154553.062 7      1662.716    21152007.060   111154553.067 6      1662.716    21152009.800    86613929.208 6      1295.623
R16  21363421.020   114119516.820 7      -555.046    21363420.720   114119516.813 7      -555.046    21363430.940    88759645.699 8      -431.703    21363431.060    88759644.697 8      -431.703
G27  22845493.180   120053831.565 7       519.079    22845491.600   120053831.570 7       519.079    22845500.360    93548453.829 7       404.477    22845500.740    93548454.828 7       404.477
R18  21270122.020   113541328.623 7      1787.987    21270122.120   113541328.618 7      1787.987    21270131.880    88309980.933 7      1390.656    21270131.520    88309982.935 7      1390.656
R04  21052945.040   112737626.302 7      6072.889    21052946.220   112737626.344 7      6072.889    21052957.120    87684889.496 8      4723.358    21052956.920    87684890.493 8      4723.358
R03  20933531.120   112058836.135 7      2756.888    20933531.340   112058836.163 7      2756.888    20933541.480    87156912.286 8      2144.246    20933541.800    87156912.288 8      2144.246
G16  24967134.420   131203064.082 7      -828.874    24967133.340   131203064.084 4      -828.874    24967144.940   102236143.785 4      -645.876
R09  21164227.120   113015786.894 7      2864.822    21164227.180   113015786.890 7      2864.822    21164234.840    87901209.139 8      2228.195    21164235.280    87901211.134 8      2228.195
G32  24743348.980   130027180.495 6      2720.228    24743348.580   130027180.495 5      2720.228    24743358.900   101319920.983 5      2119.658    24743360.500   101319924.984 6      2119.658
> 2024 07 08 10 30 11.0000000  0 13
G02  21325789.180   112067765.929 7      2609.957    21325787.520   112067765.937 6      2609.957    21325789.120    87325530.173 6      2033.733
G03  21404326.420   112480512.112 7      5722.308    21404325.720   112480512.114 7      5722.308    21404331.640    87647189.638 7      4458.941    21404332.360    87647192.637 8      4458.941
G14  23319742.040   122546087.674 6      5496.823    23319740.840   122546087.686 4      5496.823    23319747.520    95490466.191 4      4283.238    23319747.980    95490487.196 7      4283.238
G08  20723462.180   108902515.836 8      1987.076    20723461.140   108902515.839 8      1987.076    20723466.580    84859118.511 8      1548.371    20723467.560    84859122.514 8      1548.371
G21  21151694.520   111152890.493 7      1662.672    21151690.560   111152890.498 6      1662.672    21151693.440    86612633.699 6      1295.589
R16  21363524.680   114120072.137 7      -555.427    21363524.800   114120072.138 7      -555.427    21363534.640    88760077.615 8      -431.999    21363534.640    88760076.618 8      -431.999
G27  22845394.280   120053312.706 7       518.868    22845393.000   120053312.711 7       518.868    22845401.640    93548049.523 7       404.313    22845402.120    93548050.525 7       404.313
R18  21269786.980   113539540.655 7      1788.010    21269787.240   113539540.648 7      1788.010    21269797.120    88308590.289 8      1390.675    21269796.500    88308592.292 8      1390.675
R04  21051811.080   112731553.687 7      6072.409    21051812.120   112731553.721 7      6072.409    21051823.220    87680166.342 8      4722.985    21051822.940    87680167.348 8      4722.985
R03  20933016.120   112056079.813 7      2755.914    20933016.780   112056079.842 7      2755.914    20933026.340    87154768.490 8      2143.488    20933027.140    87154768.491 8      2143.488
G16  24967292.280   131203893.027 6      -828.907    24967290.960   131203893.029 4      -828.907    24967302.680   102236789.704 4      -645.902
R09  21163690.720   113012922.471 7      2864.120    21163691.240   113012922.469 7      2864.120    21163698.680    87898981.255 8      2227.649    21163698.880    87898983.257 8      2227.649
G32  24742831.640   130024460.767 6      2719.381    24742830.940   130024460.769 5      2719.381    24742841.420   101317801.727 5      2118.998    24742843.200   101317805.720 6      2118.998
> 2024 07 08 10 30 12.0000000  0 13
G02  21325292.660   112065156.189 7      2609.716    21325290.860   112065156.197 6      2609.716    21325292.500    87323496.608 6      2033.545
G03  21403237.500   112474790.030 7      5721.904    21403236.840   112474790.035 7      5721.904    21403242.800    87642730.875 7      4458.627    21403243.680    87642733.874 8      4458.627
G14  23318696.440   122540591.140 6      5496.272    23318694.780   122540591.153 4      5496.272    23318701.540    95486183.178 4      4282.809    23318702.040    95486204.179 7      4282.809
G08  20723084.240   108900529.039 8      1986.717    20723083.060   108900529.041 8      1986.717    20723088.560    84857570.353 8      1548.091    20723089.280    84857574.358 8      1548.091
G21  21151378.100   111151228.039 7      1662.495    21151374.260   111151228.046 6      1662.495    21151377.260    86611338.281 6      1295.450
R16  21363628.640   114120627.886 7      -555.900    21363628.820   114120627.887 7      -555.900    21363638.660    88760509.860 8      -432.367    21363638.700    88760508.862 8      -432.367
G27  22845295.620   120052794.163 7       518.421    22845294.400   120052794.173 7       518.421    22845303.020    93547645.459 7       403.964    22845303.920    93547646.459 7       403.964
R18  21269452.500   113537752.752 7      1787.971    21269452.480   113537752.742 7      1787.971    21269462.300    88307199.696 8      1390.644    21269461.840    88307201.696 8      1390.644
R04  21050677.440   112725481.586 7      6071.900    21050678.320   112725481.607 7      6071.900    21050689.280    87675443.591 8      4722.589    21050688.800    87675444.591 8      4722.589
R03  20932501.820   112053324.375 7      2755.006    20932501.940   112053324.406 7      2755.006    20932511.640    87152625.372 8      2142.782    20932512.300    87152625.372 8      2142.782
G16  24967449.940   131204721.956 7      -828.907    24967448.660   131204721.961 4      -828.907    24967460.520   102237435.611 4      -645.902
R09  21163154.420   113010058.931 7      2863.118    21163154.960   113010058.927 7      2863.118    21163162.680    87896754.053 8      2226.870    21163162.780    87896756.053 8      2226.870
G32  24742314.460   130021741.473 6      2719.052    24742313.380   130021741.467 5      2719.052    24742324.260   101315682.799 5      2118.742    24742325.980   101315686.806 6      2118.742
> 2024 07 08 10 30 13.0000000  0 13
G02  21324796.040   112062546.505 7      2609.577    21324794.340   112062546.512 6      2609.577    21324795.840    87321463.085 6      2033.436
G03  21402148.520   112469068.339 7      5721.345    21402148.020   112469068.352 7      5721.345    21402153.940    87638272.421 7      4458.191    21402155.100    87638275.422 8      4458.191
G14  23317650.420   122535094.901 6      5496.055    23317648.680   122535094.914 4      5496.055    23317655.500    95481900.392 4      4282.640    23317655.760    95481921.403 7      4282.640
G08  20722706.220   108898542.567 8      1986.209    20722704.980   108898542.569 8      1986.209    20722710.520    84856022.455 8      1547.695    20722711.400    84856026.460 8      1547.695
G21  21151061.720   111149565.629 7      1662.327    21151058.060   111149565.637 6      1662.327    21151060.700    86610042.897 6      1295.320
R16  21363733.180   114121183.997 7      -556.386    21363732.900   114121184.000 7      -556.386    21363742.840    88760942.388 8      -432.744    21363743.280    88760941.388 8      -432.744
G27  22845197.300   120052275.822 7       518.112    22845195.780   120052275.827 7       518.112    22845204.360    93547241.553 7       403.724    22845205.240    93547242.546 8       403.724
R18  21269117.180   113535964.844 7      1787.836    21269117.460   113535964.839 7      1787.836    21269127.580    88305809.109 8      1390.539    21269126.860    88305811.107 8      1390.539
R04  21049543.340   112719409.935 7      6071.321    21049544.180   112719409.966 7      6071.321    21049555.320    87670721.210 8      4722.139    21049555.080    87670722.214 8      4722.139
R03  20931986.840   112050569.759 7      2754.102    20931987.540   112050569.784 7      2754.102    20931997.280    87150482.886 8      2142.080    20931997.400    87150482.886 8      2142.080
G16  24967607.840   131205550.820 6      -828.919    24967606.440   131205550.822 4      -828.919    24967618.300   102238081.458 4      -645.911
R09  21162618.520   113007196.163 7      2862.284    21162618.920   113007196.153 7      2862.284    21162626.580    87894527.460 8      2226.221    21162626.480    87894529.456 8      2226.221
G32  24741796.980   130019022.638 6      2718.656    24741796.000   130019022.630 5      2718.656    24741806.920   101313564.228 5      2118.433    24741808.440   101313568.223 6      2118.433
> 2024 07 08 10 30 14.0000000  0 13
G02  21324299.360   112059937.051 7      2609.340    21324297.740   112059937.053 6      2609.340    21324299.280    87319429.742 6      2033.252
G03  21401059.640   112463347.156 7      5720.936    21401059.260   112463347.161 7      5720.936    21401065.180    87633814.349 7      4457.872    21401066.120    87633817.347 8      4457.872
G14  23316604.520   122529599.214 6      5495.501    23316602.960   122529599.222 4      5495.501    23316609.880    95477618.045 4      4282.208    23316609.920    95477639.056 7      4282.208
G08  20722328.180   108896556.540 8      1985.805    20722327.100   108896556.539 8      1985.805    20722332.600    84854474.899 8      1547.381    20722333.520    84854478.903 8      1547.381
G21  21150745.380   111147903.396 7      1662.124    21150741.640   111147903.403 6      1662.124    21150744.440    86608747.650 6      1295.162
R16  21363837.300   114121740.609 7      -556.838    21363836.980   114121740.618 7      -556.838    21363847.000    88761375.301 8      -433.096    21363847.260    88761374.300 8      -433.096
G27  22845098.640   120051757.825 7       517.774    22845097.220   120051757.830 7       517.774    22845105.660    93546837.915 7       403.460    22845106.520    93546838.900 7       403.460
R18  21268782.380   113534177.047 7      1787.702    21268782.880   113534177.043 7      1787.702    21268792.540    88304418.605 8      1390.435    21268792.080    88304420.607 8      1390.435
R04  21048409.520   112713338.876 7      6070.753    21048410.680   112713338.899 7      6070.753    21048421.640    87665999.273 8      4721.697    21048421.440    87666000.275 8      4721.697
R03  20931472.340   112047816.068 7      2753.116    20931472.940   112047816.091 7      2753.116    20931482.780    87148341.131 8      2141.313    20931482.840    87148341.135 8      2141.313
G16  24967766.020   131206379.736 6      -828.976    24967764.220   131206379.741 4      -828.976    24967776.140   102238727.352 4      -645.956
R09  21162082.660   113004334.316 7      2861.333    21162083.120   113004334.306 7      2861.333    21162090.600    87892301.572 8      2225.482    21162090.500    87892303.571 8      2225.482
G32  24741279.940   130016304.358 6      2718.267    24741278.760   130016304.353 5      2718.267    24741289.580   101311446.088 5      2118.130    24741291.160   101311450.093 6      2118.130
> 2024 07 08 10 30 15.0000000  0 13
G02  21323802.680   112057327.897 7      2608.920    21323801.320   112057327.902 6      2608.920    21323802.860    87317396.637 6      2032.924
G03  21399971.140   112457626.577 7      5720.329    21399970.700   112457626.584 7      5720.329    21399976.720    87629356.755 7      4457.399    21399977.800    87629359.753 8      4457.399
G14  23315558.640   122524104.100 6      5494.779    23315557.400   122524104.105 4      5494.779    23315564.180    95473336.140 4      4281.646    23315564.360    95473357.150 7      4281.646
G08  20721950.420   108894571.061 8      1985.223    20721949.240   108894571.061 8      1985.223    20721954.760    84852927.768 8      1546.927    20721955.620    84852931.775 8      1546.927
G21  21150429.100   111146241.446 7      1661.700    21150425.320   111146241.454 6      1661.700    21150428.300    86607452.622 6      1294.831
R16  21363941.500   114122297.841 7      -557.659    21363941.500   114122297.845 7      -557.659    21363951.300    88761808.697 8      -433.735    21363951.520    88761807.693 8      -433.735
G27  22844999.920   120051240.289 7       517.238    22844998.680   120051240.291 7       517.238    22845007.320    93546434.632 7       403.043    22845007.740    93546435.623 7       403.043
R18  21268447.480   113532389.459 7      1787.354    21268447.720   113532389.447 7      1787.354    21268457.680    88303028.246 8      1390.165    21268457.140    88303030.250 8      1390.165
R04  21047276.460   112707268.419 7      6070.125    21047277.140   112707268.448 7      6070.125    21047288.100    87661277.807 8      4721.208    21047287.660    87661278.809 8      4721.208
R03  20930958.380   112045063.408 7      2752.080    20930958.300   112045063.431 7      2752.080    20930968.740    87146200.169 8      2140.507    20930968.620    87146200.178 8      2140.507
G16  24967923.300   131207208.828 6      -829.240    24967922.060   131207208.833 4      -829.240    24967933.880   102239373.380 4      -646.161
R09  21161547.040   113001473.462 7      2860.298    21161547.540   113001473.458 7      2860.298    21161555.000    87890076.466 8      2224.676    21161554.540    87890078.460 8      2224.676
G32  24740762.780   130013586.832 6      2717.076    24740761.700   130013586.832 5      2717.076    24740772.520   101309328.537 5      2117.202    24740772.700   101309332.536 6      2117.202
> 2024 07 08 10 30 16.0000000  0 13
G02  21323306.440   112054718.867 7      2609.140    21323304.780   112054718.877 6      2609.140    21323306.300    87315363.631 6      2033.096
G03  21398882.620   112451906.439 7      5720.124    21398882.160   112451906.447 7      5720.124    21398888.140    87624899.507 7      4457.239    21398889.360    87624902.509 8      4457.239
G14  23314512.980   122518609.382 6      5494.668    23314511.800   122518609.390 4      5494.668    23314518.500    95469054.548 4      4281.560    23314518.600    95469075.562 7      4281.560
G08  20721572.640   108892585.956 8      1985.174    20721571.580   108892585.958 8      1985.174    20721577.060    84851380.935 8      1546.889    20721578.080    84851384.942 8      1546.889
G21  21150112.700   111144579.562 7      1662.032    21150108.980   111144579.567 6      1662.032    21150111.920    86606157.643 6      1295.090
R16  21364045.740   114122855.425 7      -557.543    21364045.900   114122855.421 7      -557.543    21364055.800    88762242.368 8      -433.644    21364055.500    88762241.369 8      -433.644
G27  22844901.280   120050722.985 7       517.436    22844900.320   120050722.993 7       517.436    22844908.820    93546031.536 7       403.197    22844909.240    93546032.538 7       403.197
R18  21268112.520   113530601.871 7      1787.848    21268113.020   113530601.861 7      1787.848    21268122.680    88301637.896 8      1390.548    21268122.440    88301639.904 8      1390.548
R04  21046143.120   112701198.383 7      6070.053    21046143.360   112701198.411 7      6070.053    21046154.560    87656556.671 8      4721.153    21046154.140    87656557.675 8      4721.153
R03  20930444.600   112042311.584 7      2751.718    20930444.420   112042311.607 7      2751.718    20930454.860    87144059.861 8      2140.225    20930454.900    87144059.870 8      2140.225
G16  24968081.480   131208037.878 7      -828.802    24968079.860   131208037.886 4      -828.802    24968091.560   102240019.377 4      -645.820
R09  21161011.520   112998613.442 7      2859.842    21161011.620   112998613.435 7      2859.842    21161019.380    87887852.003 8      2224.322    21161018.860    87887853.996 8      2224.322
G32  24740245.860   130010869.700 6      2717.095    24740244.640   130010869.695 5      2717.095    24740255.500   101307211.294 5      2117.217    24740256.560   101307215.305 6      2117.217
> 2024 07 08 10 30 17.0000000  0 13
G02  21322809.920   112052109.804 8      2608.868    21322808.360   112052109.809 6      2608.868    21322809.820    87313330.591 6      2032.884
G03  21397794.180   112446186.556 7      5719.550    21397793.620   112446186.561 7      5719.550    21397799.700    87620442.458 7      4456.792    21397800.600    87620445.458 8      4456.792
G14  23313467.700   122513114.896 6      5494.089    23313466.400   122513114.903 4      5494.089    23313472.860    95464773.134 4      4281.108    23313472.800    95464794.149 7      4281.108
G08  20721195.100   108890601.042 8      1984.615    20721193.780   108890601.044 8      1984.615    20721199.340    84849834.251 8      1546.453    20721200.100    84849838.256 8      1546.453
G21  21149796.500   111142917.607 7      1661.758    21149792.680   111142917.607 6      1661.758    21149795.720    86604862.614 6      1294.876
R16  21364150.400   114123413.194 7      -557.982    21364150.320   114123413.193 7      -557.982    21364160.040    88762676.184 8      -433.986    21364160.240    88762675.188 8      -433.986
G27  22844803.080   120050205.801 7       516.931    22844801.860   120050205.805 7       516.931    22844810.240    93545628.527 7       402.803    22844810.960    93545629.532 7       402.803
R18  21267777.780   113528814.171 7      1787.570    21267778.140   113528814.166 7      1787.570    21267787.700    88300247.466 8      1390.332    21267787.460    88300249.474 8      1390.332
R04  21045009.200   112695128.630 7      6069.385    21045010.100   112695128.667 7      6069.385    21045021.080    87651835.767 8      4720.633    21045020.800    87651836.769 8      4720.633
R03  20929930.280   112039560.465 7      2750.599    20929930.420   112039560.486 7      2750.599    20929940.880    87141920.104 8      2139.355    20929940.540    87141920.117 8      2139.355
G16  24968239.120   131208866.729 7      -828.898    24968237.400   131208866.733 4      -828.898    24968249.220   102240665.220 4      -645.895
R09  21160475.920   112995754.102 7      2858.817    21160476.080   112995754.100 7      2858.817    21160483.980    87885628.079 8      2223.524    21160483.440    87885630.071 8      2223.524
G32  24739728.840   130008152.926 6      2716.640    24739727.620   130008152.915 5      2716.640    24739738.560   101305094.320 5      2116.863    24739739.220   101305098.317 6      2116.863
> 2024 07 08 10 30 18.0000000  0 13
G02  21322313.480   112049500.897 7      2608.948    21322311.900   112049500.905 6      2608.948    21322313.360    87311297.677 6      2032.946
G03  21396705.700   112440467.134 7      5719.285    21396705.260   112440467.138 7      5719.285    21396711.360    87615985.765 7      4456.586    21396712.160    87615988.758 8      4456.586
G14  23312422.080   122507620.853 6      5493.864    23312420.840   122507620.866 4      5493.864    23312427.420    95460492.066 4      4280.933    23312427.360    95460513.075 7      4280.933
G08  20720817.300   108888616.536 8      1984.460    20720816.260   108888616.535 8      1984.460    20720821.740    84848287.878 8      1546.333    20720822.640    84848291.883 8      1546.333
G21  21149480.080   111141255.784 7      1661.820    21149476.460   111141255.786 6      1661.820    21149479.600    86603567.684 6      1294.924
R16  21364255.100   114123971.383 7      -558.331    21364254.620   114123971.386 7      -558.331    21364264.680    88763110.332 8      -434.258    21364265.040    88763109.328 8      -434.258
G27  22844704.680   120049688.913 7       516.818    22844703.560   120049688.920 7       516.818    22844711.900    93545225.753 7       402.716    22844712.720    93545226.761 7       402.716
R18  21267442.880   113527026.540 7      1787.645    21267443.100   113527026.541 7      1787.645    21267452.840    88298857.085 8      1390.390    21267452.600    88298859.097 8      1390.390
R04  21043875.580   112689059.440 7      6068.994    21043876.560   112689059.476 7      6068.994    21043887.620    87647115.286 8      4720.329    21043887.020    87647116.286 8      4720.329
R03  20929416.900   112036810.260 7      2749.882    20929416.640   112036810.283 7      2749.882    20929427.160    87139781.054 8      2138.797    20929427.300    87139781.068 8      2138.797
G16  24968397.160   131209695.616 6      -828.741    24968395.120   131209695.623 4      -828.741    24968406.820   102241311.094 4      -645.772
R09  21159940.340   112992895.646 7      2858.069    21159940.600   112992895.647 7      2858.069    21159948.740    87883404.833 8      2222.942    21159948.540    87883406.823 8      2222.942
G32  24739212.200   130005436.687 6      2716.003    24739210.640   130005436.682 5      2716.003    24739221.640   101302977.775 5      2116.366    24739222.280   101302981.794 6      2116.366
> 2024 07 08 10 30 19.0000000  0 13
G02  21321816.960   112046892.295 8      2608.509    21321815.360   112046892.300 6      2608.509    21321817.000    87309265.000 6      2032.604
G03  21395617.700   112434748.304 7      5718.620    21395617.080   112434748.312 7      5718.620    21395623.140    87611529.532 7      4456.068    21395624.240    87611532.526 8      4456.068
G14  23311376.940   122502127.387 6      5493.181    23311375.640   122502127.399 4      5493.181    23311382.100    95456211.448 4      4280.401    23311382.380    95456232.453 7      4280.401
G08  20720439.900   108886632.560 7      1983.793    20720438.580   108886632.565 8      1983.793    20720444.180    84846741.928 8      1545.812    20720444.760    84846745.932 8      1545.812
G21  21149163.960   111139594.210 7      1661.534    21149160.220   111139594.209 6      1661.534    21149163.300    86602272.949 6      1294.702
R16  21364359.160   114124530.113 7      -558.872    21364359.160   114124530.117 7      -558.872    21364368.980    88763544.884 8      -434.678    21364369.140    88763543.883 8      -434.678
G27  22844606.740   120049172.456 7       516.293    22844605.360   120049172.458 7       516.293    22844613.660    93544823.309 7       402.306    22844614.520    93544824.310 7       402.306
R18  21267107.660   113525239.096 7      1787.329    21267108.300   113525239.097 7      1787.329    21267117.800    88297466.854 8      1390.145    21267117.740    88297468.867 8      1390.145
R04  21042742.240   112682990.900 7      6068.307    21042743.160   112682990.942 7      6068.307    21042754.440    87642395.323 8      4719.794    21042754.160    87642396.321 8      4719.794
R03  20928903.140   112034061.082 7      2748.732    20928903.200   112034061.108 7      2748.732    20928913.600    87137642.802 8      2137.902    20928913.840    87137642.811 8      2137.902
G16  24968554.600   131210524.637 7      -829.100    24968552.940   131210524.645 4      -829.100    24968564.700   102241957.070 4      -646.052
R09  21159405.620   112990038.175 7      2857.070    21159405.360   112990038.173 7      2857.070    21159413.520    87881182.358 8      2222.165    21159413.200    87881184.350 8      2222.165
G32  24738695.260   130002721.106 6      2715.390    24738694.060   130002721.098 5      2715.390    24738704.820   101300861.733 5      2115.888    24738705.460   101300865.744 6      2115.888
> 2024 07 08 10 30 20.0000000  0 13
G02  21321320.600   112044283.738 8      2608.495    21321318.940   112044283.748 6      2608.495    21321320.620    87307232.355 6      2032.594
G03  21394529.440   112429029.848 7      5718.164    21394528.880   112429029.853 7      5718.164    21394534.820    87607073.588 7      4455.712    21394535.700    87607076.588 8      4455.712
G14  23310331.640   122496634.240 6      5492.890    23310330.240   122496634.253 4      5492.890    23310336.940    95451931.077 4      4280.174    23310336.800    95451952.089 7      4280.174
G08  20720062.280   108884648.881 7      1983.439    20720061.140   108884648.886 8      1983.439    20720066.700    84845196.204 8      1545.537    20720067.440    84845200.211 8      1545.537
G21  21148848.180   111137932.670 7      1661.389    21148844.040   111137932.672 6      1661.389    21148847.100    86600978.243 6      1294.589
R16  21364463.900   114125089.207 7      -559.394    21364463.940   114125089.210 7      -559.394    21364473.820    88763979.734 8      -435.084    21364473.900    88763978.736 8      -435.084
G27  22844508.620   120048656.185 7       516.092    22844506.960   120048656.185 7       516.092    22844515.560    93544421.016 7       402.150    22844516.320    93544422.007 7       402.150
R18  21266773.100   113523451.596 7      1787.461    21266773.700   113523451.586 7      1787.461    21266782.960    88296076.566 8      1390.248    21266783.020    88296078.577 7      1390.248
R04  21041608.800   112676922.778 7      6067.831    21041610.420   112676922.817 7      6067.831    21041621.320    87637675.666 8      4719.424    21041620.900    87637676.670 8      4719.424
R03  20928389.540   112031312.689 7      2747.906    20928389.940   112031312.712 7      2747.906    20928400.480    87135505.161 8      2137.261    20928400.380    87135505.167 8      2137.261
G16  24968712.580   131211353.559 7      -828.961    24968710.740   131211353.566 4      -828.961    24968722.480   102242602.970 4      -645.943
R09  21158870.340   112987181.449 7      2856.254    21158870.500   112987181.458 7      2856.254    21158878.460    87878960.464 8      2221.531    21158878.080    87878962.458 8      2221.531
G32  24738178.400   130000005.931 6      2714.877    24738177.380   130000005.928 5      2714.877    24738188.220   101298746.011 5      2115.488    24738188.440   101298750.022 6      2115.488
> 2024 07 08 10 30 21.0000000  0 13
G02  21320824.340   112041675.177 8      2608.553    21320822.560   112041675.188 6      2608.553    21320824.220    87305199.709 6      2032.638
G03  21393441.300   112423311.666 7      5718.010    21393440.600   112423311.663 7      5718.010    21393446.740    87602617.855 7      4455.592    21393447.520    87602620.857 8      4455.592
G14  23309286.140   122491141.359 6      5492.811    23309285.000   122491141.369 4      5492.811    23309291.660    95447650.914 4      4280.113    23309291.440    95447671.920 7      4280.113
G08  20719684.700   108882665.429 8      1983.334    20719683.760   108882665.434 8      1983.334    20719689.200    84843650.654 8      1545.455    20719689.900    84843654.657 8      1545.455
G21  21148531.980   111136271.072 7      1661.530    21148528.000   111136271.083 6      1661.530    21148530.840    86599683.494 6      1294.698
R16  21364568.580   114125648.549 8      -559.496    21364568.760   114125648.552 7      -559.496    21364578.640    88764414.774 8      -435.164    21364578.720    88764413.780 8      -435.164
G27  22844410.320   120048140.038 7       516.016    22844408.720   120048140.048 7       516.016    22844417.140    93544018.819 7       402.090    22844417.700    93544019.819 7       402.090
R18  21266438.440   113521663.989 7      1787.782    21266438.380   113521663.977 7      1787.782    21266447.980    88294686.197 8      1390.497    21266447.840    88294688.205 8      1390.497
R04  21040475.660   112670854.956 7      6067.638    21040477.060   112670854.995 7      6067.638    21040488.040    87632956.255 8      4719.274    21040487.820    87632957.257 8      4719.274
R03  20927876.160   112028565.015 7      2747.302    20927876.860   112028565.038 7      2747.302    20927887.140    87133368.081 8      2136.790    20927887.080    87133368.086 8      2136.790
G16  24968870.260   131212182.325 7      -828.723    24968868.560   131212182.330 4      -828.723    24968880.300   102243248.746 4      -645.758
R09  21158335.520   112984325.412 7      2855.728    21158335.360   112984325.415 7      2855.728    21158343.740    87876739.099 8      2221.122    21158343.640    87876741.096 8      2221.122
G32  24737661.360   129997291.101 6      2714.604    24737660.720   129997291.096 5      2714.604    24737671.540   101296630.553 5      2115.276    24737672.180   101296634.558 6      2115.276
> 2024 07 08 10 30 22.0000000  0 13
G02  21320327.980   112039066.757 7      2608.354    21320326.340   112039066.761 6      2608.354    21320327.700    87303167.171 6      2032.483
G03  21392353.500   112417593.911 7      5717.516    21392352.660   112417593.916 7      5717.516    21392358.680    87598162.475 7      4455.208    21392359.460    87598165.472 8      4455.208
G14  23308241.320   122485648.922 6      5492.202    23308240.000   122485648.932 4      5492.202    23308246.440    95443371.095 4      4279.638    23308246.340    95443392.106 7      4279.638
G08  20719307.280   108880682.373 7      1982.845    20719306.380   108880682.375 8      1982.845    20719311.920    84842105.410 8      1545.074    20719312.580    84842109.415 8      1545.074
G21  21148215.920   111134609.588 7      1661.392    21148211.800   111134609.593 6      1661.392    21148214.680    86598388.826 6      1294.591
R16  21364673.160   114126208.310 7      -559.974    21364673.440   114126208.316 7      -559.974    21364683.320    88764850.140 8      -435.535    21364683.840    88764849.144 8      -435.535
G27  22844312.100   120047624.159 7       515.773    22844310.840   120047624.162 7       515.773    22844319.040    93543616.832 7       401.901    22844319.500    93543617.831 7       401.901
R18  21266103.340   113519876.454 7      1787.549    21266103.720   113519876.445 7      1787.549    21266113.120    88293295.896 8      1390.316    21266113.000    88293297.898 8      1390.316
R04  21039343.320   112664787.642 7      6066.994    21039343.840   112664787.679 7      6066.994    21039355.180    87628237.240 8      4718.773    21039354.680    87628238.242 8      4718.773
R03  20927363.280   112025818.230 7      2746.309    20927363.720   112025818.258 7      2746.309    20927374.080    87131231.693 8      2136.018    20927374.040    87131231.693 8      2136.018
G16  24969027.540   131213011.078 7      -828.762    24969026.280   131213011.083 4      -828.762    24969037.960   102243894.511 4      -645.788
R09  21157800.980   112981470.237 7      2854.730    21157800.900   112981470.238 7      2854.730    21157808.960    87874518.404 8      2220.345    21157809.060    87874520.400 8      2220.345
G32  24737145.480   129994576.776 6      2713.959    24737144.140   129994576.778 5      2713.959    24737154.960   101294515.502 5      2114.773    24737156.480   101294519.499 6      2114.773
> 2024 07 08 10 30 23.0000000  0 13
G02  21319831.840   112036458.706 8      2607.753    21319829.880   112036458.714 6      2607.753    21319831.540    87301134.926 6      2032.015
G03  21391265.640   112411876.848 7      5716.588    21391264.640   112411876.858 7      5716.588    21391270.740    87593707.626 7      4454.484    21391271.540    87593710.626 8      4454.484
G14  23307196.400   122480157.113 6      5491.437    23307195.020   122480157.123 4      5491.437    23307201.280    95439091.767 4      4279.042    23307201.520    95439112.778 7      4279.042
G08  20718930.300   108878699.911 8      1982.071    20718929.160   108878699.913 8      1982.071    20718934.520    84840560.634 8      1544.471    20718935.340    84840564.633 8      1544.471
G21  21147899.840   111132948.445 7      1660.817    21147895.700   111132948.450 6      1660.817    21147898.540    86597094.429 6      1294.143
R16  21364778.300   114126768.688 7      -560.832    21364778.360   114126768.700 7      -560.832    21364788.120    88765285.986 8      -436.203    21364788.780    88765284.985 8      -436.203
G27  22844214.300   120047108.809 7       514.960    22844213.040   120047108.816 7       514.960    22844220.980    93543215.264 7       401.267    22844221.260    93543216.267 7       401.267
R18  21265768.660   113518089.184 7      1787.033    21265768.800   113518089.179 7      1787.033    21265778.280    88291905.801 8      1389.915    21265778.140    88291907.803 8      1389.915
R04  21038210.320   112658721.011 7      6066.171    21038211.280   112658721.048 7      6066.171    21038222.280    87623518.749 8      4718.133    21038221.760    87623519.753 8      4718.133
R03  20926850.160   112023072.543 7      2745.020    20926850.980   112023072.571 7      2745.020    20926861.140    87129096.158 8      2135.016    20926861.000    87129096.156 8      2135.016
G16  24969185.560   131213840.055 7      -829.141    24969184.040   131213840.062 4      -829.141    24969195.660   102244540.453 4      -646.084
R09  21157266.340   112978616.120 7      2853.480    21157266.060   112978616.123 7      2853.480    21157274.480    87872298.543 8      2219.373    21157274.560    87872300.539 8      2219.373
G32  24736628.980   129991863.159 6      2713.317    24736627.660   129991863.167 5      2713.317    24736638.800   101292400.992 5      2114.273    24736640.380   101292404.991 6      2114.273
> 2024 07 08 10 30 24.0000000  0 13
G02  21319335.600   112033850.908 8      2607.932    21319333.620   112033850.915 6      2607.932    21319335.240    87299102.878 6      2032.155
G03  21390177.760   112406160.339 7      5716.471    21390176.760   112406160.344 7      5716.471    21390182.940    87589253.197 7      4454.393    21390183.600    87589256.197 8      4454.393
G14  23306151.220   122474665.846 7      5491.266    23306150.260   122474665.858 5      5491.266    23306156.260    95434812.863 4      4278.909    23306156.780    95434833.872 7      4278.909
G08  20718553.140   108876717.942 8      1982.028    20718551.960   108876717.945 8      1982.028    20718557.500    84839016.241 8      1544.438    20718558.140    84839020.246 8      1544.438
G21  21147583.640   111131287.512 7      1661.032    21147579.560   111131287.514 6      1661.032    21147582.660    86595800.196 6      1294.311
R16  21364883.280   114127329.598 7      -560.984    21364883.480   114127329.594 7      -560.984    21364893.160    88765722.232 8      -436.321    21364893.620    88765721.232 8      -436.321
G27  22844116.160   120046593.820 7       515.146    22844114.800   120046593.820 7       515.146    22844123.020    93542813.970 7       401.413    22844123.380    93542814.974 7       401.413
R18  21265434.000   113516302.033 7      1787.428    21265433.880   113516302.026 7      1787.428    21265443.680    88290515.795 8      1390.222    21265443.400    88290517.791 8      1390.222
R04  21037077.200   112652654.986 7      6066.037    21037078.300   112652655.025 7      6066.037    21037089.740    87618800.736 8      4718.029    21037089.560    87618801.748 8      4718.029
R03  20926337.840   112020327.805 7      2744.517    20926338.220   112020327.834 7      2744.517    20926348.300    87126961.363 8      2134.624    20926348.120    87126961.356 8      2134.624
G16  24969342.920   131214669.155 7      -828.891    24969341.820   131214669.160 4      -828.891    24969353.260   102245186.495 4      -645.889
R09  21156732.420   112975762.974 7      2852.828    21156731.720   112975762.975 7      2852.828    21156740.220    87870079.426 8      2218.866    21156739.920    87870081.424 8      2218.866
G32  24736112.540   129989150.224 6      2712.882    24736111.480   129989150.229 5      2712.882    24736122.720   101290287.008 5      2113.934    24736123.900   101290290.994 6      2113.934
> 2024 07 08 10 30 25.0000000  0 13
G02  21318839.320   112031243.196 8      2607.539    21318837.340   112031243.201 6      2607.539    21318839.000    87297070.888 6      2031.848
G03  21389089.960   112400444.184 7      5715.955    21389089.060   112400444.192 7      5715.955    21389095.160    87584799.059 7      4453.991    21389095.820    87584802.057 8      4453.991
G14  23305106.620   122469174.948 7      5490.667    23305105.520   122469174.956 5      5490.667    23305111.480    95430534.238 4      4278.442    23305111.580    95430555.224 7      4278.442
G08  20718176.060   108874736.308 8      1981.354    20718174.800   108874736.308 8      1981.354    20718180.400    84837472.110 8      1543.912    20718181.060    84837476.107 8      1543.912
G21  21147267.540   111129626.614 7      1660.792    21147263.580   111129626.616 6      1660.792    21147266.480    86594505.985 6      1294.124
R16  21364988.360   114127890.804 7      -561.507    21364988.540   114127890.795 7      -561.507    21364998.220    88766158.722 8      -436.728    21364998.740    88766157.727 8      -436.728
G27  22844018.280   120046079.071 7       514.581    22844016.820   120046079.071 7       514.581    22844024.960    93542412.857 7       400.972    22844025.480    93542413.856 7       400.972
R18  21265099.060   113514514.872 7      1787.158    21265099.200   113514514.862 7      1787.158    21265109.000    88289125.775 8      1390.012    21265108.740    88289127.775 8      1390.012
R04  21035944.880   112646589.405 7      6065.270    21035945.860   112646589.438 7      6065.270    21035956.740    87614083.061 8      4717.432    21035956.560    87614084.069 8      4717.432
R03  20925825.540   112017583.873 7      2743.395    20925825.520   112017583.899 7      2743.395    20925835.740    87124827.191 8      2133.752    20925835.680    87124827.187 8      2133.752
G16  24969501.060   131215498.155 7      -829.086    24969499.640   131215498.163 4      -829.086    24969511.160   102245832.459 4      -646.041
R09  21156198.140   112972910.584 7      2851.935    21156197.740   112972910.585 7      2851.935    21156205.800    87867860.906 8      2218.171    21156205.920    87867862.907 8      2218.171
G32  24735596.440   129986437.672 6      2712.341    24735595.340   129986437.676 5      2712.341    24735606.600   101288173.325 5      2113.512    24735607.960   101288177.319 6      2113.512
> 2024 07 08 10 30 26.0000000  0 13
G02  21318343.120   112028635.713 7      2607.280    21318341.140   112028635.716 6      2607.280    21318342.900    87295039.084 6      2031.647
G03  21388002.160   112394728.621 7      5715.191    21388001.460   112394728.626 7      5715.191    21388007.500    87580345.372 7      4453.395    21388008.360    87580348.371 8      4453.395
G14  23304061.640   122463684.561 6      5490.037    23304060.760   122463684.566 5      5490.037    23304066.680    95426256.014 5      4277.951    23304067.040    95426277.017 7      4277.951
G08  20717799.260   108872755.139 8      1980.848    20717797.860   108872755.141 8      1980.848    20717803.360    84835928.342 8      1543.518    20717803.800    84835932.339 8      1543.518
G21  21146951.480   111127965.928 7      1660.533    21146947.400   111127965.935 6      1660.533    21146950.520    86593211.946 6      1293.922
R16  21365093.340   114128452.524 7      -562.034    21365093.720   114128452.533 7      -562.034    21365103.480    88766595.619 8      -437.138    21365103.500    88766594.626 8      -437.138
G27  22843920.480   120045564.698 7       514.083    22843919.020   120045564.708 7       514.083    22843927.060    93542012.046 7       400.584    22843927.540    93542013.048 7       400.584
R18  21264764.440   113512727.893 7      1786.852    21264764.720   113512727.885 7      1786.852    21264774.160    88287735.902 8      1389.774    21264773.980    88287737.902 8      1389.774
R04  21034812.300   112640524.415 7      6064.683    21034813.160   112640524.460 7      6064.683    21034824.280    87609365.849 8      4716.975    21034823.860    87609366.853 8      4716.975
R03  20925312.940   112014840.916 7      2742.349    20925313.060   112014840.944 7      2742.349    20925323.340    87122693.782 8      2132.938    20925323.220    87122693.780 8      2132.938
G16  24969658.680   131216327.260 7      -829.228    24969657.440   131216327.271 4      -829.228    24969668.820   102246478.509 4      -646.152
R09  21155663.780   112970059.182 7      2850.899    21155663.640   112970059.188 7      2850.899    21155671.740    87865643.145 8      2217.366    21155671.980    87865645.146 8      2217.366
G32  24735080.540   129983725.747 6      2711.601    24735079.420   129983725.747 5      2711.601    24735090.680   101286060.133 5      2112.936    24735091.800   101286064.148 6      2112.936
> 2024 07 08 10 30 27.0000000  0 13
G02  21317846.800   112026028.548 7      2607.105    21317845.120   112026028.548 6      2607.105    21317846.760    87293007.524 6      2031.510
G03  21386914.920   112389013.644 7      5714.720    21386913.880   112389013.651 7      5714.720    21386920.000    87575892.145 7      4453.029    21386920.920    87575895.142 8      4453.029
G14  23303017.040   122458194.754 7      5489.502    23303016.180   122458194.767 5      5489.502    23303021.880    95421978.251 5      4277.534    23303022.760    95421999.264 7      4277.534
G08  20717422.300   108870774.539 8      1980.339    20717420.860   108870774.536 8      1980.339    20717426.480    84834385.014 8      1543.121    20717427.020    84834389.013 8      1543.121
G21  21146635.480   111126305.528 7      1660.336    21146631.520   111126305.536 6      1660.336    21146634.560    86591918.124 6      1293.768
R16  21365198.980   114129014.838 7      -562.620    21365198.980   114129014.842 7      -562.620    21365208.600    88767032.968 8      -437.593    21365209.060    88767031.972 8      -437.593
G27  22843822.540   120045050.766 7       513.817    22843821.100   120045050.773 7       513.817    22843829.380    93541611.563 7       400.376    22843829.820    93541612.567 7       400.376
R18  21264429.560   113510941.134 7      1786.728    21264429.660   113510941.122 7      1786.728    21264439.620    88286346.193 8      1389.677    21264439.260    88286348.195 8      1389.677
R04  21033679.720   112634460.098 7      6064.064    21033680.860   112634460.137 7      6064.064    21033691.800    87604649.160 8      4716.494    21033691.600    87604650.164 8      4716.494
R03  20924800.820   112012099.013 7      2741.436    20924801.000   112012099.041 7      2741.436    20924811.000    87120561.195 8      2132.228    20924811.180    87120561.191 8      2132.228
G16  24969816.500   131217156.523 7      -829.290    24969815.360   131217156.531 4      -829.290    24969826.780   102247124.673 4      -646.200
R09  21155130.240   112967208.800 7      2849.924    21155129.800   112967208.798 7      2849.924    21155138.020    87863426.177 8      2216.607    21155138.060    87863428.176 8      2216.607
G32  24734564.300   129981014.496 6      2710.887    24734563.500   129981014.506 5      2710.887    24734574.620   101283947.474 5      2112.380    24734575.940   101283951.472 6      2112.380
> 2024 07 08 10 30 28.0000000  0 13
G02  21317350.760   112023421.633 8      2606.972    21317348.940   112023421.638 6      2606.972    21317350.680    87290976.166 6      2031.406
G03  21385827.340   112383299.229 7      5714.333    21385826.500   112383299.234 7      5714.333    21385832.580    87571439.356 7      4452.727    21385833.480    87571442.356 8      4452.727
G14  23301972.400   122452705.491 7      5489.160    23301971.620   122452705.504 5      5489.160    23301977.340    95417700.905 5      4277.268    23301977.920    95417721.914 7      4277.268
G08  20717045.460   108868794.426 8      1980.008    20717044.080   108868794.428 8      1980.008    20717049.700    84832842.067 8      1542.864    20717050.580    84832846.067 8      1542.864
G21  21146319.620   111124645.334 7      1660.352    21146315.580   111124645.339 6      1660.352    21146318.460    86590624.464 6      1293.781
R16  21365304.240   114129577.653 7      -562.930    21365304.580   114129577.654 7      -562.930    21365314.060    88767470.702 8      -437.835    21365314.340    88767469.702 8      -437.835
G27  22843724.760   120044537.239 7       513.488    22843723.380   120044537.241 7       513.488    22843731.720    93541211.406 7       400.120    22843732.320    93541212.410 7       400.120
R18  21264094.720   113509154.510 7      1786.777    21264095.080   113509154.505 7      1786.777    21264105.160    88284956.600 8      1389.716    21264104.640    88284958.608 8      1389.716
R04  21032547.280   112628396.337 7      6063.730    21032548.420   112628396.376 7      6063.730    21032559.440    87599932.904 8      4716.234    21032559.200    87599933.912 8      4716.234
R03  20924288.380   112009358.106 7      2740.638    20924288.640   112009358.142 7      2740.638    20924298.920    87118429.380 8      2131.607    20924298.940    87118429.381 8      2131.607
G16  24969974.180   131217985.894 7      -829.323    24969973.240   131217985.907 4      -829.323    24969984.500   102247770.934 4      -646.225
R09  21154596.360   112964359.326 7      2849.203    21154596.220   112964359.329 7      2849.203    21154604.200    87861209.923 8      2216.047    21154604.620    87861211.922 8      2216.047
G32  24734048.060   129978303.844 6      2710.401    24734047.680   129978303.856 5      2710.401    24734058.800   101281835.277 5      2112.001    24734060.180   101281839.282 6      2112.001
> 2024 07 08 10 30 29.0000000  0 13
G02  21316854.660   112020814.755 7      2606.890    21316852.900   112020814.757 6      2606.890    21316854.560    87288944.830 6      2031.342
G03  21384739.880   112377585.140 7      5713.915    21384739.180   112377585.147 7      5713.915    21384745.200    87566986.819 7      4452.402    21384745.980    87566989.823 8      4452.402
G14  23300927.900   122447216.559 7      5488.675    23300927.020   122447216.569 5      5488.675    23300932.880    95413423.815 5      4276.889    23300933.420    95413444.816 7      4276.889
G08  20716668.640   108866814.594 8      1979.570    20716667.400   108866814.594 8      1979.570    20716672.980    84831299.338 8      1542.522    20716673.680    84831303.339 8      1542.522
G21  21146003.580   111122985.160 7      1660.126    21145999.700   111122985.171 6      1660.126    21146002.640    86589330.825 6      1293.604
R16  21365409.720   114130140.774 7      -563.326    21365409.980   114130140.783 7      -563.326    21365419.520    88767908.690 8      -438.142    21365419.560    88767907.683 8      -438.142
G27  22843627.080   120044023.866 7       513.222    22843625.680   120044023.871 7       513.222    22843633.880    93540811.376 7       399.913    22843634.500    93540812.381 7       399.913
R18  21263759.800   113507367.832 7      1786.718    21263760.260   113507367.830 7      1786.718    21263770.180    88283566.959 8      1389.670    21263769.840    88283568.966 8      1389.670
R04  21031415.260   112622332.970 7      6063.212    21031416.100   112622333.001 7      6063.212    21031427.040    87595216.946 8      4715.832    21031426.720    87595217.950 8      4715.832
R03  20923776.520   112006618.020 7      2739.723    20923777.280   112006618.043 7      2739.723    20923787.120    87116298.188 8      2130.896    20923787.040    87116298.188 8      2130.896
G16  24970131.900   131218815.131 7      -829.190    24970131.060   131218815.138 4      -829.190    24970142.200   102248417.078 4      -646.122
R09  21154063.220   112961510.609 7      2848.266    21154062.520   112961510.610 7      2848.266    21154070.720    87858994.257 8      2215.318    21154070.960    87858996.254 8      2215.318
G32  24733532.500   129975593.619 6      2709.788    24733532.000   129975593.630 5      2709.788    24733543.200   101279723.410 5      2111.523    24733544.180   101279727.407 6      2111.523
> 2024 07 08 10 30 30.0000000  0 13
G02  21316358.780   112018208.062 7      2606.797    21316356.860   112018208.073 6      2606.797    21316358.620    87286913.641 6      2031.270
G03  21383652.780   112371871.555 7      5713.548    21383651.940   112371871.560 7      5713.548    21383658.020    87562534.669 7      4452.115    21383658.680    87562537.671 8      4452.115
G14  23299883.320   122441728.040 7      5488.453    23299882.640   122441728.053 5      5488.453    23299888.620    95409147.051 5      4276.717    23299888.980    95409168.056 7      4276.717
G08  20716291.940   108864835.154 8      1979.433    20716290.740   108864835.153 8      1979.433    20716296.220    84829756.917 8      1542.415    20716297.000    84829760.916 8      1542.415
G21  21145687.820   111121325.103 7      1660.254    21145683.840   111121325.110 6      1660.254    21145686.700    86588037.273 6      1293.704
R16  21365515.080   114130704.363 7      -563.540    21365515.540   114130704.369 7      -563.540    21365525.180    88768347.022 8      -438.309    21365524.760    88768346.021 8      -438.309
G27  22843529.440   120043510.799 7       513.078    22843528.100   120043510.809 7       513.078    22843536.220    93540411.583 7       399.801    22843536.900    93540412.586 7       399.801
R18  21263425.140   113505581.231 7      1786.729    21263425.640   113505581.227 7      1786.729    21263435.460    88282177.373 8      1389.678    21263435.340    88282179.379 8      1389.678
R04  21030282.780   112616270.101 7      6062.884    21030283.480   112616270.122 7      6062.884    21030294.820    87590501.385 8      4715.576    21030294.580    87590502.387 8      4715.576
R03  20923264.720   112003878.826 7      2738.952    20923265.140   112003878.846 7      2738.952    20923275.260    87114167.704 8      2130.296    20923275.420    87114167.706 8      2130.296
G16  24970289.880   131219644.410 7      -829.107    24970289.040   131219644.417 4      -829.107    24970300.100   102249063.261 4      -646.058
R09  21153530.280   112958662.761 7      2847.605    21153529.400   112958662.765 7      2847.605    21153537.220    87856779.262 8      2214.804    21153537.560    87856781.261 8      2214.804
G32  24733017.120   129972883.868 6      2709.933    24733016.580   129972883.873 5      2709.933    24733027.720   101277611.911 5      2111.636    24733028.020   101277615.906 6      2111.636
> 2024 07 08 10 30 31.0000000  0 13
G02  21315862.640   112015601.381 7      2606.577    21315860.800   112015601.388 6      2606.577    21315862.560    87284882.459 6      2031.099
G03  21382565.640   112366158.262 7      5713.145    21382564.660   112366158.267 7      5713.145    21382570.740    87558082.754 7      4451.802    21382571.420    87558085.760 7      4451.802
G14  23298838.720   122436239.841 7      5487.997    23298838.220   122436239.854 5      5487.997    23298844.180    95404870.535 5      4276.361    23298844.760    95404891.537 7      4276.361
G08  20715915.300   108862855.992 8      1978.945    20715914.080   108862855.991 8      1978.945    20715919.700    84828214.711 8      1542.035    20715920.540    84828218.712 8      1542.035
G21  21145371.560   111119665.037 7      1660.111    21145367.980   111119665.042 6      1660.111    21145370.820    86586743.711 6      1293.593
R16  21365621.060   114131268.245 7      -564.087    21365621.000   114131268.254 7      -564.087    21365630.540    88768785.591 8      -438.734    21365630.620    88768784.595 8      -438.734
G27  22843431.660   120042997.905 7       512.678    22843430.540   120042997.912 7       512.678    22843438.560    93540011.919 7       399.489    22843439.400    93540012.910 7       399.489
R18  21263090.380   113503794.551 7      1786.550    21263090.760   113503794.546 7      1786.550    21263101.020    88280787.732 8      1389.539    21263100.620    88280789.736 8      1389.539
R04  21029150.520   112610207.610 7      6062.139    21029151.200   112610207.649 7      6062.139    21029162.800    87585786.135 8      4714.997    21029162.600    87585787.139 8      4714.997
R03  20922753.320   112001140.389 7      2737.872    20922753.600   112001140.412 7      2737.872    20922763.820    87112037.808 8      2129.456    20922763.760    87112037.815 8      2129.456
G16  24970447.940   131220473.554 6      -829.206    24970446.660   131220473.562 4      -829.206    24970457.740   102249709.340 4      -646.135
R09  21152996.640   112955815.647 7      2846.587    21152996.260   112955815.659 7      2846.587    21153004.120    87854564.846 8      2214.012    21153004.640    87854566.849 8      2214.012
G32  24732501.820   129970174.574 6      2709.081    24732501.060   129970174.579 5      2709.081    24732512.100   101275500.771 5      2110.973    24732513.080   101275504.770 6      2110.973
> 2024 07 08 10 30 32.0000000  0 13
G02  21315366.680   112012995.049 7      2606.048    21315364.740   112012995.059 6      2606.048    21315366.560    87282851.553 6      2030.687
G03  21381478.540   112360445.647 7      5712.220    21381477.620   112360445.657 7      5712.220    21381483.720    87553631.370 7      4451.080    21381484.360    87553634.368 8      4451.080
G14  23297794.460   122430752.276 7      5487.176    23297793.840   122430752.286 5      5487.176    23297799.960    95400594.510 5      4275.722    23297800.600    95400615.510 7      4275.722
G08  20715538.660   108860877.416 8      1978.244    20715537.580   108860877.415 8      1978.244    20715543.140    84826672.963 8      1541.489    20715544.240    84826676.962 8      1541.489
G21  21145055.880   111118005.297 7      1659.444    21145052.180   111118005.305 6      1659.444    21145054.980    86585450.412 6      1293.073
R16  21365726.340   114131832.747 7      -564.981    21365726.500   114131832.757 7      -564.981    21365736.140    88769224.646 8      -439.430    21365736.240    88769223.652 8      -439.430
G27  22843334.240   120042485.497 7       512.006    22843332.940   120042485.502 7       512.006    22843341.200    93539612.634 7       398.965    22843341.420    93539613.625 7       398.965
R18  21262756.380   113502008.097 7      1786.254    21262756.280   113502008.092 7      1786.254    21262766.300    88279398.266 8      1389.309    21262765.900    88279400.270 8      1389.309
R04  21028018.620   112604145.828 7      6061.330    21028019.440   112604145.862 7      6061.330    21028030.740    87581071.408 8      4714.368    21028030.320    87581072.413 8      4714.368
R03  20922242.000   111998402.983 7      2736.808    20922242.180   111998403.009 7      2736.808    20922252.320    87109908.723 8      2128.628    20922252.520    87109908.729 8      2128.628
G16  24970605.680   131221302.878 7      -829.301    24970604.380   131221302.883 4      -829.301    24970615.660   102250355.552 4      -646.209
R09  21152463.680   112952969.574 7      2845.429    21152463.280   112952969.575 7      2845.429    21152470.840    87852351.224 8      2213.112    21152471.260    87852353.227 8      2213.112
G32  24731986.640   129967465.935 6      2708.304    24731985.600   129967465.942 5      2708.304    24731996.420   101273390.145 5      2110.367    24731997.360   101273394.156 6      2110.367
> 2024 07 08 10 30 33.0000000  0 13
G02  21314870.880   112010388.825 7      2606.083    21314868.880   112010388.832 6      2606.083    21314870.500    87280820.722 6      2030.714
G03  21380391.540   112354733.450 7      5711.822    21380390.620   112354733.458 7      5711.822    21380396.680    87549180.303 7      4450.770    21380397.160    87549183.303 7      4450.770
G14  23296750.420   122425265.104 7      5486.778    23296749.820   122425265.117 5      5486.778    23296755.780    95396318.794 5      4275.411    23296756.280    95396339.792 7      4275.411
G08  20715162.240   108858899.218 8      1977.827    20715161.200   108858899.215 8      1977.827    20715166.740    84825131.511 8      1541.164    20715167.720    84825135.510 8      1541.164
G21  21144740.280   111116345.610 7      1659.548    21144736.240   111116345.617 6      1659.548    21144739.160    86584157.147 6      1293.154
R16  21365832.060   114132397.602 7      -565.235    21365832.620   114132397.603 7      -565.235    21365842.020    88769663.972 8      -439.627    21365841.920    88769662.973 8      -439.627
G27  22843236.880   120041973.328 7       511.880    22843235.560   120041973.330 7       511.880    22843243.720    93539213.531 7       398.867    22843243.820    93539214.524 7       398.867
R18  21262421.720   113500221.683 7      1786.269    21262421.880   113500221.673 7      1786.269    21262431.660    88278008.829 8      1389.320    21262431.400    88278010.835 8      1389.320
R04  21026886.520   112598084.526 7      6060.894    21026887.480   112598084.554 7      6060.894    21026898.800    87576357.061 8      4714.028    21026898.520    87576358.063 8      4714.028
R03  20921730.800   111995666.425 7      2736.022    20921730.520   111995666.445 7      2736.022    20921741.180    87107780.285 8      2128.017    20921741.260    87107780.291 8      2128.017
G16  24970763.320   131222132.212 7      -829.435    24970762.160   131222132.217 4      -829.435    24970773.480   102251001.772 4      -646.313
R09  21151930.960   112950124.311 7      2844.754    21151930.420   112950124.309 7      2844.754    21151937.840    87850138.239 8      2212.587    21151938.360    87850140.239 8      2212.587
G32  24731471.200   129964757.805 6      2707.895    24731470.380   129964757.812 5      2707.895    24731481.060   101271279.918 5      2110.048    24731482.080   101271283.929 6      2110.048
> 2024 07 08 10 30 34.0000000  0 13
G02  21314374.880   112007782.789 7      2605.937    21314373.060   112007782.794 6      2605.937    21314374.620    87278790.046 6      2030.600
G03  21379304.700   112349021.721 7      5711.424    21379303.720   112349021.723 7      5711.424    21379309.760    87544729.603 7      4450.460    21379310.440    87544732.605 8      4450.460
G14  23295706.720   122419778.385 7      5486.428    23295705.700   122419778.395 5      5486.428    23295711.700    95392043.428 5      4275.139    23295711.920    95392064.432 7      4275.139
G08  20714786.020   108856921.415 8      1977.558    20714784.800   108856921.412 8      1977.558    20714790.340    84823590.361 8      1540.954    20714791.460    84823594.362 8      1540.954
G21  21144424.160   111114686.075 7      1659.521    21144420.400   111114686.082 6      1659.521    21144423.380    86582864.001 6      1293.133
R16  21365938.560   114132962.884 7      -565.523    21365938.280   114132962.885 7      -565.523    21365947.920    88770103.629 8      -439.851    21365948.020    88770102.629 8      -439.851
G27  22843139.400   120041461.474 7       511.609    22843138.100   120041461.482 7       511.609    22843146.420    93538814.682 7       398.656    22843146.460    93538815.692 7       398.656
R18  21262087.340   113498435.363 7      1786.174    21262086.980   113498435.361 7      1786.174    21262097.020    88276619.471 8      1389.246    21262096.580    88276621.477 8      1389.246
R04  21025754.700   112592023.716 7      6060.534    21025755.240   112592023.752 7      6060.534    21025766.860    87571643.110 8      4713.748    21025766.800    87571644.110 8      4713.748
R03  20921219.740   111992930.740 7      2735.186    20921219.100   111992930.763 7      2735.186    20921230.120    87105652.532 8      2127.367    20921230.280    87105652.538 8      2127.367
G16  24970921.340   131222961.530 6      -829.345    24970919.960   131222961.532 4      -829.345    24970931.240   102251647.981 4      -646.243
R09  21151398.380   112947279.947 7      2843.811    21151398.160   112947279.937 7      2843.811    21151405.180    87847925.945 8      2211.853    21151405.880    87847927.944 8      2211.853
G32  24730956.040   129962050.221 6      2707.285    24730955.140   129962050.231 5      2707.285    24730966.060   101269170.112 5      2109.573    24730966.800   101269174.130 6      2109.573
> 2024 07 08 10 30 35.0000000  0 13
G02  21313878.900   112005176.936 7      2605.756    21313877.080   112005176.940 6      2605.756    21313878.760    87276759.512 6      2030.460
G03  21378217.840   112343310.464 7      5711.114    21378216.940   112343310.464 7      5711.114    21378222.960    87540279.275 7      4450.219    21378223.540    87540282.277 8      4450.219
G14  23294662.360   122414292.125 7      5486.081    23294661.780   122414292.130 5      5486.081    23294667.800    95387768.418 5      4274.868    23294668.260    95387789.419 7      4274.868
G08  20714409.540   108854944.034 8      1977.179    20714408.420   108854944.039 8      1977.179    20714414.100    84822049.547 8      1540.659    20714414.960    84822053.548 8      1540.659
G21  21144108.120   111113026.700 7      1659.359    21144104.760   111113026.705 6      1659.359    21144107.580    86581570.979 6      1293.007
R16  21366044.340   114133528.605 7      -565.892    21366044.020   114133528.603 7      -565.892    21366053.760    88770543.628 8      -440.138    21366053.700    88770542.625 8      -440.138
G27  22843042.100   120040949.931 7       511.452    22843040.760   120040949.941 7       511.452    22843048.880    93538416.081 7       398.534    22843049.340    93538417.090 7       398.534
R18  21261752.440   113496649.117 7      1786.216    21261752.260   113496649.115 7      1786.216    21261762.580    88275230.165 8      1389.279    21261762.240    88275232.169 8      1389.279
R04  21024622.880   112585963.457 7      6060.086    21024624.440   112585963.486 7      6060.086    21024635.220    87566929.570 8      4713.400    21024635.120    87566930.574 8      4713.400
R03  20920708.900   111990195.970 7      2734.284    20920708.220   111990195.993 7      2734.284    20920719.340    87103525.486 8      2126.665    20920719.340    87103525.489 8      2126.665
G16  24971079.120   131223790.901 6      -829.361    24971077.640   131223790.900 4      -829.361    24971089.100   102252294.228 4      -646.255
R09  21150865.860   112944436.434 7      2843.059    21150865.540   112944436.427 7      2843.059    21150872.760    87845714.323 8      2211.268    21150872.880    87845716.319 8      2211.268
G32  24730440.660   129959343.140 6      2706.898    24730440.020   129959343.142 5      2706.898    24730451.040   101267060.690 5      2109.271    24730452.040   101267064.699 6      2109.271
> 2024 07 08 10 30 36.0000000  0 13
G02  21313383.120   112002571.287 7      2605.360    21313381.140   112002571.292 6      2605.360    21313382.940    87274729.134 6      2030.151
G03  21377131.060   112337599.743 7      5710.348    21377130.180   112337599.748 7      5710.348    21377136.340    87535829.363 7      4449.621    21377136.700    87535832.367 8      4449.621
G14  23293618.700   122408806.349 7      5485.435    23293618.020   122408806.354 5      5485.435    23293623.800    95383493.789 5      4274.365    23293624.300    95383514.792 7      4274.365
G08  20714033.460   108852967.105 8      1976.580    20714032.300   108852967.110 8      1976.580    20714037.900    84820509.081 8      1540.192    20714038.660    84820513.084 8      1540.192
G21  21143792.640   111111367.494 7      1658.942    21143789.120   111111367.496 6      1658.942    21143791.720    86580278.087 6      1292.682
R16  21366150.200   114134094.824 7      -566.665    21366150.120   114134094.828 7      -566.665    21366159.900    88770984.019 8      -440.740    21366159.680    88770983.024 8      -440.740
G27  22842944.680   120040438.750 7       510.848    22842943.500   120040438.762 7       510.848    22842951.760    93538017.752 7       398.064    22842952.540    93538018.751 7       398.064
R18  21261417.700   113494862.989 7      1785.819    21261417.640   113494862.995 7      1785.819    21261428.020    88273840.956 8      1388.970    21261427.460    88273842.962 8      1388.970
R04  21023491.620   112579903.737 7      6059.270    21023492.500   112579903.779 7      6059.270    21023503.600    87562216.467 8      4712.765    21023503.320    87562217.468 8      4712.765
R03  20920198.380   111987462.150 7      2733.231    20920197.540   111987462.165 7      2733.231    20920208.600    87101399.172 8      2125.847    20920208.560    87101399.172 8      2125.847
G16  24971237.020   131224620.300 6      -829.533    24971235.200   131224620.300 4      -829.533    24971246.800   102252940.499 4      -646.390
R09  21150333.440   112941593.872 7      2841.921    21150333.120   112941593.868 7      2841.921    21150340.480    87843503.443 8      2210.383    21150340.680    87843505.438 8      2210.383
G32  24729925.720   129956636.683 6      2706.166    24729924.980   129956636.686 5      2706.166    24729936.080   101264951.757 5      2108.701    24729936.600   101264955.756 6      2108.701
> 2024 07 08 10 30 37.0000000  0 13
G02  21312887.220   111999965.798 7      2605.362    21312885.420   111999965.806 6      2605.362    21312887.140    87272698.886 6      2030.153
G03  21376044.340   112331889.475 7      5710.033    21376043.560   112331889.479 7      5710.033    21376049.660    87531379.803 7      4449.376    21376050.100    87531382.807 8      4449.376
G14  23292574.820   122403321.027 7      5485.165    23292574.180   122403321.035 5      5485.165    23292580.100    95379219.517 5      4274.154    23292580.700    95379240.520 7      4274.154
G08  20713657.160   108850990.597 8      1976.296    20713656.040   108850990.600 8      1976.296    20713661.780    84818968.943 8      1539.971    20713662.620    84818972.948 8      1539.971
G21  21143476.920   111109708.403 7      1659.039    21143473.320   111109708.408 6      1659.039    21143476.120    86578985.289 6      1292.757
R16  21366256.120   114134661.479 7      -566.885    21366256.220   114134661.478 7      -566.885    21366265.880    88771424.740 8      -440.910    21366265.860    88771423.748 8      -440.910
G27  22842847.420   120039927.866 7       510.783    22842846.320   120039927.873 7       510.783    22842854.600    93537619.654 7       398.013    22842855.520    93537620.648 7       398.013
R18  21261082.640   113493076.914 7      1786.043    21261083.340   113493076.917 7      1786.043    21261093.500    88272451.778 8      1389.144    21261092.960    88272453.782 8      1389.144
R04  21022360.060   112573844.534 7      6058.887    21022360.980   112573844.570 7      6058.887    21022372.140    87557503.755 8      4712.468    21022371.860    87557504.748 8      4712.468
R03  20919688.040   111984729.254 7      2732.422    20919686.880   111984729.274 7      2732.422    20919698.040    87099273.590 8      2125.217    20919698.080    87099273.584 8      2125.217
G16  24971394.840   131225449.752 7      -829.462    24971393.040   131225449.752 4      -829.462    24971404.580   102253586.813 4      -646.334
R09  21149801.020   112938752.200 7      2841.115    21149800.980   112938752.195 7      2841.115    21149808.280    87841293.251 8      2209.756    21149808.800    87841295.246 8      2209.756
G32  24729411.040   129953930.739 6      2705.714    24729410.140   129953930.736 5      2705.714    24729421.120   101262843.221 5      2108.349    24729422.060   101262847.208 6      2108.349
> 2024 07 08 10 30 38.0000000  0 13
G02  21312391.460   111997360.588 7      2605.234    21312389.680   111997360.601 6      2605.234    21312391.360    87270668.856 6      2030.053
G03  21374957.860   112326179.792 7      5709.609    21374957.120   112326179.797 7      5709.609    21374963.160    87526930.699 7      4449.046    21374963.600    87526933.701 8      4449.046
G14  23291531.580   122397836.286 7      5484.627    23291530.460   122397836.294 5      5484.627    23291536.240    95374945.691 5      4273.735    23291536.880    95374966.693 7      4273.735
G08  20713281.320   108849014.596 7      1975.935    20713280.100   108849014.601 8      1975.935    20713285.720    84817429.202 8      1539.689    20713286.420    84817433.207 8      1539.689
G21  21143161.220   111108049.575 7      1658.846    21143157.720   111108049.577 6      1658.846    21143160.460    86577692.698 6      1292.607
R16  21366362.140   114135228.679 7      -567.287    21366362.480   114135228.675 7      -567.287    21366371.840    88771865.889 8      -441.223    21366372.280    88771864.888 8      -441.223
G27  22842750.420   120039417.418 7       510.429    22842749.420   120039417.417 7       510.429    22842757.440    93537221.888 7       397.737    22842758.380    93537222.886 7       397.737
R18  21260748.140   113491291.047 7      1785.956    21260748.400   113491291.048 7      1785.956    21260758.900    88271062.773 8      1389.077    21260758.420    88271064.773 8      1389.077
R04  21021228.740   112567785.946 7      6058.343    21021229.160   112567785.988 7      6058.343    21021240.700    87552791.526 8      4712.045    21021240.400    87552792.528 8      4712.045
R03  20919177.380   111981997.396 7      2731.501    20919176.800   111981997.424 7      2731.501    20919187.620    87097148.816 8      2124.501    20919187.700    87097148.812 8      2124.501
G16  24971552.520   131226279.315 6      -829.510    24971551.000   131226279.317 4      -829.510    24971562.440   102254233.213 4      -646.371
R09  21149269.080   112935911.499 7      2840.436    21149268.580   112935911.497 7      2840.436    21149276.340    87839083.822 8      2209.228    21149276.560    87839085.814 8      2209.228
G32  24728895.960   129951225.437 6      2705.078    24728895.460   129951225.439 5      2705.078    24728906.440   101260735.193 5      2107.853    24728907.220   101260739.186 6      2107.853
> 2024 07 08 10 30 39.0000000  0 13
G02  21311895.700   111994755.388 7      2605.022    21311893.920   111994755.393 6      2605.022    21311895.700    87268638.826 6      2029.887
G03  21373871.460   112320470.419 7      5709.097    21373870.520   112320470.424 7      5709.097    21373876.660    87522481.842 7      4448.647    21373877.240    87522484.845 8      4448.647
G14  23290487.500   122392351.795 7      5484.335    23290486.760   122392351.800 5      5484.335    23290492.640    95370672.067 5      4273.508    23290493.580    95370693.066 7      4273.508
G08  20712905.340   108847038.845 7      1975.543    20712904.100   108847038.844 8      1975.543    20712909.800    84815889.653 8      1539.384    20712910.520    84815893.656 8      1539.384
G21  21142845.340   111106390.699 7      1658.762    21142842.000   111106390.704 6      1658.762    21142844.780    86576400.067 6      1292.542
R16  21366468.060   114135796.119 7      -567.723    21366468.440   114135796.126 7      -567.723    21366478.260    88772307.234 8      -441.562    21366478.340    88772306.233 8      -441.562
G27  22842653.380   120038907.093 7       510.032    22842652.240   120038907.098 7       510.032    22842660.320    93536824.231 7       397.428    22842661.100    93536825.222 7       397.428
R18  21260413.780   113489505.066 7      1785.838    21260414.260   113489505.069 7      1785.838    21260424.420    88269673.674 8      1388.985    21260423.920    88269675.674 8      1388.985
R04  21020097.080   112561727.728 7      6057.793    21020098.040   112561727.767 7      6057.793    21020109.420    87548079.581 8      4711.617    21020109.480    87548080.583 8      4711.617
R03  20918667.320   111979266.309 7      2730.483    20918666.940   111979266.329 7      2730.483    20918677.360    87095024.629 8      2123.709    20918677.500    87095024.629 8      2123.709
G16  24971710.480   131227108.733 6      -829.506    24971708.800   131227108.735 4      -829.506    24971720.400   102254879.498 4      -646.368
R09  21148737.300   112933071.506 7      2839.467    21148736.760   112933071.499 7      2839.467    21148744.620    87836874.934 8      2208.474    21148744.780    87836876.928 8      2208.474
G32  24728381.160   129948520.470 6      2704.743    24728380.620   129948520.465 5      2704.743    24728391.800   101258627.425 5      2107.592    24728392.600   101258631.426 6      2107.592
> 2024 07 08 10 30 40.0000000  0 13
G02  21311400.200   111992150.254 7      2605.049    21311398.220   111992150.259 6      2605.049    21311399.860    87266608.852 6      2029.908
G03  21372785.140   112314761.425 7      5708.787    21372784.200   112314761.430 7      5708.787    21372790.260    87518033.275 7      4448.405    21372790.600    87518036.283 8      4448.405
G14  23289444.160   122386867.693 7      5483.816    23289443.200   122386867.695 5      5483.816    23289449.020    95366398.741 5      4273.104    23289449.620    95366419.749 8      4273.104
G08  20712529.460   108845063.409 8      1975.227    20712528.300   108845063.414 8      1975.227    20712533.800    84814350.356 8      1539.138    20712534.580    84814354.359 8      1539.138
G21  21142529.580   111104731.874 8      1658.729    21142526.380   111104731.878 6      1658.729    21142529.240    86575107.474 6      1292.516
R16  21366574.520   114136363.931 7      -568.066    21366574.500   114136363.937 7      -568.066    21366584.400    88772748.865 8      -441.829    21366584.440    88772747.864 8      -441.829
G27  22842556.160   120038396.977 7       509.936    22842555.120   120038396.979 7       509.936    22842563.340    93536426.735 7       397.352    22842563.620    93536427.729 7       397.352
R18  21260079.260   113487719.066 7      1785.956    21260079.720   113487719.072 7      1785.956    21260089.760    88268284.565 8      1389.077    21260089.100    88268286.563 8      1389.077
R04  21018966.160   112555669.952 7      6057.511    21018966.840   112555669.983 7      6057.511    21018978.040    87543367.975 8      4711.397    21018977.820    87543368.979 8      4711.397
R03  20918157.520   111976536.003 7      2729.801    20918156.680   111976536.032 7      2729.801    20918167.340    87092901.064 8      2123.178    20918167.400    87092901.066 8      2123.178
G16  24971868.380   131227938.069 7      -829.398    24971866.640   131227938.074 4      -829.398    24971878.400   102255525.722 4      -646.284
R09  21148205.500   112930232.295 7      2838.628    21148204.680   112930232.293 7      2838.628    21148213.140    87834666.663 8      2207.822    21148213.520    87834668.659 8      2207.822
G32  24727866.240   129945815.993 6      2704.215    24727865.840   129945815.987 5      2704.215    24727877.280   101256520.042 5      2107.180    24727878.140   101256524.043 6      2107.180
> 2024 07 08 10 30 41.0000000  0 13
G02  21310904.440   111989545.286 7      2604.920    21310902.480   111989545.296 6      2604.920    21310904.080    87264579.006 6      2029.808
G03  21371698.440   112309052.893 7      5708.314    21371697.900   112309052.903 7      5708.314    21371703.980    87513585.076 7      4448.037    21371704.360    87513588.080 8      4448.037
G14  23288400.600   122381384.008 7      5483.368    23288399.620   122381384.013 5      5483.368    23288405.540    95362125.746 5      4272.754    23288406.160    95362146.752 7      4272.754
G08  20712153.540   108843088.385 8      1974.824    20712152.260   108843088.382 8      1974.824    20712158.060    84812811.367 8      1538.824    20712158.780    84812815.370 8      1538.824
G21  21142213.980   111103073.161 8      1658.675    21142210.600   111103073.166 6      1658.675    21142213.600    86573814.975 6      1292.474
R16  21366680.660   114136932.172 7      -568.431    21366680.940   114136932.176 7      -568.431    21366690.680    88773190.820 8      -442.113    21366690.780    88773189.828 8      -442.113
G27  22842459.240   120037887.157 7       509.772    22842458.140   120037887.154 7       509.772    22842466.160    93536029.463 7       397.225    22842466.080    93536030.462 7       397.225
R18  21259744.500   113485933.151 7      1785.839    21259745.060   113485933.155 7      1785.839    21259755.080    88266895.514 8      1388.986    21259754.700    88266897.510 8      1388.986
R04  21017835.060   112549612.703 7      6056.926    21017835.720   112549612.739 7      6056.926    21017846.720    87538656.788 8      4710.942    21017846.520    87538657.790 8      4710.942
R03  20917647.200   111973806.592 7      2728.971    20917647.280   111973806.628 7      2728.971    20917657.380    87090778.197 8      2122.533    20917657.560    87090778.199 8      2122.533
G16  24972026.440   131228767.411 6      -829.349    24972024.340   131228767.419 4      -829.349    24972036.140   102256171.950 4      -646.246
R09  21147674.200   112927393.946 7      2837.751    21147673.240   112927393.945 7      2837.751    21147681.700    87832459.054 8      2207.139    21147681.940    87832461.051 8      2207.139
G32  24727352.200   129943111.998 6      2703.707    24727351.280   129943111.998 5      2703.707    24727362.820   101254413.031 5      2106.784    24727364.220   101254417.032 6      2106.784
> 2024 07 08 10 30 42.0000000  0 13
G02  21310408.740   111986940.517 7      2604.814    21310406.740   111986940.527 6      2604.814    21310408.420    87262549.316 6      2029.725
G03  21370612.480   112303344.873 7      5707.855    21370611.680   112303344.881 7      5707.855    21370617.820    87509137.267 7      4447.679    21370618.260    87509140.268 8      4447.679
G14  23287357.080   122375900.793 7      5483.082    23287356.420   122375900.801 5      5483.082    23287362.220    95357853.115 5      4272.532    23287362.720    95357874.118 7      4272.532
G08  20711777.700   108841113.774 7      1974.542    20711776.560   108841113.771 8      1974.542    20711782.220    84811272.711 8      1538.604    20711783.040    84811276.710 8      1538.604
G21  21141898.580   111101414.625 8      1658.560    21141895.060   111101414.627 6      1658.560    21141897.980    86572522.601 6      1292.384
R16  21366787.380   114137500.868 7      -568.790    21366787.540   114137500.866 7      -568.790    21366797.220    88773633.128 8      -442.392    21366797.560    88773632.136 8      -442.392
G27  22842362.420   120037377.678 7       509.412    22842361.140   120037377.681 7       509.412    22842369.260    93535632.467 7       396.944    22842369.380    93535633.474 7       396.944
R18  21259410.160   113484147.300 7      1785.974    21259410.420   113484147.296 7      1785.974    21259420.620    88265506.513 8      1389.091    21259420.200    88265508.513 8      1389.091
R04  21016703.820   112543555.982 7      6056.614    21016704.700   112543556.013 7      6056.614    21016715.880    87533946.005 8      4710.700    21016715.800    87533947.006 8      4710.700
R03  20917137.280   111971078.104 7      2728.196    20917138.100   111971078.140 7      2728.196    20917147.660    87088656.039 8      2121.931    20917147.620    87088656.046 8      2121.931
G16  24972183.900   131229596.800 6      -829.302    24972182.100   131229596.811 4      -829.302    24972194.060   102256818.215 4      -646.210
R09  21147142.880   112924556.489 7      2837.167    21147141.800   112924556.485 7      2837.167    21147150.560    87830252.137 8      2206.685    21147150.700    87830254.136 8      2206.685
G32  24726837.820   129940408.585 6      2703.124    24726836.780   129940408.584 5      2703.124    24726848.340   101252306.477 5      2106.330    24726849.220   101252310.488 6      2106.330
> 2024 07 08 10 30 43.0000000  0 13
G02  21309912.920   111984335.801 7      2604.716    21309911.040   111984335.809 6      2604.716    21309912.900    87260519.665 6      2029.649
G03  21369526.240   112297637.203 7      5707.441    21369525.500   112297637.216 7      5707.441    21369531.620    87504689.732 7      4447.357    21369532.640    87504692.731 8      4447.357
G14  23286313.360   122370417.913 7      5482.784    23286313.080   122370417.923 5      5482.784    23286318.900    95353580.743 5      4272.299    23286319.380    95353601.754 7      4272.299
G08  20711402.060   108839139.475 8      1974.151    20711400.960   108839139.480 8      1974.151    20711406.500    84809734.298 8      1538.300    20711407.320    84809738.299 8      1538.300
G21  21141583.020   111099756.096 7      1658.468    21141579.520   111099756.101 6      1658.468    21141582.380    86571230.243 6      1292.313
R16  21366893.920   114138069.838 7      -569.113    21366894.100   114138069.839 7      -569.113    21366903.760    88774075.657 8      -442.643    21366903.980    88774074.662 8      -442.643
G27  22842265.700   120036868.371 7       509.252    22842264.260   120036868.376 7       509.252    22842272.400    93535235.604 7       396.820    22842272.560    93535236.607 7       396.820
R18  21259075.640   113482361.420 7      1785.906    21259075.720   113482361.419 7      1785.906    21259086.060    88264117.495 8      1389.038    21259085.800    88264119.497 8      1389.038
R04  21015573.180   112537499.635 7      6056.194    21015573.700   112537499.666 7      6056.194    21015584.800    87529235.511 8      4710.373    21015584.780    87529236.515 8      4710.373
R03  20916627.540   111968350.392 7      2727.380    20916628.660   111968350.420 7      2727.380    20916638.120    87086534.479 8      2121.296    20916638.120    87086534.484 8      2121.296
G16  24972341.540   131230426.113 6      -829.317    24972340.120   131230426.121 4      -829.317    24972351.960   102257464.419 4      -646.221
R09  21146611.580   112921719.794 7      2836.263    21146610.600   112921719.789 7      2836.263    21146619.360    87828045.822 8      2205.982    21146619.460    87828047.821 8      2205.982
G32  24726323.600   129937705.589 6      2702.735    24726322.340   129937705.575 5      2702.735    24726333.960   101250200.234 5      2106.027    24726334.800   101250204.233 6      2106.027
> 2024 07 08 10 30 44.0000000  0 13
G02  21309417.160   111981731.311 7      2604.529    21309415.540   111981731.316 6      2604.529    21309417.120    87258490.194 6      2029.503
G03  21368440.380   112291930.051 8      5707.054    21368439.660   112291930.058 8      5707.054    21368445.600    87500242.598 7      4447.055    21368446.680    87500245.599 8      4447.055
G14  23285270.080   122364935.558 7      5482.244    23285269.560   122364935.563 5      5482.244    23285275.720    95349308.780 5      4271.879    23285276.580    95349329.782 7      4271.879
G08  20711026.580   108837165.626 8      1973.865    20711025.340   108837165.629 8      1973.865    20711030.940    84808196.230 8      1538.076    20711031.740    84808200.233 8      1538.076
G21  21141267.620   111098097.738 8      1658.431    21141263.980   111098097.743 6      1658.431    21141266.900    86569938.014 6      1292.284
R16  21367000.760   114138639.284 8      -569.552    21367000.700   114138639.294 7      -569.552    21367010.240    88774518.559 8      -442.985    21367010.780    88774517.557 7      -442.985
G27  22842168.380   120036359.436 7       508.960    22842167.520   120036359.441 7       508.960    22842175.660    93534839.025 7       396.592    22842175.960    93534840.029 7       396.592
R18  21258741.420   113480575.642 7      1785.901    21258741.160   113480575.651 7      1785.901    21258751.500    88262728.563 8      1389.034    21258751.400    88262730.565 8      1389.034
R04  21014441.900   112531443.840 7      6055.650    21014442.580   112531443.874 7      6055.650    21014453.820    87524525.456 8      4709.950    21014454.060    87524526.460 8      4709.950
R03  20916118.160   111965623.614 7      2726.487    20916119.240   111965623.648 7      2726.487    20916128.900    87084413.656 8      2120.601    20916128.880    87084413.656 8      2120.601
G16  24972499.460   131231255.466 6      -829.228    24972497.720   131231255.473 4      -829.228    24972509.880   102258110.647 4      -646.152
R09  21146080.880   112918883.992 7      2835.572    21146079.840   112918883.993 7      2835.572    21146088.380    87825840.201 8      2205.445    21146088.160    87825842.200 8      2205.445
G32  24725809.080   129935003.155 6      2702.119    24725807.940   129935003.147 5      2702.119    24725819.660   101248094.448 5      2105.547    24725820.180   101248098.455 6      2105.547
> 2024 07 08 10 30 45.0000000  0 13
G02  21308921.580   111979126.868 8      2604.359    21308920.020   111979126.870 6      2604.359    21308921.580    87256460.752 6      2029.370
G03  21367354.600   112286223.248 8      5706.565    21367353.700   112286223.255 7      5706.565    21367359.720    87495795.738 7      4446.674    21367360.720    87495798.744 8      4446.674
G14  23284226.900   122359453.502 7      5481.949    23284226.440   122359453.504 5      5481.949    23284232.520    95345037.050 5      4271.649    23284232.980    95345058.057 7      4271.649
G08  20710650.980   108835192.077 8      1973.382    20710649.860   108835192.076 8      1973.382    20710655.400    84806658.403 8      1537.701    20710656.260    84806662.408 8      1537.701
G21  21140952.000   111096439.420 8      1658.179    21140948.440   111096439.422 6      1658.179    21140951.320    86568645.818 6      1292.087
R16  21367107.380   114139209.051 8      -569.964    21367107.300   114139209.047 7      -569.964    21367116.940    88774961.705 8      -443.306    21367117.240    88774960.702 8      -443.306
G27  22842071.840   120035850.691 7       508.679    22842070.660   120035850.693 7       508.679    22842078.720    93534442.586 7       396.373    22842079.260    93534443.585 7       396.373
R18  21258406.880   113478789.821 7      1785.805    21258406.720   113478789.827 7      1785.805    21258417.080    88261339.588 8      1388.960    21258416.580    88261341.595 8      1388.960
R04  21013311.180   112525388.449 7      6055.181    21013311.560   112525388.486 7      6055.181    21013323.080    87519815.712 8      4709.585    21013323.220    87519816.716 8      4709.585
R03  20915609.020   111962897.623 7      2725.568    20915609.940   111962897.660 7      2725.568    20915619.680    87082293.437 8      2119.886    20915619.620    87082293.437 8      2119.886
G16  24972657.240   131232084.705 7      -829.202    24972655.460   131232084.712 4      -829.202    24972667.600   102258756.791 4      -646.131
R09  21145549.520   112916048.965 7      2834.592    21145549.000   112916048.966 7      2834.592    21145557.600    87823635.182 8      2204.683    21145557.400    87823637.176 8      2204.683
G32  24725294.340   129932301.129 6      2701.914    24725293.740   129932301.123 5      2701.914    24725305.380   101245988.965 5      2105.387    24725305.840   101245992.978 6      2105.387
> 2024 07 08 10 30 46.0000000  0 13
G02  21308426.300   111976522.604 7      2604.223    21308424.380   111976522.609 6      2604.223    21308425.940    87254431.456 6      2029.265
G03  21366268.540   112280516.942 7      5706.152    21366267.780   112280516.944 8      5706.152    21366273.800    87491349.266 7      4446.352    21366274.620    87491352.265 8      4446.352
G14  23283183.920   122353971.940 7      5481.430    23283183.300   122353971.940 5      5481.430    23283189.420    95340765.708 5      4271.244    23283189.480    95340786.716 7      4271.244
G08  20710275.580   108833218.958 7      1972.961    20710274.400   108833218.960 8      1972.961    20710279.980    84805120.908 8      1537.372    20710280.740    84805124.909 8      1537.372
G21  21140636.540   111094781.230 8      1658.139    21140632.820   111094781.238 6      1658.139    21140635.660    86567353.722 6      1292.057
R16  21367213.920   114139779.269 7      -570.340    21367213.900   114139779.270 7      -570.340    21367223.640    88775405.206 8      -443.598    21367223.540    88775404.209 8      -443.598
G27  22841974.940   120035342.274 7       508.297    22841974.120   120035342.285 7       508.297    22841981.940    93534046.415 7       396.075    22841982.700    93534047.410 7       396.075
R18  21258072.360   113477004.117 7      1785.684    21258072.040   113477004.112 7      1785.684    21258082.720    88259950.701 8      1388.865    21258082.100    88259952.710 8      1388.865
R04  21012180.580   112519333.634 7      6054.520    21012181.200   112519333.665 7      6054.520    21012192.420    87515106.412 8      4709.071    21012192.040    87515107.411 8      4709.071
R03  20915100.000   111960172.569 7      2724.664    20915101.020   111960172.600 7      2724.664    20915110.820    87080173.942 8      2119.183    20915110.780    87080173.946 8      2119.183
G16  24972814.940   131232914.013 7      -829.293    24972813.260   131232914.020 4      -829.293    24972825.480   102259402.991 4      -646.202
R09  21145018.920   112913214.832 7      2833.762    21145018.460   112913214.833 7      2833.762    21145026.760    87821430.852 8      2204.037    21145026.700    87821432.847 8      2204.037
G32  24724780.540   129929599.686 6      2701.261    24724779.700   129929599.681 5      2701.261    24724791.300   101243883.942 5      2104.879    24724792.120   101243887.939 6      2104.879
> 2024 07 08 10 30 47.0000000  0 13
G02  21307930.740   111973918.453 7      2603.857    21307928.760   111973918.460 6      2603.857    21307930.440    87252402.249 6      2028.980
G03  21365182.700   112274811.058 7      5705.459    21365182.100   112274811.060 7      5705.459    21365188.040    87486903.119 7      4445.812    21365188.900    87486906.121 8      4445.812
G14  23282140.820   122348490.768 7      5480.747    23282140.320   122348490.770 5      5480.747    23282146.240    95336494.670 5      4270.712    23282146.520    95336515.671 8      4270.712
G08  20709900.160   108831246.191 7      1972.329    20709898.960   108831246.194 8      1972.329    20709904.540    84803583.685 8      1536.880    20709905.540    84803587.688 8      1536.880
G21  21140320.980   111093123.119 8      1657.857    21140317.360   111093123.127 6      1657.857    21140320.240    86566061.687 6      1291.837
R16  21367320.920   114140349.885 7      -570.953    21367320.800   114140349.889 7      -570.953    21367330.700    88775849.012 8      -444.075    21367330.720    88775848.015 7      -444.075
G27  22841878.360   120034834.105 7       507.748    22841877.420   120034834.115 7       507.748    22841885.280    93533650.435 7       395.648    22841885.720    93533651.426 7       395.648
R18  21257737.440   113475218.429 7      1785.362    21257737.380   113475218.422 7      1785.362    21257748.040    88258561.829 8      1388.615    21257747.640    88258563.837 8      1388.615
R04  21011049.360   112513279.240 7      6053.978    21011050.260   112513279.276 7      6053.978    21011061.660    87510397.448 8      4708.650    21011061.560    87510398.452 8      4708.650
R03  20914591.180   111957448.358 7      2723.625    20914591.780   111957448.378 7      2723.625    20914601.920    87078055.105 8      2118.375    20914601.740    87078055.107 8      2118.375
G16  24972972.820   131233743.260 7      -829.490    24972971.200   131233743.267 4      -829.490    24972983.300   102260049.145 4      -646.356
R09  21144487.960   112910381.493 7      2832.761    21144488.060   112910381.494 7      2832.761    21144496.340    87819227.146 8      2203.258    21144496.180    87819229.136 8      2203.258
G32  24724266.640   129926898.729 6      2700.364    24724265.660   129926898.729 5      2700.364    24724277.260   101241779.303 5      2104.180    24724278.360   101241783.312 6      2104.180
> 2024 07 08 10 30 48.0000000  0 13
G02  21307435.260   111971314.575 7      2603.705    21307433.280   111971314.582 6      2603.705    21307434.940    87250373.253 6      2028.861
G03  21364096.980   112269105.745 7      5705.080    21364096.480   112269105.747 7      5705.080    21364102.280    87482457.422 7      4445.517    21364103.280    87482460.422 8      4445.517
G14  23281098.040   122343010.136 7      5480.371    23281097.440   122343010.144 5      5480.371    23281103.280    95332224.050 5      4270.419    23281103.780    95332245.059 7      4270.419
G08  20709524.800   108829273.956 8      1971.820    20709523.620   108829273.958 8      1971.820    20709529.260    84802046.878 8      1536.483    20709530.140    84802050.883 8      1536.483
G21  21140005.400   111091465.263 7      1657.683    21140001.820   111091465.268 6      1657.683    21140004.680    86564769.847 6      1291.701
R16  21367427.860   114140921.043 7      -571.385    21367427.880   114140921.047 7      -571.385    21367437.460    88776293.244 8      -444.410    21367437.740    88776292.245 8      -444.410
G27  22841781.480   120034326.337 7       507.536    22841780.760   120034326.342 7       507.536    22841788.720    93533254.763 7       395.483    22841789.140    93533255.756 7       395.483
R18  21257402.640   113473432.893 7      1785.429    21257402.840   113473432.892 7      1785.429    21257413.520    88257173.081 8      1388.667    21257413.120    88257175.094 8      1388.667
R04  21009918.860   112507225.498 7      6053.404    21009919.420   112507225.543 7      6053.404    21009931.140    87505688.989 8      4708.203    21009930.780    87505689.997 8      4708.203
R03  20914082.440   111954725.172 7      2722.595    20914082.920   111954725.198 7      2722.595    20914093.220    87075937.074 8      2117.574    20914093.000    87075937.072 8      2117.574
G16  24973130.740   131234572.644 6      -829.398    24973129.080   131234572.654 4      -829.398    24973140.920   102260695.404 4      -646.284
R09  21143957.940   112907549.181 7      2831.768    21143957.940   112907549.179 7      2831.768    21143965.980    87817024.233 8      2202.487    21143965.720    87817026.223 8      2202.487
G32  24723752.500   129924198.390 6      2699.855    24723751.660   129924198.384 5      2699.855    24723763.140   101239675.136 5      2103.783    24723764.420   101239679.106 6      2103.783
> 2024 07 08 10 30 49.0000000  0 13
G02  21606732.800   113544133.608 7      2603.588    21606730.840   113544133.621 6      2603.588    21606732.440    88475946.530 6      2028.770
G03  21662804.880   113838826.785 7      5704.473    21662804.340   113838826.787 7      5704.473    21662810.320    88705616.674 7      4445.044    21662811.100    88705619.672 8      4445.044
G14  23579848.640   123912955.587 7      5479.947    23579848.240   123912955.589 5      5479.947    23579853.940    96555558.172 5      4270.088    23579854.380    96555579.185 7      4270.088
G08  21008942.420   110402724.224 8      1971.532    21008941.220   110402724.229 8      1971.532    21008946.840    86028112.020 8      1536.258    21008948.020    86028116.027 8      1536.258
G21  21439483.040   112665229.331 7      1657.560    21439479.140   112665229.336 6      1657.560    21439481.940    87791079.510 6      1291.605
R16  21667326.940   115742929.693 7      -571.810    21667327.220   115742929.705 7      -571.810    21667336.860    90022299.972 8      -444.741    21667337.200    90022298.971 8      -444.741
G27  23141477.680   121609239.552 7       507.085    23141476.720   121609239.557 7       507.085    23141484.720    94760459.860 7       395.131    23141485.280    94760460.857 7       395.131
R18  21556861.240   115071961.897 7      1785.299    21556861.340   115071961.892 7      1785.299    21556871.880    89500473.413 8      1388.566    21556871.160    89500475.419 8      1388.566
R04  21308582.480   114106553.499 7      6052.841    21308582.820   114106553.533 7      6052.841    21308594.420    88749610.759 8      4707.766    21308593.940    88749611.769 8      4707.766
R03  21213366.900   113556818.263 7      2721.684    21213367.380   113556818.286 7      2721.684    21213377.560    88322009.480 8      2116.866    21213377.660    88322009.480 8      2116.866
G16  25273080.960   132810821.381 6      -829.626    25273079.260   132810821.391 4      -829.626    25273091.080   103488941.161 4      -646.462
R09  21443220.800   114505595.706 7      2830.948    21443220.700   114505595.707 7      2830.948    21443228.760    89059949.308 8      2201.848    21443228.440    89059951.302 8      2201.848
G32  25023032.120   131496921.390 6      2699.283    25023030.740   131496921.398 5      2699.283    25023042.440   102465173.582 5      2103.337    25023043.280   102465177.574 6      2103.337
> 2024 07 08 10 30 50.0000000  0 13
G02  21606237.300   113541530.243 8      2603.323    21606235.360   113541530.253 6      2603.323    21606237.100    88473917.931 6      2028.563
G03  21661719.460   113833122.586 7      5703.969    21661718.960   113833122.591 7      5703.969    21661724.800    88701171.848 7      4444.651    21661725.560    88701174.850 8      4444.651
G14  23578806.040   123907476.017 7      5479.488    23578805.460   123907476.025 5      5479.488    23578811.120    96551288.383 5      4269.731    23578811.680    96551309.402 7      4269.731
G08  21008567.260   110400752.965 8      1971.044    21008566.040   110400752.968 8      1971.044    21008571.740    86026575.977 8      1535.878    21008572.900    86026579.982 8      1535.878
G21  21439167.320   112663571.895 7      1657.458    21439163.760   112663571.897 6      1657.458    21439166.600    87789788.000 6      1291.526
R16  21667434.300   115743501.866 7      -572.320    21667434.540   115743501.873 7      -572.320    21667444.160    90022744.981 8      -445.138    21667444.000    90022743.978 8      -445.138
G27  23141381.260   121608732.541 7       506.896    23141380.360   121608732.548 7       506.896    23141388.240    94760064.782 7       394.984    23141388.680    94760065.783 7       394.984
R18  21556526.700   115070176.700 7      1785.064    21556526.540   115070176.698 7      1785.064    21556537.520    89499084.922 8      1388.383    21556536.940    89499086.929 8      1388.383
R04  21307452.160   114100500.965 7      6052.328    21307452.700   114100500.999 7      6052.328    21307464.160    88744903.239 8      4707.366    21307463.760    88744904.245 8      4707.366
R03  21212858.380   113554097.052 7      2720.752    21212858.960   113554097.075 7      2720.752    21212869.340    88319892.983 8      2116.140    21212869.180    88319892.985 8      2116.140
G16  25273238.800   132811650.954 6      -829.569    25273237.200   132811650.964 4      -829.569    25273248.900   103489587.567 4      -646.417
R09  21442690.580   114502765.277 7      2830.111    21442690.620   114502765.278 7      2830.111    21442698.880    89057747.865 8      2201.197    21442698.480    89057749.859 8      2201.197
G32  25022518.120   131494222.312 6      2698.688    25022517.100   131494222.322 5      2698.688    25022528.900   102463070.404 5      2102.874    25022530.200   102463074.380 6      2102.874
> 2024 07 08 10 30 51.0000000  0 13
G02  21605741.980   113538926.856 7      2603.176    21605740.000   113538926.861 6      2603.176    21605741.640    88471889.314 6      2028.449
G03  21660634.140   113827418.676 7      5703.580    21660633.600   113827418.681 7      5703.580    21660639.320    88696727.245 7      4444.348    21660640.300    88696730.244 8      4444.348
G14  23577763.000   123901996.744 7      5479.004    23577762.800   123901996.752 5      5479.004    23577768.640    96547018.824 5      4269.354    23577768.980    96547039.831 7      4269.354
G08  21008192.160   110398781.920 8      1970.691    21008190.940   110398781.922 8      1970.691    21008196.720    86025040.093 8      1535.603    21008197.500    86025044.098 8      1535.603
G21  21438852.240   112661914.415 7      1657.291    21438848.400   112661914.422 6      1657.291    21438851.160    87788496.457 6      1291.395
R16  21667541.340   115744074.248 7      -572.733    21667541.720   115744074.259 7      -572.733    21667551.200    90023190.164 7      -445.459    21667551.260    90023189.164 8      -445.459
G27  23141285.020   121608225.669 7       506.657    23141283.940   121608225.674 7       506.657    23141291.840    94759669.815 7       394.797    23141292.120    94759670.814 7       394.797
R18  21556192.560   115068391.359 7      1785.188    21556192.460   115068391.355 7      1785.188    21556203.140    89497696.318 8      1388.479    21556202.540    89497698.318 8      1388.479
R04  21306322.000   114094448.744 7      6051.886    21306322.420   114094448.784 7      6051.886    21306334.000    88740195.967 8      4707.023    21306333.520    88740196.975 8      4707.023
R03  21212350.460   113551376.556 7      2719.842    21212351.060   113551376.579 7      2719.842    21212361.100    88317777.039 8      2115.433    21212360.880    88317777.039 8      2115.433
G16  25273396.720   132812480.372 6      -829.560    25273395.040   132812480.382 4      -829.560    25273406.820   103490233.855 4      -646.410
R09  21442160.320   114499935.560 7      2829.197    21442160.320   114499935.561 7      2829.197    21442168.820    89055546.978 8      2200.486    21442168.580    89055548.975 8      2200.486
G32  25022004.200   131491523.544 6      2698.423    25022003.540   131491523.543 5      2698.423    25022015.220   102460967.451 5      2102.667    25022016.580   102460971.407 6      2102.667
> 2024 07 08 10 30 52.0000000  0 13
G02  21605246.420   113536323.595 8      2603.015    21605244.680   113536323.600 6      2603.015    21605246.200    88469860.800 6      2028.324
G03  21659548.660   113821715.218 7      5703.044    21659548.140   113821715.217 7      5703.044    21659553.980    88692282.996 7      4443.930    21659554.900    88692285.993 8      4443.930
G14  23576720.700   123896517.860 7      5478.586    23576720.360   123896517.870 5      5478.586    23576725.980    96542749.570 5      4269.028    23576726.400    96542770.585 7      4269.028
G08  21007817.220   110396811.255 8      1970.350    21007815.940   110396811.258 8      1970.350    21007821.700    86023504.502 8      1535.338    21007822.840    86023508.511 8      1535.338
G21  21438536.520   112660257.027 7      1657.081    21438533.160   112660257.037 6      1657.081    21438535.980    87787204.988 6      1291.232
R16  21667648.540   115744647.040 7      -573.284    21667648.960   115744647.047 7      -573.284    21667658.280    90023635.672 7      -445.887    21667658.520    90023634.669 8      -445.887
G27  23141188.680   121607719.099 7       506.204    23141187.500   121607719.096 7       506.204    23141195.500    94759275.073 7       394.445    23141196.160    94759276.072 7       394.445
R18  21555857.900   115066606.085 7      1785.090    21555857.880   115066606.081 7      1785.090    21555868.600    89496307.771 8      1388.403    21555868.100    89496309.771 8      1388.403
R04  21305192.000   114088397.011 7      6051.304    21305192.560   114088397.040 7      6051.304    21305203.740    88735489.063 8      4706.570    21305203.580    88735490.071 8      4706.570
R03  21211842.540   113548656.928 7      2718.896    21211842.780   113548656.951 7      2718.896    21211852.980    88315661.768 8      2114.697    21211852.800    88315661.768 8      2114.697
G16  25273554.720   132813309.746 6      -829.516    25273552.980   132813309.756 4      -829.516    25273564.620   103490880.111 4      -646.376
R09  21441630.600   114497106.652 7      2828.276    21441630.540   114497106.656 7      2828.276    21441639.140    89053346.719 8      2199.770    21441638.820    89053348.719 8      2199.770
G32  25021490.420   131488825.251 6      2697.920    25021489.960   131488825.243 5      2697.920    25021501.880   102458864.878 5      2102.276    25021502.980   102458868.866 6      2102.276
> 2024 07 08 10 30 53.0000000  0 13
G02  21604751.360   113533720.487 7      2603.091    21604749.400   113533720.497 6      2603.091    21604750.820    88467832.402 6      2028.383
G03  21658463.400   113816012.209 7      5702.799    21658463.020   113816012.209 7      5702.799    21658468.740    88687839.085 7      4443.739    21658469.560    88687842.084 8      4443.739
G14  23575678.400   123891039.438 7      5478.265    23575677.780   123891039.448 5      5478.265    23575683.420    96538480.676 5      4268.778    23575683.920    96538501.678 7      4268.778
G08  21007442.300   110394840.993 7      1970.045    21007441.060   110394840.995 8      1970.045    21007446.800    86021969.235 8      1535.100    21007447.800    86021973.242 8      1535.100
G21  21438221.340   112658599.754 7      1657.236    21438217.700   112658599.764 6      1657.236    21438220.580    87785913.602 6      1291.353
R16  21667756.020   115745220.231 7      -573.319    21667756.220   115745220.235 7      -573.319    21667765.640    90024081.474 7      -445.915    21667765.940    90024080.474 7      -445.915
G27  23141092.140   121607212.779 7       506.272    23141091.100   121607212.781 7       506.272    23141099.140    94758880.536 7       394.498    23141100.080    94758881.531 7       394.498
R18  21555523.020   115064820.896 7      1785.155    21555523.820   115064820.895 7      1785.155    21555534.260    89494919.287 8      1388.454    21555533.660    89494921.289 8      1388.454
R04  21304062.120   114082345.787 7      6050.989    21304062.820   114082345.812 7      6050.989    21304073.680    88730782.543 8      4706.325    21304073.440    88730783.551 8      4706.325
R03  21211334.580   113545938.161 7      2718.390    21211334.880   113545938.181 7      2718.390    21211345.040    88313547.168 8      2114.303    21211344.860    88313547.166 8      2114.303
G16  25273712.220   132814139.158 6      -829.308    25273710.840   132814139.166 4      -829.308    25273722.420   103491526.380 4      -646.214
R09  21441100.860   114494278.597 7      2827.757    21441100.620   114494278.606 7      2827.757    21441109.460    89051147.116 8      2199.367    21441109.340    89051149.112 8      2199.367
G32  25020977.100   131486127.497 6      2697.534    25020976.660   131486127.489 5      2697.534    25020988.400   102456762.724 5      2101.974    25020989.660   102456766.724 6      2101.974
> 2024 07 08 10 30 54.0000000  0 13
G02  21604256.120   113531117.521 7      2602.724    21604254.080   113531117.531 6      2602.724    21604255.620    88465804.114 6      2028.096
G03  21657378.340   113810309.631 7      5702.236    21657377.980   113810309.633 7      5702.236    21657383.500    88683395.521 7      4443.301    21657384.220    88683398.519 8      4443.301
G14  23574635.740   123885561.405 7      5477.765    23574635.300   123885561.413 5      5477.765    23574641.000    96534212.083 5      4268.388    23574641.540    96534233.075 8      4268.388
G08  21007067.360   110392871.098 7      1969.560    21007066.180   110392871.100 8      1969.560    21007071.940    86020434.246 8      1534.722    21007072.780    86020438.253 8      1534.722
G21  21437905.760   112656942.592 7      1656.890    21437902.320   112656942.599 6      1656.890    21437905.040    87784622.307 6      1291.083
R16  21667863.400   115745793.868 7      -574.006    21667863.700   115745793.872 7      -574.006    21667872.980    90024527.630 8      -446.449    21667873.100    90024526.633 8      -446.449
G27  23140995.820   121606706.751 7       505.672    23140994.660   121606706.758 7       505.672    23141002.820    94758486.232 7       394.030    23141003.420    94758487.227 7       394.030
R18  21555189.080   115063035.726 7      1785.009    21555189.480   115063035.727 7      1785.009    21555199.540    89493530.826 8      1388.340    21555199.060    89493532.832 8      1388.340
R04  21302932.240   114076295.020 7      6050.312    21302932.720   114076295.059 7      6050.312    21302943.620    88726076.412 7      4705.798    21302943.640    88726077.422 8      4705.798
R03  21210827.000   113543220.277 7      2717.177    21210827.260   113543220.308 7      2717.177    21210837.100    88311433.269 8      2113.360    21210837.420    88311433.265 8      2113.360
G16  25273870.260   132814968.545 7      -829.523    25273868.720   132814968.552 4      -829.523    25273880.180   103492172.641 4      -646.381
R09  21440571.420   114491451.417 7      2826.658    21440571.640   114491451.426 7      2826.658    21440580.020    89048948.204 8      2198.512    21440579.860    89048950.205 8      2198.512
G32  25020463.760   131483430.287 6      2696.655    25020463.360   131483430.284 5      2696.655    25020475.240   102454661.006 5      2101.290    25020477.000   102454664.992 6      2101.290
> 2024 07 08 10 30 55.0000000  0 13
G02  21603760.880   113528514.886 7      2602.332    21603758.740   113528514.896 6      2602.332    21603760.340    88463776.085 6      2027.791
G03  21656293.380   113804607.702 7      5701.541    21656292.860   113804607.704 7      5701.541    21656298.580    88678952.460 7      4442.759    21656299.280    88678955.460 8      4442.759
G14  23573593.420   123880084.000 7      5477.079    23573592.920   123880084.008 5      5477.079    23573598.760    96529943.977 5      4267.854    23573599.080    96529964.976 7      4267.854
G08  21006692.660   110390901.766 7      1968.998    21006691.440   110390901.770 8      1968.998    21006697.180    86018899.705 8      1534.284    21006697.880    86018903.712 8      1534.284
G21  21437590.580   112655285.703 7      1656.659    21437587.000   112655285.707 6      1656.659    21437589.780    87783331.227 6      1290.903
R16  21667970.840   115746368.082 7      -574.579    21667971.220   115746368.083 7      -574.579    21667980.540    90024974.241 7      -446.894    21667980.740    90024973.238 8      -446.894
G27  23140899.580   121606201.198 7       505.216    23140898.620   121606201.200 7       505.216    23140906.580    94758092.270 7       393.675    23140907.120    94758093.265 7       393.675
R18  21554854.740   115061250.783 7      1784.794    21554855.160   115061250.774 7      1784.794    21554865.100    89492142.532 8      1388.173    21554864.840    89492144.539 8      1388.173
R04  21301802.420   114070244.974 7      6049.612    21301802.820   114070245.007 7      6049.612    21301813.980    88721370.816 8      4705.254    21301814.040    88721371.828 8      4705.254
R03  21210319.140   113540503.421 7      2716.158    21210319.720   113540503.460 7      2716.158    21210329.440    88309320.158 8      2112.568    21210329.920    88309320.154 8      2112.568
G16  25274028.020   132815798.113 7      -829.840    25274026.600   132815798.123 4      -829.840    25274038.000   103492819.043 4      -646.629
R09  21440041.900   114488625.262 7      2825.600    21440042.360   114488625.268 7      2825.600    21440050.540    89046750.061 8      2197.689    21440050.760    89046752.061 8      2197.689
G32  25019951.000   131480733.687 6      2696.231    25019950.180   131480733.686 5      2696.231    25019962.200   102452559.746 5      2100.959    25019963.440   102452563.743 6      2100.959
> 2024 07 08 10 30 56.0000000  0 13
G02  21603265.480   113525912.603 7      2602.023    21603263.560   113525912.608 6      2602.023    21603265.000    88461748.328 6      2027.550
G03  21655208.300   113798906.427 8      5700.915    21655207.900   113798906.432 7      5700.915    21655213.660    88674509.908 7      4442.271    21655214.320    88674512.908 8      4442.271
G14  23572551.060   123874607.208 7      5476.555    23572550.620   123874607.213 5      5476.555    23572556.480    96525676.350 5      4267.445    23572556.700    96525697.357 7      4267.445
G08  21006317.940   110388933.056 7      1968.361    21006316.740   110388933.061 8      1968.361    21006322.560    86017365.641 8      1533.788    21006323.080    86017369.644 8      1533.788
G21  21437275.340   112653629.145 7      1656.406    21437271.820   112653629.147 6      1656.406    21437274.620    87782040.398 6      1290.706
R16  21668078.460   115746942.939 7      -575.248    21668078.920   115746942.943 7      -575.248    21668087.900    90025421.350 7      -447.415    21668088.520    90025420.343 8      -447.415
G27  23140803.520   121605696.110 7       504.844    23140802.420   121605696.118 7       504.844    23140810.520    94757698.699 7       393.385    23140810.820    94757699.705 7       393.385
R18  21554520.600   115059466.075 7      1784.571    21554521.160   115059466.068 7      1784.571    21554530.700    89490754.426 8      1388.000    21554530.420    89490756.432 8      1388.000
R04  21300672.440   114064195.621 7      6049.048    21300673.560   114064195.654 7      6049.048    21300684.120    88716665.774 8      4704.815    21300684.200    88716666.780 8      4704.815
R03  21209811.700   113537787.633 7      2715.347    21209812.440   113537787.670 7      2715.347    21209822.000    88307207.879 8      2111.937    21209822.540    88307207.877 8      2111.937
G16  25274185.800   132816627.870 7      -829.909    25274184.340   132816627.877 4      -829.909    25274195.920   103493465.593 4      -646.682
R09  21439512.860   114485800.175 7      2824.535    21439512.920   114485800.179 7      2824.535    21439521.240    89044552.781 8      2196.860    21439521.760    89044554.780 8      2196.860
G32  25019438.100   131478037.877 6      2695.268    25019437.100   131478037.890 5      2695.268    25019449.200   102450459.109 5      2100.209    25019450.560   102450463.102 6      2100.209
> 2024 07 08 10 30 57.0000000  0 13
G02  21602770.480   113523310.430 8      2602.090    21602768.460   113523310.438 6      2602.090    21602769.960    88459720.661 6      2027.602
G03  21654123.700   113793205.576 8      5700.645    21654123.140   113793205.581 7      5700.645    21654128.740    88670067.684 7      4442.061    21654129.440    88670070.684 8      4442.061
G14  23571509.160   123869130.856 7      5476.166    23571508.620   123869130.866 5      5476.166    23571514.480    96521409.066 5      4267.142    23571514.840    96521430.077 8      4267.142
G08  21005943.340   110386964.698 8      1968.188    21005942.240   110386964.698 8      1968.188    21005947.940    86015831.852 8      1533.653    21005948.480    86015835.855 8      1533.653
G21  21436960.120   112651972.666 7      1656.499    21436956.540   112651972.668 6      1656.499    21436959.400    87780749.631 6      1290.778
R16  21668185.960   115747518.125 7      -575.314    21668186.400   115747518.126 7      -575.314    21668195.660    90025868.714 7      -447.466    21668196.160    90025867.710 8      -447.466
G27  23140707.260   121605191.272 7       504.789    23140706.280   121605191.277 7       504.789    23140714.340    94757305.315 7       393.342    23140714.880    94757306.318 7       393.342
R18  21554186.100   115057681.420 7      1784.715    21554186.680   115057681.413 7      1784.715    21554196.160    89489366.353 8      1388.112    21554196.040    89489368.359 8      1388.112
R04  21299542.940   114058146.758 7      6048.658    21299544.000   114058146.797 7      6048.658    21299554.580    88711961.105 8      4704.512    21299554.560    88711962.104 8      4704.512
R03  21209304.440   113535072.729 7      2714.470    21209305.100   113535072.762 7      2714.470    21209314.800    88305096.278 8      2111.254    21209315.220    88305096.276 8      2111.254
G16  25274343.740   132817457.579 7      -829.675    25274342.320   132817457.587 4      -829.675    25274353.840   103494112.108 4      -646.500
R09  21438984.480   114482975.871 7      2823.963    21438983.920   114482975.874 7      2823.963    21438992.260    89042356.096 8      2196.416    21438992.520    89042358.097 8      2196.416
G32  25018925.220   131475342.501 6      2695.056    25018924.100   131475342.509 5      2695.056    25018936.400   102448358.806 5      2100.044    25018937.000   102448362.801 6      2100.044
> 2024 07 08 10 30 58.0000000  0 13
G02  21602275.380   113520708.547 8      2601.876    21602273.200   113520708.554 6      2601.876    21602274.940    88457693.221 6      2027.436
G03  21653038.840   113787505.318 8      5700.155    21653038.440   113787505.320 7      5700.155    21653044.080    88665625.927 7      4441.679    21653044.900    88665628.926 8      4441.679
G14  23570467.240   123863655.054 7      5475.651    23570466.640   123863655.067 5      5475.651    23570472.500    96517142.209 5      4266.741    23570472.800    96517163.216 8      4266.741
G08  21005569.040   110384996.866 8      1967.686    21005567.780   110384996.868 8      1967.686    21005573.480    86014298.481 8      1533.262    21005574.260    86014302.486 8      1533.262
G21  21436645.040   112650316.449 7      1656.209    21436641.420   112650316.451 6      1656.209    21436644.240    87779459.073 6      1290.552
R16  21668293.900   115748093.888 7      -575.887    21668294.360   115748093.883 7      -575.887    21668303.520    90026316.513 8      -447.912    21668303.980    90026315.515 8      -447.912
G27  23140611.180   121604686.894 7       504.376    23140610.360   121604686.893 7       504.376    23140618.400    94756912.297 7       393.020    23140618.960    94756913.294 7       393.020
R18  21553851.820   115055896.984 7      1784.528    21553852.620   115055896.985 7      1784.528    21553861.680    89487978.460 8      1387.967    21553861.720    89487980.470 8      1387.967
R04  21298413.300   114052098.543 7      6048.046    21298414.660   114052098.576 7      6048.046    21298425.060    88707256.929 8      4704.036    21298425.140    88707257.935 8      4704.036
R03  21208797.500   113532358.838 7      2713.442    21208798.000   113532358.867 7      2713.442    21208807.780    88302985.470 8      2110.455    21208808.140    88302985.466 8      2110.455
G16  25274501.500   132818287.470 6      -829.819    25274500.240   132818287.480 4      -829.819    25274511.720   103494758.768 4      -646.612
R09  21438455.400   114480152.583 7      2822.883    21438455.620   114480152.590 7      2822.883    21438463.360    89040160.208 8      2195.576    21438463.780    89040162.204 8      2195.576
G32  25018412.760   131472647.795 6      2694.518    25018411.420   131472647.808 5      2694.518    25018423.540   102446259.033 5      2099.624    25018423.760   102446263.038 6      2099.624
> 2024 07 08 10 30 59.0000000  0 13
G02  21601780.060   113518106.752 7      2601.538    21601778.120   113518106.760 6      2601.538    21601779.800    88455665.849 6      2027.172
G03  21651954.200   113781805.454 7      5699.479    21651953.800   113781805.462 7      5699.479    21651959.440    88661184.477 7      4441.152    21651959.960    88661187.476 8      4441.152
G14  23569425.360   123858179.623 7      5474.956    23569424.580   123858179.635 5      5474.956    23569430.460    96512875.641 5      4266.199    23569430.980    96512896.648 7      4266.199
G08  21005194.440   110383029.349 8      1967.128    21005193.340   110383029.357 8      1967.128    21005199.120    86012765.353 8      1532.827    21005200.080    86012769.358 8      1532.827
G21  21436329.860   112648660.272 7      1655.870    21436326.320   112648660.277 6      1655.870    21436329.040    87778168.545 6      1290.289
R16  21668401.660   115748669.957 7      -576.494    21668402.160   115748669.959 7      -576.494    21668411.260    90026764.572 7      -448.384    21668411.900    90026763.582 7      -448.384
G27  23140515.480   121604182.715 7       503.922    23140514.300   121604182.717 7       503.922    23140522.480    94756519.420 7       392.666    23140523.140    94756520.416 7       392.666
R18  21553517.840   115054112.497 7      1784.347    21553518.100   115054112.504 7      1784.347    21553527.260    89486590.528 8      1387.825    21553527.300    89486592.538 8      1387.825
R04  21297283.820   114046050.740 7      6047.379    21297284.740   114046050.771 7      6047.379    21297295.920    88702553.089 8      4703.517    21297295.980    88702554.097 8      4703.517
R03  21208290.680   113529645.762 7      2712.460    21208291.080   113529645.793 7      2712.460    21208300.860    88300875.308 8      2109.691    21208301.340    88300875.310 8      2109.691
G16  25274659.560   132819117.267 7      -830.020    25274658.140   132819117.277 4      -830.020    25274669.880   103495405.350 4      -646.769
R09  21437927.260   114477330.068 7      2821.917    21437927.080   114477330.063 7      2821.917    21437934.720    89037964.906 8      2194.824    21437934.900    89037966.902 8      2194.824
G32  25017900.040   131469953.518 6      2693.826    25017898.600   131469953.522 5      2693.826    25017910.600   102444159.598 5      2099.085    25017911.060   102444163.597 6      2099.085
> 2024 07 08 10 31  0.0000000  0 13
G02  21601285.040   113515505.194 7      2601.604    21601283.080   113515505.199 6      2601.604    21601284.720    88453638.659 6      2027.224
G03  21650869.680   113776106.137 7      5699.177    21650869.140   113776106.139 7      5699.177    21650874.800    88656743.452 7      4440.917    21650875.640    88656746.452 7      4440.917
G14  23568383.540   123852704.719 7      5474.684    23568382.840   123852704.729 5      5474.684    23568388.560    96508609.484 5      4265.987    23568389.300    96508630.487 7      4265.987
G08  21004820.200   110381062.340 8      1966.866    21004819.140   110381062.342 8      1966.866    21004824.760    86011232.612 8      1532.623    21004825.640    86011236.613 8      1532.623
G21  21436014.840   112647004.300 7      1655.958    21436011.140   112647004.308 6      1655.958    21436014.000    87776878.176 6      1290.357
R16  21668509.760   115749246.562 7      -576.820    21668510.180   115749246.560 7      -576.820    21668519.240    90027213.033 8      -448.637    21668520.000    90027212.043 8      -448.637
G27  23140419.600   121603678.949 7       503.603    23140418.500   121603678.949 7       503.603    23140426.700    94756126.865 7       392.418    23140427.280    94756127.858 7       392.418
R18  21553183.320   115052328.160 7      1784.379    21553183.860   115052328.161 7      1784.379    21553192.640    89485202.704 8      1387.850    21553193.040    89485204.714 8      1387.850
R04  21296154.740   114040003.521 7      6046.919    21296155.900   114040003.544 7      6046.919    21296166.500    88697849.688 8      4703.159    21296166.800    88697850.690 8      4703.159
R03  21207784.000   113526933.721 7      2711.586    21207784.540   113526933.755 7      2711.586    21207794.220    88298765.943 8      2109.011    21207794.460    88298765.945 8      2109.011
G16  25274817.500   132819947.158 6      -829.887    25274816.080   132819947.162 4      -829.887    25274827.600   103496051.998 4      -646.665
R09  21437398.680   114474508.500 7      2821.123    21437399.100   114474508.501 7      2821.123    21437406.120    89035770.357 8      2194.207    21437406.760    89035772.353 8      2194.207
G32  25017387.620   131467259.884 6      2693.390    25017385.980   131467259.889 5      2693.390    25017398.000   102442060.664 5      2098.745    25017398.240   102442064.665 6      2098.745
> 2024 07 08 10 31  1.0000000  0 13
G02  21600789.840   113512903.615 7      2601.609    21600788.140   113512903.618 6      2601.609    21600789.660    88451611.452 6      2027.228
G03  21649785.240   113770407.090 7      5698.927    21649784.740   113770407.095 7      5698.927    21649790.360    88652302.641 7      4440.722    21649791.100    88652305.643 8      4440.722
G14  23567341.640   123847230.034 7      5474.613    23567340.900   123847230.041 5      5474.613    23567346.840    96504343.502 5      4265.932    23567347.600    96504364.517 8      4265.932
G08  21004446.100   110379095.522 7      1966.732    21004444.700   110379095.527 8      1966.732    21004450.520    86009700.030 8      1532.518    21004451.220    86009704.033 8      1532.518
G21  21435699.880   112645348.252 7      1656.096    21435695.860   112645348.254 6      1656.096    21435698.840    87775587.748 6      1290.465
R16  21668617.480   115749823.369 7      -576.873    21668618.080   115749823.370 7      -576.873    21668627.520    90027661.665 8      -448.679    21668627.960    90027660.671 8      -448.679
G27  23140323.720   121603175.243 7       503.685    23140322.760   121603175.246 7       503.685    23140330.820    94755734.369 7       392.482    23140331.600    94755735.362 7       392.482
R18  21552849.080   115050543.695 7      1784.564    21552849.420   115050543.698 7      1784.564    21552858.060    89483814.784 7      1387.994    21552858.840    89483816.793 8      1387.994
R04  21295025.300   114033956.559 7      6046.828    21295026.340   114033956.601 7      6046.828    21295037.400    88693146.522 8      4703.088    21295037.100    88693147.524 8      4703.088
R03  21207277.660   113524222.406 7      2710.910    21207278.000   113524222.434 7      2710.910    21207287.780    88296657.142 8      2108.486    21207287.880    88296657.151 8      2108.486
G16  25274975.780   132820776.859 7      -829.659    25274974.060   132820776.864 4      -829.659    25274985.420   103496698.506 4      -646.487
R09  21436870.420   114471687.640 7      2820.536    21436871.060   114471687.641 7      2820.536    21436877.780    89033576.357 8      2193.750    21436878.120    89033578.353 8      2193.750
G32  25016875.120   131464566.557 6      2693.084    25016873.560   131464566.562 5      2693.084    25016885.280   102439961.964 5      2098.507    25016886.000   102439965.971 6      2098.507
> 2024 07 08 10 31  2.0000000  0 13
G02  21600294.860   113510302.207 7      2601.307    21600292.980   113510302.215 6      2601.307    21600294.580    88449584.383 6      2026.992
G03  21648700.840   113764708.538 8      5698.305    21648700.440   113764708.537 7      5698.305    21648705.940    88647862.202 7      4440.237    21648706.820    88647865.206 8      4440.237
G14  23566299.720   123841755.845 7      5473.972    23566299.160   123841755.852 5      5473.972    23566305.000    96500077.902 5      4265.432    23566305.600    96500098.903 8      4265.432
G08  21004071.960   110377129.148 8      1966.100    21004070.520   110377129.155 8      1966.100    21004076.300    86008167.791 8      1532.026    21004076.980    86008171.794 8      1532.026
G21  21435384.540   112643692.359 7      1655.779    21435380.860   112643692.364 6      1655.779    21435383.680    87774297.442 6      1290.218
R16  21668725.060   115750400.643 7      -577.489    21668725.900   115750400.644 7      -577.489    21668735.680    90028110.646 8      -449.158    21668735.960    90028109.650 8      -449.158
G27  23140228.180   121602671.892 7       503.090    23140227.000   121602671.892 7       503.090    23140234.920    94755342.133 7       392.018    23140235.600    94755343.133 7       392.018
R18  21552514.920   115048759.347 7      1784.298    21552515.100   115048759.345 7      1784.298    21552523.620    89482426.952 8      1387.787    21552524.260    89482428.958 7      1387.787
R04  21293896.380   114027910.223 7      6046.034    21293897.360   114027910.265 7      6046.034    21293908.160    88688443.815 8      4702.471    21293908.180    88688444.814 8      4702.471
R03  21206771.380   113521512.008 7      2709.915    21206771.800   113521512.037 7      2709.915    21206781.440    88294549.051 8      2107.712    21206781.460    88294549.062 8      2107.712
G16  25275133.600   132821606.590 6      -829.765    25275132.100   132821606.595 4      -829.765    25275143.240   103497345.040 4      -646.570
R09  21436342.400   114468867.650 7      2819.562    21436343.340   114468867.651 7      2819.562    21436349.740    89031383.038 8      2192.992    21436350.160    89031385.032 8      2192.992
G32  25016362.740   131461873.819 6      2692.245    25016361.060   131461873.824 5      2692.245    25016372.660   102437863.725 5      2097.854    25016373.160   102437867.713 6      2097.854
> 2024 07 08 10 31  3.0000000  0 13
G02  21599799.720   113507700.957 7      2600.999    21599798.020   113507700.962 6      2600.999    21599799.600    88447557.433 6      2026.752
G03  21647616.480   113759010.435 7      5697.712    21647616.020   113759010.439 7      5697.712    21647621.580    88643422.122 7      4439.776    21647622.600    88643425.121 8      4439.776
G14  23565258.080   123836282.076 7      5473.428    23565257.600   123836282.084 5      5473.428    23565263.520    96495812.632 5      4265.009    23565263.960    96495833.641 8      4265.009
G08  21003697.820   110375163.152 7      1965.624    21003696.440   110375163.155 8      1965.624    21003702.240    86006635.840 8      1531.655    21003703.020    86006639.845 8      1531.655
G21  21435069.580   112642036.589 7      1655.444    21435065.700   112642036.594 6      1655.444    21435068.660    87773007.228 6      1289.956
R16  21668833.520   115750978.305 7      -578.071    21668834.080   115750978.303 7      -578.071    21668843.800    90028559.930 8      -449.611    21668844.220    90028558.934 8      -449.611
G27  23140132.460   121602168.794 7       502.757    23140131.220   121602168.799 7       502.757    23140139.340    94754950.108 7       391.759    23140139.600    94754951.110 7       391.759
R18  21552180.540   115046975.017 7      1784.172    21552180.440   115046975.016 7      1784.172    21552189.420    89481039.136 8      1387.690    21552189.820    89481041.140 8      1387.690
R04  21292767.060   114021864.389 7      6045.472    21292768.300   114021864.425 7      6045.472    21292779.240    88683741.497 8      4702.034    21292779.420    88683742.499 8      4702.034
R03  21206265.140   113518802.459 7      2708.904    21206265.600   113518802.488 7      2708.904    21206275.520    88292441.628 8      2106.926    21206275.300    88292441.637 8      2106.926
G16  25275291.620   132822436.329 7      -829.961    25275289.880   132822436.339 4      -829.961    25275301.440   103497991.577 4      -646.723
R09  21435814.380   114466048.546 7      2818.536    21435815.580   114466048.547 7      2818.536    21435821.640    89029190.387 8      2192.195    21435822.240    89029192.377 8      2192.195
G32  25015850.560   131459181.515 6      2691.967    25015848.800   131459181.512 5      2691.967    25015860.340   102435765.817 5      2097.637    25015861.300   102435769.812 6      2097.637
> 2024 07 08 10 31  4.0000000  0 13
G02  21599304.740   113505099.817 7      2601.181    21599302.980   113505099.822 6      2601.181    21599304.580    88445530.568 6      2026.894
G03  21646532.440   113753312.741 8      5697.702    21646531.820   113753312.746 7      5697.702    21646537.340    88638982.363 7      4439.768    21646538.420    88638985.364 7      4439.768
G14  23564216.420   123830808.715 7      5473.268    23564216.060   123830808.725 5      5473.268    23564221.900    96491547.682 5      4264.884    23564222.440    96491568.692 8      4264.884
G08  21003323.640   110373197.517 8      1965.555    21003322.340   110373197.517 8      1965.555    21003328.120    86005104.172 8      1531.602    21003328.980    86005108.175 8      1531.602
G21  21434754.620   112640380.874 7      1655.803    21434750.680   112640380.879 6      1655.803    21434753.440    87771717.063 6      1290.236
R16  21668941.900   115751556.325 7      -578.089    21668942.100   115751556.318 7      -578.089    21668951.940    90029009.493 8      -449.625    21668952.480    90029008.497 8      -449.625
G27  23140036.780   121601665.958 7       502.866    23140035.600   121601665.965 7       502.866    23140043.620    94754558.282 7       391.844    23140043.740    94754559.283 7       391.844
R18  21551846.480   115045190.728 7      1784.316    21551846.180   115045190.729 7      1784.316    21551854.920    89479651.353 8      1387.801    21551855.580    89479653.358 8      1387.801
R04  21291638.100   114015818.988 7      6045.407    21291639.140   114015819.027 7      6045.407    21291650.220    88679039.522 8      4701.983    21291650.640    88679040.528 8      4701.983
R03  21205758.800   113516093.732 7      2708.458    21205759.800   113516093.761 7      2708.458    21205769.640    88290334.836 8      2106.579    21205769.020    88290334.845 8      2106.579
G16  25275449.720   132823266.020 7      -829.608    25275447.680   132823266.033 4      -829.608    25275459.200   103498638.083 4      -646.448
R09  21435286.860   114463230.233 7      2817.989    21435287.560   114463230.245 7      2817.989    21435293.740    89026998.368 8      2191.770    21435294.340    89027000.362 8      2191.770
G32  25015337.740   131456489.762 6      2691.523    25015336.440   131456489.756 5      2691.523    25015348.200   102433668.339 5      2097.291    25015349.000   102433672.354 6      2097.291
> 2024 07 08 10 31  5.0000000  0 13
G02  21598809.660   113502498.745 7      2600.986    21598808.080   113502498.753 6      2600.986    21598809.720    88443503.759 6      2026.742
G03  21645448.080   113747615.471 7      5696.928    21645447.600   113747615.476 7      5696.928    21645453.080    88634542.937 7      4439.165    21645453.980    88634545.935 7      4439.165
G14  23563175.400   123825335.701 7      5472.823    23563174.460   123825335.711 5      5472.823    23563180.440    96487283.003 5      4264.537    23563180.860    96487304.006 7      4264.537
G08  21002949.640   110371232.194 8      1965.062    21002948.360   110371232.199 8      1965.062    21002954.200    86003572.758 8      1531.217    21002955.060    86003576.763 8      1531.217
G21  21434439.320   112638725.215 7      1655.493    21434435.500   112638725.223 6      1655.493    21434438.480    87770426.938 6      1289.995
R16  21669050.360   115752134.676 7      -578.594    21669050.240   115752134.661 7      -578.594    21669060.300    90029459.311 7      -450.017    21669060.440    90029458.317 8      -450.017
G27  23139941.200   121601163.348 7       502.422    23139939.880   121601163.353 7       502.422    23139948.000    94754166.634 7       391.497    23139948.340    94754167.635 7       391.497
R18  21551512.060   115043406.396 7      1784.250    21551511.880   115043406.403 7      1784.250    21551520.780    89478263.542 8      1387.750    21551521.360    89478265.544 8      1387.750
R04  21290509.420   114009774.020 7      6044.628    21290510.620   114009774.068 7      6044.628    21290521.320    88674337.892 8      4701.377    21290521.520    88674338.895 8      4701.377
R03  21205253.480   113513385.816 7      2707.421    21205253.920   113513385.834 7      2707.421    21205263.740    88288228.669 8      2105.772    21205263.360    88288228.677 8      2105.772
G16  25275607.320   132824095.659 6      -829.831    25275605.600   132824095.671 4      -829.831    25275617.060   103499284.545 4      -646.622
R09  21434759.000   114460412.697 7      2817.086    21434759.840   114460412.704 7      2817.086    21434766.220    89024806.945 8      2191.067    21434766.880    89024808.939 8      2191.067
G32  25014825.240   131453798.398 6      2691.155    25014824.180   131453798.395 5      2691.155    25014836.160   102431571.173 5      2097.004    25014837.600   102431575.169 6      2097.004
> 2024 07 08 10 31  6.0000000  0 13
G02  21598314.740   113499897.933 7      2600.877    21598313.100   113499897.938 6      2600.877    21598314.700    88441477.153 6      2026.658
G03  21644363.880   113741918.723 7      5696.631    21644363.560   113741918.723 7      5696.631    21644369.200    88630103.905 7      4438.933    21644369.640    88630106.905 8      4438.933
G14  23562133.960   123819863.222 7      5472.473    23562133.000   123819863.230 5      5472.473    23562139.160    96483018.735 5      4264.265    23562139.620    96483039.739 7      4264.265
G08  21002575.760   110369267.376 7      1964.687    21002574.520   110369267.381 8      1964.687    21002580.180    86002041.729 8      1530.925    21002581.160    86002045.734 8      1530.925
G21  21434124.180   112637069.761 7      1655.451    21434120.560   112637069.771 6      1655.451    21434123.440    87769136.974 6      1289.962
R16  21669158.740   115752713.539 7      -579.009    21669158.780   115752713.540 7      -579.009    21669168.460    90029909.543 7      -450.341    21669168.800    90029908.548 8      -450.341
G27  23139845.600   121600661.103 7       502.227    23139844.400   121600661.111 7       502.227    23139852.300    94753775.272 7       391.346    23139852.920    94753776.276 7       391.346
R18  21551177.660   115041622.259 7      1784.174    21551177.680   115041622.263 7      1784.174    21551186.560    89476875.875 8      1387.691    21551187.040    89476877.880 8      1387.691
R04  21289380.840   114003729.655 7      6044.196    21289381.860   114003729.695 7      6044.196    21289392.400    88669636.713 8      4701.042    21289392.560    88669637.721 8      4701.042
R03  21204748.040   113510678.842 7      2706.592    21204748.400   113510678.865 7      2706.592    21204758.180    88286123.255 8      2105.127    21204757.880    88286123.261 8      2105.127
G16  25275765.240   132824925.355 7      -829.599    25275763.420   132824925.368 4      -829.599    25275775.040   103499931.053 4      -646.441
R09  21434231.420   114457596.112 7      2816.304    21434232.500   114457596.126 7      2816.304    21434238.880    89022616.277 8      2190.459    21434239.320    89022618.276 8      2190.459
G32  25014312.720   131451107.697 6      2690.561    25014312.240   131451107.686 5      2690.561    25014324.180   102429474.516 5      2096.541    25014325.320   102429478.500 6      2096.541
> 2024 07 08 10 31  7.0000000  0 13
G02  21597820.020   113497297.177 7      2600.595    21597818.200   113497297.185 6      2600.595    21597819.800    88439450.591 6      2026.438
G03  21643280.180   113736222.346 7      5696.068    21643279.680   113736222.354 7      5696.068    21643285.040    88625665.176 7      4438.494    21643285.580    88625668.178 8      4438.494
G14  23561092.880   123814391.107 7      5471.849    23561091.820   123814391.117 5      5471.849    23561097.700    96478754.754 5      4263.778    23561098.380    96478775.759 8      4263.778
G08  21002201.800   110367302.839 7      1964.280    21002200.700   110367302.843 8      1964.280    21002206.400    86000510.918 8      1530.608    21002207.540    86000514.925 8      1530.608
G21  21433809.280   112635414.333 7      1655.242    21433805.520   112635414.337 6      1655.242    21433808.460    87767847.028 6      1289.799
R16  21669267.260   115753292.732 7      -579.394    21669267.020   115753292.727 7      -579.394    21669276.960    90030360.017 8      -450.640    21669277.220    90030359.019 8      -450.640
G27  23139750.080   121600159.074 7       501.773    23139748.840   121600159.079 7       501.773    23139756.780    94753384.074 7       390.992    23139757.440    94753385.080 7       390.992
R18  21550843.500   115039838.063 7      1784.066    21550843.540   115039838.070 7      1784.066    21550852.360    89475488.168 8      1387.607    21550852.980    89475490.170 8      1387.607
R04  21288251.940   113997685.703 7      6043.584    21288252.980   113997685.750 7      6043.584    21288263.740    88664935.873 8      4700.565    21288263.740    88664936.875 8      4700.565
R03  21204242.240   113507972.660 7      2705.658    21204242.880   113507972.688 7      2705.658    21204252.840    88284018.447 8      2104.400    21204252.460    88284018.453 8      2104.400
G16  25275923.100   132825754.994 7      -829.758    25275921.460   132825755.007 4      -829.758    25275932.760   103500577.515 4      -646.565
R09  21433704.240   114454780.303 7      2815.236    21433705.280   114454780.317 7      2815.236    21433711.680    89020426.206 8      2189.628    21433712.020    89020428.202 8      2189.628
G32  25013801.080   131448417.405 6      2689.723    25013800.240   131448417.399 5      2689.723    25013812.200   102427378.187 5      2095.888    25013813.420   102427382.190 6      2095.888
> 2024 07 08 10 31  8.0000000  0 13
G02  21597325.020   113494696.589 7      2600.493    21597323.320   113494696.596 6      2600.493    21597325.000    88437424.157 6      2026.358
G03  21642196.320   113730526.442 7      5695.650    21642195.820   113730526.450 7      5695.650    21642201.320    88621226.811 7      4438.169    21642201.520    88621229.809 8      4438.169
G14  23560051.560   123808919.417 7      5471.535    23560050.660   123808919.427 5      5471.535    23560056.420    96474491.108 5      4263.534    23560057.060    96474512.109 8      4263.534
G08  21001827.880   110365338.724 8      1963.935    21001826.940   110365338.732 8      1963.935    21001832.640    85998980.440 8      1530.339    21001833.720    85998984.445 8      1530.339
G21  21433494.140   112633759.017 7      1655.274    21433490.600   112633759.025 6      1655.274    21433493.440    87766557.172 6      1289.824
R16  21669375.540   115753872.351 7      -579.701    21669375.280   115753872.347 7      -579.701    21669385.500    90030810.830 8      -450.878    21669385.260    90030809.834 8      -450.878
G27  23139654.740   121599657.344 7       501.568    23139653.380   121599657.349 7       501.568    23139661.420    94752993.108 7       390.832    23139661.940    94752994.111 7       390.832
R18  21550509.040   115038053.934 7      1784.134    21550509.440   115038053.935 7      1784.134    21550518.200    89474100.501 7      1387.660    21550518.820    89474102.508 8      1387.660
R04  21287123.760   113991642.262 7      6043.201    21287124.360   113991642.309 7      6043.201    21287135.080    88660235.419 8      4700.267    21287134.840    88660236.417 8      4700.267
R03  21203736.940   113505267.412 7      2704.742    21203737.500   113505267.446 7      2704.742    21203747.320    88281914.367 8      2103.688    21203747.280    88281914.376 8      2103.688
G16  25276080.980   132826584.638 7      -829.812    25276079.380   132826584.648 4      -829.812    25276090.580   103501223.981 4      -646.607
R09  21433176.740   114451965.338 7      2814.666    21433178.240   114451965.347 7      2814.666    21433184.560    89018236.785 8      2189.185    21433185.260    89018238.781 8      2189.185
G32  25013289.620   131445727.591 6      2689.516    25013288.320   131445727.588 5      2689.516    25013300.420   102425282.230 5      2095.727    25013301.320   102425286.239 6      2095.727
> 2024 07 08 10 31  9.0000000  0 13
G02  21596830.200   113492096.137 7      2600.228    21596828.440   113492096.142 6      2600.228    21596830.140    88435397.829 6      2026.152
G03  21641112.340   113724831.003 8      5695.028    21641111.900   113724831.011 7      5695.028    21641117.280    88616788.805 7      4437.684    21641118.120    88616791.808 8      4437.684
G14  23559010.320   123803448.160 7      5470.982    23559009.440   123803448.168 5      5470.982    23559015.240    96470227.795 5      4263.103    23559015.760    96470248.798 7      4263.103
G08  21001454.280   110363375.004 7      1963.410    21001453.260   110363375.009 8      1963.410    21001459.000    85997450.268 8      1529.930    21001459.900    85997454.273 8      1529.930
G21  21433179.100   112632103.836 7      1655.013    21433175.580   112632103.841 6      1655.013    21433178.520    87765267.418 6      1289.620
R16  21669484.100   115754452.395 7      -580.371    21669483.840   115754452.391 7      -580.371    21669494.100    90031261.967 8      -451.399    21669494.000    90031260.977 8      -451.399
G27  23139559.320   121599155.898 7       501.196    23139558.000   121599155.903 7       501.196    23139565.900    94752602.367 7       390.542    23139566.380    94752603.374 7       390.542
R18  21550174.900   115036269.835 7      1783.959    21550175.320   115036269.841 7      1783.959    21550184.260    89472712.870 8      1387.524    21550184.620    89472714.876 8      1387.524
R04  21285995.220   113985599.327 7      6042.658    21285996.260   113985599.361 7      6042.658    21286006.540    88655535.350 8      4699.845    21286006.440    88655536.346 8      4699.845
R03  21203231.520   113502563.061 7      2703.718    21203232.460   113502563.098 7      2703.718    21203242.140    88279810.990 8      2102.892    21203242.080    88279810.994 8      2102.892
G16  25276238.700   132827414.256 7      -829.705    25276237.400   132827414.266 4      -829.705    25276248.600   103501870.424 4      -646.523
R09  21432649.800   114449151.230 7      2813.608    21432651.360   114449151.239 7      2813.608    21432657.360    89016048.036 8      2188.362    21432658.040    89016050.037 8      2188.362
G32  25012777.340   131443038.319 6      2689.092    25012776.600   131443038.313 5      2689.092    25012788.860   102423186.691 5      2095.396    25012789.800   102423190.690 6      2095.396
> 2024 07 08 10 31 10.0000000  0 13
G02  21596335.400   113489495.790 7      2600.449    21596333.620   113489495.798 6      2600.449    21596335.300    88433371.589 6      2026.324
G03  21640028.420   113719135.969 7      5694.880    21640028.140   113719135.974 7      5694.880    21640033.620    88612351.118 7      4437.569    21640034.460    88612354.119 8      4437.569
G14  23557968.880   123797977.311 7      5470.927    23557968.220   123797977.318 5      5470.927    23557974.220    96465964.804 5      4263.060    23557974.700    96465985.801 8      4263.060
G08  21001080.960   110361411.629 8      1963.363    21001079.600   110361411.636 8      1963.363    21001085.460    85995920.363 8      1529.893    21001085.960    85995924.370 8      1529.893
G21  21432864.200   112630448.713 7      1655.252    21432860.540   112630448.718 6      1655.252    21432863.680    87763977.710 6      1289.807
R16  21669592.960   115755032.787 7      -580.481    21669592.500   115755032.783 7      -580.481    21669602.840    90031713.381 8      -451.485    21669603.100    90031712.380 8      -451.485
G27  23139463.980   121598654.696 7       501.303    23139462.680   121598654.696 7       501.303    23139470.660    94752211.810 7       390.626    23139470.720    94752212.819 7       390.626
R18  21549840.620   115034485.759 7      1784.174    21549840.840   115034485.768 7      1784.174    21549850.100    89471325.256 8      1387.691    21549850.380    89471327.260 8      1387.691
R04  21284866.760   113979556.868 7      6042.383    21284867.860   113979556.910 7      6042.383    21284878.240    88650835.666 8      4699.631    21284877.740    88650836.664 8      4699.631
R03  21202726.540   113499859.577 7      2703.170    21202727.440   113499859.608 7      2703.170    21202737.080    88277708.274 8      2102.465    21202737.000    88277708.274 8      2102.465
G16  25276396.840   132828243.850 7      -829.463    25276395.500   132828243.854 4      -829.463    25276406.580   103502516.850 4      -646.335
R09  21432122.980   114446337.966 7      2812.964    21432124.580   114446337.970 7      2812.964    21432130.520    89013859.936 8      2187.861    21432131.560    89013861.934 8      2187.861
G32  25012265.980   131440349.517 6      2688.997    25012264.900   131440349.519 5      2688.997    25012277.180   102421091.523 5      2095.323    25012278.860   102421095.530 6      2095.323
> 2024 07 08 10 31 11.0000000  0 13
G02  21595840.720   113486895.672 7      2599.916    21595838.880   113486895.683 6      2599.916    21595840.500    88431345.519 6      2025.908
G03  21638944.800   113713441.452 8      5694.205    21638944.520   113713441.457 7      5694.205    21638950.100    88607913.828 7      4437.043    21638950.820    88607916.832 7      4437.043
G14  23556927.860   123792506.963 7      5470.055    23556927.120   123792506.971 5      5470.055    23556933.300    96461702.198 5      4262.380    23556934.020    96461723.194 8      4262.380
G08  21000707.400   110359448.715 7      1962.633    21000706.120   110359448.717 8      1962.633    21000711.860    85994390.818 8      1529.325    21000712.620    85994394.823 8      1529.325
G21  21432549.300   112628793.768 7      1654.823    21432545.560   112628793.773 6      1654.823    21432548.580    87762688.145 6      1289.472
R16  21669701.720   115755613.654 7      -581.163    21669701.280   115755613.647 7      -581.163    21669711.740    90032165.158 8      -452.015    21669711.800    90032164.155 8      -452.015
G27  23139368.540   121598153.847 7       500.699    23139367.440   121598153.844 7       500.699    23139375.320    94751821.531 7       390.155    23139375.600    94751822.541 7       390.155
R18  21549506.500   115032701.819 7      1783.761    21549506.900   115032701.823 7      1783.761    21549516.020    89469937.737 8      1387.370    21549516.140    89469939.737 8      1387.370
R04  21283738.520   113973514.986 7      6041.579    21283739.380   113973515.019 7      6041.579    21283750.120    88646136.422 8      4699.006    21283749.680    88646137.418 8      4699.006
R03  21202221.840   113497157.036 7      2702.075    21202222.640   113497157.059 7      2702.075    21202232.360    88275606.288 8      2101.614    21202232.080    88275606.291 8      2101.614
G16  25276554.820   132829073.499 7      -829.727    25276553.460   132829073.501 4      -829.727    25276564.580   103503163.318 4      -646.541
R09  21431596.540   114443525.562 7      2811.911    21431597.760   114443525.568 7      2811.911    21431603.820    89011672.508 8      2187.042    21431604.480    89011674.510 8      2187.042
G32  25011754.360   131437661.335 6      2687.782    25011753.500   131437661.340 5      2687.782    25011765.620   102418996.832 5      2094.376    25011766.880   102419000.839 6      2094.376
> 2024 07 08 10 31 12.0000000  0 13
G02  21595345.980   113484295.786 7      2599.756    21595344.100   113484295.793 6      2599.756    21595345.820    88429319.633 6      2025.784
G03  21637861.460   113707747.490 7      5693.760    21637860.920   113707747.492 7      5693.760    21637866.440    88603476.972 7      4436.696    21637867.340    88603479.974 8      4436.696
G14  23555887.080   123787037.136 7      5469.559    23555886.260   123787037.139 5      5469.559    23555892.580    96457439.997 5      4261.994    23555893.120    96457460.995 8      4261.994
G08  21000333.920   110357486.283 7      1962.214    21000332.700   110357486.287 8      1962.214    21000338.340    85992861.648 8      1528.998    21000339.060    85992865.657 8      1528.998
G21  21432234.440   112627139.044 7      1654.641    21432230.780   112627139.049 6      1654.641    21432233.780    87761398.749 6      1289.331
R16  21669810.500   115756195.031 7      -581.584    21669810.240   115756195.029 7      -581.584    21669820.520    90032617.334 8      -452.343    21669820.580    90032616.331 8      -452.343
G27  23139273.120   121597653.373 7       500.366    23139272.220   121597653.378 7       500.366    23139280.220    94751431.556 7       389.895    23139280.860    94751432.565 7       389.895
R18  21549172.600   115030918.016 7      1783.768    21549172.940   115030918.019 7      1783.768    21549182.140    89468550.334 8      1387.375    21549181.980    89468552.332 8      1387.375
R04  21282609.980   113967473.689 7      6041.001    21282611.160   113967473.723 7      6041.001    21282621.740    88641437.638 8      4698.556    21282621.740    88641438.636 8      4698.556
R03  21201717.160   113494455.482 7      2700.979    21201717.840   113494455.507 7      2700.979    21201727.620    88273505.082 8      2100.761    21201727.660    88273505.080 8      2100.761
G16  25276712.760   132829903.240 7      -829.699    25276711.360   132829903.245 4      -829.699    25276722.500   103503809.859 4      -646.518
R09  21431070.140   114440714.156 7      2810.864    21431071.180   114440714.159 7      2810.864    21431077.240    89009485.859 8      2186.227    21431077.860    89009487.857 8      2186.227
G32  25011243.100   131434973.726 6      2687.282    25011242.040   131434973.734 5      2687.282    25011254.040   102416902.597 5      2093.986    25011255.040   102416906.604 6      2093.986
> 2024 07 08 10 31 13.0000000  0 13
G02  21594851.240   113481696.099 7      2599.683    21594849.400   113481696.106 6      2599.683    21594851.000    88427293.903 6      2025.727
G03  21636777.880   113702054.045 7      5693.280    21636777.560   113702054.050 7      5693.280    21636782.980    88599040.526 7      4436.322    21636783.720    88599043.523 7      4436.322
G14  23554846.380   123781567.777 7      5469.213    23554845.500   123781567.784 5      5469.213    23554851.780    96453178.162 5      4261.725    23554852.300    96453199.171 7      4261.725
G08  20999960.620   110355524.305 8      1961.860    20999959.400   110355524.304 8      1961.860    20999965.040    85991332.830 8      1528.722    20999965.720    85991336.835 8      1528.722
G21  21431919.580   112625484.478 8      1654.592    21431915.840   112625484.488 6      1654.592    21431918.900    87760109.475 6      1289.292
R16  21669919.120   115756776.865 7      -581.985    21669918.840   115756776.863 7      -581.985    21669929.580    90033069.871 8      -452.655    21669929.520    90033068.867 7      -452.655
G27  23139177.960   121597153.256 7       499.994    23139177.000   121597153.269 7       499.994    23139184.920    94751041.853 7       389.606    23139185.560    94751042.856 8       389.606
R18  21548838.360   115029134.351 7      1783.631    21548838.780   115029134.357 7      1783.631    21548848.000    89467163.037 8      1387.268    21548847.720    89467165.035 8      1387.268
R04  21281482.360   113961432.928 7      6040.530    21281483.120   113961432.967 7      6040.530    21281493.720    88636739.273 8      4698.190    21281493.540    88636740.277 8      4698.190
R03  21201212.520   113491754.822 7      2700.291    21201213.120   113491754.839 7      2700.291    21201223.200    88271404.562 8      2100.226    21201222.880    88271404.558 8      2100.226
G16  25276870.420   132830733.047 7      -829.846    25276869.240   132830733.052 4      -829.846    25276880.480   103504456.450 4      -646.634
R09  21430543.460   114437903.655 7      2810.078    21430545.020   114437903.653 7      2810.078    21430551.120    89007299.908 8      2185.616    21430551.580    89007301.904 8      2185.616
G32  25010732.200   131432286.742 6      2686.549    25010730.380   131432286.745 5      2686.549    25010742.780   102414808.835 5      2093.415    25010743.720   102414812.844 6      2093.415
> 2024 07 08 10 31 14.0000000  0 13
G02  21594356.680   113479096.501 7      2599.669    21594354.920   113479096.506 6      2599.669    21594356.400    88425268.240 6      2025.716
G03  21635694.560   113696360.989 7      5692.955    21635694.200   113696360.997 7      5692.955    21635699.640    88594604.380 7      4436.069    21635700.480    88594607.380 8      4436.069
G14  23553805.740   123776098.822 7      5468.812    23553804.940   123776098.835 5      5468.812    23553811.280    96448916.645 5      4261.412    23553811.360    96448937.648 7      4261.412
G08  20999587.440   110353562.650 8      1961.605    20999586.100   110353562.652 8      1961.605    20999591.780    85989804.270 8      1528.523    20999592.400    85989808.274 8      1528.523
G21  21431604.780   112623829.969 7      1654.585    21431600.920   112623829.977 6      1654.585    21431604.100    87758820.245 6      1289.287
R16  21670028.400   115757359.016 7      -582.162    21670028.000   115757359.012 7      -582.162    21670038.500    90033522.645 8      -452.792    21670038.680    90033521.647 8      -452.792
G27  23139083.020   121596653.363 7       499.820    23139081.920   121596653.371 7       499.820    23139089.860    94750652.317 7       389.470    23139090.440    94750653.319 7       389.470
R18  21548504.140   115027350.638 7      1783.806    21548504.660   115027350.642 7      1783.806    21548513.940    89465775.703 8      1387.405    21548513.580    89465777.701 8      1387.405
R04  21280354.460   113955392.612 7      6040.321    21280355.380   113955392.645 7      6040.321    21280366.000    88632041.249 8      4698.027    21280365.540    88632042.257 8      4698.027
R03  21200708.380   113489054.962 7      2699.562    21200708.600   113489054.982 7      2699.562    21200718.680    88269304.675 8      2099.660    21200718.820    88269304.673 8      2099.660
G16  25277028.560   132831562.775 7      -829.699    25277027.120   132831562.780 4      -829.699    25277038.440   103505102.981 4      -646.519
R09  21430017.640   114435093.960 7      2809.388    21430018.560   114435093.964 7      2809.388    21430024.800    89005114.592 8      2185.079    21430025.420    89005116.588 8      2185.079
G32  25010221.140   131429600.148 6      2686.289    25010219.060   131429600.142 5      2686.289    25010231.480   102412715.383 5      2093.212    25010232.020   102412719.386 6      2093.212
> 2024 07 08 10 31 15.0000000  0 13
G02  21593861.840   113476497.134 8      2599.341    21593860.060   113476497.139 6      2599.341    21593861.600    88423242.760 6      2025.461
G03  21634611.460   113690668.480 7      5692.283    21634610.900   113690668.488 7      5692.283    21634616.400    88590168.659 7      4435.545    21634617.180    88590171.659 8      4435.545
G14  23552765.220   123770630.348 7      5468.317    23552764.240   123770630.361 5      5468.317    23552770.680    96444655.505 5      4261.026    23552770.640    96444676.505 7      4261.026
G08  20999214.280   110351601.468 8      1961.019    20999212.800   110351601.473 8      1961.019    20999218.560    85988276.074 8      1528.067    20999219.280    85988280.079 8      1528.067
G21  21431290.240   112622175.653 7      1654.319    21431286.320   112622175.658 6      1654.319    21431289.320    87757531.165 6      1289.080
R16  21670137.080   115757941.659 7      -582.828    21670136.860   115757941.652 7      -582.828    21670147.640    90033975.804 8      -453.311    21670147.520    90033974.803 8      -453.311
G27  23138987.860   121596153.833 7       499.370    23138986.920   121596153.835 7       499.370    23138994.920    94750263.064 7       389.120    23138995.560    94750264.060 7       389.120
R18  21548170.480   115025567.083 7      1783.613    21548170.540   115025567.079 7      1783.613    21548179.920    89464388.483 8      1387.255    21548179.400    89464390.485 8      1387.255
R04  21279226.480   113949352.956 7      6039.384    21279227.540   113949352.990 7      6039.384    21279238.020    88627343.741 8      4697.299    21279237.740    88627344.747 8      4697.299
R03  21200203.720   113486356.084 7      2698.460    21200204.540   113486356.104 7      2698.460    21200214.600    88267205.544 8      2098.802    21200214.360    88267205.546 8      2098.802
G16  25277186.380   132832392.571 7      -829.789    25277185.100   132832392.576 4      -829.789    25277196.380   103505749.563 4      -646.589
R09  21429491.220   114432285.198 7      2808.404    21429493.040   114432285.210 7      2808.404    21429498.960    89002930.001 8      2184.315    21429499.680    89002931.995 8      2184.315
G32  25009709.600   131426914.112 6      2685.865    25009707.780   131426914.107 5      2685.865    25009720.200   102410622.370 5      2092.882    25009721.480   102410626.373 6      2092.882
> 2024 07 08 10 31 16.0000000  0 13
G02  21593367.040   113473897.902 8      2599.190    21593365.440   113473897.909 6      2599.190    21593367.020    88421217.384 6      2025.343
G03  21633528.460   113684976.399 7      5691.858    21633527.680   113684976.404 7      5691.858    21633533.180    88585733.267 7      4435.214    21633534.020    88585736.265 8      4435.214
G14  23551724.760   123765162.321 7      5467.855    23551723.680   123765162.331 5      5467.855    23551730.060    96440394.706 5      4260.666    23551729.980    96440415.703 7      4260.666
G08  20998841.060   110349640.656 8      1960.709    20998839.640   110349640.661 8      1960.709    20998845.420    85986748.167 8      1527.826    20998846.180    85986752.172 8      1527.826
G21  21430975.320   112620521.436 7      1654.195    21430971.560   112620521.438 6      1654.195    21430974.440    87756242.163 6      1288.983
R16  21670246.500   115758524.687 7      -583.184    21670246.160   115758524.683 7      -583.184    21670256.840    90034429.266 8      -453.587    21670256.940    90034428.265 8      -453.587
G27  23138892.640   121595654.557 7       499.208    23138891.800   121595654.557 7       499.208    23138899.880    94749874.010 7       388.993    23138900.560    94749875.003 7       388.993
R18  21547836.300   115023783.557 7      1783.501    21547836.560   115023783.555 7      1783.501    21547845.880    89463001.298 8      1387.168    21547845.800    89463003.298 8      1387.168
R04  21278098.760   113943313.754 7      6039.060    21278099.740   113943313.788 7      6039.060    21278110.280    88622646.586 8      4697.047    21278109.840    88622647.585 8      4697.047
R03  21199699.800   113483658.047 7      2697.768    21199700.440   113483658.067 7      2697.768    21199710.360    88265107.077 8      2098.264    21199710.440    88265107.077 8      2098.264
G16  25277344.120   132833222.352 7      -829.744    25277343.060   132833222.357 4      -829.744    25277354.060   103506396.137 4      -646.554
R09  21428965.500   114429477.266 7      2807.583    21428967.100   114429477.275 7      2807.583    21428973.360    89000746.051 8      2183.676    21428973.620    89000748.044 8      2183.676
G32  25009198.740   131424228.608 6      2685.583    25009196.660   131424228.608 5      2685.583    25009209.240   102408529.769 5      2092.662    25009210.520   102408533.760 6      2092.662
> 2024 07 08 10 31 17.0000000  0 13
G02  21592872.680   113471298.811 7      2599.001    21592870.900   113471298.816 6      2599.001    21592872.520    88419192.116 6      2025.195
G03  21632445.080   113679284.773 7      5691.321    21632444.600   113679284.778 7      5691.321    21632450.120    88581298.235 7      4434.796    21632450.820    88581301.233 8      4434.796
G14  23550684.620   123759694.701 7      5467.398    23550683.260   123759694.711 5      5467.398    23550689.380    96436134.227 5      4260.310    23550689.640    96436155.226 7      4260.310
G08  20998468.040   110347680.244 8      1960.227    20998466.600   110347680.244 8      1960.227    20998472.380    85985220.571 8      1527.449    20998473.160    85985224.574 8      1527.449
G21  21430660.400   112618867.308 7      1654.052    21430656.640   112618867.313 6      1654.052    21430659.720    87754953.233 6      1288.871
R16  21670355.860   115759108.153 7      -583.747    21670355.360   115759108.151 7      -583.747    21670366.020    90034883.072 8      -454.025    21670366.200    90034882.070 8      -454.025
G27  23138797.580   121595155.578 7       498.750    23138796.860   121595155.586 7       498.750    23138805.020    94749485.198 7       388.637    23138805.200    94749486.191 7       388.637
R18  21547501.940   115022000.093 7      1783.368    21547502.200   115022000.088 7      1783.368    21547511.700    89461614.153 8      1387.064    21547511.640    89461616.155 8      1387.064
R04  21276970.760   113937275.052 7      6038.485    21276971.980   113937275.091 7      6038.485    21276982.720    88617949.828 8      4696.599    21276982.300    88617950.832 8      4696.599
R03  21199196.080   113480960.941 7      2696.634    21199196.500   113480960.964 7      2696.634    21199206.420    88263009.326 8      2097.382    21199206.460    88263009.326 8      2097.382
G16  25277502.060   132834052.125 7      -829.771    25277501.000   132834052.127 4      -829.771    25277512.160   103507042.699 4      -646.575
R09  21428439.960   114426670.177 7      2806.629    21428441.720   114426670.183 7      2806.629    21428447.700    88998562.760 8      2182.934    21428448.020    88998564.748 8      2182.934
G32  25008687.540   131421543.666 6      2684.571    25008685.900   131421543.673 5      2684.571    25008698.420   102406437.607 5      2091.873    25008699.740   102406441.595 6      2091.873
> 2024 07 08 10 31 18.0000000  0 13
G02  21592377.960   113468700.028 8      2598.740    21592376.420   113468700.036 6      2598.740    21592377.980    88417167.090 6      2024.992
G03  21631362.160   113673593.761 7      5690.740    21631361.600   113673593.766 7      5690.740    21631367.260    88576863.681 7      4434.343    21631368.000    88576866.681 8      4434.343
G14  23549644.140   123754227.664 7      5466.963    23549643.100   123754227.677 5      5466.963    23549649.100    96431874.203 5      4259.971    23549649.420    96431895.212 8      4259.971
G08  20998094.980   110345720.368 8      1959.799    20998093.740   110345720.371 8      1959.799    20998099.400    85983693.395 8      1527.116    20998100.420    85983697.396 8      1527.116
G21  21430345.500   112617213.454 7      1653.916    21430341.940   112617213.462 6      1653.916    21430344.920    87753664.517 6      1288.766
R16  21670465.400   115759692.160 7      -584.109    21670464.980   115759692.169 7      -584.109    21670475.200    90035337.301 7      -454.307    21670475.680    90035336.306 8      -454.307
G27  23138702.880   121594657.023 7       498.543    23138701.840   121594657.028 7       498.543    23138710.000    94749096.705 7       388.475    23138710.000    94749097.706 7       388.475
R18  21547168.020   115020216.831 7      1783.249    21547167.940   115020216.837 7      1783.249    21547177.880    89460227.180 8      1386.971    21547177.620    89460229.186 8      1386.971
R04  21275843.380   113931236.998 7      6037.859    21275844.480   113931237.045 7      6037.859    21275854.980    88613253.570 8      4696.113    21275854.680    88613254.586 8      4696.113
R03  21198692.620   113478264.882 7      2695.621    21198692.740   113478264.905 7      2695.621    21198702.700    88260912.389 8      2096.594    21198702.880    88260912.391 8      2096.594
G16  25277660.220   132834882.047 7      -829.846    25277658.900   132834882.047 4      -829.846    25277670.100   103507689.380 4      -646.633
R09  21427914.740   114423864.066 7      2805.719    21427916.260   114423864.069 7      2805.719    21427922.240    88996380.223 8      2182.226    21427922.500    88996382.211 8      2182.226
G32  25008177.120   131418859.331 6      2684.247    25008174.900   131418859.333 5      2684.247    25008187.660   102404345.913 5      2091.621    25008189.060   102404349.914 6      2091.621
> 2024 07 08 10 31 19.0000000  0 13
G02  21591883.600   113466101.405 7      2598.683    21591881.860   113466101.413 6      2598.683    21591883.500    88415142.193 6      2024.948
G03  21630279.400   113667903.217 7      5690.388    21630278.800   113667903.222 7      5690.388    21630284.340    88572429.491 7      4434.068    21630285.320    88572432.489 8      4434.068
G14  23548603.740   123748761.119 7      5466.489    23548602.820   123748761.126 5      5466.489    23548608.940    96427614.559 5      4259.602    23548608.860    96427635.551 7      4259.602
G08  20997722.080   110343760.918 8      1959.369    20997720.880   110343760.920 8      1959.369    20997726.600    85982166.548 8      1526.781    20997727.500    85982170.551 8      1526.781
G21  21430030.720   112615559.742 7      1653.807    21430027.260   112615559.747 6      1653.807    21430030.220    87752375.906 6      1288.681
R16  21670574.540   115760276.625 7      -584.444    21670574.660   115760276.623 7      -584.444    21670584.860    90035791.868 8      -454.567    21670585.140    90035790.875 8      -454.567
G27  23138607.880   121594158.798 7       498.221    23138607.240   121594158.803 7       498.221    23138615.180    94748708.473 7       388.224    23138615.500    94748709.475 7       388.224
R18  21546834.240   115018433.642 7      1783.286    21546833.840   115018433.642 7      1783.286    21546843.820    89458840.249 8      1387.000    21546843.520    89458842.253 8      1387.000
R04  21274715.760   113925199.466 7      6037.429    21274717.080   113925199.508 7      6037.429    21274727.580    88608557.708 8      4695.778    21274727.220    88608558.714 8      4695.778
R03  21198189.100   113475569.720 7      2694.850    21198189.060   113475569.743 7      2694.850    21198199.200    88258816.152 8      2095.994    21198199.280    88258816.154 8      2095.994
G16  25277818.000   132835711.980 7      -829.703    25277816.960   132835711.982 4      -829.703    25277828.040   103508336.068 4      -646.522
R09  21427389.620   114421058.828 7      2804.954    21427391.140   114421058.842 7      2804.954    21427397.100    88994198.371 8      2181.631    21427397.120    88994200.365 8      2181.631
G32  25007666.000   131416175.555 6      2683.788    25007664.060   131416175.555 5      2683.788    25007677.000   102402254.651 5      2091.264    25007678.280   102402258.658 6      2091.264
> 2024 07 08 10 31 20.0000000  0 13
G02  21591389.140   113463502.819 7      2598.431    21591387.500   113463502.827 6      2598.431    21591388.960    88413117.319 6      2024.752
G03  21629196.320   113662213.004 7      5689.937    21629195.880   113662213.012 7      5689.937    21629201.480    88567995.561 7      4433.717    21629202.520    88567998.558 8      4433.717
G14  23547563.800   123743294.865 7      5465.991    23547562.660   123743294.867 5      5465.991    23547568.620    96423355.143 5      4259.214    23547569.040    96423376.137 7      4259.214
G08  20997349.300   110341801.728 8      1958.912    20997347.980   110341801.730 8      1958.912    20997353.760    85980639.907 8      1526.425    20997354.600    85980643.908 8      1526.425
G21  21429716.180   112613906.006 7      1653.682    21429712.600   112613906.011 6      1653.682    21429715.580    87751087.280 6      1288.583
R16  21670683.860   115760861.349 7      -584.910    21670683.840   115760861.347 7      -584.910    21670694.220    90036246.649 8      -454.930    21670694.440    90036245.656 8      -454.930
G27  23138513.480   121593660.713 7       497.939    23138512.540   121593660.712 7       497.939    23138520.360    94748320.347 7       388.004    23138520.920    94748321.352 7       388.004
R18  21546500.040   115016650.383 7      1783.166    21546499.460   115016650.378 7      1783.166    21546509.740    89457453.265 8      1386.907    21546509.600    89457455.271 8      1386.907
R04  21273588.360   113919162.290 7      6036.903    21273589.380   113919162.335 7      6036.903    21273600.180    88603862.135 8      4695.369    21273599.900    88603863.137 8      4695.369
R03  21197685.680   113472875.315 7      2693.915    21197685.520   113472875.343 7      2693.915    21197696.000    88256720.505 8      2095.268    21197696.240    88256720.510 8      2095.268
G16  25277976.140   132836541.798 7      -829.776    25277974.860   132836541.800 4      -829.776    25277985.940   103508982.669 4      -646.578
R09  21426864.480   114418254.310 7      2803.947    21426865.680   114418254.327 7      2803.947    21426872.220    88992017.084 8      2180.848    21426872.220    88992019.078 8      2180.848
G32  25007155.280   131413492.216 6      2682.753    25007153.400   131413492.215 5      2682.753    25007166.340   102400163.739 5      2090.457    25007167.500   102400167.748 6      2090.457
> 2024 07 08 10 31 21.0000000  0 13
G02  21590894.620   113460904.748 7      2598.079    21590893.140   113460904.755 6      2598.079    21590894.500    88411092.844 6      2024.477
G03  21628113.820   113656523.651 7      5689.107    21628113.200   113656523.653 7      5689.107    21628118.920    88563562.294 7      4433.071    21628120.040    88563565.294 8      4433.071
G14  23546523.520   123737829.423 7      5465.206    23546522.580   123737829.425 5      5465.206    23546528.640    96419096.357 5      4258.602    23546528.740    96419117.359 7      4258.602
G08  20996976.620   110339843.305 8      1958.258    20996975.380   110339843.312 8      1958.258    20996981.080    85979113.863 8      1525.915    20996981.820    85979117.866 8      1525.915
G21  21429401.760   112612252.766 7      1653.229    21429397.880   112612252.774 6      1653.229    21429400.940    87749799.042 6      1288.230
R16  21670793.740   115761446.855 7      -585.626    21670793.500   115761446.859 7      -585.626    21670803.620    90036702.040 8      -455.487    21670804.240    90036701.044 8      -455.487
G27  23138418.680   121593163.308 7       497.330    23138417.780   121593163.310 7       497.330    23138425.760    94747932.750 7       387.530    23138426.740    94747933.752 7       387.530
R18  21546166.000   115014867.583 7      1782.689    21546165.260   115014867.583 7      1782.689    21546175.980    89456066.645 8      1386.536    21546175.280    89456068.651 8      1386.536
R04  21272460.580   113913126.025 7      6036.095    21272462.400   113913126.077 7      6036.095    21272472.980    88599167.266 8      4694.740    21272472.780    88599168.270 8      4694.740
R03  21197182.320   113470182.168 7      2692.810    21197182.520   113470182.191 7      2692.810    21197192.640    88254625.833 8      2094.408    21197193.080    88254625.836 8      2094.408
G16  25278134.040   132837371.996 7      -830.183    25278132.800   132837371.996 4      -830.183    25278143.940   103509629.565 4      -646.896
R09  21426339.440   114415451.010 7      2802.927    21426340.640   114415451.033 7      2802.927    21426347.260    88989836.744 8      2180.054    21426347.180    88989838.740 8      2180.054
G32  25006645.180   131410809.691 6      2682.254    25006642.940   131410809.691 5      2682.254    25006656.040   102398073.454 5      2090.068    25006656.440   102398077.453 6      2090.068
> 2024 07 08 10 31 22.0000000  0 13
G02  21590400.380   113458306.598 7      2598.059    21590398.660   113458306.603 6      2598.059    21590400.080    88409068.311 6      2024.461
G03  21627031.080   113650834.486 7      5688.887    21627030.640   113650834.494 7      5688.887    21627036.280    88559129.183 7      4432.899    21627037.400    88559132.183 8      4432.899
G14  23545483.620   123732364.165 7      5464.945    23545482.620   123732364.170 5      5464.945    23545488.460    96414837.722 5      4258.399    23545488.740    96414858.725 7      4258.399
G08  20996603.900   110337885.034 8      1958.081    20996602.740   110337885.039 8      1958.081    20996608.380    85977587.936 8      1525.777    20996609.160    85977591.941 8      1525.777
G21  21429087.360   112610599.403 7      1653.247    21429083.200   112610599.414 6      1653.247    21429086.280    87748510.707 6      1288.245
R16  21670903.300   115762032.537 7      -585.922    21670903.200   115762032.547 7      -585.922    21670913.260    90037157.569 7      -455.717    21670913.900    90037156.571 8      -455.717
G27  23138324.120   121592665.945 7       497.208    23138323.060   121592665.947 7       497.208    23138331.140    94747545.193 7       387.435    23138332.200    94747546.180 8       387.435
R18  21545831.640   115013084.561 7      1782.947    21545831.260   115013084.567 7      1782.947    21545841.940    89454679.853 8      1386.737    21545841.320    89454681.859 8      1386.737
R04  21271333.620   113907090.048 7      6035.770    21271335.520   113907090.085 7      6035.770    21271345.720    88594472.611 8      4694.488    21271345.480    88594473.613 8      4694.488
R03  21196679.600   113467489.658 7      2691.995    21196679.260   113467489.683 7      2691.995    21196689.720    88252531.661 8      2093.774    21196690.000    88252531.663 8      2093.774
G16  25278291.880   132838201.950 6      -830.031    25278290.720   132838201.955 4      -830.031    25278301.960   103510276.268 4      -646.777
R09  21425814.220   114412648.343 7      2802.246    21425815.600   114412648.363 7      2802.246    21425822.380    88987656.892 8      2179.525    21425822.520    88987658.888 8      2179.525
G32  25006134.460   131408127.479 6      2682.031    25006132.360   131408127.473 5      2682.031    25006145.540   102395983.413 5      2089.894    25006145.740   102395987.397 6      2089.894
> 2024 07 08 10 31 23.0000000  0 13
G02  21589905.940   113455708.753 7      2597.605    21589904.340   113455708.758 6      2597.605    21589905.820    88407044.014 6      2024.108
G03  21625948.620   113645145.960 7      5688.111    21625948.120   113645145.968 7      5688.111    21625953.820    88554696.563 7      4432.294    21625955.000    88554699.561 8      4432.294
G14  23544443.500   123726899.501 7      5464.280    23544442.820   123726899.511 5      5464.280    23544448.480    96410579.547 5      4257.880    23544448.980    96410600.547 7      4257.880
G08  20996231.200   110335927.321 8      1957.374    20996230.160   110335927.326 8      1957.374    20996235.820    85976062.445 8      1525.226    20996236.960    85976066.450 8      1525.226
G21  21428772.600   112608946.309 7      1652.876    21428768.540   112608946.316 6      1652.876    21428771.760    87747222.581 6      1287.955
R16  21671013.200   115762618.770 7      -586.569    21671013.080   115762618.774 7      -586.569    21671022.960    90037613.520 8      -456.220    21671023.600    90037612.527 8      -456.220
G27  23138229.320   121592169.042 7       496.582    23138228.460   121592169.041 7       496.582    23138236.660    94747157.990 7       386.947    23138237.240    94747158.973 7       386.947
R18  21545497.720   115011301.772 7      1782.584    21545497.200   115011301.778 7      1782.584    21545508.000    89453293.237 8      1386.454    21545507.500    89453295.245 8      1386.454
R04  21270206.940   113901054.725 7      6034.950    21270208.180   113901054.762 7      6034.950    21270218.740    88589778.473 8      4693.850    21270218.200    88589779.475 8      4693.850
R03  21196177.100   113464798.175 7      2690.879    21196176.740   113464798.198 7      2690.879    21196187.040    88250438.280 8      2092.906    21196187.300    88250438.284 8      2092.906
G16  25278449.740   132839032.056 6      -830.304    25278448.520   132839032.061 4      -830.304    25278459.840   103510923.092 4      -646.990
R09  21425289.840   114409846.715 7      2801.017    21425290.460   114409846.735 7      2801.017    21425298.000    88985477.847 8      2178.568    21425297.740    88985479.846 8      2178.568
G32  25005623.820   131405445.942 6      2681.053    25005621.880   131405445.934 5      2681.053    25005635.100   102393893.899 5      2089.132    25005635.900   102393897.896 6      2089.132
> 2024 07 08 10 31 24.0000000  0 13
G02  21589411.580   113453111.086 8      2597.600    21589410.080   113453111.091 6      2597.600    21589411.460    88405019.863 6      2024.104
G03  21624866.220   113639457.926 8      5687.783    21624865.720   113639457.928 7      5687.783    21624871.420    88550264.329 7      4432.039    21624872.400    88550267.326 7      4432.039
G14  23543403.580   123721435.315 7      5464.010    23543402.980   123721435.325 5      5464.010    23543408.640    96406321.742 5      4257.670    23543409.200    96406342.744 7      4257.670
G08  20995858.680   110333970.046 8      1957.045    20995857.680   110333970.051 8      1957.045    20995863.380    85974537.295 8      1524.970    20995864.440    85974541.298 8      1524.970
G21  21428458.100   112607293.374 8      1652.870    21428454.020   112607293.379 6      1652.870    21428457.140    87745934.576 6      1287.951
R16  21671122.760   115763205.441 7      -586.896    21671123.040   115763205.445 7      -586.896    21671132.860    90038069.819 8      -456.475    21671133.300    90038068.829 8      -456.475
G27  23138134.660   121591672.454 7       496.429    23138133.900   121591672.454 7       496.429    23138142.020    94746771.034 7       386.828    23138142.540    94746772.029 7       386.828
R18  21545163.860   115009519.084 7      1782.637    21545163.220   115009519.085 7      1782.637    21545173.940    89451906.702 8      1386.496    21545173.720    89451908.704 8      1386.496
R04  21269079.980   113895019.949 7      6034.508    21269080.920   113895019.998 7      6034.508    21269091.680    88585084.770 8      4693.506    21269091.460    88585085.774 8      4693.506
R03  21195674.480   113462107.611 7      2690.167    21195674.120   113462107.631 7      2690.167    21195684.420    88248345.619 8      2092.352    21195684.600    88248345.623 8      2092.352
G16  25278607.820   132839862.218 7      -830.298    25278606.480   132839862.226 4      -830.298    25278617.800   103511569.965 4      -646.985
R09  21424765.300   114407045.997 7      2800.261    21424765.540   114407046.003 7      2800.261    21424773.280    88983299.503 8      2177.981    21424773.420    88983301.499 8      2177.981
G32  25005113.460   131402764.967 6      2680.607    25005111.840   131402764.956 5      2680.607    25005125.040   102391804.822 5      2088.785    25005125.960   102391808.825 6      2088.785
> 2024 07 08 10 31 25.0000000  0 13
G02  21588917.460   113450513.635 7      2597.410    21588915.740   113450513.637 6      2597.410    21588917.300    88402995.871 6      2023.956
G03  21623783.860   113633770.406 7      5687.275    21623783.500   113633770.408 7      5687.275    21623789.080    88545832.497 7      4431.643    21623789.960    88545835.491 8      4431.643
G14  23542364.040   123715971.615 7      5463.595    23542363.240   123715971.625 5      5463.595    23542368.940    96402064.315 5      4257.346    23542369.600    96402085.318 7      4257.346
G08  20995486.560   110332013.215 8      1956.610    20995485.340   110332013.220 8      1956.610    20995491.020    85973012.492 8      1524.632    20995491.940    85973016.493 8      1524.632
G21  21428143.360   112605640.594 7      1652.733    21428139.580   112605640.602 6      1652.733    21428142.580    87744646.696 6      1287.844
R16  21671232.380   115763792.571 7      -587.351    21671232.840   115763792.572 7      -587.351    21671242.880    90038526.468 8      -456.828    21671243.120    90038525.475 8      -456.828
G27  23138040.160   121591176.205 7       496.112    23138039.620   121591176.208 7       496.112    23138047.520    94746384.341 7       386.581    23138047.620    94746385.346 7       386.581
R18  21544829.960   115007736.498 7      1782.611    21544828.800   115007736.501 7      1782.611    21544840.100    89450520.240 8      1386.475    21544839.820    89450522.242 8      1386.475
R04  21267952.960   113888985.726 7      6034.021    21267954.280   113888985.763 7      6034.021    21267964.960    88580391.484 8      4693.127    21267964.580    88580392.484 8      4693.127
R03  21195172.220   113459417.968 7      2689.280    21195171.780   113459417.996 7      2689.280    21195181.980    88246253.678 8      2091.662    21195182.080    88246253.680 8      2091.662
G16  25278765.680   132840692.403 6      -830.199    25278764.360   132840692.408 4      -830.199    25278775.920   103512216.848 4      -646.908
R09  21424241.000   114404246.141 7      2799.476    21424240.620   114404246.150 7      2799.476    21424248.980    88981121.841 8      2177.370    21424248.920    88981123.840 8      2177.370
G32  25004603.200   131400084.521 6      2680.247    25004601.760   131400084.513 5      2680.247    25004615.080   102389716.164 5      2088.504    25004615.680   102389720.159 6      2088.504
> 2024 07 08 10 31 26.0000000  0 13
G02  21588423.220   113447916.087 7      2597.506    21588421.320   113447916.092 6      2597.506    21588422.820    88400971.807 6      2024.031
G03  21622701.760   113628083.097 8      5687.152    21622701.200   113628083.099 7      5687.152    21622706.900    88541400.828 7      4431.547    21622707.680    88541403.825 7      4431.547
G14  23541324.320   123710508.144 7      5463.184    23541323.480   123710508.154 5      5463.184    23541329.380    96397807.071 5      4257.026    23541329.820    96397828.078 7      4257.026
G08  20995114.320   110330056.550 7      1956.465    20995113.020   110330056.550 8      1956.465    20995118.720    85971487.812 8      1524.518    20995119.660    85971491.817 8      1524.518
G21  21427828.840   112603987.694 7      1652.917    21427825.000   112603987.699 6      1652.917    21427828.180    87743358.722 6      1287.988
R16  21671342.500   115764379.894 7      -587.558    21671342.720   115764379.892 7      -587.558    21671352.800    90038983.268 8      -456.989    21671353.020    90038982.273 7      -456.989
G27  23137946.280   121590679.996 7       496.247    23137945.160   121590679.998 7       496.247    23137953.120    94745997.682 7       386.686    23137953.300    94745998.689 7       386.686
R18  21544496.260   115005953.711 7      1782.765    21544495.160   115005953.712 7      1782.765    21544506.280    89449133.628 8      1386.595    21544505.960    89449135.632 8      1386.595
R04  21266826.720   113882951.744 7      6033.714    21266827.420   113882951.784 7      6033.714    21266837.980    88575698.387 8      4692.889    21266837.700    88575699.389 8      4692.889
R03  21194669.780   113456728.977 7      2688.629    21194669.480   113456729.003 7      2688.629    21194679.580    88244162.237 8      2091.156    21194679.560    88244162.239 8      2091.156
G16  25278923.360   132841522.368 6      -829.875    25278922.200   132841522.373 4      -829.875    25278933.980   103512863.557 4      -646.656
R09  21423716.700   114401446.935 7      2798.752    21423716.140   114401446.952 7      2798.752    21423724.900    88978944.687 8      2176.807    21423724.720    88978946.685 8      2176.807
G32  25004093.140   131397404.419 6      2679.734    25004091.780   131397404.410 5      2679.734    25004105.200   102387627.771 5      2088.105    25004105.800   102387631.756 6      2088.105
> 2024 07 08 10 31 27.0000000  0 13
G02  21587928.800   113445318.712 7      2597.396    21587927.180   113445318.714 6      2597.396    21587928.560    88398947.879 6      2023.945
G03  21621619.720   113622396.271 7      5686.739    21621619.040   113622396.278 7      5686.739    21621624.780    88536969.539 7      4431.225    21621625.680    88536972.538 8      4431.225
G14  23540284.740   123705045.088 7      5462.909    23540284.040   123705045.103 5      5462.909    23540289.740    96393550.150 5      4256.812    23540290.260    96393571.157 7      4256.812
G08  20994741.820   110328100.269 8      1956.201    20994740.760   110328100.274 8      1956.201    20994746.440    85969963.441 8      1524.313    20994747.340    85969967.446 8      1524.313
G21  21427514.640   112602334.930 7      1652.828    21427510.480   112602334.937 6      1652.828    21427513.680    87742070.854 6      1287.918
R16  21671452.680   115764967.644 7      -587.850    21671452.760   115764967.645 7      -587.850    21671462.900    90039440.402 7      -457.216    21671462.980    90039439.410 7      -457.216
G27  23137851.400   121590184.120 7       495.828    23137850.720   121590184.125 7       495.828    23137858.740    94745611.283 7       386.360    23137859.300    94745612.287 7       386.360
R18  21544162.220   115004170.986 7      1782.922    21544161.060   115004170.984 7      1782.922    21544171.980    89447747.060 8      1386.717    21544171.700    89447749.062 8      1386.717
R04  21265699.860   113876918.274 7      6033.278    21265700.700   113876918.316 7      6033.278    21265711.280    88571005.693 8      4692.549    21265710.800    88571006.698 8      4692.549
R03  21194167.540   113454040.899 7      2687.707    21194167.340   113454040.930 7      2687.707    21194177.660    88242071.514 8      2090.439    21194177.440    88242071.516 8      2090.439
G16  25279081.260   132842352.348 6      -829.871    25279080.000   132842352.350 4      -829.871    25279091.940   103513510.277 4      -646.652
R09  21423192.580   114398648.614 7      2797.979    21423191.720   114398648.615 7      2797.979    21423200.620    88976768.209 8      2176.206    21423200.600    88976770.206 8      2176.206
G32  25003583.540   131394724.803 6      2679.347    25003581.880   131394724.792 5      2679.347    25003595.320   102385539.754 5      2087.802    25003596.200   102385543.741 6      2087.802
> 2024 07 08 10 31 28.0000000  0 13
G02  21587434.640   113442721.350 7      2597.220    21587433.000   113442721.353 6      2597.220    21587434.420    88396923.961 6      2023.808
G03  21620537.540   113616709.781 7      5686.172    21620536.920   113616709.791 7      5686.172    21620542.580    88532538.508 7      4430.784    21620543.360    88532541.505 8      4430.784
G14  23539245.000   123699582.360 7      5462.410    23539244.600   123699582.378 5      5462.410    23539250.280    96389293.482 5      4256.424    23539250.760    96389314.484 7      4256.424
G08  20994369.580   110326144.268 8      1955.731    20994368.560   110326144.273 8      1955.731    20994374.220    85968439.283 8      1523.946    20994375.280    85968443.286 8      1523.946
G21  21427200.060   112600682.156 7      1652.611    21427196.040   112600682.158 6      1652.611    21427199.080    87740782.974 6      1287.749
R16  21671562.640   115765555.676 7      -588.349    21671562.860   115765555.672 7      -588.349    21671572.780    90039897.753 8      -457.605    21671573.000    90039896.757 8      -457.605
G27  23137757.080   121589688.379 7       495.549    23137756.340   121589688.384 7       495.549    23137764.460    94745224.983 7       386.142    23137765.280    94745225.984 8       386.142
R18  21543827.860   115002388.231 7      1782.616    21543827.260   115002388.232 7      1782.616    21543838.000    89446360.471 8      1386.479    21543837.740    89446362.471 8      1386.479
R04  21264572.980   113870885.187 7      6032.695    21264574.160   113870885.229 7      6032.695    21264584.640    88566313.295 8      4692.096    21264584.380    88566314.299 8      4692.096
R03  21193665.920   113451353.595 7      2686.879    21193665.540   113451353.624 7      2686.879    21193675.640    88239981.384 8      2089.795    21193675.560    88239981.384 8      2089.795
G16  25279239.140   132843182.197 7      -830.032    25279237.820   132843182.202 4      -830.032    25279249.860   103514156.898 4      -646.779
R09  21422668.880   114395850.988 7      2797.042    21422667.540   114395850.989 7      2797.042    21422676.660    88974592.280 8      2175.477    21422676.980    88974594.281 8      2175.477
G32  25003074.060   131392045.591 6      2678.608    25003071.860   131392045.580 5      2678.608    25003085.400   102383452.055 5      2087.227    25003085.760   102383456.054 6      2087.227
> 2024 07 08 10 31 29.0000000  0 13
G02  21586940.460   113440124.170 8      2597.231    21586938.720   113440124.172 6      2597.231    21586940.260    88394900.180 6      2023.816
G03  21619455.480   113611023.759 8      5685.889    21619454.880   113611023.769 7      5685.889    21619460.600    88528107.845 7      4430.563    21619460.920    88528110.841 8      4430.563
G14  23538205.660   123694120.085 7      5462.158    23538205.040   123694120.103 5      5462.158    23538210.740    96385037.167 5      4256.227    23538211.100    96385058.170 7      4256.227
G08  20993997.600   110324188.688 8      1955.485    20993996.460   110324188.696 8      1955.485    20994002.140    85966915.454 8      1523.755    20994003.080    85966919.459 8      1523.755
G21  21426885.440   112599029.500 8      1652.693    21426881.480   112599029.504 6      1652.693    21426884.660    87739495.190 6      1287.813
R16  21671672.980   115766144.134 7      -588.529    21671673.040   115766144.119 7      -588.529    21671682.980    90040355.430 8      -457.745    21671682.980    90040354.435 8      -457.745
G27  23137662.740   121589192.960 7       495.452    23137662.080   121589192.963 7       495.452    23137670.120    94744838.934 7       386.067    23137670.920    94744839.929 7       386.067
R18  21543494.080   115000605.520 7      1782.775    21543493.300   115000605.528 7      1782.775    21543504.000    89444973.925 8      1386.603    21543503.820    89444975.930 8      1386.603
R04  21263446.480   113864852.657 7      6032.376    21263447.740   113864852.698 7      6032.376    21263458.140    88561621.332 8      4691.848    21263458.020    88561622.329 8      4691.848
R03  21193163.980   113448667.244 7      2685.957    21193164.120   113448667.278 7      2685.957    21193173.680    88237892.002 8      2089.077    21193173.800    88237892.004 8      2089.077
G16  25279397.440   132844012.046 6      -829.790    25279395.740   132844012.048 4      -829.790    25279407.800   103514803.521 4      -646.590
R09  21422145.280   114393054.230 7      2796.439    21422144.160   114393054.228 7      2796.439    21422152.900    88972417.019 8      2175.008    21422153.140    88972419.022 8      2175.008
G32  25002564.540   131389366.837 6      2678.881    25002562.140   131389366.826 5      2678.881    25002575.840   102381364.708 5      2087.440    25002576.360   102381368.709 6      2087.440
> 2024 07 08 10 31 30.0000000  0 13
G02  21586446.420   113437527.205 7      2596.953    21586444.500   113437527.207 6      2596.953    21586446.040    88392876.571 6      2023.600
G03  21618373.560   113605338.281 7      5685.301    21618373.000   113605338.289 7      5685.301    21618378.660    88523677.601 7      4430.105    21618379.300    88523680.598 8      4430.105
G14  23537166.480   123688658.303 7      5461.696    23537165.720   123688658.321 5      5461.696    23537171.280    96380781.233 5      4255.867    23537171.640    96380802.244 7      4255.867
G08  20993625.520   110322233.573 8      1954.956    20993624.420   110322233.578 8      1954.956    20993630.000    85965391.986 8      1523.342    20993630.980    85965395.987 8      1523.342
G21  21426571.000   112597377.041 8      1652.385    21426567.020   112597377.053 6      1652.385    21426570.120    87738207.561 6      1287.573
R16  21671783.500   115766733.051 7      -589.069    21671783.140   115766733.044 7      -589.069    21671793.260    90040813.476 8      -458.165    21671793.300    90040812.476 8      -458.165
G27  23137568.520   121588697.902 7       494.989    23137567.900   121588697.904 7       494.989    23137575.900    94744453.170 7       385.705    23137576.660    94744454.157 7       385.705
R18  21543160.160   114998822.957 7      1782.566    21543159.860   114998822.963 7      1782.566    21543169.880    89443587.480 8      1386.441    21543169.880    89443589.480 8      1386.441
R04  21262320.420   113858820.742 7      6031.732    21262321.560   113858820.773 7      6031.732    21262331.760    88556929.834 8      4691.347    21262331.360    88556930.836 8      4691.347
R03  21192661.940   113445981.792 7      2685.076    21192662.040   113445981.823 7      2685.076    21192672.040    88235803.315 8      2088.392    21192671.820    88235803.315 8      2088.392
G16  25279555.440   132844841.971 6      -829.895    25279553.640   132844841.968 4      -829.895    25279565.740   103515450.200 4      -646.672
R09  21421621.600   114390258.398 7      2795.497    21421620.560   114390258.396 7      2795.497    21421629.260    88970242.481 8      2174.275    21421629.520    88970244.484 8      2174.275
G32  25002054.580   131386688.781 5      2677.933    25002052.560   131386688.770 5      2677.933    25002066.080   102379277.909 5      2086.701    25002066.060   102379281.900 6      2086.701
> 2024 07 08 10 31 31.0000000  0 13
G02  21585952.080   113434930.214 7      2596.947    21585950.280   113434930.219 6      2596.947    21585951.720    88390852.941 6      2023.595
G03  21617291.740   113599653.089 7      5684.984    21617291.180   113599653.089 7      5684.984    21617296.900    88519247.575 7      4429.858    21617297.520    88519250.573 8      4429.858
G14  23536127.260   123683196.818 7      5461.239    23536126.520   123683196.834 5      5461.239    23536131.980    96376525.533 5      4255.511    23536132.640    96376546.538 7      4255.511
G08  20993253.400   110320278.663 7      1954.805    20993252.340   110320278.666 8      1954.805    20993258.080    85963868.675 8      1523.225    20993259.220    85963872.682 8      1523.225
G21  21426256.320   112595724.508 7      1652.538    21426252.600   112595724.513 6      1652.538    21426255.620    87736919.867 6      1287.692
R16  21671893.780   115767322.179 7      -589.307    21671893.700   115767322.177 7      -589.307    21671903.460    90041271.689 8      -458.350    21671903.660    90041270.686 8      -458.350
G27  23137474.380   121588202.975 7       494.675    23137473.740   121588202.974 7       494.675    23137481.820    94744067.500 7       385.461    23137481.940    94744068.492 7       385.461
R18  21542826.080   114997040.248 7      1782.734    21542825.800   114997040.257 7      1782.734    21542835.940    89442200.928 8      1386.571    21542835.860    89442202.934 8      1386.571
R04  21261193.940   113852789.151 7      6031.252    21261194.700   113852789.196 7      6031.252    21261205.440    88552238.607 8      4690.973    21261205.180    88552239.613 8      4690.973
R03  21192160.800   113443297.068 7      2684.270    21192160.500   113443297.096 7      2684.270    21192170.640    88233715.194 8      2087.766    21192170.720    88233715.194 8      2087.766
G16  25279713.760   132845671.704 6      -829.743    25279711.600   132845671.701 4      -829.743    25279723.540   103516096.731 4      -646.553
R09  21421097.680   114387463.217 7      2794.806    21421097.140   114387463.213 7      2794.806    21421106.040    88968068.452 8      2173.738    21421106.300    88968070.451 8      2173.738
G32  25001545.020   131384011.031 5      2677.307    25001543.040   131384011.028 5      2677.307    25001556.460   102377191.352 5      2086.214    25001556.620   102377195.360 6      2086.214
> 2024 07 08 10 31 32.0000000  0 13
G02  21585457.760   113432333.404 7      2596.566    21585456.180   113432333.403 6      2596.566    21585457.680    88388829.453 6      2023.298
G03  21616209.920   113593968.368 7      5684.364    21616209.320   113593968.376 7      5684.364    21616215.080    88514817.926 7      4429.375    21616215.660    88514820.924 8      4429.375
G14  23535088.000   123677735.767 7      5460.702    23535087.200   123677735.777 5      5460.702    23535092.840    96372270.168 5      4255.092    23535093.320    96372291.175 7      4255.092
G08  20992881.540   110318324.192 7      1954.110    20992880.520   110318324.197 8      1954.110    20992886.080    85962345.711 8      1522.683    20992887.180    85962349.716 8      1522.683
G21  21425941.980   112594072.136 8      1652.115    21425938.320   112594072.140 6      1652.115    21425941.260    87735632.302 6      1287.363
R16  21672004.140   115767911.724 7      -589.889    21672004.040   115767911.722 7      -589.889    21672013.920    90041730.214 8      -458.802    21672014.040    90041729.213 8      -458.802
G27  23137380.560   121587708.326 7       494.299    23137379.700   121587708.326 7       494.299    23137387.740    94743682.062 7       385.168    23137387.600    94743683.068 7       385.168
R18  21542492.460   114995257.638 7      1782.417    21542492.400   114995257.657 7      1782.417    21542501.960    89440814.453 8      1386.324    21542501.960    89440816.462 8      1386.324
R04  21260067.600   113846758.070 7      6030.694    21260068.600   113846758.106 7      6030.694    21260079.160    88547547.762 8      4690.540    21260079.040    88547548.761 8      4690.540
R03  21191659.140   113440613.262 7      2683.236    21191659.020   113440613.293 7      2683.236    21191669.340    88231627.789 8      2086.961    21191669.200    88231627.790 8      2086.961
G16  25279871.440   132846501.459 7      -829.819    25279869.540   132846501.461 4      -829.819    25279881.500   103516743.276 4      -646.612
R09  21420574.820   114384668.921 7      2793.765    21420574.160   114384668.919 7      2793.765    21420582.600    88965895.110 8      2172.929    21420582.800    88965897.109 8      2172.929
G32  25001035.880   131381333.808 6      2676.779    25001033.620   131381333.808 5      2676.779    25001047.000   102375105.207 5      2085.802    25001047.620   102375109.208 6      2085.802
> 2024 07 08 10 31 33.0000000  0 13
G02  21584963.620   113429736.833 7      2596.583    21584961.920   113429736.838 6      2596.583    21584963.480    88386806.151 6      2023.311
G03  21615128.040   113588284.209 7      5684.064    21615127.840   113588284.217 7      5684.064    21615133.460    88510388.711 7      4429.141    21615134.100    88510391.711 8      4429.141
G14  23534049.000   123672275.249 7      5460.427    23534048.220   123672275.262 5      5460.427    23534053.700    96368015.225 5      4254.878    23534054.160    96368036.234 7      4254.878
G08  20992509.860   110316370.194 8      1953.991    20992508.680   110316370.196 8      1953.991    20992514.320    85960823.111 8      1522.590    20992515.160    85960827.116 8      1522.590
G21  21425627.560   112592419.939 7      1652.342    21425623.880   112592419.942 6      1652.342    21425626.820    87734344.875 6      1287.539
R16  21672114.360   115768501.760 7      -590.122    21672114.420   115768501.758 7      -590.122    21672124.400    90042189.124 7      -458.984    21672124.320    90042188.126 8      -458.984
G27  23137286.540   121587214.058 7       494.362    23137285.660   121587214.061 7       494.362    23137293.720    94743296.910 7       385.217    23137293.980    94743297.916 7       385.217
R18  21542158.800   114993475.174 7      1782.658    21542158.800   114993475.183 7      1782.658    21542167.820    89439428.084 8      1386.512    21542168.080    89439430.093 8      1386.512
R04  21258941.520   113840727.595 7      6030.312    21258942.620   113840727.629 7      6030.312    21258952.880    88542857.395 8      4690.243    21258952.920    88542858.389 8      4690.243
R03  21191158.120   113437930.468 7      2682.500    21191157.960   113437930.493 7      2682.500    21191168.120    88229541.165 8      2086.389    21191168.280    88229541.168 8      2086.389
G16  25280029.100   132847331.305 6      -829.610    25280027.420   132847331.310 4      -829.610    25280039.420   103517389.902 4      -646.449
R09  21420051.520   114381875.580 7      2792.982    21420051.400   114381875.573 7      2792.982    21420059.700    88963722.505 8      2172.319    21420059.760    88963724.498 8      2172.319
G32  25000526.280   131378657.200 6      2676.370    25000524.520   131378657.203 5      2676.370    25000537.640   102373019.539 5      2085.483    25000538.840   102373023.546 6      2085.483
> 2024 07 08 10 31 34.0000000  0 13
G02  21584469.600   113427140.409 8      2596.089    21584467.780   113427140.414 6      2596.089    21584469.440    88384782.966 6      2022.926
G03  21614046.620   113582600.507 7      5683.293    21614046.140   113582600.515 7      5683.293    21614051.940    88505959.853 7      4428.540    21614052.320    88505962.852 8      4428.540
G14  23533009.780   123666815.175 7      5459.640    23533009.200   123666815.191 5      5459.640    23533014.560    96363760.624 5      4254.265    23533015.040    96363781.635 7      4254.265
G08  20992138.240   110314416.595 7      1953.220    20992136.900   110314416.597 8      1953.220    20992142.580    85959300.828 8      1521.989    20992143.400    85959304.831 8      1521.989
G21  21425313.540   112590767.887 7      1651.777    21425309.500   112590767.892 6      1651.777    21425312.460    87733057.564 6      1287.099
R16  21672224.780   115769092.202 7      -590.791    21672224.960   115769092.195 7      -590.791    21672235.180    90042648.349 8      -459.504    21672234.900    90042647.348 8      -459.504
G27  23137192.740   121586720.093 7       493.638    23137191.700   121586720.093 7       493.638    23137199.700    94742911.998 7       384.653    23137200.200    94742913.001 7       384.653
R18  21541824.760   114991692.764 7      1782.179    21541824.980   114991692.775 7      1782.179    21541833.940    89438041.765 8      1386.139    21541834.200    89438043.772 8      1386.139
R04  21257815.560   113834697.611 7      6029.494    21257816.480   113834697.640 7      6029.494    21257827.020    88538167.405 8      4689.606    21257826.940    88538168.407 8      4689.606
R03  21190656.620   113435248.557 7      2681.220    21190656.660   113435248.585 7      2681.220    21190666.900    88227455.239 8      2085.393    21190666.880    88227455.241 8      2085.393
G16  25280187.360   132848161.191 6      -830.057    25280185.400   132848161.198 4      -830.057    25280197.480   103518036.553 4      -646.798
R09  21419528.900   114379083.085 7      2791.839    21419528.400   114379083.076 7      2791.839    21419537.160    88961550.565 8      2171.430    21419536.680    88961552.556 8      2171.430
G32  25000016.680   131375981.103 6      2675.704    25000015.460   131375981.107 5      2675.704    25000028.280   102370934.264 5      2084.964    25000029.020   102370938.269 6      2084.964
> 2024 07 08 10 31 35.0000000  0 13
G02  21583975.520   113424544.346 8      2596.188    21583973.760   113424544.350 6      2596.188    21583975.380    88382760.057 6      2023.003
G03  21612965.200   113576917.483 7      5683.021    21612964.700   113576917.485 7      5683.021    21612970.320    88501531.522 7      4428.328    21612970.720    88501534.520 8      4428.328
G14  23531970.940   123661355.751 7      5459.339    23531970.180   123661355.763 5      5459.339    23531975.560    96359506.529 5      4254.030    23531976.180    96359527.538 7      4254.030
G08  20991766.420   110312463.595 8      1953.006    20991765.280   110312463.603 8      1953.006    20991770.980    85957779.012 8      1521.823    20991771.800    85957783.017 8      1521.823
G21  21424999.060   112589116.130 8      1651.974    21424995.020   112589116.135 6      1651.974    21424998.200    87731770.478 6      1287.252
R16  21672335.520   115769683.301 7      -591.138    21672335.660   115769683.297 7      -591.138    21672345.560    90043108.097 8      -459.774    21672345.720    90043107.092 8      -459.774
G27  23137098.900   121586226.622 7       493.505    23137097.780   121586226.626 7       493.505    23137105.660    94742527.475 7       384.550    23137106.400    94742528.474 7       384.550
R18  21541490.700   114989910.623 7      1782.294    21541491.340   114989910.632 7      1782.294    21541499.940    89436655.654 8      1386.229    21541500.180    89436657.662 8      1386.229
R04  21256689.800   113828668.350 7      6029.260    21256690.480   113828668.384 7      6029.260    21256701.080    88533477.988 8      4689.425    21256700.800    88533478.994 8      4689.425
R03  21190155.660   113432567.727 7      2680.596    21190156.120   113432567.758 7      2680.596    21190166.240    88225370.149 8      2084.908    21190166.320    88225370.153 8      2084.908
G16  25280344.980   132848991.258 7      -829.910    25280343.500   132848991.263 4      -829.910    25280355.420   103518683.345 4      -646.683
R09  21419006.000   114376291.694 7      2791.226    21419005.900   114376291.689 7      2791.226    21419014.320    88959379.487 8      2170.954    21419014.180    88959381.477 8      2170.954
G32  24999508.200   131373305.717 6      2675.505    24999506.380   131373305.719 5      2675.505    24999519.280   102368849.543 5      2084.809    24999520.220   102368853.561 6      2084.809
> 2024 07 08 10 31 36.0000000  0 13
G02  21583481.600   113421948.169 8      2596.126    21583479.820   113421948.174 6      2596.126    21583481.280    88380737.062 6      2022.956
G03  21611883.840   113571234.656 7      5682.576    21611883.340   113571234.659 7      5682.576    21611889.020    88497103.346 7      4427.981    21611889.620    88497106.341 8      4427.981
G14  23530932.140   123655896.507 7      5458.897    23530931.360   123655896.520 5      5458.897    23530936.660    96355252.575 5      4253.686    23530937.180    96355273.584 7      4253.686
G08  20991394.880   110310510.743 8      1952.659    20991393.720   110310510.745 8      1952.659    20991399.340    85956257.302 8      1521.552    20991400.380    85956261.305 8      1521.552
G21  21424684.840   112587464.262 7      1651.712    21424680.820   112587464.270 6      1651.712    21424683.900    87730483.308 6      1287.048
R16  21672446.460   115770274.587 7      -591.535    21672446.280   115770274.580 7      -591.535    21672456.440    90043567.978 7      -460.083    21672456.520    90043566.977 8      -460.083
G27  23137005.020   121585733.195 7       493.139    23137003.880   121585733.205 7       493.139    23137011.820    94742142.982 7       384.264    23137012.600    94742143.982 7       384.264
R18  21541157.040   114988128.304 7      1782.246    21541157.900   114988128.310 7      1782.246    21541166.140    89435269.399 8      1386.192    21541166.120    89435271.403 8      1386.192
R04  21255563.400   113822639.375 7      6028.725    21255564.260   113822639.415 7      6028.725    21255575.180    88528788.794 8      4689.008    21255575.200    88528789.798 8      4689.008
R03  21189654.780   113429887.516 7      2679.734    21189655.600   113429887.549 7      2679.734    21189665.480    88223285.540 8      2084.237    21189665.560    88223285.545 8      2084.237
G16  25280503.080   132849821.067 6      -829.864    25280501.440   132849821.072 4      -829.864    25280513.300   103519329.933 4      -646.647
R09  21418483.380   114373500.911 7      2790.338    21418483.080   114373500.914 7      2790.338    21418492.020    88957208.882 8      2170.263    21418491.860    88957210.872 8      2170.263
G32  24998999.380   131370630.659 6      2674.752    24998997.320   131370630.662 5      2674.752    24999010.180   102366765.081 5      2084.222    24999011.400   102366769.082 6      2084.222
> 2024 07 08 10 31 37.0000000  0 13
G02  21582987.460   113419352.108 7      2596.027    21582985.800   113419352.113 6      2596.027    21582987.440    88378714.155 6      2022.878
G03  21610802.640   113565552.237 7      5682.176    21610802.020   113565552.244 7      5682.176    21610807.680    88492675.488 7      4427.669    21610808.660    88492678.496 8      4427.669
G14  23529893.140   123650437.637 7      5458.691    23529892.500   123650437.649 5      5458.691    23529897.760    96350998.910 5      4253.526    23529898.440    96351019.919 7      4253.526
G08  20991023.060   110308558.240 8      1952.297    20991022.180   110308558.242 8      1952.297    20991027.800    85954735.869 8      1521.271    20991028.840    85954739.874 8      1521.271
G21  21424370.300   112585812.428 7      1651.821    21424366.580   112585812.436 6      1651.821    21424369.600    87729196.163 6      1287.133
R16  21672557.040   115770866.239 7      -591.825    21672557.220   115770866.230 7      -591.825    21672567.160    90044028.143 8      -460.308    21672567.280    90044027.145 8      -460.308
G27  23136911.200   121585239.986 7       493.131    23136910.100   121585239.986 7       493.131    23136917.980    94741758.654 7       384.258    23136918.520    94741759.651 7       384.258
R18  21540823.040   114986345.971 7      1782.375    21540823.740   114986345.977 7      1782.375    21540832.080    89433883.136 8      1386.292    21540832.180    89433885.142 8      1386.292
R04  21254437.940   113816610.843 7      6028.396    21254438.760   113816610.882 7      6028.396    21254449.400    88524099.937 8      4688.752    21254449.100    88524100.937 8      4688.752
R03  21189154.500   113427208.113 7      2679.035    21189155.000   113427208.152 7      2679.035    21189164.900    88221201.562 8      2083.694    21189165.060    88221201.569 8      2083.694
G16  25280660.820   132850650.798 7      -829.596    25280659.460   132850650.805 4      -829.596    25280671.080   103519976.466 4      -646.438
R09  21417960.820   114370710.923 7      2789.674    21417960.600   114370710.924 7      2789.674    21417969.540    88955038.890 8      2169.747    21417969.140    88955040.882 8      2169.747
G32  24998490.040   131367956.030 6      2674.237    24998488.480   131367956.032 5      2674.237    24998501.300   102364680.952 5      2083.821    24998502.180   102364684.965 6      2083.821
> 2024 07 08 10 31 38.0000000  0 13
G02  21582493.460   113416756.202 7      2595.686    21582491.820   113416756.204 6      2595.686    21582493.320    88376691.371 6      2022.613
G03  21609721.360   113559870.287 7      5681.570    21609720.640   113559870.295 7      5681.570    21609726.440    88488247.995 7      4427.198    21609727.100    88488250.999 8      4427.198
G14  23528854.820   123644979.223 7      5458.053    23528853.680   123644979.239 5      5458.053    23528859.000    96346745.603 5      4253.028    23528859.640    96346766.614 7      4253.028
G08  20990651.700   110306606.136 8      1951.769    20990650.700   110306606.138 8      1951.769    20990656.340    85953214.749 8      1520.859    20990657.280    85953218.752 8      1520.859
G21  21424056.140   112584160.729 7      1651.509    21424052.140   112584160.736 6      1651.509    21424055.160    87727909.126 6      1286.890
R16  21672667.980   115771458.268 7      -592.381    21672667.840   115771458.264 7      -592.381    21672677.880    90044488.604 7      -460.741    21672678.300    90044487.605 8      -460.741
G27  23136817.400   121584747.103 7       492.497    23136816.280   121584747.105 7       492.497    23136824.260    94741374.585 7       383.764    23136824.460    94741375.584 7       383.764
R18  21540489.060   114984563.702 7      1782.154    21540490.100   114984563.706 7      1782.154    21540498.360    89432496.923 8      1386.120    21540498.140    89432498.927 8      1386.120
R04  21253311.960   113810582.802 7      6027.753    21253313.180   113810582.841 7      6027.753    21253323.860    88519411.468 8      4688.252    21253323.260    88519412.463 8      4688.252
R03  21188654.100   113424529.625 7      2677.942    21188655.180   113424529.659 7      2677.942    21188664.460    88219118.288 8      2082.844    21188664.620    88219118.292 8      2082.844
G16  25280818.580   132851480.581 6      -829.873    25280817.240   132851480.589 4      -829.873    25280829.060   103520623.038 4      -646.654
R09  21417438.800   114367921.796 7      2788.549    21417438.020   114367921.802 7      2788.549    21417447.280    88952869.573 8      2168.871    21417446.900    88952871.569 8      2168.871
G32  24997981.560   131365281.885 6      2673.923    24997979.700   131365281.884 5      2673.923    24997992.300   102362597.204 5      2083.577    24997993.200   102362601.205 6      2083.577
> 2024 07 08 10 31 39.0000000  0 13
G02  21581999.700   113414160.782 8      2595.402    21581998.020   113414160.789 6      2595.402    21581999.480    88374668.970 6      2022.391
G03  21608640.340   113554189.174 7      5680.835    21608639.640   113554189.179 7      5680.835    21608645.380    88483821.153 7      4426.625    21608646.040    88483824.153 8      4426.625
G14  23527816.240   123639521.627 7      5457.253    23527815.160   123639521.640 5      5457.253    23527820.360    96342492.933 5      4252.405    23527820.920    96342513.940 7      4252.405
G08  20990280.420   110304654.789 8      1951.055    20990279.280   110304654.796 8      1951.055    20990285.020    85951694.219 8      1520.302    20990286.140    85951698.228 8      1520.302
G21  21423741.880   112582509.513 7      1651.102    21423737.960   112582509.523 6      1651.102    21423741.000    87726622.464 6      1286.573
R16  21672778.640   115772051.028 7      -592.895    21672779.020   115772051.019 7      -592.895    21672788.900    90044949.633 7      -461.140    21672789.200    90044948.631 8      -461.140
G27  23136723.620   121584254.851 7       492.001    23136722.620   121584254.853 7       492.001    23136730.560    94740991.008 7       383.377    23136730.720    94740992.007 7       383.377
R18  21540155.120   114982781.852 7      1781.776    21540156.220   114982781.864 7      1781.776    21540164.580    89431111.044 8      1385.826    21540164.720    89431113.046 8      1385.826
R04  21252186.160   113804555.624 7      6026.877    21252187.480   113804555.674 7      6026.877    21252198.300    88514723.671 8      4687.571    21252197.920    88514724.679 8      4687.571
R03  21188154.220   113421852.382 7      2676.833    21188155.300   113421852.410 7      2676.833    21188164.240    88217035.983 8      2081.981    21188164.500    88217035.988 8      2081.981
G16  25280976.680   132852310.717 7      -830.306    25280975.240   132852310.724 4      -830.306    25280986.940   103521269.887 4      -646.991
R09  21416916.300   114365133.880 7      2787.506    21416915.880   114365133.887 7      2787.506    21416925.000    88950701.192 8      2168.060    21416925.020    88950703.188 8      2168.060
G32  24997473.100   131362608.690 6      2672.909    24997471.080   131362608.690 5      2672.909    24997483.660   102360514.192 5      2082.786    24997484.900   102360518.195 6      2082.786
> 2024 07 08 10 31 40.0000000  0 13
G02  21581505.940   113411565.677 7      2595.006    21581504.180   113411565.687 6      2595.006    21581505.680    88372646.809 6      2022.083
G03  21607559.300   113548508.646 7      5680.273    21607558.700   113548508.651 7      5680.273    21607564.440    88479394.766 7      4426.187    21607565.080    88479397.766 8      4426.187
G14  23526777.820   123634064.557 7      5456.898    23526776.560   123634064.567 5      5456.898    23526781.840    96338240.668 5      4252.129    23526782.180    96338261.683 7      4252.129
G08  20989909.300   110302703.954 8      1950.702    20989908.140   110302703.956 8      1950.702    20989913.800    85950174.086 8      1520.028    20989914.800    85950178.093 8      1520.028
G21  21423427.640   112580858.520 7      1651.012    21423423.760   112580858.527 6      1651.012    21423426.700    87725335.974 6      1286.503
R16  21672889.540   115772644.304 7      -593.445    21672889.680   115772644.303 7      -593.445    21672900.080    90045411.070 7      -461.568    21672899.920    90045410.069 8      -461.568
G27  23136630.080   121583763.024 7       491.561    23136628.900   121583763.029 7       491.561    23136637.040    94740607.760 7       383.035    23136637.420    94740608.759 7       383.035
R18  21539821.440   114981000.203 7      1781.580    21539822.280   114981000.217 7      1781.580    21539830.820    89429725.319 8      1385.674    21539830.660    89429727.323 8      1385.674
R04  21251060.520   113798529.102 7      6026.266    21251062.480   113798529.147 7      6026.266    21251072.800    88510036.374 8      4687.096    21251072.740    88510037.384 8      4687.096
R03  21187654.240   113419176.183 7      2675.768    21187655.600   113419176.211 7      2675.768    21187664.300    88214954.495 8      2081.153    21187664.400    88214954.497 8      2081.153
G16  25281134.480   132853140.931 7      -830.287    25281133.240   132853140.938 4      -830.287    25281145.040   103521916.797 4      -646.977
R09  21416394.240   114362346.931 7      2786.586    21416394.020   114362346.930 7      2786.586    21416403.160    88948533.561 8      2167.345    21416403.040    88948535.555 8      2167.345
G32  24996964.560   131359936.089 6      2672.344    24996962.580   131359936.092 5      2672.344    24996975.200   102358431.648 5      2082.346    24996975.960   102358435.649 6      2082.346
> 2024 07 08 10 31 41.0000000  0 13
G02  21581012.140   113408970.775 7      2594.827    21581010.320   113408970.782 6      2594.827    21581011.880    88370624.807 6      2021.943
G03  21606478.560   113542828.644 7      5679.746    21606477.820   113542828.651 7      5679.746    21606483.500    88474968.794 7      4425.776    21606484.260    88474971.794 8      4425.776
G14  23525739.280   123628608.027 7      5456.339    23525738.100   123628608.040 5      5456.339    23525743.420    96333988.829 5      4251.693    23525743.740    96334009.834 7      4251.693
G08  20989538.100   110300753.621 8      1950.057    20989536.960   110300753.621 8      1950.057    20989542.680    85948654.342 8      1519.525    20989543.900    85948658.351 8      1519.525
G21  21423113.500   112579207.740 8      1650.744    21423109.720   112579207.747 6      1650.744    21423112.680    87724049.656 6      1286.294
R16  21673000.460   115773238.093 7      -594.077    21673000.640   115773238.089 7      -594.077    21673011.260    90045872.904 8      -462.060    21673011.040    90045871.899 8      -462.060
G27  23136536.460   121583271.531 7       491.426    23136535.400   121583271.536 7       491.426    23136543.500    94740224.776 7       382.929    23136543.940    94740225.772 7       382.929
R18  21539487.700   114979218.684 7      1781.449    21539488.680   114979218.693 7      1781.449    21539497.240    89428339.687 8      1385.572    21539497.060    89428341.687 8      1385.572
R04  21249935.700   113792503.201 7      6025.672    21249937.180   113792503.240 7      6025.672    21249947.520    88505349.560 8      4686.634    21249947.180    88505350.566 8      4686.634
R03  21187155.160   113416500.947 7      2674.806    21187155.660   113416500.978 7      2674.806    21187164.740    88212873.758 8      2080.405    21187164.820    88212873.763 8      2080.405
G16  25281292.460   132853971.255 7      -830.407    25281291.300   132853971.260 4      -830.407    25281302.900   103522563.790 4      -647.070
R09  21415872.680   114359560.960 7      2785.522    21415871.960   114359560.950 7      2785.522    21415881.500    88946366.692 8      2166.517    21415881.060    88946368.690 8      2166.517
G32  24996456.100   131357264.140 6      2671.478    24996454.260   131357264.143 5      2671.478    24996466.880   102356349.607 5      2081.671    24996466.820   102356353.608 6      2081.671
> 2024 07 08 10 31 42.0000000  0 13
G02  21580518.280   113406375.786 7      2595.145    21580516.400   113406375.796 6      2595.145    21580518.020    88368602.739 6      2022.191
G03  21605397.560   113537148.880 7      5679.714    21605397.000   113537148.890 7      5679.714    21605402.880    88470543.009 7      4425.751    21605403.780    88470546.011 8      4425.751
G14  23524700.860   123623151.701 7      5456.408    23524699.820   123623151.708 5      5456.408    23524704.980    96329737.146 5      4251.746    23524705.360    96329758.157 7      4251.746
G08  20989166.880   110298803.409 8      1950.202    20989165.900   110298803.419 8      1950.202    20989171.560    85947134.705 8      1519.638    20989172.540    85947138.716 8      1519.638
G21  21422799.220   112577556.836 8      1651.098    21422795.540   112577556.841 6      1651.098    21422798.480    87722763.232 6      1286.570
R16  21673111.920   115773832.055 7      -593.875    21673112.100   115773832.046 7      -593.875    21673122.360    90046334.866 8      -461.903    21673122.160    90046333.865 8      -461.903
G27  23136442.920   121582780.141 7       491.440    23136442.000   121582780.143 7       491.440    23136449.960    94739841.866 7       382.940    23136450.700    94739842.858 7       382.940
R18  21539153.780   114977436.973 7      1781.888    21539154.200   114977436.982 7      1781.888    21539163.460    89426953.911 8      1385.913    21539163.300    89426955.916 8      1385.913
R04  21248810.360   113786477.576 7      6025.616    21248811.960   113786477.618 7      6025.616    21248822.200    88500662.969 8      4686.590    21248821.820    88500663.969 8      4686.590
R03  21186655.580   113413826.375 7      2674.298    21186656.300   113413826.404 7      2674.298    21186664.980    88210793.536 8      2080.010    21186665.360    88210793.542 8      2080.010
G16  25281450.880   132854801.309 7      -829.816    25281449.240   132854801.319 4      -829.816    25281460.960   103523210.569 4      -646.610
R09  21415351.000   114356775.583 7      2785.155    21415350.440   114356775.579 7      2785.155    21415359.740    88944200.290 8      2166.232    21415359.360    88944202.286 8      2166.232
G32  24995947.560   131354592.401 6      2671.477    24995946.060   131354592.414 5      2671.477    24995958.420   102354267.739 5      2081.670    24995958.860   102354271.740 6      2081.670
> 2024 07 08 10 31 43.0000000  0 13
G02  21580024.480   113403780.933 7      2594.606    21580022.640   113403780.941 6      2594.606    21580024.280    88366580.772 6      2021.771
G03  21604316.880   113531469.569 7      5678.790    21604316.200   113531469.574 7      5678.790    21604322.020    88466117.565 7      4425.031    21604323.000    88466120.569 8      4425.031
G14  23523662.700   123617695.807 7      5455.407    23523661.560   123617695.812 5      5455.407    23523666.600    96325485.802 5      4250.966    23523667.220    96325506.805 7      4250.966
G08  20988795.840   110296853.597 8      1949.390    20988794.860   110296853.599 8      1949.390    20988800.540    85945615.362 8      1519.006    20988801.480    85945619.371 8      1519.006
G21  21422484.900   112575906.022 7      1650.535    21422481.400   112575906.027 6      1650.535    21422484.320    87721476.879 6      1286.131
R16  21673223.520   115774426.421 7      -594.705    21673223.260   115774426.417 7      -594.705    21673233.700    90046797.144 8      -462.548    21673233.680    90046796.142 8      -462.548
G27  23136349.320   121582288.979 7       490.838    23136348.500   121582288.984 7       490.838    23136356.500    94739459.139 7       382.471    23136357.400    94739460.134 8       382.471
R18  21538819.940   114975655.297 7      1781.459    21538820.300   114975655.306 7      1781.459    21538829.800    89425568.161 8      1385.580    21538829.560    89425570.161 8      1385.580
R04  21247685.000   113780452.433 7      6024.639    21247686.820   113780452.472 7      6024.639    21247697.140    88495976.744 8      4685.830    21247696.940    88495977.744 8      4685.830
R03  21186155.940   113411152.646 7      2673.063    21186156.680   113411152.672 7      2673.063    21186165.680    88208713.965 8      2079.049    21186165.820    88208713.965 8      2079.049
G16  25281608.820   132855631.368 7      -830.254    25281607.400   132855631.378 4      -830.254    25281618.960   103523857.356 4      -646.951
R09  21414829.880   114353991.013 7      2783.958    21414829.040   114353991.014 7      2783.958    21414838.220    88942034.515 8      2165.301    21414838.000    88942036.512 8      2165.301
G32  24995439.220   131351921.164 6      2670.864    24995438.000   131351921.177 5      2670.864    24995450.280   102352186.254 5      2081.193    24995450.960   102352190.236 6      2081.193
> 2024 07 08 10 31 44.0000000  0 13
G02  21579530.760   113401186.585 7      2594.171    21579529.080   113401186.595 6      2594.171    21579530.560    88364559.207 6      2021.432
G03  21603236.540   113525791.046 7      5678.225    21603235.700   113525791.051 7      5678.225    21603241.420    88461692.742 7      4424.591    21603242.520    88461695.742 8      4424.591
G14  23522624.420   123612240.681 7      5454.813    23522623.420   123612240.686 5      5454.813    23522628.460    96321235.057 5      4250.504    23522628.980    96321256.055 7      4250.504
G08  20988425.000   110294904.520 8      1948.838    20988423.900   110294904.525 8      1948.838    20988429.660    85944096.601 8      1518.575    20988430.360    85944100.610 8      1518.575
G21  21422170.800   112574255.670 8      1650.229    21422167.480   112574255.675 6      1650.229    21422170.260    87720190.888 6      1285.893
R16  21673334.980   115775021.567 7      -595.419    21673334.300   115775021.565 7      -595.419    21673345.040    90047260.033 8      -463.104    21673345.140    90047259.024 8      -463.104
G27  23136256.400   121581798.487 7       490.265    23136255.220   121581798.492 7       490.265    23136263.200    94739076.933 7       382.025    23136263.760    94739077.928 7       382.025
R18  21538486.220   114973874.026 7      1781.197    21538486.480   114973874.038 7      1781.197    21538496.240    89424182.729 8      1385.376    21538496.100    89424184.735 8      1385.376
R04  21246560.040   113774428.160 7      6023.954    21246561.780   113774428.193 7      6023.954    21246572.080    88491291.194 8      4685.297    21246571.720    88491292.204 8      4685.297
R03  21185656.500   113408480.143 8      2672.020    21185657.240   113408480.172 7      2672.020    21185666.420    88206635.353 8      2078.238    21185666.640    88206635.358 8      2078.238
G16  25281766.580   132856461.751 7      -830.371    25281765.480   132856461.758 4      -830.371    25281777.000   103524504.393 4      -647.042
R09  21414308.820   114351207.672 7      2782.870    21414307.740   114351207.673 7      2782.870    21414316.960    88939869.696 8      2164.454    21414316.780    88939871.693 8      2164.454
G32  24994931.320   131349250.860 6      2670.052    24994929.960   131349250.868 5      2670.052    24994942.080   102350105.493 5      2080.560    24994942.420   102350109.474 6      2080.560
> 2024 07 08 10 31 45.0000000  0 13
G02  21579037.180   113398592.327 7      2594.365    21579035.420   113398592.334 6      2594.365    21579036.960    88362537.698 6      2021.583
G03  21602155.720   113520112.936 7      5678.017    21602155.180   113520112.940 8      5678.017    21602160.880    88457268.243 7      4424.429    21602161.900    88457271.240 8      4424.429
G14  23521586.300   123606785.946 7      5454.625    23521585.300   123606785.951 5      5454.625    23521590.520    96316984.612 5      4250.357    23521591.100    96317005.608 7      4250.357
G08  20988054.180   110292955.790 8      1948.669    20988053.160   110292955.797 8      1948.669    20988058.820    85942578.112 8      1518.443    20988059.440    85942582.119 8      1518.443
G21  21421856.760   112572605.381 7      1650.337    21421853.420   112572605.386 6      1650.337    21421856.260    87718904.949 6      1285.977
R16  21673446.240   115775617.017 7      -595.476    21673445.880   115775617.015 7      -595.476    21673456.460    90047723.155 8      -463.148    21673456.500    90047722.150 8      -463.148
G27  23136163.220   121581308.213 7       490.245    23136161.900   121581308.221 7       490.245    23136169.960    94738694.893 7       382.009    23136170.600    94738695.889 7       382.009
R18  21538152.620   114972092.774 7      1781.350    21538152.940   114972092.783 7      1781.350    21538162.600    89422797.306 8      1385.495    21538162.480    89422799.308 8      1385.495
R04  21245435.220   113768404.344 7      6023.739    21245436.880   113768404.389 7      6023.739    21245447.140    88486606.017 8      4685.130    21245446.800    88486607.021 8      4685.130
R03  21185157.000   113405808.470 8      2671.367    21185158.320   113405808.499 7      2671.367    21185167.480    88204557.383 8      2077.730    21185167.140    88204557.381 8      2077.730
G16  25281924.680   132857292.096 7      -830.212    25281923.460   132857292.101 4      -830.212    25281934.900   103525151.401 4      -646.918
R09  21413787.520   114348425.139 7      2782.296    21413787.120   114348425.129 7      2782.296    21413795.760    88937705.494 8      2164.008    21413795.700    88937707.490 8      2164.008
G32  24994423.500   131346580.979 6      2669.709    24994422.020   131346580.984 5      2669.709    24994433.940   102348025.062 5      2080.292    24994434.900   102348029.055 6      2080.292
> 2024 07 08 10 31 46.0000000  0 13
G02  21578543.560   113395998.228 7      2594.045    21578541.740   113395998.233 6      2594.045    21578543.160    88360516.325 6      2021.334
G03  21601075.160   113514435.285 8      5677.548    21601074.700   113514435.290 8      5677.548    21601080.460    88452844.099 7      4424.063    21601081.520    88452847.097 8      4424.063
G14  23520548.320   123601331.642 7      5454.112    23520547.460   123601331.650 5      5454.112    23520552.640    96312734.503 5      4249.958    23520552.940    96312755.514 7      4249.958
G08  20987683.540   110291007.464 8      1948.162    20987682.360   110291007.466 8      1948.162    20987688.000    85941059.930 8      1518.048    20987688.740    85941063.933 8      1518.048
G21  21421542.840   112570955.214 8      1650.115    21421539.480   112570955.221 6      1650.115    21421542.200    87717619.104 6      1285.804
R16  21673558.240   115776212.878 7      -596.001    21673557.480   115776212.869 7      -596.001    21673567.980    90048186.588 8      -463.556    21673568.220    90048185.587 8      -463.556
G27  23136069.920   121580818.218 7       489.976    23136068.780   121580818.223 7       489.976    23136076.700    94738313.073 7       381.800    23136077.160    94738314.068 7       381.800
R18  21537819.280   114970311.592 7      1781.195    21537818.980   114970311.601 7      1781.195    21537829.020    89421411.940 8      1385.374    21537828.460    89421413.946 8      1385.374
R04  21244310.540   113762381.054 7      6023.206    21244312.020   113762381.091 7      6023.206    21244322.460    88481921.230 8      4684.715    21244322.260    88481922.227 8      4684.715
R03  21184658.300   113403137.670 7      2670.482    21184658.820   113403137.695 7      2670.482    21184668.340    88202480.096 8      2077.042    21184668.600    88202480.090 8      2077.042
G16  25282082.720   132858122.442 7      -830.392    25282081.640   132858122.444 4      -830.392    25282092.940   103525798.416 4      -647.059
R09  21413266.380   114345643.458 7      2781.350    21413266.300   114345643.448 7      2781.350    21413274.800    88935541.962 8      2163.272    21413275.200    88935543.960 8      2163.272
G32  24993915.780   131343911.605 6      2669.277    24993914.160   131343911.607 5      2669.277    24993926.000   102345945.026 5      2079.956    24993927.120   102345949.021 6      2079.956
> 2024 07 08 10 31 47.0000000  0 13
G02  21578050.000   113393404.406 7      2593.712    21578048.060   113393404.413 6      2593.712    21578049.640    88358495.167 6      2021.074
G03  21599995.000   113508758.254 7      5676.761    21599994.300   113508758.264 7      5676.761    21600000.240    88448420.443 7      4423.450    21600001.200    88448423.441 8      4423.450
G14  23519510.320   123595877.917 7      5453.538    23519509.540   123595877.924 5      5453.538    23519514.700    96308484.851 5      4249.510    23519515.400    96308505.857 7      4249.510
G08  20987313.000   110289059.667 8      1947.564    20987311.740   110289059.667 8      1947.564    20987317.420    85939542.164 8      1517.583    20987318.040    85939546.169 8      1517.583
G21  21421229.300   112569305.290 8      1649.812    21421225.360   112569305.298 6      1649.812    21421228.220    87716333.451 6      1285.568
R16  21673669.880   115776809.260 7      -596.595    21673669.320   115776809.259 7      -596.595    21673679.600    90048650.443 8      -464.018    21673679.980    90048649.440 8      -464.018
G27  23135976.720   121580328.688 7       489.317    23135975.500   121580328.690 7       489.317    23135983.520    94737931.615 7       381.286    23135983.800    94737932.614 7       381.286
R18  21537485.520   114968530.615 7      1780.968    21537485.180   114968530.613 7      1780.968    21537495.060    89420026.725 8      1385.198    21537494.920    89420028.730 8      1385.198
R04  21243185.720   113756358.409 7      6022.420    21243187.180   113756358.443 7      6022.420    21243197.420    88477236.954 8      4684.104    21243197.480    88477237.958 8      4684.104
R03  21184159.300   113400467.918 7      2669.263    21184160.180   113400467.949 7      2669.263    21184169.700    88200403.625 8      2076.094    21184169.560    88200403.621 8      2076.094
G16  25282240.800   132858952.908 7      -830.585    25282239.620   132858952.910 4      -830.585    25282251.020   103526445.516 4      -647.209
R09  21412745.840   114342862.773 7      2780.246    21412745.900   114342862.771 7      2780.246    21412754.100    88933379.211 8      2162.413    21412754.320    88933381.209 8      2162.413
G32  24993407.360   131341242.896 6      2668.558    24993406.340   131341242.900 5      2668.558    24993417.960   102343865.512 5      2079.396    24993419.180   102343869.509 6      2079.396
> 2024 07 08 10 31 48.0000000  0 13
G02  21577556.560   113390810.801 7      2593.439    21577554.640   113390810.806 6      2593.439    21577556.100    88356474.174 6      2020.861
G03  21598914.560   113503081.728 7      5676.218    21598914.120   113503081.733 7      5676.218    21598919.980    88443997.172 7      4423.027    21598921.220    88444000.170 8      4423.027
G14  23518472.820   123590424.706 7      5452.891    23518471.800   123590424.713 5      5452.891    23518477.040    96304235.596 5      4249.006    23518477.860    96304256.598 7      4249.006
G08  20986942.180   110287112.319 8      1946.995    20986941.200   110287112.321 8      1946.995    20986946.800    85938024.750 8      1517.139    20986947.320    85938028.753 8      1517.139
G21  21420915.220   112567655.548 8      1649.528    21420911.500   112567655.553 6      1649.528    21420914.420    87715047.936 6      1285.346
R16  21673781.560   115777406.107 7      -597.195    21673781.060   115777406.106 7      -597.195    21673791.400    90049114.651 8      -464.485    21673791.800    90049113.648 8      -464.485
G27  23135883.780   121579839.473 7       488.977    23135882.320   121579839.475 7       488.977    23135890.400    94737550.404 7       381.021    23135891.040    94737551.410 7       381.021
R18  21537151.900   114966749.729 7      1780.706    21537151.420   114966749.740 7      1780.706    21537161.560    89418641.600 8      1384.993    21537161.220    89418643.610 8      1384.993
R04  21242061.080   113750336.315 7      6021.722    21242062.580   113750336.349 7      6021.722    21242073.140    88472553.104 8      4683.562    21242072.900    88472554.112 8      4683.562
R03  21183660.760   113397799.117 7      2668.183    21183661.520   113397799.143 7      2668.183    21183671.120    88198327.886 8      2075.253    21183671.300    88198327.884 8      2075.253
G16  25282399.140   132859783.411 6      -830.522    25282397.700   132859783.413 4      -830.522    25282409.220   103527092.647 4      -647.160
R09  21412225.440   114340082.992 7      2779.303    21412225.460   114340082.988 7      2779.303    21412233.480    88931217.156 8      2161.680    21412233.900    88931219.158 8      2161.680
G32  24992899.400   131338574.785 6      2667.686    24992898.500   131338574.793 5      2667.686    24992910.340   102341786.468 5      2078.716    24992911.120   102341790.458 6      2078.716
> 2024 07 08 10 31 49.0000000  0 13
G02  21577063.040   113388217.105 7      2593.524    21577060.880   113388217.113 6      2593.524    21577062.540    88354453.112 6      2020.927
G03  21597834.620   113497405.439 7      5675.909    21597834.000   113497405.443 7      5675.909    21597839.860    88439574.091 7      4422.786    21597841.060    88439577.089 8      4422.786
G14  23517434.940   123584971.687 7      5452.776    23517434.220   123584971.692 5      5452.776    23517439.320    96299986.490 5      4248.916    23517440.060    96300007.491 7      4248.916
G08  20986571.860   110285165.123 8      1946.890    20986570.620   110285165.126 8      1946.890    20986576.260    85936507.455 8      1517.057    20986576.880    85936511.458 8      1517.057
G21  21420601.280   112566005.666 7      1649.734    21420597.560   112566005.671 6      1649.734    21420600.360    87713762.312 6      1285.507
R16  21673893.100   115778003.133 7      -597.355    21673892.880   115778003.129 7      -597.355    21673902.940    90049578.996 7      -464.609    21673903.560    90049578.000 8      -464.609
G27  23135790.740   121579350.326 7       488.860    23135789.300   121579350.331 7       488.860    23135797.280    94737169.247 7       380.930    23135798.020    94737170.254 7       380.930
R18  21536818.240   114964968.642 7      1780.990    21536817.780   114964968.651 7      1780.990    21536827.680    89417256.313 8      1385.214    21536827.520    89417258.321 8      1385.214
R04  21240937.100   113744314.471 7      6021.567    21240938.000   113744314.507 7      6021.567    21240948.540    88467869.455 8      4683.441    21240948.180    88467870.457 8      4683.441
R03  21183162.560   113395130.923 7      2667.628    21183163.200   113395130.946 7      2667.628    21183172.620    88196252.625 8      2074.822    21183172.840    88196252.621 8      2074.822
G16  25282557.120   132860613.696 7      -830.340    25282555.600   132860613.698 4      -830.340    25282567.160   103527739.610 4      -647.018
R09  21411704.820   114337303.832 7      2778.619    21411705.200   114337303.833 7      2778.619    21411712.880    88929055.588 8      2161.148    21411713.340    88929057.589 8      2161.148
G32  24992391.480   131335906.940 6      2667.640    24992390.940   131335906.940 5      2667.640    24992402.600   102339707.619 5      2078.680    24992403.400   102339711.612 6      2078.680
> 2024 07 08 10 31 50.0000000  0 13
G02  21576569.340   113385623.545 7      2593.289    21576567.460   113385623.550 6      2593.289    21576569.040    88352432.156 6      2020.745
G03  21596754.180   113491729.575 7      5675.494    21596753.920   113491729.577 7      5675.494    21596759.780    88435151.340 7      4422.463    21596760.960    88435154.330 8      4422.463
G14  23516397.580   123579519.086 7      5452.272    23516396.600   123579519.088 5      5452.272    23516401.900    96295737.712 5      4248.524    23516402.380    96295758.717 7      4248.524
G08  20986201.280   110283218.311 7      1946.486    20986200.140   110283218.316 8      1946.486    20986205.880    85934990.461 8      1516.743    20986206.600    85934994.461 8      1516.743
G21  21420287.300   112564355.887 7      1649.590    21420283.580   112564355.890 6      1649.590    21420286.500    87712476.770 6      1285.394
R16  21674004.900   115778600.552 7      -597.750    21674004.700   115778600.553 7      -597.750    21674014.740    90050043.653 7      -464.917    21674015.320    90050042.654 8      -464.917
G27  23135697.380   121578861.437 7       488.540    23135696.300   121578861.445 7       488.540    23135704.320    94736788.290 7       380.681    23135705.000    94736789.294 7       380.681
R18  21536484.380   114963187.628 7      1780.849    21536483.900   114963187.640 7      1780.849    21536493.920    89415871.077 8      1385.104    21536493.920    89415873.090 7      1385.104
R04  21239812.160   113738293.148 7      6020.919    21239813.280   113738293.185 7      6020.919    21239824.240    88463186.206 8      4682.937    21239823.820    88463187.206 8      4682.937
R03  21182663.940   113392463.599 7      2666.674    21182664.440   113392463.628 7      2666.674    21182674.160    88194178.041 8      2074.080    21182674.220    88194178.044 8      2074.080
G16  25282714.880   132861443.947 7      -830.304    25282713.640   132861443.949 4      -830.304    25282725.100   103528386.546 4      -646.990
R09  21411184.860   114334525.494 7      2777.758    21411185.420   114334525.495 7      2777.758    21411192.440    88926894.654 8      2160.479    21411192.720    88926896.653 8      2160.479
G32  24991884.720   131333239.618 6      2666.887    24991883.520   131333239.608 5      2666.887    24991894.860   102337629.180 5      2078.093    24991895.140   102337633.167 6      2078.093
