     3.05           OBSERVATION DATA    MIXED               RINEX VERSION / TYPE
TPS2RIN 1.0.28.3459 TPS-USER            20260427 143533 UTC PGM / RUN BY / DATE
Win64 build Jun 01, 2022 (c) Topcon Positioning Systems     COMMENT
SRC: 20240708_LM007G1.tps                                   COMMENT
Observer            Agency                                  OBSERVER / AGENCY
O0M3X53SBGM         TPS HIPER_SR        4.8 HSR Jul,08,2022 REC # / TYPE / VERS
FW: 4.8 HSR Jul,08,2022 p3                                  COMMENT
SN: HiPer SR 1212-12575                                     COMMENT
000                 TPSHIPER_SR     NONE                    ANT # / TYPE
        1.7570        0.0000        0.0000                  ANTENNA: DELTA H/E/N
LM007                                                       MARKER NAME
  5389677.5001 -1601149.6712  3006197.5356                  APPROX POSITION XYZ
  2024     7     8    10     3   10.0000000     GPS         TIME OF FIRST OBS
  2024     7     8    10    23   59.0000000     GPS         TIME OF LAST OBS
     1.000                                                  INTERVAL
  1250 EPOCHS                                               COMMENT
G   12 C1C L1C D1C C1W L1W D1W C2W L2W D2W C2X L2X D2X      SYS / # / OBS TYPES
R   12 C1C L1C D1C C1P L1P D1P C2P L2P D2P C2C L2C D2C      SYS / # / OBS TYPES
    20                                                      # OF SATELLITES
   G02  1250  1250  1250  1250  1250  1250  1250  1250  1250PRN / # OF OBS
           0     0     0                                    PRN / # OF OBS
   G03  1250  1250  1250  1250  1250  1250  1250  1250  1250PRN / # OF OBS
        1250  1250  1250                                    PRN / # OF OBS
   G07  1250  1250  1250  1250  1250  1250  1250  1250  1250PRN / # OF OBS
        1250  1250  1250                                    PRN / # OF OBS
   G08  1250  1250  1250  1250  1250  1250  1250  1250  1250PRN / # OF OBS
        1250  1250  1250                                    PRN / # OF OBS
   G10  1157  1157  1157  1155  1155  1155  1155  1155  1155PRN / # OF OBS
        1157  1157  1157                                    PRN / # OF OBS
   G14   864   864   864   862   862   862   862   862   862PRN / # OF OBS
         858   858   858                                    PRN / # OF OBS
   G16  1250  1250  1250  1250  1250  1250  1250  1250  1250PRN / # OF OBS
           0     0     0                                    PRN / # OF OBS
   G21  1250  1250  1250  1250  1250  1250  1250  1250  1250PRN / # OF OBS
           0     0     0                                    PRN / # OF OBS
   G27  1250  1250  1250  1250  1250  1250  1250  1250  1250PRN / # OF OBS
        1250  1250  1250                                    PRN / # OF OBS
   G30   217   217   217   217   217   217   217   217   217PRN / # OF OBS
         217   217   217                                    PRN / # OF OBS
   G32  1250  1250  1250  1250  1250  1250  1250  1250  1250PRN / # OF OBS
        1250  1250  1250                                    PRN / # OF OBS
   R02   611   611   611   611   611   611   611   611   611PRN / # OF OBS
         611   611   611                                    PRN / # OF OBS
   R03  1250  1250  1250  1250  1250  1250  1250  1250  1250PRN / # OF OBS
        1250  1250  1250                                    PRN / # OF OBS
   R04  1250  1250  1250  1250  1250  1250  1250  1250  1250PRN / # OF OBS
        1250  1250  1250                                    PRN / # OF OBS
   R09  1250  1250  1250  1250  1250  1250  1250  1250  1250PRN / # OF OBS
        1250  1250  1250                                    PRN / # OF OBS
   R15   683   683   683   676   676   676   676   676   676PRN / # OF OBS
         675   675   675                                    PRN / # OF OBS
   R16  1250  1250  1250  1250  1250  1250  1250  1250  1250PRN / # OF OBS
        1250  1250  1250                                    PRN / # OF OBS
   R17  1074  1074  1074  1069  1069  1069  1069  1069  1069PRN / # OF OBS
        1068  1068  1068                                    PRN / # OF OBS
   R18  1250  1250  1250  1250  1250  1250  1250  1250  1250PRN / # OF OBS
        1250  1250  1250                                    PRN / # OF OBS
   R19   398   398   398   392   392   392   392   392   392PRN / # OF OBS
         391   391   391                                    PRN / # OF OBS
G L1C                                                       SYS / PHASE SHIFT
G L1W -0.25000                                              SYS / PHASE SHIFT
G L2W  0.00000                                              SYS / PHASE SHIFT
G L2X  0.25000                                              SYS / PHASE SHIFT
R L1C                                                       SYS / PHASE SHIFT
R L1P -0.25000                                              SYS / PHASE SHIFT
R L2P -0.25000                                              SYS / PHASE SHIFT
R L2C                                                       SYS / PHASE SHIFT
  9 R02 -4 R03  5 R04  6 R09 -2 R15  0 R16 -1 R17  4 R18 -3 GLONASS SLOT / FRQ #
    R19  3                                                  GLONASS SLOT / FRQ #
                                                            GLONASS COD/PHS/BIS
               *** Undefined LeapSeconds ***                COMMENT
                                                            END OF HEADER
> 2024 07 08 10 03 10.0000000  0 18
G30  25362680.740   133281782.332 5      2159.809    25362678.960   133281782.334 3      2159.809    25362689.360   103855959.240 3      1682.968    25362689.300   103855976.242 5      1682.968
G02  21573950.000   113371862.410 8      2907.320    21573948.300   113371862.415 6      2907.320    21573949.440    88341710.142 6      2265.444
G03  22669834.620   119130792.052 7      6330.244    22669833.760   119130792.054 7      6330.244    22669840.840    92829223.263 7      4932.657    22669841.640    92829226.262 7      4932.657
G08  20829903.860   109461874.910 8      2577.523    20829902.720   109461874.915 8      2577.523    20829908.000    85294983.866 8      2008.460    20829908.860    85294987.867 8      2008.460
G21  21099757.340   110879965.690 7      1912.806    21099753.660   110879965.695 6      1912.806    21099756.120    86399966.486 6      1490.498
R16  20719750.120   110681168.573 8       337.628    20719749.700   110681168.569 7       337.628    20719758.140    86085381.256 8       262.599    20719758.300    86085380.260 8       262.599
G27  22477466.340   118119864.428 7       984.088    22477465.380   118119864.433 7       984.088    22477471.760    92041472.843 7       766.822    22477472.720    92041473.835 7       766.822
R18  21223907.940   113294647.272 7      1857.548    21223909.160   113294647.281 7      1857.548    21223916.820    88118089.880 8      1444.759    21223916.720    88118092.883 8      1444.759
R04  22387915.060   119886303.855 7      6641.780    22387916.640   119886303.892 6      6641.780    22387927.180    93244965.619 7      5165.829    22387927.380    93244966.602 7      5165.829
R03  21378388.820   114440189.563 7      4119.514    21378388.620   114440189.586 7      4119.514    21378399.160    89009080.882 8      3204.066    21378399.400    89009081.886 8      3204.066
G16  24123177.960   126768113.326 6      -718.077    24123176.360   126768113.325 4      -718.077    24123183.400    98780356.076 4      -559.541
R09  21644224.100   115578940.247 7      4248.162    21644222.120   115578940.240 7      4248.162    21644231.860    89894772.653 8      3304.126    21644231.660    89894774.654 8      3304.126
G10  24365220.060   128040056.641 7      -202.423    24365218.920   128040056.643 6      -202.423    24365228.260    99771503.031 6      -157.732    24365228.540    99771503.036 7      -157.732
R15  23546297.960   125824208.613 6     -1413.917    23546296.700   125824208.608 6     -1413.917    23546310.060    97863356.877 7     -1099.713    23546310.840    97863355.887 7     -1099.713
R02  23397846.320   124855365.015 7       911.037    23397846.380   124855365.011 7       911.037    23397858.120    97109776.883 7       708.584    23397858.500    97109776.886 7       708.584
G07  24563349.140   129081254.005 6      1407.551    24563347.200   129081254.023 5      1407.551    24563353.120   100582804.556 5      1096.793    24563353.280   100582810.568 7      1096.793
R17  23753771.180   127111198.632 7       898.577    23753771.000   127111198.644 7       898.577    23753785.880    98864342.762 7       698.893    23753785.720    98864339.764 7       698.893
G32  25103989.720   131922351.815 6      3488.551    25103988.440   131922351.822 5      3488.551    25103998.960   102796693.048 5      2718.351    25104000.200   102796695.042 6      2718.351
> 2024 07 08 10 03 11.0000000  0 18
G30  25362270.580   133279622.798 5      2159.022    25362268.160   133279622.798 3      2159.022    25362278.580   103854276.485 3      1682.355    25362280.060   103854293.487 5      1682.355
G02  21573396.740   113368955.001 8      2907.125    21573394.880   113368955.009 6      2907.125    21573396.120    88339444.628 6      2265.292
G03  22668629.860   119124461.842 7      6329.927    22668629.340   119124461.847 7      6329.927    22668636.200    92824290.633 7      4932.410    22668636.920    92824293.631 7      4932.410
G08  20829413.520   109459297.389 8      2577.188    20829412.200   109459297.391 8      2577.188    20829417.520    85292975.404 8      2008.198    20829418.200    85292979.405 8      2008.198
G21  21099393.140   110878052.871 7      1912.504    21099389.800   110878052.878 6      1912.504    21099392.040    86398475.979 6      1490.262
R16  20719687.120   110680831.144 8       336.922    20719686.540   110680831.142 8       336.922    20719694.900    86085118.819 8       262.051    20719695.320    86085117.823 8       262.051
G27  22477279.060   118118880.255 7       983.863    22477278.160   118118880.254 7       983.863    22477284.560    92040705.949 7       766.647    22477285.480    92040706.942 7       766.647
R18  21223559.820   113292789.606 7      1857.479    21223561.080   113292789.620 7      1857.479    21223568.740    88116645.037 8      1444.706    21223568.780    88116648.038 8      1444.706
R04  22386674.940   119879661.928 7      6641.616    22386675.440   119879661.967 6      6641.616    22386688.560    93239799.684 7      5165.701    22386687.600    93239800.677 7      5165.701
R03  21377619.400   114436070.227 7      4118.779    21377619.200   114436070.255 7      4118.779    21377629.840    89005876.958 8      3203.495    21377629.840    89005877.960 8      3203.495
G16  24123314.440   126768831.329 6      -718.235    24123313.120   126768831.331 4      -718.235    24123319.880    98780915.549 4      -559.664
R09  21643428.060   115574692.405 7      4247.247    21643426.460   115574692.411 7      4247.247    21643436.220    89891468.792 7      3303.414    21643436.340    89891470.790 8      3303.414
G10  24365258.580   128040258.991 7      -202.616    24365257.400   128040258.991 6      -202.616    24365266.980    99771660.705 6      -157.883    24365266.940    99771660.703 7      -157.883
R15  23546563.160   125825622.469 6     -1414.015    23546562.120   125825622.465 6     -1414.015    23546574.140    97864456.529 7     -1099.789    23546575.680    97864455.545 6     -1099.789
R02  23397675.780   124854454.176 7       910.300    23397675.400   124854454.174 7       910.300    23397687.440    97109068.450 7       708.011    23397687.440    97109068.453 7       708.011
G07  24563081.420   129079846.294 6      1407.425    24563079.300   129079846.307 5      1407.425    24563085.320   100581707.638 5      1096.694    24563085.320   100581713.634 7      1096.694
R17  23753603.420   127110299.796 7       898.648    23753602.500   127110299.803 7       898.648    23753618.080    98863643.661 7       698.949    23753617.760    98863640.661 7       698.949
G32  25103325.540   131918863.338 7      3488.038    25103324.840   131918863.346 5      3488.038    25103335.300   102793974.758 5      2717.952    25103335.920   102793976.753 6      2717.952
> 2024 07 08 10 03 12.0000000  0 18
G30  25361858.700   133277463.704 5      2158.904    25361857.160   133277463.704 3      2158.904    25361867.720   103852594.072 3      1682.263    25361869.160   103852611.049 5      1682.263
G02  21572843.580   113366047.921 8      2906.873    21572841.740   113366047.926 6      2906.873    21572842.960    88337179.369 6      2265.096
G03  22667425.380   119118132.020 7      6329.605    22667424.840   119118132.025 7      6329.605    22667431.680    92819358.298 7      4932.160    22667432.700    92819361.298 7      4932.160
G08  20828923.020   109456720.293 8      2576.900    20828921.720   109456720.300 8      2576.900    20828927.180    85290967.281 8      2007.974    20828927.980    85290971.284 8      2007.974
G21  21099029.180   110876140.322 7      1912.489    21099025.780   110876140.326 6      1912.489    21099028.260    86396985.677 6      1490.251
R16  20719623.920   110680494.505 8       336.313    20719623.360   110680494.501 7       336.313    20719631.820    86084856.983 8       261.577    20719632.240    86084855.988 8       261.577
G27  22477091.900   118117896.446 7       983.724    22477090.940   118117896.449 7       983.724    22477097.280    92039939.345 7       766.539    22477098.180    92039940.338 7       766.539
R18  21223212.040   113290932.094 7      1857.534    21223213.000   113290932.098 7      1857.534    21223220.760    88115200.291 8      1444.749    21223220.880    88115203.294 8      1444.749
R04  22385434.560   119873020.290 7      6641.507    22385433.780   119873020.332 6      6641.507    22385449.100    93234633.984 7      5165.617    22385447.760    93234634.992 7      5165.617
R03  21376849.720   114431951.783 7      4118.057    21376849.600   114431951.808 7      4118.057    21376860.440    89002673.726 8      3202.933    21376860.600    89002674.728 8      3202.933
G16  24123451.060   126769549.556 6      -718.288    24123449.860   126769549.563 4      -718.288    24123456.540    98781475.200 4      -559.705
R09  21642632.440   115570445.475 7      4246.538    21642630.980   115570445.476 7      4246.538    21642640.820    89888165.624 8      3302.863    21642640.780    89888167.625 8      3302.863
G10  24365296.880   128040461.710 7      -202.800    24365295.860   128040461.706 6      -202.800    24365305.480    99771818.655 6      -158.026    24365305.600    99771818.659 7      -158.026
R15  23546827.820   125827036.363 6     -1413.944    23546827.820   125827036.367 6     -1413.944    23546838.720    97865556.227 6     -1099.734    23546840.180    97865555.246 6     -1099.734
R02  23397505.040   124853544.128 7       909.642    23397504.840   124853544.124 7       909.642    23397516.740    97108360.633 7       707.500    23397517.220    97108360.638 7       707.500
G07  24562813.380   129078438.922 6      1407.226    24562811.480   129078438.932 5      1407.226    24562817.580   100580610.973 5      1096.540    24562817.660   100580616.976 7      1096.540
R17  23753435.560   127109401.037 7       898.729    23753435.200   127109401.047 7       898.729    23753450.360    98862944.619 7       699.011    23753449.740    98862941.616 7       699.011
G32  25102661.760   131915375.343 6      3487.799    25102661.200   131915375.350 5      3487.799    25102671.660   102791256.844 5      2717.766    25102672.660   102791258.853 6      2717.766
> 2024 07 08 10 03 13.0000000  0 18
G30  25361447.840   133275304.901 5      2158.339    25361446.180   133275304.904 3      2158.339    25361456.920   103850911.892 3      1681.823    25361457.020   103850928.906 5      1681.823
G02  21572290.200   113363140.911 8      2906.811    21572288.600   113363140.916 6      2906.811    21572289.740    88334914.169 6      2265.047
G03  22666220.900   119111802.364 7      6329.335    22666220.360   119111802.364 7      6329.335    22666227.180    92814426.099 7      4931.949    22666228.560    92814429.099 7      4931.949
G08  20828432.660   109454143.434 7      2576.559    20828431.380   109454143.439 7      2576.559    20828436.740    85288959.339 8      2007.708    20828437.620    85288963.342 8      2007.708
G21  21098665.180   110874227.870 7      1912.259    21098661.800   110874227.877 6      1912.259    21098664.240    86395495.459 6      1490.072
R16  20719560.960   110680158.422 8       335.645    20719560.760   110680158.423 7       335.645    20719568.880    86084595.591 8       261.057    20719569.180    86084594.597 8       261.057
G27  22476904.720   118116912.832 7       983.434    22476903.680   118116912.832 7       983.434    22476910.300    92039172.886 7       766.312    22476911.000    92039173.880 7       766.312
R18  21222864.160   113289074.492 7      1857.412    21222864.680   113289074.493 7      1857.412    21222872.740    88113755.496 8      1444.654    21222872.840    88113758.496 8      1444.654
R04  22384194.220   119866378.738 7      6641.348    22384194.700   119866378.775 6      6641.348    22384208.120    93229468.347 7      5165.493    22384207.480    93229469.357 7      5165.493
R03  21376080.340   114427833.999 7      4117.226    21376080.480   114427834.025 7      4117.226    21376091.340    88999471.000 8      3202.287    21376091.400    88999471.997 8      3202.287
G16  24123587.840   126770267.814 6      -718.476    24123586.500   126770267.822 4      -718.476    24123593.460    98782034.872 4      -559.851
R09  21641837.360   115566199.287 7      4245.678    21641836.140   115566199.280 7      4245.678    21641845.640    89884863.034 8      3302.194    21641845.600    89884865.030 8      3302.194
G10  24365335.700   128040664.578 7      -203.151    24365334.560   128040664.582 6      -203.151    24365344.280    99771976.734 6      -158.299    24365344.280    99771976.740 7      -158.299
R15  23547092.000   125828450.094 7     -1413.790    23547092.080   125828450.109 6     -1413.790    23547104.160    97866655.810 6     -1099.615    23547104.740    97866654.828 6     -1099.615
R02  23397335.000   124852634.676 7       909.015    23397334.420   124852634.666 7       909.015    23397346.640    97107653.273 7       707.012    23397346.780    97107653.278 7       707.012
G07  24562545.420   129077031.652 6      1407.156    24562543.460   129077031.652 5      1407.156    24562549.900   100579514.383 5      1096.485    24562550.240   100579520.371 6      1096.485
R17  23753267.480   127108502.169 7       898.718    23753267.240   127108502.179 7       898.718    23753282.480    98862245.487 7       699.003    23753281.880    98862242.486 7       699.003
G32  25101998.380   131911887.681 7      3487.365    25101997.700   131911887.688 5      3487.365    25102007.900   102788539.193 5      2717.427    25102008.940   102788541.210 6      2717.427
> 2024 07 08 10 03 14.0000000  0 18
G30  25361037.700   133273146.509 5      2158.315    25361035.420   133273146.511 3      2158.315    25361046.240   103849230.025 3      1681.804    25361046.420   103849247.060 5      1681.804
G02  21571736.860   113360234.178 8      2906.704    21571735.380   113360234.180 6      2906.704    21571736.680    88332649.178 6      2264.964
G03  22665016.400   119105473.031 7      6329.193    22665015.900   119105473.033 7      6329.193    22665022.740    92809494.159 7      4931.838    22665023.960    92809497.163 7      4931.838
G08  20827942.420   109451566.934 8      2576.330    20827941.200   109451566.934 8      2576.330    20827946.580    85286951.675 8      2007.530    20827947.300    85286955.678 8      2007.530
G21  21098301.640   110872315.649 7      1912.142    21098297.900   110872315.654 6      1912.142    21098300.360    86394005.413 6      1489.981
R16  20719498.300   110679823.038 8       335.094    20719497.840   110679823.042 8       335.094    20719506.320    86084334.731 8       260.628    20719506.540    86084333.736 8       260.628
G27  22476717.340   118115929.508 7       983.294    22476716.700   118115929.510 7       983.294    22476723.020    92038406.665 7       766.203    22476723.520    92038407.659 7       766.203
R18  21222516.240   113287216.954 7      1857.510    21222516.380   113287216.949 7      1857.510    21222524.800    88112310.744 8      1444.730    21222524.880    88112313.747 8      1444.730
R04  22382953.680   119859737.417 7      6641.242    22382955.600   119859737.448 6      6641.242    22382967.200    93224302.881 7      5165.410    22382967.320    93224303.891 7      5165.410
R03  21375311.080   114423717.022 7      4116.545    21375311.260   114423717.039 7      4116.545    21375322.280    88996268.902 8      3201.757    21375322.420    88996269.901 8      3201.757
G16  24123724.520   126770986.233 6      -718.515    24123723.160   126770986.240 4      -718.515    24123730.260    98782594.672 4      -559.882
R09  21641042.440   115561953.933 7      4244.982    21641041.060   115561953.929 7      4244.982    21641050.680    89881561.096 8      3301.652    21641050.640    89881563.094 8      3301.652
G10  24365374.240   128040867.745 7      -203.352    24365373.380   128040867.747 6      -203.352    24365383.000    99772135.042 6      -158.456    24365383.060    99772135.047 7      -158.456
R15  23547356.600   125829863.890 7     -1413.886    23547356.700   125829863.893 6     -1413.886    23547369.820    97867755.437 6     -1099.689    23547369.560    97867754.450 7     -1099.689
R02  23397164.800   124851725.997 7       908.257    23397164.160   124851725.984 7       908.257    23397176.460    97106946.519 7       706.422    23397176.500    97106946.526 7       706.422
G07  24562277.440   129075624.622 6      1406.915    24562275.720   129075624.627 5      1406.915    24562282.180   100578417.995 5      1096.297    24562282.260   100578423.998 6      1096.297
R17  23753099.580   127107603.288 7       898.887    23753099.380   127107603.300 7       898.887    23753114.620    98861546.354 7       699.135    23753114.080    98861543.354 7       699.135
G32  25101334.360   131908400.499 6      3486.962    25101334.360   131908400.507 5      3486.962    25101344.300   102785821.922 5      2717.113    25101345.000   102785823.934 6      2717.113
> 2024 07 08 10 03 15.0000000  0 18
G30  25360626.800   133270988.381 5      2157.872    25360624.700   133270988.389 3      2157.872    25360635.580   103847548.372 3      1681.459    25360635.440   103847565.382 5      1681.459
G02  21571183.940   113357327.473 7      2906.520    21571182.360   113357327.481 6      2906.520    21571183.580    88330384.215 6      2264.821
G03  22663811.820   119099143.827 7      6328.884    22663811.400   119099143.835 7      6328.884    22663818.320    92804562.314 7      4931.598    22663819.200    92804565.322 7      4931.598
G08  20827451.960   109448990.588 8      2576.096    20827450.960   109448990.593 8      2576.096    20827456.200    85284944.128 8      2007.347    20827456.960    85284948.133 8      2007.347
G21  21097937.680   110870403.441 7      1912.058    21097934.000   110870403.446 6      1912.058    21097936.480    86392515.381 6      1489.915
R16  20719435.480   110679488.138 7       334.505    20719435.080   110679488.139 8       334.505    20719443.480    86084074.253 8       260.171    20719443.900    86084073.256 8       260.171
G27  22476530.700   118114946.327 7       982.971    22476529.460   118114946.327 7       982.971    22476536.120    92037640.543 7       765.951    22476536.640    92037641.540 8       765.951
R18  21222168.280   113285359.296 7      1857.584    21222168.380   113285359.288 7      1857.584    21222176.660    88110865.894 8      1444.787    21222176.640    88110868.901 8      1444.787
R04  22381713.660   119853096.135 7      6641.211    22381714.980   119853096.166 6      6641.211    22381725.940    93219137.423 7      5165.386    22381726.880    93219138.425 7      5165.386
R03  21374542.220   114419600.601 7      4115.960    21374542.220   114419600.629 7      4115.960    21374553.280    88993067.245 8      3201.302    21374553.260    88993068.243 8      3201.302
G16  24123860.960   126771704.604 6      -718.473    24123859.660   126771704.609 4      -718.473    24123867.160    98783154.432 4      -559.849
R09  21640247.480   115557709.249 7      4244.216    21640246.360   115557709.242 7      4244.216    21640256.080    89878259.671 8      3301.057    21640255.920    89878261.667 8      3301.057
G10  24365412.820   128041070.989 7      -203.415    24365412.100   128041070.988 7      -203.415    24365421.660    99772293.408 6      -158.505    24365421.720    99772293.410 7      -158.505
R15  23547620.700   125831277.511 7     -1413.605    23547620.760   125831277.504 6     -1413.605    23547634.820    97868854.908 6     -1099.470    23547634.360    97868853.915 7     -1099.470
R02  23396994.640   124850817.862 7       907.690    23396994.060   124850817.861 7       907.690    23397006.220    97106240.190 7       705.981    23397006.260    97106240.197 7       705.981
G07  24562009.320   129074217.654 6      1406.944    24562008.020   129074217.656 5      1406.944    24562014.360   100577321.651 5      1096.320    24562014.680   100577327.656 6      1096.320
R17  23752931.680   127106704.176 7       899.097    23752931.420   127106704.186 7       899.097    23752946.520    98860847.039 7       699.298    23752946.220    98860844.034 7       699.298
G32  25100671.220   131904913.594 6      3486.596    25100670.980   131904913.599 5      3486.596    25100680.740   102783104.855 5      2716.828    25100681.660   102783106.857 6      2716.828
> 2024 07 08 10 03 16.0000000  0 18
G30  25360216.420   133268830.776 5      2157.521    25360214.360   133268830.784 3      2157.521    25360224.920   103845867.121 3      1681.185    25360223.840   103845884.134 5      1681.185
G02  21570630.780   113354421.150 7      2906.302    21570629.320   113354421.162 6      2906.302    21570630.520    88328119.551 6      2264.651
G03  22662607.520   119092815.083 7      6328.629    22662607.340   119092815.088 7      6328.629    22662614.020    92799630.817 7      4931.399    22662614.700    92799633.819 7      4931.399
G08  20826961.920   109446414.727 8      2575.815    20826960.740   109446414.734 8      2575.815    20826966.040    85282936.966 8      2007.128    20826966.880    85282940.971 8      2007.128
G21  21097574.020   110868491.589 7      1911.896    21097570.220   110868491.591 6      1911.896    21097572.820    86391025.624 6      1489.789
R16  20719373.180   110679154.066 8       333.808    20719372.520   110679154.067 7       333.808    20719381.000    86083814.415 8       259.629    20719381.380    86083813.421 8       259.629
G27  22476343.600   118113963.559 7       982.748    22476342.420   118113963.559 7       982.748    22476349.100    92036874.741 7       765.778    22476349.900    92036875.737 8       765.778
R18  21221820.140   113283501.843 7      1857.532    21221820.100   113283501.846 7      1857.532    21221828.620    88109421.215 8      1444.747    21221828.500    88109424.220 8      1444.747
R04  22380473.860   119846455.260 7      6640.806    22380474.140   119846455.289 6      6640.806    22380485.380    93213972.298 7      5165.071    22380486.540    93213973.286 7      5165.071
R03  21373773.500   114415485.173 7      4115.070    21373773.520   114415485.204 7      4115.070    21373784.400    88989866.355 8      3200.610    21373784.600    88989867.356 8      3200.610
G16  24123997.640   126772423.283 6      -718.667    24123996.220   126772423.290 4      -718.667    24124003.820    98783714.435 4      -560.000
R09  21639453.340   115553465.563 7      4243.284    21639451.840   115553465.567 7      4243.284    21639461.440    89874959.034 8      3300.332    21639461.080    89874961.033 8      3300.332
G10  24365451.540   128041274.674 7      -203.723    24365450.760   128041274.676 7      -203.723    24365460.400    99772452.111 7      -158.745    24365460.600    99772452.112 7      -158.745
R15  23547885.260   125832691.285 7     -1413.709    23547884.920   125832691.278 6     -1413.709    23547899.740    97869954.497 7     -1099.551    23547899.180    97869953.504 7     -1099.551
R02  23396824.500   124849910.694 7       906.867    23396824.000   124849910.695 7       906.867    23396835.960    97105534.608 7       705.341    23396836.340    97105534.613 7       705.341
G07  24561740.880   129072811.107 6      1406.562    24561740.440   129072811.112 5      1406.562    24561746.760   100576225.634 5      1096.022    24561746.780   100576231.623 6      1096.022
R17  23752764.180   127105805.193 7       899.078    23752763.580   127105805.200 7       899.078    23752778.380    98860147.830 7       699.283    23752778.320    98860144.823 7       699.283
G32  25100007.920   131901427.220 6      3486.328    25100007.480   131901427.219 5      3486.328    25100017.420   102780388.191 5      2716.619    25100018.240   102780390.181 6      2716.619
> 2024 07 08 10 03 17.0000000  0 18
G30  25359805.000   133266673.550 5      2157.279    25359803.960   133266673.555 3      2157.279    25359814.320   103844186.168 3      1680.997    25359814.960   103844203.166 5      1680.997
G02  21570077.960   113351515.013 7      2906.126    21570076.220   113351515.023 6      2906.126    21570077.520    88325855.027 6      2264.513
G03  22661403.280   119086486.580 7      6328.448    22661403.040   119086486.585 7      6328.448    22661409.560    92794699.522 7      4931.258    22661410.480    92794702.522 7      4931.258
G08  20826471.700   109443839.168 8      2575.623    20826470.560   109443839.171 8      2575.623    20826475.900    85280930.037 8      2006.979    20826476.760    85280934.042 8      2006.979
G21  21097210.080   110866579.901 7      1911.783    21097206.360   110866579.906 6      1911.783    21097208.940    86389535.997 6      1489.701
R16  20719310.620   110678820.670 7       333.159    20719310.220   110678820.668 8       333.159    20719318.780    86083555.100 8       259.124    20719318.960    86083554.108 8       259.124
G27  22476156.900   118112981.049 7       982.473    22476155.480   118112981.051 7       982.473    22476162.040    92036109.147 7       765.563    22476163.000    92036110.144 8       765.563
R18  21221472.260   113281644.382 7      1857.565    21221472.020   113281644.386 7      1857.565    21221480.740    88107976.523 8      1444.773    21221480.660    88107979.530 8      1444.773
R04  22379233.780   119839814.536 7      6640.905    22379233.580   119839814.561 6      6640.905    22379245.840    93208807.286 7      5165.149    22379246.300    93208808.282 7      5165.149
R03  21373004.580   114411370.487 7      4114.442    21373004.840   114411370.502 7      4114.442    21373015.840    88986666.039 8      3200.121    21373015.820    88986667.040 8      3200.121
G16  24124135.220   126773142.061 6      -718.769    24124132.920   126773142.071 4      -718.769    24124140.520    98784274.514 4      -560.080
R09  21638658.580   115549222.668 7      4242.668    21638657.440   115549222.650 7      4242.668    21638666.920    89871658.986 8      3299.853    21638666.620    89871660.982 8      3299.853
G10  24365490.660   128041478.585 7      -203.909    24365489.660   128041478.590 7      -203.909    24365499.220    99772611.005 7      -158.890    24365499.500    99772611.007 7      -158.890
R15  23548149.600   125834104.960 7     -1413.468    23548149.000   125834104.953 6     -1413.468    23548164.060    97871054.016 7     -1099.364    23548163.760    97871053.019 7     -1099.364
R02  23396654.460   124849004.232 7       906.258    23396654.040   124849004.230 7       906.258    23396666.160    97104829.578 7       704.868    23396666.720    97104829.587 7       704.868
G07  24561473.740   129071404.720 6      1406.521    24561472.880   129071404.723 5      1406.521    24561479.320   100575129.728 5      1095.990    24561479.180   100575135.710 6      1095.990
R17  23752595.760   127104906.111 7       899.320    23752595.380   127104906.125 7       899.320    23752610.140    98859448.540 7       699.471    23752610.380    98859445.535 7       699.471
G32  25099344.500   131897941.268 6      3485.797    25099344.140   131897941.268 5      3485.797    25099354.240   102777671.861 5      2716.206    25099355.100   102777673.862 6      2716.206
> 2024 07 08 10 03 18.0000000  0 18
G30  25359394.200   133264516.631 5      2156.397    25359393.420   133264516.636 3      2156.397    25359403.800   103842505.452 3      1680.309    25359404.900   103842522.470 5      1680.309
G02  21569524.740   113348609.020 7      2905.705    21569523.120   113348609.025 6      2905.705    21569524.420    88323590.613 6      2264.186
G03  22660198.800   119080158.314 7      6327.890    22660198.700   119080158.322 7      6327.890    22660205.360    92789768.408 7      4930.823    22660206.500    92789771.410 7      4930.823
G08  20825981.580   109441263.904 8      2574.887    20825980.520   109441263.906 8      2574.887    20825985.920    85278923.332 8      2006.406    20825986.640    85278927.337 8      2006.406
G21  21096846.420   110864668.345 7      1911.316    21096842.460   110864668.353 6      1911.316    21096845.260    86388046.475 6      1489.337
R16  20719248.600   110678487.853 8       332.297    20719247.800   110678487.856 7       332.297    20719256.440    86083296.243 8       258.453    20719256.700    86083295.246 8       258.453
G27  22475969.820   118111998.731 7       982.110    22475968.540   118111998.730 7       982.110    22475975.220    92035343.698 7       765.280    22475976.160    92035344.697 8       765.280
R18  21221124.040   113279786.876 7      1857.270    21221123.860   113279786.879 7      1857.270    21221132.920    88106531.792 8      1444.543    21221132.660    88106534.801 8      1444.543
R04  22377993.120   119833173.958 7      6640.473    22377994.320   119833173.984 6      6640.473    22378006.820    93203642.403 7      5164.812    22378006.080    93203643.396 7      5164.812
R03  21372236.080   114407256.488 7      4113.393    21372236.160   114407256.516 7      4113.393    21372247.140    88983466.266 8      3199.305    21372246.840    88983467.268 8      3199.305
G16  24124271.980   126773860.937 6      -719.353    24124269.800   126773860.944 4      -719.353    24124277.280    98784834.666 4      -560.535
R09  21637863.980   115544980.515 7      4241.609    21637862.880   115544980.505 7      4241.609    21637872.340    89868359.552 8      3299.029    21637872.060    89868361.549 8      3299.029
G10  24365529.180   128041682.699 7      -204.461    24365528.500   128041682.703 7      -204.461    24365538.140    99772770.046 7      -159.321    24365537.840    99772770.057 7      -159.321
R15  23548413.680   125835518.547 7     -1413.679    23548413.420   125835518.532 6     -1413.679    23548428.840    97872153.447 7     -1099.528    23548428.200    97872152.448 7     -1099.528
R02  23396484.760   124848098.392 7       905.321    23396484.220   124848098.393 7       905.321    23396496.320    97104125.040 7       704.138    23396496.780    97104125.047 7       704.138
G07  24561206.380   129069998.491 6      1406.057    24561205.360   129069998.494 5      1406.057    24561211.620   100574033.950 5      1095.629    24561211.720   100574039.943 6      1095.629
R17  23752427.820   127104006.943 7       899.085    23752427.440   127104006.958 7       899.085    23752442.380    98858749.179 7       699.288    23752442.340    98858746.172 7       699.288
G32  25098681.340   131894455.645 6      3485.278    25098680.700   131894455.645 5      3485.278    25098691.140   102774955.793 5      2715.801    25098691.240   102774957.790 6      2715.801
> 2024 07 08 10 03 19.0000000  0 18
G30  25358983.940   133262360.178 5      2156.142    25358983.080   133262360.183 3      2156.142    25358993.340   103840825.103 3      1680.111    25358992.640   103840842.107 5      1680.111
G02  21568971.800   113345703.298 7      2905.704    21568970.280   113345703.300 6      2905.704    21568971.500    88321326.412 6      2264.185
G03  22658994.740   119073830.400 7      6327.723    22658994.400   119073830.410 7      6327.723    22659001.260    92784837.574 7      4930.693    22659002.440    92784840.574 7      4930.693
G08  20825491.620   109438689.002 8      2574.726    20825490.580   109438689.005 8      2574.726    20825495.900    85276916.917 8      2006.280    20825496.660    85276920.922 8      2006.280
G21  21096482.640   110862757.063 7      1911.124    21096478.880   110862757.067 6      1911.124    21096481.460    86386557.162 6      1489.187
R16  20719186.200   110678155.794 8       331.805    20719185.860   110678155.801 7       331.805    20719194.440    86083037.973 8       258.071    20719194.600    86083036.977 8       258.071
G27  22475782.940   118111016.783 7       981.848    22475781.780   118111016.787 7       981.848    22475788.400    92034578.541 7       765.077    22475789.160    92034579.541 8       765.077
R18  21220776.100   113277929.508 7      1857.270    21220776.000   113277929.509 7      1857.270    21220785.180    88105087.169 8      1444.544    21220784.820    88105090.176 8      1444.544
R04  22376753.280   119826533.632 7      6640.194    22376754.520   119826533.669 7      6640.194    22376767.100    93198477.715 7      5164.595    22376766.480    93198478.717 7      5164.595
R03  21371467.660   114403143.341 7      4112.791    21371467.920   114403143.366 7      4112.791    21371478.600    88980267.146 8      3198.837    21371478.640    88980268.147 8      3198.837
G16  24124408.360   126774579.923 6      -718.927    24124406.460   126774579.930 4      -718.927    24124414.100    98785394.903 4      -560.203
R09  21637070.000   115540739.299 7      4240.963    21637068.640   115540739.286 7      4240.963    21637077.980    89865060.822 8      3298.526    21637077.860    89865062.821 8      3298.526
G10  24365568.220   128041887.141 7      -204.612    24365567.380   128041887.140 7      -204.612    24365577.160    99772929.342 7      -159.438    24365576.920    99772929.344 7      -159.438
R15  23548678.100   125836932.289 6     -1414.030    23548677.360   125836932.260 6     -1414.030    23548693.140    97873252.979 7     -1099.801    23548692.820    97873251.984 7     -1099.801
R02  23396315.280   124847193.302 7       904.664    23396314.580   124847193.303 7       904.664    23396326.860    97103421.075 7       703.627    23396327.400    97103421.082 7       703.627
G07  24560938.880   129068592.525 6      1405.928    24560937.940   129068592.525 5      1405.928    24560944.120   100572938.386 5      1095.528    24560944.180   100572944.381 6      1095.528
R17  23752259.120   127103107.842 7       899.107    23752259.000   127103107.862 7       899.107    23752274.220    98858049.874 7       699.306    23752274.200    98858046.869 7       699.306
G32  25098017.820   131890970.495 6      3485.007    25098017.420   131890970.495 5      3485.007    25098028.120   102772240.100 5      2715.590    25098028.120   102772242.115 6      2715.590
> 2024 07 08 10 03 20.0000000  0 18
G30  25358574.380   133260204.029 5      2155.896    25358572.740   133260204.039 3      2155.896    25358582.880   103839144.991 3      1679.919    25358582.580   103839162.021 5      1679.919
G02  21568418.820   113342797.765 7      2905.345    21568417.320   113342797.773 6      2905.345    21568418.660    88319062.362 6      2263.905
G03  22657790.580   119067502.733 7      6327.441    22657790.340   119067502.741 7      6327.441    22657797.060    92779906.924 7      4930.473    22657798.640    92779909.928 7      4930.473
G08  20825001.740   109436114.400 8      2574.428    20825000.560   109436114.405 8      2574.428    20825005.940    85274910.736 8      2006.048    20825006.600    85274914.736 8      2006.048
G21  21096118.980   110860845.906 7      1911.040    21096115.140   110860845.908 6      1911.040    21096117.700    86385067.943 6      1489.122
R16  20719124.020   110677824.377 8       331.075    20719123.940   110677824.381 8       331.075    20719132.420    86082780.194 8       257.503    20719132.500    86082779.195 8       257.503
G27  22475596.180   118110035.071 7       981.559    22475594.760   118110035.073 7       981.559    22475601.500    92033813.571 7       764.851    22475602.300    92033814.573 7       764.851
R18  21220428.280   113276072.125 7      1857.346    21220427.720   113276072.126 7      1857.346    21220437.220    88103642.537 8      1444.603    21220436.920    88103645.542 8      1444.603
R04  22375513.040   119819893.467 7      6640.011    22375515.080   119819893.504 7      6640.011    22375526.680    93193313.155 7      5164.453    22375526.240    93193314.163 7      5164.453
R03  21370699.880   114399030.940 7      4112.000    21370699.980   114399030.963 7      4112.000    21370710.400    88977068.622 8      3198.222    21370710.260    88977069.621 8      3198.222
G16  24124545.160   126775299.064 6      -719.292    24124543.320   126775299.071 4      -719.292    24124550.920    98785955.262 4      -560.488
R09  21636275.880   115536498.900 7      4239.901    21636274.720   115536498.890 7      4239.901    21636283.800    89861762.736 8      3297.700    21636283.920    89861764.737 8      3297.700
G10  24365607.400   128042091.800 7      -204.877    24365606.400   128042091.800 7      -204.877    24365616.080    99773088.807 7      -159.645    24365615.960    99773088.813 7      -159.645
R15  23548942.600   125838345.814 6     -1413.616    23548942.040   125838345.796 6     -1413.616    23548957.720    97874352.377 7     -1099.479    23548957.160    97874351.386 7     -1099.479
R02  23396145.580   124846288.893 7       903.976    23396144.780   124846288.880 7       903.976    23396157.420    97102717.626 7       703.092    23396158.020    97102717.632 7       703.092
G07  24560671.200   129067186.711 6      1405.856    24560670.400   129067186.713 5      1405.856    24560676.480   100571842.959 5      1095.472    24560676.920   100571848.974 7      1095.472
R17  23752091.120   127102208.647 7       899.223    23752091.200   127102208.668 7       899.223    23752106.340    98857350.498 7       699.396    23752106.320    98857347.491 7       699.396
G32  25097354.800   131887485.795 6      3484.508    25097354.120   131887485.799 5      3484.508    25097365.280   102769524.747 5      2715.201    25097365.300   102769526.748 6      2715.201
> 2024 07 08 10 03 21.0000000  0 18
G30  25358164.080   133258048.263 5      2155.573    25358162.640   133258048.271 3      2155.573    25358172.620   103837465.174 3      1679.667    25358173.140   103837482.176 5      1679.667
G02  21567866.140   113339892.374 7      2905.302    21567864.360   113339892.377 6      2905.302    21567865.820    88316798.422 6      2263.871
G03  22656586.640   119061175.274 7      6327.294    22656586.240   119061175.281 7      6327.294    22656592.920    92774976.457 7      4930.359    22656594.280    92774979.457 7      4930.359
G08  20824511.880   109433540.071 8      2574.161    20824510.700   109433540.079 8      2574.161    20824516.120    85272904.761 8      2005.840    20824516.740    85272908.764 8      2005.840
G21  21095755.420   110858934.897 8      1910.868    21095751.580   110858934.904 6      1910.868    21095754.020    86383578.851 6      1488.988
R16  20719062.200   110677493.548 8       330.435    20719061.980   110677493.557 7       330.435    20719070.480    86082522.884 8       257.005    20719070.620    86082521.888 8       257.005
G27  22475409.620   118109053.572 7       981.309    22475408.160   118109053.572 7       981.309    22475414.860    92033048.761 7       764.656    22475415.560    92033049.762 7       764.656
R18  21220080.320   113274214.715 7      1857.411    21220079.800   113274214.708 7      1857.411    21220089.260    88102197.875 8      1444.653    21220089.200    88102200.882 8      1444.653
R04  22374272.780   119813253.466 7      6639.911    22374274.620   119813253.510 7      6639.911    22374286.140    93188148.718 7      5164.375    22374286.040    93188149.726 7      5164.375
R03  21369931.320   114394919.286 7      4111.283    21369932.260   114394919.312 7      4111.283    21369942.420    88973870.665 8      3197.664    21369942.260    88973871.666 8      3197.664
G16  24124682.000   126776018.239 6      -719.142    24124680.260   126776018.249 4      -719.142    24124687.780    98786515.653 4      -560.371
R09  21635481.900   115532259.238 7      4239.136    21635481.120   115532259.222 7      4239.136    21635489.620    89858465.222 8      3297.106    21635490.040    89858467.220 8      3297.106
G10  24365646.440   128042296.663 7      -204.990    24365645.240   128042296.660 7      -204.990    24365655.040    99773248.436 7      -159.732    24365655.060    99773248.434 7      -159.732
R15  23549207.300   125839759.355 6     -1413.507    23549206.520   125839759.338 6     -1413.507    23549221.860    97875451.763 7     -1099.394    23549221.600    97875450.778 7     -1099.394
R02  23395976.240   124845385.123 7       903.418    23395975.560   124845385.121 7       903.418    23395987.700    97102014.697 7       702.659    23395988.380    97102014.702 7       702.659
G07  24560403.920   129065781.120 6      1405.584    24560403.000   129065781.120 5      1405.584    24560409.060   100570747.691 5      1095.260    24560409.480   100570753.678 6      1095.260
R17  23751923.480   127101309.388 7       899.338    23751923.020   127101309.393 7       899.338    23751938.480    98856651.043 7       699.485    23751938.040    98856648.035 7       699.485
G32  25096692.120   131884001.414 6      3484.194    25096690.980   131884001.417 5      3484.194    25096702.380   102766809.643 5      2714.957    25096702.280   102766811.658 7      2714.957
> 2024 07 08 10 03 22.0000000  0 18
G30  25357754.000   133255892.900 5      2155.060    25357752.260   133255892.910 3      2155.060    25357762.400   103835785.670 3      1679.267    25357763.940   103835802.657 5      1679.267
G02  21567313.360   113336987.223 7      2904.980    21567311.500   113336987.228 6      2904.980    21567313.080    88314534.663 6      2263.620
G03  22655382.660   119054848.156 7      6327.046    22655382.140   119054848.161 7      6327.046    22655388.920    92770046.237 7      4930.166    22655389.920    92770049.231 7      4930.166
G08  20824022.060   109430966.087 8      2573.890    20824020.940   109430966.086 8      2573.890    20824026.300    85270899.052 8      2005.629    20824027.100    85270903.053 8      2005.629
G21  21095391.720   110857024.084 7      1910.720    21095387.880   110857024.092 6      1910.720    21095390.560    86382089.904 6      1488.872
R16  20719000.400   110677163.415 8       329.806    20719000.300   110677163.419 8       329.806    20719008.680    86082266.104 8       256.516    20719008.680    86082265.108 8       256.516
G27  22475223.060   118108072.352 7       981.207    22475221.440   118108072.349 7       981.207    22475228.040    92032284.165 7       764.577    22475228.500    92032285.165 7       764.577
R18  21219732.320   113272357.334 7      1857.370    21219731.660   113272357.327 7      1857.370    21219741.580    88100753.243 8      1444.621    21219741.240    88100756.252 8      1444.621
R04  22373032.820   119806613.697 7      6639.630    22373034.620   119806613.752 7      6639.630    22373045.700    93182984.461 7      5164.157    22373046.040    93182985.469 7      5164.157
R03  21369163.560   114390808.424 7      4110.467    21369164.580   114390808.450 7      4110.467    21369174.180    88970673.326 8      3197.030    21369174.540    88970674.329 8      3197.030
G16  24124818.780   126776737.596 6      -719.407    24124817.160   126776737.603 4      -719.407    24124824.700    98787076.180 4      -560.577
R09  21634687.780   115528020.360 7      4238.534    21634687.460   115528020.348 7      4238.534    21634695.760    89855168.321 8      3296.637    21634696.000    89855170.320 8      3296.637
G10  24365685.260   128042501.798 7      -205.281    24365684.360   128042501.803 7      -205.281    24365694.040    99773408.277 7      -159.959    24365694.120    99773408.286 7      -159.959
R15  23549471.800   125841172.862 6     -1413.513    23549471.440   125841172.863 6     -1413.513    23549486.040    97876551.173 7     -1099.399    23549486.100    97876550.191 7     -1099.399
R02  23395807.160   124844482.127 7       902.657    23395806.580   124844482.131 7       902.657    23395818.840    97101312.375 7       702.067    23395819.120    97101312.376 7       702.067
G07  24560136.560   129064375.735 6      1405.344    24560135.600   129064375.734 5      1405.344    24560141.820   100569652.588 5      1095.073    24560142.280   100569658.587 6      1095.073
R17  23751755.460   127100410.033 7       899.414    23751755.020   127100410.048 7       899.414    23751770.540    98855951.545 7       699.544    23751770.120    98855948.538 7       699.544
G32  25096029.020   131880517.507 6      3483.648    25096028.140   131880517.502 5      3483.648    25096039.500   102764094.913 5      2714.531    25096039.800   102764096.915 7      2714.531
> 2024 07 08 10 03 23.0000000  0 18
G30  25357344.080   133253737.863 5      2154.795    25357342.240   133253737.873 3      2154.795    25357352.340   103834106.418 3      1679.061    25357354.100   103834123.426 5      1679.061
G02  21566760.420   113334082.242 7      2904.829    21566758.800   113334082.247 6      2904.829    21566760.120    88312271.037 6      2263.503
G03  22654178.740   119048521.293 7      6326.678    22654178.300   119048521.298 7      6326.678    22654184.960    92765116.214 7      4929.879    22654185.860    92765119.216 7      4929.879
G08  20823532.260   109428392.401 8      2573.523    20823531.160   109428392.404 8      2573.523    20823536.560    85268893.583 8      2005.343    20823537.380    85268897.580 8      2005.343
G21  21095028.080   110855113.445 7      1910.534    21095024.540   110855113.448 6      1910.534    21095027.000    86380601.090 6      1488.728
R16  20718938.820   110676833.937 8       329.046    20718938.880   110676833.943 8       329.046    20718947.100    86082009.847 8       255.925    20718947.080    86082008.851 8       255.925
G27  22475036.320   118107091.402 7       980.774    22475034.760   118107091.407 7       980.774    22475041.380    92031519.795 7       764.240    22475041.800    92031520.793 7       764.240
R18  21219384.180   113270499.964 7      1857.346    21219383.360   113270499.952 7      1857.346    21219393.480    88099308.616 8      1444.603    21219393.340    88099311.625 8      1444.603
R04  22371792.900   119799974.107 7      6639.428    22371795.180   119799974.152 7      6639.428    22371806.180    93177820.330 7      5163.999    22371806.060    93177821.328 7      5163.999
R03  21368395.660   114386698.267 7      4109.782    21368396.900   114386698.306 7      4109.782    21368406.480    88967476.549 8      3196.497    21368406.700    88967477.551 8      3196.497
G16  24124955.800   126777457.015 6      -719.460    24124954.040   126777457.023 4      -719.460    24124961.460    98787636.761 4      -560.618
R09  21633894.060   115523782.292 7      4237.655    21633894.340   115523782.285 7      4237.655    21633902.000    89851872.048 8      3295.954    21633902.340    89851874.049 8      3295.954
G10  24365724.080   128042707.157 7      -205.469    24365723.360   128042707.162 7      -205.469    24365733.160    99773568.293 7      -160.105    24365733.240    99773568.300 7      -160.105
R15  23549735.920   125842586.339 6     -1413.499    23549736.780   125842586.319 6     -1413.499    23549750.120    97877650.515 7     -1099.388    23549750.640    97877649.537 7     -1099.388
R02  23395637.860   124843579.836 7       901.923    23395637.220   124843579.832 7       901.923    23395649.660    97100610.587 7       701.496    23395650.040    97100610.590 7       701.496
G07  24559869.200   129062970.551 6      1405.068    24559868.220   129062970.554 5      1405.068    24559874.520   100568557.632 5      1094.858    24559874.620   100568563.631 7      1094.858
R17  23751587.100   127099510.593 7       899.464    23751586.480   127099510.613 7       899.464    23751602.480    98855251.982 7       699.583    23751602.060    98855248.977 7       699.583
G32  25095365.940   131877033.960 6      3483.213    25095365.280   131877033.954 5      3483.213    25095376.680   102761380.456 5      2714.192    25095376.560   102761382.463 7      2714.192
> 2024 07 08 10 03 24.0000000  0 18
G30  25356933.540   133251583.183 5      2154.584    25356932.260   133251583.195 3      2154.584    25356942.180   103832427.446 3      1678.897    25356943.100   103832444.466 5      1678.897
G02  21566207.980   113331177.463 7      2904.707    21566205.960   113331177.468 6      2904.707    21566207.380    88310007.575 6      2263.408
G03  22652974.720   119042194.708 7      6326.513    22652974.140   119042194.718 7      6326.513    22652981.040    92760186.412 7      4929.750    22652982.000    92760189.412 7      4929.750
G08  20823042.600   109425819.037 8      2573.260    20823041.520   109425819.042 8      2573.260    20823046.840    85266888.366 8      2005.138    20823047.820    85266892.367 8      2005.138
G21  21094664.600   110853202.972 7      1910.508    21094660.860   110853202.972 6      1910.508    21094663.440    86379112.408 6      1488.708
R16  20718877.200   110676505.148 8       328.471    20718877.340   110676505.154 8       328.471    20718885.640    86081754.120 8       255.478    20718885.500    86081753.122 8       255.478
G27  22474849.420   118106110.708 7       980.696    22474848.100   118106110.713 7       980.696    22474854.800    92030755.616 7       764.179    22474855.180    92030756.615 7       764.179
R18  21219036.180   113268642.639 7      1857.425    21219035.440   113268642.622 7      1857.425    21219045.580    88097864.026 8      1444.664    21219045.420    88097867.035 8      1444.664
R04  22370552.840   119793334.708 7      6639.356    22370555.280   119793334.758 7      6639.356    22370567.060    93172656.355 7      5163.944    22370566.460    93172657.352 7      5163.944
R03  21367628.240   114382588.880 7      4109.121    21367629.240   114382588.916 7      4109.121    21367638.940    88964280.361 8      3195.983    21367638.880    88964281.361 8      3195.983
G16  24125093.040   126778176.598 6      -719.546    24125091.040   126778176.608 4      -719.546    24125098.380    98788197.466 4      -560.685
R09  21633100.580   115519545.076 7      4236.811    21633101.080   115519545.074 7      4236.811    21633108.380    89848576.438 8      3295.297    21633108.940    89848578.438 8      3295.297
G10  24365763.460   128042912.782 7      -205.624    24365762.400   128042912.786 7      -205.624    24365772.380    99773728.516 7      -160.226    24365772.520    99773728.516 7      -160.226
R15  23550001.040   125843999.771 6     -1413.496    23550001.080   125843999.759 6     -1413.496    23550014.500    97878749.860 6     -1099.385    23550015.020    97878748.873 7     -1099.385
R02  23395469.160   124842678.265 7       901.317    23395468.280   124842678.266 7       901.317    23395480.720    97099909.363 7       701.024    23395480.720    97099909.362 7       701.024
G07  24559602.180   129061565.594 6      1405.003    24559600.800   129061565.594 5      1405.003    24559607.280   100567462.847 5      1094.808    24559607.800   100567468.836 7      1094.808
R17  23751418.960   127098611.165 7       899.468    23751418.720   127098611.175 7       899.468    23751434.440    98854552.411 7       699.586    23751434.080    98854549.400 7       699.586
G32  25094702.880   131873550.812 7      3483.068    25094702.380   131873550.806 5      3483.068    25094713.920   102758666.321 5      2714.079    25094714.140   102758668.324 7      2714.079
> 2024 07 08 10 03 25.0000000  0 18
G30  25356525.040   133249429.007 5      2154.018    25356522.220   133249429.017 3      2154.018    25356532.260   103830748.866 3      1678.456    25356532.480   103830765.853 5      1678.456
G02  21565655.060   113328272.939 7      2904.534    21565653.280   113328272.941 6      2904.534    21565654.700    88307744.308 6      2263.273
G03  22651771.040   119035868.455 7      6326.173    22651770.480   119035868.465 7      6326.173    22651777.100    92755256.870 7      4929.486    22651777.800    92755259.874 7      4929.486
G08  20822552.820   109423246.043 8      2572.885    20822551.780   109423246.045 8      2572.885    20822557.260    85264883.432 8      2004.846    20822558.160    85264887.435 8      2004.846
G21  21094300.980   110851292.746 8      1910.194    21094297.300   110851292.748 6      1910.194    21094299.840    86377623.920 6      1488.463
R16  20718815.860   110676177.056 8       327.795    20718815.940   110676177.060 8       327.795    20718824.240    86081498.934 8       254.952    20718824.140    86081497.933 8       254.952
G27  22474662.800   118105130.349 7       980.283    22474661.640   118105130.352 7       980.283    22474668.200    92029991.694 7       763.857    22474668.560    92029992.693 7       763.857
R18  21218688.300   113266785.395 7      1857.291    21218687.700   113266785.380 7      1857.291    21218697.680    88096419.496 8      1444.560    21218697.660    88096422.505 8      1444.560
R04  22369313.640   119786695.555 7      6639.197    22369315.820   119786695.594 7      6639.197    22369327.980    93167492.561 7      5163.820    22369326.600    93167493.562 7      5163.820
R03  21366860.820   114378480.280 7      4108.249    21366861.840   114378480.316 7      4108.249    21366871.500    88961084.783 8      3195.305    21366871.480    88961085.785 8      3195.305
G16  24125229.740   126778896.338 6      -719.793    24125227.960   126778896.346 4      -719.793    24125235.440    98788758.288 4      -560.877
R09  21632307.340   115515308.743 7      4236.052    21632308.140   115515308.734 7      4236.052    21632314.760    89845281.498 8      3294.707    21632315.500    89845283.500 8      3294.707
G10  24365802.760   128043118.703 7      -205.904    24365801.700   128043118.702 7      -205.904    24365811.580    99773888.970 7      -160.445    24365811.840    99773888.972 7      -160.445
R15  23550265.340   125845413.158 6     -1413.130    23550264.320   125845413.180 6     -1413.130    23550278.240    97879849.170 6     -1099.101    23550279.520    97879848.186 7     -1099.101
R02  23395300.540   124841777.439 7       900.587    23395299.380   124841777.442 7       900.587    23395312.020    97099208.720 7       700.457    23395311.940    97099208.719 7       700.457
G07  24559334.760   129060160.886 6      1404.654    24559333.540   129060160.883 5      1404.654    24559340.000   100566368.268 5      1094.536    24559340.940   100566374.265 7      1094.536
R17  23751250.780   127097711.714 7       899.573    23751250.360   127097711.737 7       899.573    23751266.180    98853852.844 7       699.668    23751265.740    98853849.841 7       699.668
G32  25094040.100   131870068.156 6      3482.491    25094039.460   131870068.153 5      3482.491    25094051.120   102755952.571 5      2713.629    25094051.460   102755954.584 6      2713.629
> 2024 07 08 10 03 26.0000000  0 18
G30  25356113.820   133247275.189 5      2153.627    25356112.260   133247275.199 3      2153.627    25356122.320   103829070.566 3      1678.151    25356123.320   103829087.570 5      1678.151
G02  21565102.400   113325368.691 7      2904.118    21565100.720   113325368.696 6      2904.118    21565102.000    88305481.258 6      2262.949
G03  22650567.140   119029542.538 7      6325.779    22650566.680   119029542.545 7      6325.779    22650573.400    92750327.590 7      4929.178    22650574.000    92750330.590 7      4929.178
G08  20822063.320   109420673.427 8      2572.485    20822062.280   109420673.429 8      2572.485    20822067.620    85262878.796 8      2004.534    20822068.640    85262882.797 8      2004.534
G21  21093937.580   110849382.748 7      1909.914    21093933.800   110849382.755 6      1909.914    21093936.320    86376135.614 6      1488.245
R16  20718754.600   110675849.680 8       327.008    20718754.460   110675849.681 8       327.008    20718762.660    86081244.304 8       254.340    20718762.980    86081243.305 8       254.340
G27  22474476.040   118104150.304 7       979.932    22474475.120   118104150.306 7       979.932    22474481.740    92029228.020 7       763.583    22474482.000    92029229.021 7       763.583
R18  21218340.500   113264928.188 7      1857.271    21218339.480   113264928.183 7      1857.271    21218349.560    88094975.008 8      1444.544    21218349.680    88094978.019 8      1444.544
R04  22368074.320   119780056.653 7      6638.853    22368075.680   119780056.682 7      6638.853    22368088.140    93162328.975 7      5163.552    22368087.120    93162329.979 7      5163.552
R03  21366093.540   114374372.477 7      4107.426    21366094.640   114374372.511 7      4107.426    21366104.080    88957889.822 8      3194.665    21366103.880    88957890.828 8      3194.665
G16  24125366.860   126779616.218 6      -720.038    24125364.920   126779616.225 4      -720.038    24125372.500    98789319.233 4      -561.069
R09  21631514.480   115511073.246 7      4235.086    21631515.060   115511073.247 7      4235.086    21631521.720    89841987.243 8      3293.956    21631522.220    89841989.246 8      3293.956
G10  24365842.060   128043324.950 7      -206.396    24365841.000   128043324.952 7      -206.396    24365850.840    99774049.676 7      -160.828    24365850.940    99774049.680 7      -160.828
R15  23550529.060   125846826.659 6     -1413.327    23550527.920   125846826.671 6     -1413.327    23550543.100    97880948.535 6     -1099.254    23550543.820    97880947.543 6     -1099.254
R02  23395131.820   124840877.381 7       899.742    23395130.860   124840877.384 7       899.742    23395143.280    97098508.673 7       699.799    23395143.500    97098508.678 7       699.799
G07  24559067.400   129058756.426 6      1404.587    24559066.260   129058756.420 5      1404.587    24559072.880   100565273.883 5      1094.483    24559073.420   100565279.878 7      1094.483
R17  23751082.840   127096812.348 7       899.365    23751082.320   127096812.360 7       899.365    23751098.320    98853153.327 7       699.506    23751097.940    98853150.328 7       699.506
G32  25093377.300   131866585.972 6      3481.979    25093376.600   131866585.966 5      3481.979    25093388.440   102753239.179 5      2713.230    25093388.560   102753241.174 7      2713.230
> 2024 07 08 10 03 27.0000000  0 18
G30  25355704.520   133245121.867 5      2153.199    25355702.360   133245121.877 3      2153.199    25355712.640   103827392.651 3      1677.817    25355712.440   103827409.630 5      1677.817
G02  21564549.820   113322464.711 7      2903.663    21564548.060   113322464.716 6      2903.663    21564549.460    88303218.418 6      2262.595
G03  22649363.320   119023216.994 7      6325.263    22649363.020   119023217.001 7      6325.263    22649369.660    92745398.581 7      4928.776    22649369.780    92745401.578 7      4928.776
G08  20821573.760   109418101.205 8      2571.919    20821572.800   109418101.208 8      2571.919    20821578.200    85260874.466 8      2004.093    20821579.280    85260878.466 8      2004.093
G21  21093574.040   110847473.023 8      1909.417    21093570.400   110847473.033 6      1909.417    21093572.960    86374647.517 6      1487.857
R16  20718693.280   110675523.001 8       326.229    20718693.260   110675523.005 7       326.229    20718701.480    86080990.218 8       253.734    20718701.700    86080989.219 8       253.734
G27  22474289.700   118103170.602 7       979.380    22474288.660   118103170.607 7       979.380    22474295.340    92028464.616 7       763.153    22474295.940    92028465.611 7       763.153
R18  21217992.720   113263071.117 7      1856.946    21217991.840   113263071.109 7      1856.946    21218001.860    88093530.617 8      1444.291    21218001.720    88093533.624 8      1444.291
R04  22366834.840   119773417.982 7      6638.448    22366835.400   119773418.014 7      6638.448    22366847.380    93157165.574 7      5163.238    22366846.940    93157166.585 7      5163.238
R03  21365326.040   114370265.521 7      4106.425    21365327.280   114370265.546 7      4106.425    21365336.980    88954695.520 8      3193.886    21365336.840    88954696.524 8      3193.886
G16  24125503.720   126780336.339 6      -720.302    24125502.060   126780336.346 4      -720.302    24125509.360    98789880.354 4      -561.274
R09  21630721.100   115506838.668 7      4233.926    21630721.880   115506838.672 7      4233.926    21630728.300    89838693.680 8      3293.054    21630729.000    89838695.681 8      3293.054
G10  24365881.460   128043531.499 7      -206.790    24365880.240   128043531.504 7      -206.790    24365890.220    99774210.621 7      -161.135    24365890.180    99774210.625 7      -161.135
R15  23550793.820   125848240.208 6     -1413.690    23550792.460   125848240.201 6     -1413.690    23550808.120    97882047.927 6     -1099.537    23550808.240    97882046.933 6     -1099.537
R02  23394963.020   124839978.094 7       898.807    23394962.120   124839978.089 7       898.807    23394974.620    97097809.219 7       699.072    23394975.020    97097809.222 7       699.072
G07  24558800.540   129057352.322 6      1403.667    24558799.060   129057352.314 5      1403.667    24558805.620   100564179.768 5      1093.767    24558805.860   100564185.761 7      1093.767
R17  23750914.580   127095912.982 7       899.316    23750914.480   127095912.994 7       899.316    23750930.220    98852453.814 7       699.468    23750930.040    98852450.815 7       699.468
G32  25092714.600   131863104.285 6      3481.160    25092713.900   131863104.279 5      3481.160    25092725.800   102750526.174 5      2712.593    25092726.660   102750528.189 7      2712.593
> 2024 07 08 10 03 28.0000000  0 18
G30  25355293.840   133242968.987 5      2152.483    25355292.520   133242968.997 3      2152.483    25355302.840   103825715.079 3      1677.260    25355302.860   103825732.073 5      1677.260
G02  21563997.240   113319560.926 7      2903.639    21563995.440   113319560.928 6      2903.639    21563996.860    88300955.730 6      2262.576
G03  22648160.040   119016891.736 7      6324.955    22648159.320   119016891.738 7      6324.955    22648166.000    92740469.802 7      4928.537    22648166.360    92740472.802 7      4928.537
G08  20821084.520   109415529.312 8      2571.606    20821083.420   109415529.317 8      2571.606    20821088.820    85258870.397 8      2003.849    20821089.660    85258874.400 8      2003.849
G21  21093210.760   110845563.480 7      1909.296    21093207.060   110845563.485 6      1909.296    21093209.600    86373159.557 6      1487.763
R16  20718632.180   110675197.006 7       325.573    20718632.080   110675197.004 8       325.573    20718640.500    86080736.668 8       253.224    20718640.780    86080735.665 8       253.224
G27  22474103.420   118102191.182 7       979.159    22474102.220   118102191.187 7       979.159    22474108.800    92027701.425 7       762.981    22474109.560    92027702.427 7       762.981
R18  21217645.100   113261214.099 7      1856.833    21217643.940   113261214.089 7      1856.833    21217654.000    88092086.259 8      1444.204    21217653.660    88092089.266 8      1444.204
R04  22365594.780   119766779.571 7      6638.117    22365596.020   119766779.610 7      6638.117    22365607.080    93152002.378 7      5162.980    22365607.240    93152003.382 7      5162.980
R03  21364558.940   114366159.359 7      4105.618    21364560.260   114366159.382 7      4105.618    21364569.920    88951501.835 8      3193.258    21364569.460    88951502.836 8      3193.258
G16  24125641.080   126781056.560 6      -720.332    24125639.320   126781056.567 4      -720.332    24125646.480    98790441.553 4      -561.297
R09  21629928.140   115502604.893 7      4233.198    21629928.920   115502604.897 7      4233.198    21629935.740    89835400.742 8      3292.487    21629936.200    89835402.745 8      3292.487
G10  24365920.720   128043738.324 7      -207.103    24365919.560   128043738.329 7      -207.103    24365929.560    99774371.779 7      -161.379    24365929.680    99774371.786 7      -161.379
R15  23551058.660   125849653.728 6     -1413.705    23551055.660   125849653.703 6     -1413.705    23551073.320    97883147.303 6     -1099.548    23551072.640    97883146.300 7     -1099.548
R02  23394794.540   124839079.498 7       898.114    23394793.800   124839079.496 7       898.114    23394806.240    97097110.311 7       698.533    23394806.720    97097110.314 7       698.533
G07  24558533.040   129055948.366 6      1403.772    24558531.940   129055948.365 5      1403.772    24558538.420   100563085.764 5      1093.848    24558538.420   100563091.757 7      1093.848
R17  23750746.380   127095013.558 7       899.402    23750745.740   127095013.567 7       899.402    23750762.160    98851754.259 7       699.535    23750761.900    98851751.258 7       699.535
G32  25092052.620   131859623.024 6      3480.804    25092051.040   131859623.015 5      3480.804    25092063.300   102747813.505 5      2712.315    25092064.120   102747815.514 7      2712.315
> 2024 07 08 10 03 29.0000000  0 18
G30  25354884.260   133240816.513 5      2152.162    25354883.060   133240816.518 3      2152.162    25354893.180   103824037.822 3      1677.009    25354894.160   103824054.817 5      1677.009
G02  21563444.860   113316657.487 7      2903.329    21563442.920   113316657.492 6      2903.329    21563444.400    88298693.304 6      2262.334
G03  22646956.220   119010566.846 7      6324.772    22646955.860   119010566.851 7      6324.772    22646962.380    92735541.317 7      4928.394    22646962.780    92735544.320 7      4928.394
G08  20820595.100   109412957.850 7      2571.361    20820594.020   109412957.855 8      2571.361    20820599.480    85256866.654 8      2003.658    20820600.400    85256870.657 8      2003.658
G21  21092847.460   110843654.210 7      1909.206    21092843.760   110843654.217 6      1909.206    21092846.300    86371671.810 6      1487.693
R16  20718571.400   110674871.785 8       324.874    20718571.120   110674871.783 8       324.874    20718579.560    86080483.712 8       252.680    20718579.720    86080482.712 8       252.680
G27  22473917.340   118101212.140 7       978.911    22473916.080   118101212.145 7       978.911    22473922.400    92026938.533 7       762.788    22473923.200    92026939.537 7       762.788
R18  21217297.260   113259357.172 7      1857.010    21217296.060   113259357.167 7      1857.010    21217306.080    88090641.985 8      1444.341    21217305.960    88090644.990 8      1444.341
R04  22364355.340   119760141.457 7      6638.149    22364356.800   119760141.480 7      6638.149    22364367.140    93146839.386 7      5163.005    22364367.460    93146840.381 7      5163.005
R03  21363792.000   114362054.091 7      4104.872    21363793.200   114362054.112 7      4104.872    21363803.100    88948308.847 8      3192.678    21363802.800    88948309.850 8      3192.678
G16  24125778.080   126781777.038 6      -720.568    24125776.600   126781777.046 4      -720.568    24125783.660    98791002.951 4      -561.482
R09  21629135.460   115498372.024 7      4232.507    21629136.040   115498372.025 7      4232.507    21629142.800    89832108.508 7      3291.950    21629143.540    89832110.506 8      3291.950
G10  24365960.160   128043945.498 7      -207.244    24365959.060   128043945.501 7      -207.244    24365969.000    99774533.206 7      -161.488    24365969.120    99774533.214 7      -161.488
R15  23551323.280   125851067.296 6     -1413.687    23551321.340   125851067.284 6     -1413.687    23551337.960    97884246.730 7     -1099.534    23551337.240    97884245.731 7     -1099.534
R02  23394626.580   124838181.750 7       897.490    23394625.440   124838181.743 7       897.490    23394638.360    97096412.050 7       698.047    23394638.380    97096412.049 7       698.047
G07  24558266.280   129054544.751 6      1403.326    24558264.860   129054544.751 5      1403.326    24558271.140   100561992.046 5      1093.501    24558270.860   100561998.058 7      1093.501
R17  23750578.440   127094114.173 7       899.520    23750577.800   127094114.174 7       899.520    23750594.020    98851054.723 7       699.627    23750593.820    98851051.725 7       699.627
G32  25091390.180   131856142.228 6      3480.567    25091388.660   131856142.219 5      3480.567    25091400.960   102745101.194 5      2712.131    25091401.380   102745103.209 7      2712.131
> 2024 07 08 10 03 30.0000000  0 18
G30  25354474.380   133238664.306 5      2152.330    25354473.560   133238664.311 3      2152.330    25354483.640   103822360.781 3      1677.140    25354484.960   103822377.768 5      1677.140
G02  21562892.540   113313754.130 8      2903.432    21562890.520   113313754.140 6      2903.432    21562891.940    88296430.950 6      2262.414
G03  22645752.840   119004242.175 7      6324.630    22645752.200   119004242.182 7      6324.630    22645758.680    92730613.003 7      4928.283    22645759.580    92730616.005 7      4928.283
G08  20820105.940   109410386.627 8      2571.264    20820104.820   109410386.626 8      2571.264    20820110.220    85254863.104 8      2003.582    20820111.040    85254867.109 8      2003.582
G21  21092484.120   110841745.061 8      1909.161    21092480.380   110841745.068 6      1909.161    21092482.900    86370184.165 6      1487.658
R16  20718510.700   110674547.133 8       324.414    20718510.120   110674547.126 8       324.414    20718518.840    86080231.203 8       252.322    20718518.920    86080230.203 8       252.322
G27  22473731.020   118100233.276 7       978.887    22473729.600   118100233.276 7       978.887    22473736.220    92026175.780 7       762.769    22473737.140    92026176.780 7       762.769
R18  21216949.360   113257500.226 7      1857.101    21216948.280   113257500.222 7      1857.101    21216958.460    88089197.690 8      1444.412    21216957.940    88089200.688 8      1444.412
R04  22363115.440   119753503.439 7      6638.051    22363116.440   119753503.478 7      6638.051    22363128.580    93141676.506 7      5162.928    22363128.020    93141677.500 7      5162.928
R03  21363025.240   114357949.517 7      4104.302    21363026.460   114357949.548 7      4104.302    21363036.180    88945116.406 8      3192.235    21363035.840    88945117.410 7      3192.235
G16  24125915.120   126782497.532 6      -720.518    24125913.500   126782497.540 4      -720.518    24125920.700    98791564.369 4      -561.443
R09  21628342.800   115494139.886 7      4231.851    21628343.360   115494139.889 7      4231.851    21628350.220    89828816.847 8      3291.439    21628350.680    89828818.848 8      3291.439
G10  24365999.720   128044152.844 7      -207.294    24365998.640   128044152.843 7      -207.294    24366008.440    99774694.769 7      -161.528    24366008.820    99774694.770 7      -161.528
R15  23551588.500   125852480.755 6     -1413.126    23551586.580   125852480.743 6     -1413.126    23551602.160    97885346.054 7     -1099.098    23551601.740    97885345.063 7     -1099.098
R02  23394458.500   124837284.637 7       896.850    23394457.660   124837284.636 7       896.850    23394470.020    97095714.298 7       697.550    23394469.840    97095714.299 7       697.550
G07  24557998.980   129053141.268 6      1403.403    24557997.940   129053141.265 5      1403.403    24558003.960   100560898.421 5      1093.561    24558004.080   100560904.420 7      1093.561
R17  23750410.160   127093214.641 7       899.674    23750409.680   127093214.656 7       899.674    23750425.760    98850355.089 7       699.747    23750425.840    98850352.095 7       699.747
G32  25090727.740   131852661.786 6      3480.396    25090726.520   131852661.772 5      3480.396    25090738.660   102742389.170 5      2711.997    25090739.100   102742391.187 7      2711.997
> 2024 07 08 10 03 31.0000000  0 18
G30  25354064.940   133236512.343 5      2152.074    25354063.960   133236512.347 3      2152.074    25354074.200   103820683.924 3      1676.941    25354075.780   103820700.938 5      1676.941
G02  21562339.920   113310850.810 7      2903.394    21562338.100   113310850.817 6      2903.394    21562339.380    88294168.621 6      2262.385
G03  22644549.480   118997917.558 7      6324.834    22644548.520   118997917.566 7      6324.834    22644555.260    92725684.729 7      4928.442    22644555.920    92725687.732 7      4928.442
G08  20819616.660   109407815.517 8      2571.195    20819615.540   109407815.519 8      2571.195    20819620.860    85252859.641 8      2003.529    20819621.760    85252863.646 8      2003.529
G21  21092120.960   110839835.875 7      1909.397    21092117.040   110839835.880 6      1909.397    21092119.720    86368696.482 6      1487.842
R16  20718449.960   110674222.911 8       324.101    20718449.400   110674222.910 8       324.101    20718458.120    86079979.033 8       252.079    20718458.100    86079978.030 8       252.079
G27  22473544.640   118099254.484 7       978.782    22473543.420   118099254.489 7       978.782    22473550.040    92025413.091 7       762.687    22473550.740    92025414.089 7       762.687
R18  21216601.540   113255643.075 7      1857.300    21216600.360   113255643.065 7      1857.300    21216610.580    88087753.235 8      1444.567    21216609.980    88087756.235 8      1444.567
R04  22361875.640   119746865.437 7      6638.097    22361876.440   119746865.471 7      6638.097    22361889.940    93136513.620 7      5162.965    22361888.460    93136514.620 7      5162.965
R03  21362258.880   114353845.526 7      4103.747    21362259.480   114353845.562 7      4103.747    21362269.500    88941924.417 8      3191.803    21362269.080    88941925.410 7      3191.803
G16  24126052.020   126783217.929 6      -720.175    24126050.600   126783217.932 4      -720.175    24126057.860    98792125.705 4      -561.175
R09  21627550.300   115489908.362 7      4231.269    21627550.600   115489908.365 7      4231.269    21627557.980    89825525.662 8      3290.987    21627558.580    89825527.658 8      3290.987
G10  24366039.300   128044360.250 7      -207.352    24366038.120   128044360.254 7      -207.352    24366048.000    99774856.384 7      -161.573    24366048.420    99774856.391 7      -161.573
R15  23551853.260   125853894.019 6     -1412.997    23551851.980   125853894.022 6     -1412.997    23551867.180    97886445.238 7     -1098.998    23551866.140    97886444.247 7     -1098.998
R02  23394290.400   124836388.069 7       896.339    23394289.500   124836388.054 7       896.339    23394301.940    97095016.963 7       697.153    23394301.840    97095016.966 7       697.153
G07  24557731.660   129051737.792 6      1403.612    24557730.940   129051737.784 5      1403.612    24557736.960   100559804.783 5      1093.724    24557737.240   100559810.772 7      1093.724
R17  23750242.160   127092314.901 7       899.953    23750241.720   127092314.905 7       899.953    23750257.720    98849655.281 7       699.964    23750257.440    98849652.282 7       699.964
G32  25090065.220   131849181.578 6      3480.135    25090064.280   131849181.573 5      3480.135    25090076.440   102739677.326 5      2711.793    25090076.940   102739679.351 7      2711.793
> 2024 07 08 10 03 32.0000000  0 18
G30  25353655.260   133234360.624 5      2151.547    25353654.480   133234360.631 3      2151.547    25353664.680   103819007.260 3      1676.530    25353665.120   103819024.264 5      1676.530
G02  21561787.240   113307947.566 8      2903.078    21561785.580   113307947.573 6      2903.078    21561786.940    88291906.352 6      2262.139
G03  22643346.100   118991593.147 7      6324.343    22643344.980   118991593.151 7      6324.343    22643351.760    92720756.632 7      4928.059    22643352.320    92720759.630 7      4928.059
G08  20819127.440   109405244.627 8      2570.709    20819126.240   109405244.632 8      2570.709    20819131.580    85250856.357 8      2003.150    20819132.480    85250860.362 8      2003.150
G21  21091757.660   110837926.784 7      1908.971    21091753.760   110837926.788 6      1908.971    21091756.420    86367208.878 6      1487.510
R16  20718389.660   110673899.274 8       323.327    20718388.720   110673899.267 8       323.327    20718397.520    86079727.309 8       251.476    20718397.780    86079726.306 8       251.476
G27  22473358.400   118098275.868 7       978.443    22473357.220   118098275.872 7       978.443    22473363.720    92024650.525 7       762.423    22473364.280    92024651.530 7       762.423
R18  21216253.740   113253785.820 7      1857.223    21216252.400   113253785.821 7      1857.223    21216262.580    88086308.717 8      1444.507    21216262.120    88086311.714 8      1444.507
R04  22360636.440   119740227.500 7      6637.818    22360636.680   119740227.528 7      6637.818    22360650.920    93131350.792 7      5162.747    22360649.000    93131351.792 7      5162.747
R03  21361492.040   114349742.172 7      4102.916    21361492.940   114349742.208 7      4102.916    21361502.940    88938732.920 8      3191.157    21361502.820    88938733.919 8      3191.157
G16  24126188.720   126783938.350 6      -720.389    24126187.640   126783938.352 4      -720.389    24126194.820    98792687.063 4      -561.342
R09  21626757.980   115485677.542 7      4230.428    21626758.200   115485677.546 7      4230.428    21626765.980    89822235.027 8      3290.333    21626766.220    89822237.023 8      3290.333
G10  24366078.720   128044567.766 7      -207.555    24366077.640   128044567.770 7      -207.555    24366087.400    99775018.079 7      -161.732    24366087.780    99775018.085 7      -161.732
R15  23552118.220   125855307.106 6     -1413.095    23552117.040   125855307.115 6     -1413.095    23552131.600    97887544.308 7     -1099.074    23552130.840    97887543.309 6     -1099.074
R02  23394122.260   124835492.099 7       895.584    23394121.500   124835492.086 7       895.584    23394134.360    97094320.095 7       696.566    23394134.280    97094320.096 7       696.566
G07  24557464.620   129050334.388 6      1403.270    24557463.860   129050334.385 5      1403.270    24557469.840   100558711.221 5      1093.457    24557470.400   100558717.222 7      1093.457
R17  23750073.660   127091415.027 7       899.911    23750073.500   127091415.036 7       899.911    23750089.660    98848955.377 7       699.931    23750089.220    98848952.382 7       699.931
G32  25089403.140   131845701.686 6      3479.618    25089402.060   131845701.678 5      3479.618    25089414.260   102736965.724 5      2711.390    25089414.520   102736967.745 7      2711.390
> 2024 07 08 10 03 33.0000000  0 18
G30  25353246.800   133232209.238 5      2151.286    25353245.220   133232209.248 3      2151.286    25353255.260   103817330.854 3      1676.327    25353256.560   103817347.885 5      1676.327
G02  21561234.940   113305044.476 7      2903.150    21561233.040   113305044.489 6      2903.150    21561234.520    88289644.207 6      2262.195
G03  22642142.580   118985268.964 7      6324.253    22642141.380   118985268.966 7      6324.253    22642148.340    92715828.695 7      4927.989    22642149.220    92715831.697 7      4927.989
G08  20818638.200   109402674.014 8      2570.617    20818637.100   109402674.016 8      2570.617    20818642.500    85248853.279 8      2003.078    20818643.240    85248857.284 8      2003.078
G21  21091394.320   110836017.831 7      1908.926    21091390.520   110836017.839 6      1908.926    21091393.080    86365721.381 6      1487.475
R16  20718329.260   110673576.260 8       322.876    20718328.160   110673576.253 8       322.876    20718337.080    86079476.071 8       251.126    20718337.340    86079475.071 8       251.126
G27  22473172.300   118097297.459 7       978.392    22473171.120   118097297.461 7       978.392    22473177.580    92023888.124 7       762.383    22473178.320    92023889.128 8       762.383
R18  21215905.460   113251928.588 7      1857.357    21215904.740   113251928.587 7      1857.357    21215914.660    88084864.196 8      1444.611    21215914.220    88084867.196 8      1444.611
R04  22359396.940   119733589.726 7      6637.757    22359397.380   119733589.754 6      6637.757    22359411.320    93126188.089 7      5162.700    22359409.840    93126189.100 7      5162.700
R03  21360725.700   114345639.551 7      4102.313    21360726.280   114345639.577 7      4102.313    21360736.520    88935541.988 8      3190.688    21360736.300    88935542.990 8      3190.688
G16  24126326.000   126784658.855 6      -720.322    24126324.800   126784658.860 4      -720.322    24126331.840    98793248.487 4      -561.290
R09  21625966.240   115481447.524 7      4229.730    21625965.680   115481447.523 7      4229.730    21625973.900    89818945.011 8      3289.790    21625973.980    89818947.005 8      3289.790
G10  24366118.080   128044775.544 7      -207.712    24366117.040   128044775.549 7      -207.712    24366127.160    99775179.976 7      -161.853    24366127.360    99775179.977 7      -161.853
R15  23552382.440   125856720.113 6     -1412.824    23552382.380   125856720.119 6     -1412.824    23552396.000    97888643.290 6     -1098.863    23552395.360    97888642.298 6     -1098.863
R02  23393954.240   124834596.774 7       895.157    23393953.740   124834596.769 7       895.157    23393966.080    97093623.731 7       696.233    23393966.320    97093623.730 7       696.233
G07  24557197.520   129048931.165 6      1403.320    24557196.840   129048931.162 5      1403.320    24557202.820   100557617.796 5      1093.496    24557203.460   100557623.804 6      1093.496
R17  23749905.340   127090515.056 7       900.194    23749905.340   127090515.071 7       900.194    23749921.600    98848255.397 7       700.151    23749921.280    98848252.401 7       700.151
G32  25088740.780   131842222.151 6      3479.509    25088739.920   131842222.145 5      3479.509    25088751.880   102734254.400 5      2711.306    25088752.940   102734256.398 6      2711.306
> 2024 07 08 10 03 34.0000000  0 18
G30  25352837.960   133230058.318 5      2150.902    25352835.940   133230058.328 3      2150.902    25352846.040   103815654.814 3      1676.027    25352846.120   103815671.822 5      1676.027
G02  21560682.560   113302141.697 7      2902.670    21560680.720   113302141.707 6      2902.670    21560682.040    88287382.299 6      2261.821
G03  22640939.120   118978945.164 7      6323.628    22640937.980   118978945.164 7      6323.628    22640945.000    92710901.066 7      4927.502    22640945.840    92710904.065 7      4927.502
G08  20818149.280   109400103.815 8      2570.059    20818148.060   109400103.815 8      2570.059    20818153.320    85246850.527 8      2002.644    20818153.940    85246854.530 8      2002.644
G21  21091031.500   110834109.126 7      1908.631    21091027.260   110834109.134 6      1908.631    21091029.960    86364234.082 6      1487.245
R16  20718268.780   110673254.014 8       321.903    20718267.840   110673254.013 7       321.903    20718276.620    86079225.436 8       250.369    20718276.560    86079224.436 8       250.369
G27  22472986.120   118096319.410 7       977.861    22472985.020   118096319.415 7       977.861    22472991.540    92023126.010 7       761.969    22472992.480    92023127.014 8       761.969
R18  21215557.440   113250071.459 7      1857.139    21215557.040   113250071.454 7      1857.139    21215566.840    88083419.761 8      1444.442    21215566.360    88083422.762 8      1444.442
R04  22358157.420   119726952.235 7      6637.394    22358157.560   119726952.275 6      6637.394    22358170.460    93121025.612 7      5162.417    22358170.740    93121026.630 7      5162.417
R03  21359959.040   114341537.731 7      4101.426    21359959.740   114341537.762 7      4101.426    21359970.160    88932351.688 8      3189.998    21359970.240    88932352.685 8      3189.998
G16  24126462.920   126785379.573 6      -720.675    24126461.920   126785379.583 4      -720.675    24126469.180    98793810.079 4      -561.565
R09  21625173.900   115477218.390 7      4228.686    21625173.740   115477218.391 7      4228.686    21625181.920    89815655.688 8      3288.978    21625182.560    89815657.682 8      3288.978
G10  24366157.880   128044983.641 7      -208.256    24366156.660   128044983.641 7      -208.256    24366166.560    99775342.124 7      -162.277    24366167.180    99775342.126 7      -162.277
R15  23552646.980   125858133.152 6     -1413.025    23552647.420   125858133.161 6     -1413.025    23552660.180    97889742.319 6     -1099.020    23552659.440    97889741.328 6     -1099.020
R02  23393786.820   124833702.249 7       894.183    23393785.860   124833702.247 7       894.183    23393798.680    97092927.988 7       695.476    23393799.040    97092927.999 7       695.476
G07  24556930.980   129047528.267 6      1402.786    24556929.940   129047528.264 5      1402.786    24556935.860   100556524.625 5      1093.080    24556936.620   100556530.622 6      1093.080
R17  23749737.560   127089615.112 7       900.002    23749736.880   127089615.122 7       900.002    23749753.360    98847555.439 7       700.002    23749752.600    98847552.437 7       700.002
G32  25088078.880   131838743.094 6      3479.081    25088077.860   131838743.091 5      3479.081    25088089.760   102731543.446 5      2710.972    25088091.120   102731545.449 6      2710.972
> 2024 07 08 10 03 35.0000000  0 18
G30  25352429.040   133227907.871 5      2150.430    25352426.780   133227907.881 3      2150.430    25352436.700   103813979.143 3      1675.660    25352436.940   103813996.174 5      1675.660
G02  21560130.100   113299239.168 7      2902.557    21560128.460   113299239.173 6      2902.557    21560129.800    88285120.582 6      2261.733
G03  22639735.600   118972621.691 7      6323.398    22639734.780   118972621.698 7      6323.398    22639741.740    92705973.686 7      4927.323    22639742.760    92705976.685 7      4927.323
G08  20817660.140   109397534.003 8      2569.713    20817659.020   109397534.005 8      2569.713    20817664.340    85244848.072 8      2002.374    20817665.420    85244852.077 8      2002.374
G21  21090668.120   110832200.687 7      1908.424    21090664.060   110832200.692 6      1908.424    21090666.680    86362746.986 6      1487.084
R16  20718208.560   110672932.464 8       321.331    20718207.560   110672932.459 7       321.331    20718216.540    86078975.341 8       249.924    20718216.800    86078974.336 8       249.924
G27  22472799.880   118095341.687 7       977.688    22472798.860   118095341.689 7       977.688    22472805.540    92022364.140 7       761.835    22472806.160    92022365.150 8       761.835
R18  21215209.620   113248214.419 7      1857.167    21215209.400   113248214.415 7      1857.167    21215218.860    88081975.389 8      1444.463    21215218.740    88081978.396 8      1444.463
R04  22356917.740   119720315.058 7      6637.166    22356917.960   119720315.100 6      6637.166    22356930.180    93115863.365 7      5162.240    22356930.920    93115864.375 7      5162.240
R03  21359193.140   114337436.751 7      4100.692    21359193.400   114337436.777 7      4100.692    21359203.880    88929162.026 8      3189.427    21359204.020    88929163.020 8      3189.427
G16  24126600.200   126786100.456 6      -720.799    24126599.300   126786100.468 4      -720.799    24126606.480    98794371.800 4      -561.661
R09  21624382.440   115472990.171 7      4227.934    21624381.720   115472990.159 7      4227.934    21624390.280    89812367.072 8      3288.393    21624390.300    89812369.066 8      3288.393
G10  24366197.220   128045192.027 7      -208.429    24366196.420   128045192.029 7      -208.429    24366206.220    99775504.500 7      -162.413    24366206.460    99775504.504 7      -162.413
R15  23552911.660   125859546.215 6     -1412.986    23552912.180   125859546.230 6     -1412.986    23552924.560    97890841.380 6     -1098.989    23552923.640    97890840.387 6     -1098.989
R02  23393619.080   124832808.477 7       893.540    23393618.500   124832808.478 7       893.540    23393630.900    97092232.844 7       694.975    23393631.160    97092232.852 7       694.975
G07  24556664.120   129046125.653 6      1402.508    24556663.080   129046125.653 5      1402.508    24556669.100   100555431.674 5      1092.864    24556669.700   100555437.669 6      1092.864
R17  23749569.220   127088715.142 7       900.102    23749568.700   127088715.159 7       900.102    23749585.240    98846855.454 7       700.080    23749584.960    98846852.455 7       700.080
G32  25087416.760   131835264.542 6      3478.419    25087415.740   131835264.547 5      3478.419    25087427.760   102728832.901 5      2710.457    25087429.020   102728834.909 6      2710.457
> 2024 07 08 10 03 36.0000000  0 18
G30  25352020.060   133225757.721 5      2149.861    25352017.620   133225757.731 3      2149.861    25352027.620   103812303.701 3      1675.217    25352030.040   103812320.714 5      1675.217
G02  21559577.920   113296336.770 8      2902.309    21559576.280   113296336.775 6      2902.309    21559577.580    88282858.971 6      2261.539
G03  22638532.240   118966298.425 7      6323.164    22638531.360   118966298.435 7      6323.164    22638538.460    92701046.463 7      4927.141    22638539.180    92701049.463 7      4927.141
G08  20817171.180   109394964.425 8      2569.444    20817170.000   109394964.427 8      2569.444    20817175.460    85242845.801 8      2002.164    20817176.360    85242849.806 8      2002.164
G21  21090305.020   110830292.344 7      1908.229    21090301.080   110830292.352 6      1908.229    21090303.600    86361259.964 6      1486.932
R16  20718148.160   110672611.474 8       320.656    20718147.380   110672611.469 7       320.656    20718156.580    86078725.678 8       249.399    20718156.520    86078724.677 8       249.399
G27  22472614.040   118094364.169 7       977.348    22472612.980   118094364.174 7       977.348    22472619.560    92021602.440 7       761.570    22472619.960    92021603.449 7       761.570
R18  21214861.860   113246357.308 7      1857.175    21214861.480   113246357.298 7      1857.175    21214870.840    88080530.963 8      1444.470    21214870.640    88080533.968 8      1444.470
R04  22355678.080   119713677.964 7      6637.098    22355678.820   119713678.004 6      6637.098    22355690.800    93110701.176 7      5162.187    22355691.100    93110702.174 7      5162.187
R03  21358427.540   114333336.459 7      4099.812    21358427.460   114333336.487 7      4099.812    21358437.940    88925972.908 8      3188.742    21358437.760    88925973.906 8      3188.742
G16  24126737.540   126786821.420 6      -721.105    24126736.540   126786821.430 4      -721.105    24126743.580    98794933.583 4      -561.900
R09  21623590.860   115468762.679 7      4227.045    21623590.060   115468762.669 7      4227.045    21623598.600    89809079.022 8      3287.702    21623598.740    89809081.018 8      3287.702
G10  24366237.160   128045400.615 7      -208.718    24366236.140   128045400.617 7      -208.718    24366245.920    99775667.034 7      -162.637    24366246.380    99775667.036 7      -162.637
R15  23553176.240   125860959.169 6     -1412.869    23553177.080   125860959.180 6     -1412.869    23553188.640    97891940.334 6     -1098.898    23553187.560    97891939.339 6     -1098.898
R02  23393451.760   124831915.375 7       892.743    23393451.320   124831915.373 7       892.743    23393463.480    97091538.201 7       694.355    23393463.840    97091538.204 7       694.355
G07  24556396.940   129044723.113 6      1402.423    24556396.120   129044723.116 5      1402.423    24556402.240   100554338.779 5      1092.797    24556403.140   100554344.788 7      1092.797
R17  23749400.960   127087815.072 7       900.045    23749400.600   127087815.085 7       900.045    23749416.720    98846155.402 7       700.035    23749416.520    98846152.401 7       700.035
G32  25086755.120   131831786.321 6      3478.015    25086753.780   131831786.331 5      3478.015    25086765.900   102726122.600 5      2710.142    25086767.100   102726124.595 7      2710.142
> 2024 07 08 10 03 37.0000000  0 18
G30  25351611.240   133223608.025 5      2149.310    25351608.660   133223608.038 3      2149.310    25351618.580   103810628.616 3      1674.787    25351620.260   103810645.614 5      1674.787
G02  21559025.480   113293434.684 7      2901.779    21559024.040   113293434.692 6      2901.779    21559025.380    88280597.610 6      2261.127
G03  22637328.780   118959975.548 7      6322.633    22637328.300   118959975.558 7      6322.633    22637335.240    92696119.552 7      4926.727    22637336.380    92696122.560 7      4926.727
G08  20816682.340   109392395.267 8      2568.932    20816681.080   109392395.272 8      2568.932    20816686.460    85240843.860 8      2001.765    20816687.340    85240847.865 8      2001.765
G21  21089941.680   110828384.286 7      1907.875    21089937.840   110828384.290 6      1907.875    21089940.480    86359773.159 6      1486.656
R16  20718088.480   110672291.250 7       319.796    20718087.520   110672291.246 7       319.796    20718096.400    86078476.611 8       248.730    20718096.540    86078475.613 8       248.730
G27  22472428.080   118093387.006 7       976.922    22472427.100   118093387.010 7       976.922    22472433.640    92020841.012 7       761.238    22472434.140    92020842.019 8       761.238
R18  21214514.420   113244500.325 7      1856.836    21214513.660   113244500.318 7      1856.836    21214523.060    88079086.647 8      1444.206    21214522.660    88079089.658 8      1444.206
R04  22354438.860   119707041.170 7      6636.562    22354438.960   119707041.204 7      6636.562    22354452.040    93105539.232 7      5161.770    22354451.880    93105540.223 7      5161.770
R03  21357661.520   114329237.047 7      4098.893    21357661.820   114329237.076 7      4098.893    21357672.100    88922784.477 8      3188.028    21357672.140    88922785.475 8      3188.028
G16  24126874.680   126787542.582 6      -721.346    24126873.700   126787542.589 4      -721.346    24126880.800    98795495.519 4      -562.088
R09  21622799.380   115464536.132 7      4226.020    21622798.360   115464536.117 7      4226.020    21622807.240    89805791.701 8      3286.904    21622807.420    89805793.696 8      3286.904
G10  24366276.860   128045609.542 7      -209.206    24366275.840   128045609.552 7      -209.206    24366285.700    99775829.830 7      -163.018    24366286.000    99775829.839 7      -163.018
R15  23553440.480   125862372.221 6     -1413.024    23553442.060   125862372.233 6     -1413.024    23553452.440    97893039.368 6     -1099.019    23553452.020    97893038.378 6     -1099.019
R02  23393284.960   124831023.070 7       891.837    23393283.940   124831023.071 7       891.837    23393296.380    97090844.184 7       693.651    23393296.720    97090844.191 7       693.651
G07  24556130.160   129043320.920 6      1401.954    24556129.280   129043320.920 5      1401.954    24556135.180   100553246.157 5      1092.432    24556135.940   100553252.160 7      1092.432
R17  23749233.060   127086915.081 7       899.948    23749232.080   127086915.093 7       899.948    23749248.360    98845455.396 7       699.960    23749248.160    98845452.395 7       699.960
G32  25086093.280   131828308.633 6      3477.179    25086091.640   131828308.645 5      3477.179    25086103.920   102723412.716 5      2709.490    25086104.420   102723414.722 7      2709.490
> 2024 07 08 10 03 38.0000000  0 18
G30  25351200.780   133221458.799 5      2149.110    25351199.480   133221458.812 3      2149.110    25351209.520   103808953.891 3      1674.632    25351211.060   103808970.882 5      1674.632
G02  21558473.120   113290532.846 7      2901.882    21558471.720   113290532.856 6      2901.882    21558473.000    88278336.435 6      2261.207
G03  22636125.520   118953653.044 7      6322.434    22636125.020   118953653.046 7      6322.434    22636132.120    92691192.924 7      4926.572    22636133.100    92691195.928 7      4926.572
G08  20816193.460   109389826.519 8      2568.661    20816192.260   109389826.523 8      2568.661    20816197.680    85238842.242 8      2001.554    20816198.520    85238846.247 8      2001.554
G21  21089578.520   110826476.490 7      1907.784    21089574.820   110826476.494 6      1907.784    21089577.400    86358286.563 6      1486.585
R16  20718028.480   110671971.769 8       319.240    20718027.620   110671971.765 7       319.240    20718036.580    86078228.124 8       248.298    20718036.620    86078227.123 8       248.298
G27  22472242.360   118092410.200 7       976.768    22472241.080   118092410.202 7       976.768    22472247.780    92020079.858 7       761.118    22472248.300    92020080.860 8       761.118
R18  21214166.340   113242643.452 7      1856.874    21214165.900   113242643.455 7      1856.874    21214175.080    88077642.412 8      1444.235    21214174.860    88077645.425 8      1444.235
R04  22353199.880   119700404.630 7      6636.563    22353199.900   119700404.645 7      6636.563    22353213.360    93100377.472 7      5161.771    22353212.720    93100378.468 7      5161.771
R03  21356896.060   114325138.509 7      4098.287    21356896.040   114325138.537 7      4098.287    21356906.460    88919596.723 8      3187.557    21356906.280    88919597.716 8      3187.557
G16  24127012.500   126788263.922 6      -721.236    24127010.700   126788263.930 4      -721.236    24127017.940    98796057.592 4      -562.002
R09  21622008.400   115460310.442 7      4225.383    21622007.160   115460310.435 7      4225.383    21622015.720    89802505.062 8      3286.409    21622016.080    89802507.064 8      3286.409
G10  24366316.540   128045818.814 7      -209.381    24366315.660   128045818.813 7      -209.381    24366325.600    99775992.885 7      -163.154    24366325.880    99775992.887 7      -163.154
R15  23553704.500   125863785.324 6     -1412.986    23553705.960   125863785.336 6     -1412.986    23553716.460    97894138.459 6     -1098.989    23553716.400    97894137.466 6     -1098.989
R02  23393117.900   124830131.558 7       891.302    23393116.840   124830131.559 7       891.302    23393129.020    97090150.775 7       693.235    23393129.500    97090150.783 7       693.235
G07  24555863.440   129041918.992 6      1401.896    24555862.480   129041918.992 5      1401.896    24555868.360   100552153.741 5      1092.386    24555869.300   100552159.753 6      1092.386
R17  23749064.780   127086015.139 7       900.028    23749064.280   127086015.144 7       900.028    23749080.080    98844755.429 7       700.022    23749079.740    98844752.426 7       700.022
G32  25085431.400   131824831.405 6      3477.171    25085429.900   131824831.420 5      3477.171    25085442.140   102720703.185 5      2709.484    25085442.480   102720705.182 7      2709.484
> 2024 07 08 10 03 39.0000000  0 18
G30  25350792.440   133219309.705 5      2149.080    25350790.540   133219309.716 3      2149.080    25350800.600   103807279.268 3      1674.608    25350801.320   103807296.255 5      1674.608
G02  21557920.960   113287631.047 7      2901.657    21557919.520   113287631.052 6      2901.657    21557920.880    88276075.293 6      2261.031
G03  22634922.500   118947330.600 7      6322.204    22634921.820   118947330.605 7      6322.204    22634928.960    92686266.353 7      4926.393    22634929.760    92686269.358 7      4926.393
G08  20815704.680   109387257.902 8      2568.372    20815703.460   109387257.902 8      2568.372    20815708.840    85236840.714 8      2001.329    20815709.740    85236844.719 8      2001.329
G21  21089215.600   110824568.654 7      1907.755    21089211.880   110824568.662 6      1907.755    21089214.400    86356799.942 6      1486.563
R16  20717968.860   110671652.761 8       318.652    20717968.240   110671652.765 7       318.652    20717976.900    86077980.004 8       247.841    20717977.120    86077979.004 8       247.841
G27  22472056.220   118091433.459 7       976.546    22472055.320   118091433.459 7       976.546    22472061.960    92019318.760 7       760.945    22472062.120    92019319.761 8       760.945
R18  21213818.460   113240786.407 7      1857.026    21213818.340   113240786.408 7      1857.026    21213827.120    88076198.042 8      1444.354    21213827.180    88076201.053 8      1444.354
R04  22351960.420   119693768.093 7      6636.317    22351961.060   119693768.116 6      6636.317    22351974.380    93095215.732 7      5161.580    22351973.260    93095216.731 7      5161.580
R03  21356130.680   114321040.529 7      4097.619    21356130.300   114321040.555 7      4097.619    21356140.740    88916409.401 8      3187.037    21356140.760    88916410.403 8      3187.037
G16  24127149.100   126788985.207 6      -721.352    24127147.820   126788985.210 4      -721.352    24127155.200    98796619.622 4      -562.092
R09  21621217.080   115456085.403 7      4224.534    21621216.220   115456085.388 7      4224.534    21621224.520    89799218.916 8      3285.749    21621225.040    89799220.915 8      3285.749
G10  24366356.380   128046028.103 7      -209.490    24366355.500   128046028.103 7      -209.490    24366365.300    99776155.965 7      -163.239    24366365.680    99776155.968 7      -163.239
R15  23553969.060   125865198.222 7     -1412.958    23553969.880   125865198.223 6     -1412.958    23553981.060    97895237.377 6     -1098.967    23553980.620    97895236.391 6     -1098.967
R02  23392951.040   124829240.577 7       890.606    23392949.880   124829240.567 7       890.606    23392962.200    97089457.784 7       692.694    23392962.760    97089457.785 7       692.694
G07  24555596.960   129040517.064 6      1401.754    24555595.820   129040517.072 5      1401.754    24555601.500   100551061.336 5      1092.276    24555602.300   100551067.342 6      1092.276
R17  23748896.460   127085114.885 7       900.251    23748896.480   127085114.890 7       900.251    23748911.700    98844055.221 7       700.195    23748911.700    98844052.218 7       700.195
G32  25084770.300   131821354.416 6      3476.725    25084768.080   131821354.428 5      3476.725    25084780.160   102717993.845 5      2709.137    25084780.560   102717995.834 7      2709.137
> 2024 07 08 10 03 40.0000000  0 18
G30  25350383.780   133217161.042 5      2148.337    25350381.760   133217161.055 3      2148.337    25350391.820   103805604.985 3      1674.028    25350393.540   103805621.993 5      1674.028
G02  21557368.900   113284729.426 7      2901.336    21557367.340   113284729.431 6      2901.336    21557368.560    88273814.288 6      2260.782
G03  22633719.740   118941008.435 7      6321.863    22633718.740   118941008.438 7      6321.863    22633725.940    92681339.994 7      4926.127    22633726.760    92681342.992 7      4926.127
G08  20815215.880   109384689.582 8      2567.878    20815214.780   109384689.584 8      2567.878    20815220.140    85234839.430 8      2000.944    20815221.060    85234843.435 8      2000.944
G21  21088852.600   110822661.021 7      1907.368    21088848.680   110822661.026 6      1907.368    21088851.420    86355313.473 6      1486.260
R16  20717909.260   110671334.418 8       317.846    20717908.700   110671334.424 7       317.846    20717917.540    86077732.404 8       247.213    20717917.500    86077731.404 8       247.213
G27  22471870.600   118090456.979 7       976.085    22471869.460   118090456.987 7       976.085    22471875.980    92018557.868 7       760.586    22471876.140    92018558.872 7       760.586
R18  21213470.260   113238929.405 7      1856.842    21213470.640   113238929.404 7      1856.842    21213479.160    88074753.704 8      1444.211    21213479.140    88074756.710 8      1444.211
R04  22350721.600   119687131.778 7      6635.910    22350722.020   119687131.809 6      6635.910    22350734.620    93090054.155 7      5161.263    22350733.840    93090055.161 7      5161.263
R03  21355365.220   114316943.315 7      4096.695    21355365.280   114316943.341 7      4096.695    21355375.460    88913222.685 8      3186.318    21355375.340    88913223.691 8      3186.318
G16  24127286.480   126789706.598 6      -721.730    24127285.040   126789706.600 4      -721.730    24127292.480    98797181.732 4      -562.387
R09  21620425.600   115451861.134 7      4223.743    21620425.180   115451861.124 7      4223.743    21620433.320    89795933.384 8      3285.133    21620433.900    89795935.384 8      3285.133
G10  24366396.360   128046237.656 7      -209.902    24366395.440   128046237.658 7      -209.902    24366405.260    99776319.251 7      -163.560    24366405.760    99776319.255 7      -163.560
R15  23554232.600   125866611.063 7     -1413.073    23554232.960   125866611.067 6     -1413.073    23554245.340    97896336.260 6     -1099.057    23554244.940    97896335.269 6     -1099.057
R02  23392784.160   124828350.273 7       889.762    23392783.200   124828350.271 7       889.762    23392795.500    97088765.323 7       692.037    23392795.780    97088765.329 7       692.037
G07  24555330.040   129039115.352 6      1401.555    24555329.060   129039115.354 5      1401.555    24555334.960   100549969.085 5      1092.121    24555335.320   100549975.084 6      1092.121
R17  23748728.200   127084214.580 7       900.123    23748728.440   127084214.590 7       900.123    23748743.700    98843354.986 7       700.096    23748743.460    98843351.987 7       700.096
G32  25084108.560   131817877.810 6      3476.241    25084106.440   131817877.818 5      3476.241    25084118.360   102715284.808 5      2708.759    25084119.340   102715286.807 6      2708.759
> 2024 07 08 10 03 41.0000000  0 18
G30  25349974.680   133215012.626 5      2148.288    25349972.860   133215012.636 3      2148.288    25349982.960   103803930.892 3      1673.991    25349984.620   103803947.900 5      1673.991
G02  21556816.800   113281827.932 7      2901.318    21556815.200   113281827.940 6      2901.318    21556816.560    88271553.387 6      2260.767
G03  22632516.600   118934686.488 7      6321.691    22632515.760   118934686.493 7      6321.691    22632522.920    92676413.798 7      4925.993    22632523.580    92676416.800 7      4925.993
G08  20814727.280   109382121.491 8      2567.833    20814726.060   109382121.496 8      2567.833    20814731.460    85232838.318 8      2000.909    20814732.260    85232842.323 8      2000.909
G21  21088489.640   110820753.475 7      1907.400    21088485.740   110820753.480 6      1907.400    21088488.340    86353827.071 6      1486.286
R16  20717849.840   110671016.638 7       317.380    20717849.320   110671016.642 8       317.380    20717858.020    86077485.238 8       246.851    20717857.920    86077484.240 8       246.851
G27  22471684.780   118089480.675 7       976.116    22471683.720   118089480.680 7       976.116    22471690.260    92017797.106 7       760.610    22471690.560    92017798.111 8       760.610
R18  21213122.400   113237072.313 7      1856.990    21213122.600   113237072.317 7      1856.990    21213130.980    88073309.296 8      1444.325    21213131.160    88073312.305 8      1444.325
R04  22349482.500   119680495.571 7      6636.122    22349482.520   119680495.596 6      6636.122    22349494.660    93084892.660 7      5161.428    22349494.400    93084893.662 7      5161.428
R03  21354599.780   114312846.800 7      4096.034    21354600.080   114312846.825 7      4096.034    21354610.260    88910036.502 8      3185.804    21354609.740    88910037.514 7      3185.804
G16  24127423.900   126790427.998 6      -721.629    24127422.460   126790428.003 4      -721.629    24127429.680    98797743.856 4      -562.308
R09  21619634.460   115447637.644 7      4223.002    21619634.280   115447637.639 7      4223.002    21619642.260    89792648.451 8      3284.557    21619642.680    89792650.454 8      3284.557
G10  24366436.340   128046447.374 7      -209.887    24366435.220   128046447.376 7      -209.887    24366445.140    99776482.663 7      -163.548    24366445.600    99776482.666 7      -163.548
R15  23554496.620   125868023.744 7     -1412.657    23554495.960   125868023.732 6     -1412.657    23554509.040    97897434.995 6     -1098.733    23554508.960    97897434.015 6     -1098.733
R02  23392617.040   124827460.567 7       889.290    23392616.420   124827460.568 7       889.290    23392628.760    97088073.332 7       691.670    23392628.860    97088073.337 7       691.670
G07  24555063.640   129037713.782 6      1401.445    24555062.200   129037713.784 5      1401.445    24555068.260   100548876.952 5      1092.035    24555068.340   100548882.949 6      1092.035
R17  23748560.040   127083314.155 7       900.353    23748559.740   127083314.173 7       900.353    23748574.740    98842654.655 7       700.274    23748575.280    98842651.650 7       700.274
G32  25083446.660   131814401.546 6      3475.899    25083444.980   131814401.554 5      3475.899    25083456.720   102712576.040 5      2708.493    25083457.980   102712578.052 6      2708.493
> 2024 07 08 10 03 42.0000000  0 18
G30  25349565.480   133212864.557 5      2147.992    25349564.100   133212864.570 3      2147.992    25349574.320   103802257.076 3      1673.760    25349575.280   103802274.088 5      1673.760
G02  21556264.760   113278926.577 8      2901.370    21556263.120   113278926.582 6      2901.370    21556264.220    88269292.585 6      2260.808
G03  22631313.500   118928364.733 7      6321.740    22631312.740   118928364.741 7      6321.740    22631319.980    92671487.759 7      4926.031    22631320.680    92671490.759 7      4926.031
G08  20814238.700   109379553.681 8      2567.658    20814237.460   109379553.686 8      2567.658    20814242.800    85230837.427 8      2000.772    20814243.720    85230841.432 8      2000.772
G21  21088126.580   110818846.065 7      1907.350    21088122.820   110818846.070 6      1907.350    21088125.420    86352340.778 6      1486.247
R16  20717790.540   110670699.454 8       316.998    20717790.060   110670699.455 8       316.998    20717798.580    86077238.531 8       246.554    20717798.820    86077237.535 8       246.554
G27  22471499.140   118088504.594 7       976.036    22471497.960   118088504.604 7       976.036    22471504.520    92017036.525 7       760.548    22471504.920    92017037.529 8       760.548
R18  21212774.260   113235215.170 7      1857.210    21212774.840   113235215.173 7      1857.210    21212782.880    88071864.849 8      1444.496    21212783.080    88071867.858 8      1444.496
R04  22348242.540   119673859.507 7      6636.032    22348242.780   119673859.547 6      6636.032    22348255.140    93079731.295 7      5161.358    22348255.340    93079732.292 7      5161.358
R03  21353834.860   114308750.985 7      4095.503    21353835.480   114308751.006 7      4095.503    21353845.080    88906850.869 8      3185.391    21353844.780    88906851.875 8      3185.391
G16  24127561.240   126791149.454 6      -721.312    24127559.700   126791149.462 4      -721.312    24127567.000    98798306.024 4      -562.061
R09  21618843.560   115443414.901 7      4222.523    21618844.180   115443414.889 7      4222.523    21618851.500    89789364.092 8      3284.185    21618851.800    89789366.094 8      3284.185
G10  24366476.200   128046657.283 7      -209.988    24366475.180   128046657.283 7      -209.988    24366485.160    99776646.223 7      -163.627    24366485.240    99776646.224 7      -163.627
R15  23554761.060   125869436.364 6     -1412.394    23554758.880   125869436.325 6     -1412.394    23554774.440    97898533.674 6     -1098.529    23554773.400    97898532.692 6     -1098.529
R02  23392450.440   124826571.526 7       888.775    23392449.840   124826571.524 7       888.775    23392462.000    97087381.853 7       691.270    23392462.180    97087381.856 7       691.270
G07  24554796.880   129036312.358 6      1401.439    24554795.520   129036312.366 5      1401.439    24554801.680   100547784.927 5      1092.030    24554802.120   100547790.925 6      1092.030
R17  23748391.480   127082413.647 7       900.672    23748391.600   127082413.659 7       900.672    23748406.360    98841954.251 7       700.522    23748406.720    98841951.247 7       700.522
G32  25082785.280   131810925.666 6      3475.671    25082783.580   131810925.674 5      3475.671    25082795.440   102709867.566 5      2708.315    25082796.580   102709869.562 6      2708.315
> 2024 07 08 10 03 43.0000000  0 18
G30  25349157.280   133210717.010 5      2147.337    25349155.460   133210717.023 3      2147.337    25349165.560   103800583.665 3      1673.249    25349166.540   103800600.653 5      1673.249
G02  21555712.540   113276025.550 7      2900.930    21555711.160   113276025.558 6      2900.930    21555712.300    88267032.045 6      2260.465
G03  22630110.820   118922043.412 7      6321.212    22630109.840   118922043.417 7      6321.212    22630117.060    92666562.058 7      4925.620    22630117.580    92666565.060 7      4925.620
G08  20813750.020   109376986.307 8      2567.174    20813748.880   109376986.312 8      2567.174    20813754.200    85228836.874 8      2000.396    20813755.000    85228840.879 8      2000.396
G21  21087763.680   110816938.952 8      1906.967    21087759.940   110816938.957 6      1906.967    21087762.400    86350854.714 6      1485.948
R16  20717731.140   110670383.069 8       316.052    20717730.820   110670383.073 8       316.052    20717739.240    86076992.458 8       245.818    20717739.540    86076991.459 8       245.818
G27  22471313.560   118087528.915 7       975.535    22471312.360   118087528.926 7       975.535    22471318.800    92016276.250 7       760.157    22471319.480    92016277.253 8       760.157
R18  21212426.520   113233358.205 7      1856.921    21212427.220   113233358.214 7      1856.921    21212435.000    88070420.542 8      1444.272    21212435.400    88070423.551 8      1444.272
R04  22347003.640   119667223.760 7      6635.679    22347003.340   119667223.780 6      6635.679    22347016.180    93074570.149 7      5161.083    22347015.860    93074571.147 7      5161.083
R03  21353069.760   114304656.049 7      4094.582    21353070.540   114304656.067 7      4094.582    21353080.160    88903665.915 8      3184.675    21353080.100    88903666.929 8      3184.675
G16  24127698.660   126791871.228 6      -721.875    24127697.060   126791871.236 4      -721.875    24127704.480    98798868.428 4      -562.500
R09  21618053.260   115439193.091 7      4221.453    21618053.640   115439193.081 7      4221.453    21618060.720    89786080.463 8      3283.352    21618061.260    89786082.466 8      3283.352
G10  24366516.240   128046867.582 7      -210.488    24366515.260   128046867.582 7      -210.488    24366525.240    99776810.084 7      -164.017    24366525.460    99776810.084 7      -164.017
R15  23555025.860   125870849.074 6     -1412.792    23555022.980   125870849.057 6     -1412.792    23555038.820    97899632.431 6     -1098.838    23555038.300    97899631.446 6     -1098.838
R02  23392283.940   124825683.330 7       887.828    23392283.760   124825683.336 7       887.828    23392295.340    97086691.036 7       690.533    23392296.180    97086691.037 7       690.533
G07  24554530.340   129034911.282 6      1400.886    24554528.940   129034911.289 5      1400.886    24554535.180   100546693.169 5      1091.600    24554535.400   100546699.162 6      1091.600
R17  23748222.900   127081513.232 7       900.405    23748223.980   127081513.247 7       900.405    23748238.280    98841253.929 7       700.315    23748238.200    98841250.928 7       700.315
G32  25082123.720   131807450.299 6      3475.252    25082122.160   131807450.296 5      3475.252    25082133.920   102707159.479 5      2707.989    25082134.900   102707161.481 6      2707.989
> 2024 07 08 10 03 44.0000000  0 18
G30  25348748.960   133208569.682 5      2147.212    25348746.800   133208569.695 3      2147.212    25348756.980   103798910.420 3      1673.152    25348758.100   103798927.443 5      1673.152
G02  21555160.820   113273124.626 8      2901.033    21555159.020   113273124.631 6      2901.033    21555160.340    88264771.582 6      2260.545
G03  22628907.600   118915722.285 7      6321.056    22628906.940   118915722.295 7      6321.056    22628914.240    92661636.511 7      4925.499    22628914.920    92661639.514 7      4925.499
G08  20813261.360   109374419.157 8      2567.139    20813260.420   109374419.161 8      2567.139    20813265.760    85226836.497 8      2000.368    20813266.660    85226840.502 8      2000.368
G21  21087400.740   110815031.918 8      1907.090    21087397.000   110815031.923 6      1907.090    21087399.540    86349368.715 6      1486.044
R16  20717672.240   110670067.255 8       315.681    20717671.920   110670067.256 8       315.681    20717680.300    86076746.819 8       245.530    20717680.500    86076745.822 8       245.530
G27  22471127.920   118086553.392 7       975.578    22471126.760   118086553.394 7       975.578    22471133.220    92015516.095 7       760.191    22471133.600    92015517.097 7       760.191
R18  21212078.540   113231501.196 8      1857.170    21212079.280   113231501.194 8      1857.170    21212086.980    88068976.191 8      1444.465    21212087.400    88068979.197 8      1444.465
R04  22345764.460   119660588.088 7      6635.710    22345764.640   119660588.122 6      6635.710    22345777.820    93069409.088 7      5161.108    22345776.620    93069410.089 7      5161.108
R03  21352305.040   114300561.745 7      4094.119    21352305.580   114300561.768 7      4094.119    21352315.320    88900481.466 8      3184.315    21352315.500    88900482.482 8      3184.315
G16  24127835.800   126792592.923 6      -721.495    24127834.500   126792592.933 4      -721.495    24127841.820    98799430.776 4      -562.204
R09  21617262.800   115434971.987 8      4220.858    21617263.500   115434971.986 7      4220.858    21617269.860    89782797.387 8      3282.890    21617270.600    89782799.388 8      3282.890
G10  24366556.260   128047078.004 7      -210.433    24366555.220   128047078.004 7      -210.433    24366565.140    99776974.045 7      -163.973    24366565.260    99776974.048 7      -163.973
R15  23555289.540   125872261.651 6     -1412.522    23555287.980   125872261.642 6     -1412.522    23555303.160    97900731.089 6     -1098.628    23555302.900    97900730.111 6     -1098.628
R02  23392117.500   124824795.756 7       887.399    23392117.580   124824795.754 7       887.399    23392129.000    97086000.686 7       690.199    23392129.580    97086000.692 7       690.199
G07  24554263.640   129033510.268 6      1401.033    24554262.400   129033510.273 5      1401.033    24554268.600   100545601.466 5      1091.714    24554268.660   100545607.459 6      1091.714
R17  23748054.980   127080612.646 7       900.877    23748055.660   127080612.661 7       900.877    23748070.240    98840553.459 7       700.682    23748070.000    98840550.458 7       700.682
G32  25081462.440   131803975.249 6      3474.955    25081461.060   131803975.251 5      3474.955    25081472.660   102704451.658 5      2707.757    25081473.460   102704453.671 6      2707.757
> 2024 07 08 10 03 45.0000000  0 18
G30  25348340.280   133206422.827 5      2146.635    25348338.220   133206422.842 3      2146.635    25348348.460   103797237.546 3      1672.702    25348350.220   103797254.540 5      1672.702
G02  21554608.880   113270223.957 8      2900.392    21554607.240   113270223.962 6      2900.392    21554608.420    88262511.321 6      2260.046
G03  22627704.880   118909401.462 7      6320.500    22627704.120   118909401.464 7      6320.500    22627711.380    92656711.192 7      4925.065    22627712.240    92656714.198 7      4925.065
G08  20812773.020   109371852.356 8      2566.555    20812771.900   109371852.358 8      2566.555    20812777.240    85224836.391 8      1999.913    20812778.320    85224840.395 8      1999.913
G21  21087038.020   110813125.105 7      1906.603    21087034.200   110813125.110 6      1906.603    21087036.700    86347882.887 6      1485.665
R16  20717613.220   110669752.136 8       314.655    20717612.780   110669752.137 8       314.655    20717621.240    86076501.724 8       244.732    20717621.520    86076500.725 8       244.732
G27  22470942.300   118085578.178 7       974.980    22470941.080   118085578.183 7       974.980    22470947.740    92014756.186 7       759.724    22470947.880    92014757.192 8       759.724
R18  21211730.900   113229644.250 8      1856.776    21211731.400   113229644.251 7      1856.776    21211738.840    88067531.897 8      1444.159    21211739.480    88067534.898 8      1444.159
R04  22344524.860   119653952.664 7      6635.261    22344525.940   119653952.693 6      6635.261    22344539.280    93064248.207 7      5160.758    22344537.600    93064249.213 7      5160.758
R03  21351540.100   114296468.246 7      4093.005    21351540.840   114296468.269 7      4093.005    21351550.620    88897297.633 8      3183.449    21351550.840    88897298.643 8      3183.449
G16  24127973.120   126793314.834 6      -722.032    24127971.820   126793314.847 4      -722.032    24127979.200    98799993.297 4      -562.622
R09  21616472.260   115430751.773 8      4219.622    21616473.320   115430751.766 7      4219.622    21616479.600    89779514.995 8      3281.928    21616480.360    89779516.993 8      3281.928
G10  24366596.540   128047288.715 7      -211.013    24366595.380   128047288.723 7      -211.013    24366605.240    99777138.234 7      -164.426    24366605.480    99777138.236 7      -164.426
R15  23555554.420   125873674.244 6     -1412.740    23555553.560   125873674.248 6     -1412.740    23555568.440    97901829.764 6     -1098.798    23555567.720    97901828.782 6     -1098.798
R02  23391951.060   124823908.902 7       886.370    23391951.080   124823908.903 7       886.370    23391962.860    97085310.913 7       689.399    23391963.540    97085310.914 7       689.399
G07  24553996.940   129032109.515 6      1400.551    24553995.880   129032109.528 5      1400.551    24554002.200   100544509.970 5      1091.338    24554001.880   100544515.957 6      1091.338
R17  23747886.560   127079712.055 7       900.502    23747887.160   127079712.067 7       900.502    23747901.860    98839852.995 7       700.390    23747901.620    98839849.979 7       700.390
G32  25080801.200   131800500.611 6      3474.384    25080799.880   131800500.627 5      3474.384    25080811.560   102701744.160 5      2707.312    25080812.660   102701746.192 6      2707.312
> 2024 07 08 10 03 46.0000000  0 18
G30  25347931.920   133204276.294 5      2146.467    25347929.820   133204276.307 3      2146.467    25347939.960   103795564.921 3      1672.571    25347941.820   103795581.917 5      1672.571
G02  21554056.800   113267323.425 8      2900.500    21554055.160   113267323.429 6      2900.500    21554056.380    88260251.167 6      2260.130
G03  22626502.180   118903080.879 7      6320.535    22626501.340   118903080.881 7      6320.535    22626508.660    92651786.065 7      4925.092    22626509.280    92651789.066 7      4925.092
G08  20812284.660   109369285.862 8      2566.413    20812283.600   109369285.864 8      2566.413    20812288.860    85222836.523 8      1999.802    20812289.840    85222840.526 8      1999.802
G21  21086674.960   110811218.434 7      1906.842    21086671.420   110811218.433 6      1906.842    21086674.020    86346397.163 6      1485.851
R16  20717554.100   110669437.594 8       314.377    20717553.940   110669437.597 8       314.377    20717562.460    86076257.078 8       244.515    20717562.840    86076256.083 8       244.515
G27  22470756.440   118084603.182 7       975.049    22470755.620   118084603.187 7       975.049    22470762.100    92013996.445 7       759.779    22470761.960    92013997.451 7       759.779
R18  21211382.860   113227787.240 7      1857.102    21211383.460   113227787.249 7      1857.102    21211390.860    88066087.559 8      1444.413    21211391.320    88066090.563 8      1444.413
R04  22343285.620   119647317.421 7      6635.243    22343286.240   119647317.460 7      6635.243    22343299.880    93059087.478 7      5160.745    22343298.680    93059088.486 7      5160.745
R03  21350775.600   114292375.467 7      4092.544    21350776.180   114292375.490 7      4092.544    21350786.200    88894114.361 8      3183.089    21350786.140    88894115.364 8      3183.089
G16  24128111.000   126794036.807 6      -721.904    24128109.060   126794036.820 4      -721.904    24128116.780    98800555.866 4      -562.522
R09  21615682.500   115426532.310 8      4219.224    21615683.620   115426532.295 7      4219.224    21615689.380    89776233.183 7      3281.619    21615689.960    89776235.182 8      3281.619
G10  24366636.820   128047499.652 7      -210.922    24366635.500   128047499.652 7      -210.922    24366645.340    99777302.586 7      -164.355    24366645.720    99777302.588 7      -164.355
R15  23555819.280   125875086.767 6     -1412.359    23555818.900   125875086.761 6     -1412.359    23555833.480    97902928.377 6     -1098.502    23555832.100    97902927.380 6     -1098.502
R02  23391785.140   124823022.724 7       885.884    23391785.100   124823022.727 7       885.884    23391796.800    97084621.659 7       689.021    23391797.080    97084621.662 7       689.021
G07  24553730.280   129030708.951 6      1400.561    24553729.360   129030708.958 5      1400.561    24553735.780   100543418.613 5      1091.347    24553735.980   100543424.600 7      1091.347
R17  23747718.420   127078811.330 7       900.907    23747718.460   127078811.345 7       900.907    23747732.980    98839152.429 7       700.706    23747733.180    98839149.420 7       700.706
G32  25080140.120   131797026.415 6      3474.303    25080138.680   131797026.423 5      3474.303    25080150.380   102699036.995 5      2707.249    25080151.420   102699039.001 6      2707.249
> 2024 07 08 10 03 47.0000000  0 18
G30  25347523.500   133202130.049 5      2146.034    25347521.600   133202130.064 3      2146.034    25347531.600   103793892.520 3      1672.234    25347533.100   103793909.508 5      1672.234
G02  21553504.840   113264423.013 7      2900.431    21553503.280   113264423.023 6      2900.431    21553504.540    88257991.104 6      2260.076
G03  22625299.520   118896760.480 7      6320.339    22625298.660   118896760.485 7      6320.339    22625305.860    92646861.084 7      4924.939    22625306.440    92646864.084 7      4924.939
G08  20811796.280   109366719.576 8      2566.166    20811795.200   109366719.581 8      2566.166    20811800.540    85220836.818 8      1999.610    20811801.460    85220840.823 8      1999.610
G21  21086312.060   110809311.883 7      1906.506    21086308.480   110809311.888 6      1906.506    21086311.100    86344911.541 6      1485.589
R16  20717494.980   110669123.631 8       313.715    20717495.060   110669123.634 8       313.715    20717503.680    86076012.876 8       244.001    20717503.700    86076011.877 8       244.001
G27  22470571.040   118083628.376 7       974.844    22470570.140   118083628.378 7       974.844    22470576.620    92013236.848 7       759.619    22470576.380    92013237.847 7       759.619
R18  21211034.820   113225930.180 7      1857.116    21211035.640   113225930.189 7      1857.116    21211043.020    88064643.174 8      1444.423    21211043.580    88064646.175 7      1444.423
R04  22342046.920   119640682.276 7      6635.177    22342046.920   119640682.312 7      6635.177    22342060.380    93053926.819 7      5160.693    22342059.660    93053927.824 7      5160.693
R03  21350011.220   114288283.397 7      4091.735    21350011.520   114288283.420 7      4091.735    21350021.620    88890931.638 8      3182.461    21350021.960    88890932.644 8      3182.461
G16  24128247.900   126794758.815 6      -722.002    24128246.540   126794758.828 4      -722.002    24128254.200    98801118.459 4      -562.599
R09  21614892.080   115422313.588 7      4218.373    21614893.760   115422313.573 7      4218.373    21614899.260    89772951.951 8      3280.957    21614900.080    89772953.950 8      3280.957
G10  24366676.740   128047710.755 7      -211.221    24366675.680   128047710.757 7      -211.221    24366685.540    99777467.072 7      -164.587    24366685.740    99777467.076 7      -164.587
R15  23556083.320   125876499.122 6     -1412.147    23556083.880   125876499.137 6     -1412.147    23556097.740    97904026.877 6     -1098.336    23556096.540    97904025.876 6     -1098.336
R02  23391619.120   124822137.164 7       885.333    23391619.080   124822137.154 7       885.333    23391630.980    97083932.872 7       688.592    23391631.240    97083932.875 7       688.592
G07  24553463.760   129029308.471 7      1400.590    24553463.000   129029308.478 5      1400.590    24553469.240   100542327.326 5      1091.369    24553469.620   100542333.321 7      1091.369
R17  23747549.980   127077910.498 7       900.899    23747550.620   127077910.513 7       900.899    23747564.500    98838451.773 7       700.699    23747564.740    98838448.768 7       700.699
G32  25079478.960   131793552.551 6      3473.836    25079477.480   131793552.558 5      3473.836    25079489.180   102696330.081 5      2706.885    25079490.540   102696332.079 6      2706.885
> 2024 07 08 10 03 48.0000000  0 18
G30  25347115.440   133199984.291 5      2145.375    25347113.360   133199984.302 3      2145.375    25347123.300   103792220.497 3      1671.721    25347125.220   103792237.477 5      1671.721
G02  21552952.980   113261522.930 7      2899.825    21552951.420   113261522.942 6      2899.825    21552952.660    88255731.301 6      2259.604
G03  22624096.960   118890440.482 7      6319.799    22624095.960   118890440.492 7      6319.799    22624103.320    92641936.421 7      4924.519    22624103.580    92641939.419 7      4924.519
G08  20811308.080   109364153.729 8      2565.579    20811306.840   109364153.731 8      2565.579    20811312.280    85218837.454 8      1999.152    20811313.220    85218841.457 8      1999.152
G21  21085949.500   110807405.582 7      1906.203    21085945.860   110807405.590 6      1906.203    21085948.440    86343426.114 6      1485.353
R16  20717436.800   110668810.394 8       312.789    20717436.380   110668810.401 8       312.789    20717445.120    86075769.252 8       243.280    20717445.260    86075768.253 8       243.280
G27  22470385.760   118082653.977 7       974.036    22470384.660   118082653.984 7       974.036    22470391.140    92012477.576 7       758.989    22470391.280    92012478.577 7       758.989
R18  21210686.940   113224073.261 7      1856.738    21210687.780   113224073.272 7      1856.738    21210695.300    88063198.900 8      1444.129    21210695.580    88063201.902 8      1444.129
R04  22340807.680   119634047.439 7      6634.596    22340808.600   119634047.481 6      6634.596    22340820.620    93048766.396 7      5160.242    22340820.620    93048767.404 7      5160.242
R03  21349246.620   114284192.194 7      4090.658    21349246.980   114284192.228 7      4090.658    21349257.300    88887749.600 8      3181.623    21349257.740    88887750.597 8      3181.623
G16  24128385.280   126795481.030 6      -722.309    24128383.980   126795481.043 4      -722.309    24128391.540    98801681.212 4      -562.838
R09  21614102.520   115418095.777 7      4217.264    21614104.240   115418095.770 7      4217.264    21614109.280    89769671.438 7      3280.094    21614110.100    89769673.434 8      3280.094
G10  24366716.960   128047922.210 7      -211.760    24366715.880   128047922.217 7      -211.760    24366725.820    99777631.837 7      -165.008    24366726.040    99777631.842 7      -165.008
R15  23556347.480   125877911.611 6     -1412.703    23556347.740   125877911.618 6     -1412.703    23556362.600    97905125.461 6     -1098.769    23556361.140    97905124.460 7     -1098.769
R02  23391453.540   124821252.450 7       884.240    23391453.240   124821252.448 7       884.240    23391465.080    97083244.761 7       687.742    23391465.580    97083244.766 7       687.742
G07  24553197.140   129027908.337 6      1400.055    24553196.660   129027908.345 6      1400.055    24553202.540   100541236.309 5      1090.952    24553203.300   100541242.302 7      1090.952
R17  23747381.640   127077009.703 7       900.697    23747382.720   127077009.732 7       900.697    23747396.480    98837751.159 7       700.542    23747396.640    98837748.163 7       700.542
G32  25078817.900   131790079.214 6      3472.805    25078816.640   131790079.214 5      3472.805    25078828.200   102693623.583 5      2706.082    25078829.320   102693625.589 6      2706.082
> 2024 07 08 10 03 49.0000000  0 18
G30  25346706.880   133197839.007 5      2144.837    25346705.060   133197839.015 3      2144.837    25346715.060   103790548.841 3      1671.302    25346716.780   103790565.819 5      1671.302
G02  21552401.280   113258623.120 7      2899.628    21552399.640   113258623.132 6      2899.628    21552400.680    88253471.705 6      2259.450
G03  22622894.280   118884120.887 7      6319.313    22622893.420   118884120.892 7      6319.313    22622900.600    92637012.065 7      4924.140    22622901.260    92637015.065 7      4924.140
G08  20810819.880   109361588.283 8      2565.211    20810818.720   109361588.283 8      2565.211    20810824.120    85216838.408 8      1998.866    20810825.020    85216842.411 8      1998.866
G21  21085586.540   110805499.576 7      1905.864    21085583.140   110805499.580 6      1905.864    21085585.640    86341940.912 6      1485.089
R16  20717378.420   110668497.954 8       312.014    20717378.020   110668497.950 8       312.014    20717386.600    86075526.232 8       242.677    20717386.900    86075525.238 8       242.677
G27  22470200.080   118081679.885 7       973.895    22470199.360   118081679.887 7       973.895    22470205.720    92011718.539 7       758.879    22470206.080    92011719.538 7       758.879
R18  21210339.360   113222216.465 7      1856.709    21210339.720   113222216.474 7      1856.709    21210347.480    88061754.723 8      1444.107    21210347.560    88061757.723 7      1444.107
R04  22339568.200   119627412.878 7      6634.400    22339570.700   119627412.911 6      6634.400    22339581.640    93043606.182 7      5160.089    22339581.840    93043607.188 7      5160.089
R03  21348482.580   114280101.864 7      4089.874    21348483.240   114280101.890 7      4089.874    21348493.340    88884568.224 8      3181.013    21348493.520    88884569.213 8      3181.013
G16  24128522.880   126796203.493 6      -722.758    24128521.580   126796203.508 4      -722.758    24128528.980    98802244.161 4      -563.188
R09  21613312.680   115413878.885 7      4216.300    21613314.880   115413878.872 7      4216.300    21613319.440    89766391.628 7      3279.344    21613320.320    89766393.625 8      3279.344
G10  24366757.240   128048133.993 7      -212.009    24366756.100   128048134.000 7      -212.009    24366766.140    99777796.855 7      -165.202    24366766.460    99777796.855 7      -165.202
R15  23556611.600   125879324.127 6     -1412.671    23556611.600   125879324.120 6     -1412.671    23556626.820    97906224.063 7     -1098.744    23556625.760    97906223.054 7     -1098.744
R02  23391288.140   124820368.547 7       883.485    23391287.700   124820368.545 7       883.485    23391299.260    97082557.275 7       687.155    23391299.740    97082557.276 7       687.155
G07  24552931.120   129026508.517 6      1399.540    24552930.200   129026508.524 5      1399.540    24552936.120   100540145.540 5      1090.550    24552937.600   100540151.537 7      1090.550
R17  23747213.180   127076108.976 7       900.615    23747214.440   127076109.015 7       900.615    23747228.840    98837050.602 7       700.478    23747228.460    98837047.597 7       700.478
G32  25078157.420   131786606.308 6      3472.660    25078155.880   131786606.310 5      3472.660    25078167.460   102690917.422 5      2705.969    25078168.560   102690919.433 6      2705.969
> 2024 07 08 10 03 50.0000000  0 18
G30  25346298.300   133195694.020 5      2144.808    25346296.900   133195694.025 3      2144.808    25346306.860   103788877.419 3      1671.279    25346308.700   103788894.423 5      1671.279
G02  21551849.480   113255723.488 8      2899.572    21551848.020   113255723.496 6      2899.572    21551849.040    88251212.252 6      2259.407
G03  22621691.540   118877801.499 7      6319.322    22621690.880   118877801.504 7      6319.322    22621697.980    92632087.869 7      4924.147    22621698.960    92632090.873 7      4924.147
G08  20810331.840   109359023.146 8      2564.972    20810330.640   109359023.150 8      2564.972    20810336.000    85214839.599 8      1998.679    20810336.840    85214843.602 8      1998.679
G21  21085223.940   110803593.708 7      1905.816    21085220.520   110803593.716 6      1905.816    21085222.880    86340455.824 6      1485.052
R16  20717320.000   110668186.176 8       311.370    20717319.500   110668186.174 8       311.370    20717328.040    86075283.740 8       242.177    20717328.500    86075282.748 8       242.177
G27  22470014.900   118080706.061 7       973.713    22470014.140   118080706.066 7       973.713    22470020.580    92010959.717 7       758.738    22470020.840    92010960.715 7       758.738
R18  21209991.480   113220359.668 7      1856.837    21209991.780   113220359.672 7      1856.837    21209999.520    88060310.544 8      1444.206    21209999.760    88060313.542 8      1444.206
R04  22338330.100   119620778.536 7      6634.268    22338332.240   119620778.562 6      6634.268    22338343.060    93038446.130 7      5159.986    22338342.680    93038447.136 7      5159.986
R03  21347718.160   114276012.281 7      4089.190    21347718.740   114276012.312 7      4089.190    21347729.240    88881387.441 8      3180.481    21347729.740    88881388.436 8      3180.481
G16  24128660.200   126796926.002 6      -722.624    24128659.020   126796926.015 4      -722.624    24128666.280    98802807.146 4      -563.084
R09  21612523.360   115409662.769 7      4215.668    21612525.500   115409662.770 7      4215.668    21612529.940    89763112.434 7      3278.853    21612530.500    89763114.430 7      3278.853
G10  24366797.640   128048346.002 7      -212.193    24366796.460   128048346.010 7      -212.193    24366806.520    99777962.051 7      -165.345    24366806.780    99777962.055 7      -165.345
R15  23556876.720   125880736.589 6     -1412.331    23556875.260   125880736.568 6     -1412.331    23556891.120    97907322.618 7     -1098.479    23556890.320    97907321.610 7     -1098.479
R02  23391122.620   124819485.330 7       882.829    23391122.200   124819485.334 7       882.829    23391134.000    97081870.328 7       686.645    23391134.580    97081870.329 7       686.645
G07  24552664.700   129025108.841 6      1399.659    24552663.740   129025108.846 5      1399.659    24552669.660   100539054.877 5      1090.643    24552670.600   100539060.880 6      1090.643
R17  23747045.080   127075208.248 7       900.691    23747046.320   127075208.265 7       900.691    23747060.540    98836350.015 7       700.538    23747060.320    98836347.012 7       700.538
G32  25077496.560   131783133.854 6      3472.360    25077495.140   131783133.856 5      3472.360    25077506.500   102688211.612 5      2705.735    25077507.820   102688213.617 6      2705.735
> 2024 07 08 10 03 51.0000000  0 18
G30  25345890.500   133193549.535 5      2144.235    25345888.760   133193549.542 3      2144.235    25345898.980   103787206.393 3      1670.832    25345900.660   103787223.385 5      1670.832
G02  21551297.700   113252824.196 8      2898.999    21551296.240   113252824.209 6      2898.999    21551297.400    88248953.061 6      2258.960
G03  22620489.040   118871482.556 7      6318.649    22620488.400   118871482.563 7      6318.649    22620495.700    92627164.013 7      4923.622    22620496.620    92627167.017 7      4923.622
G08  20809843.580   109356458.460 8      2564.295    20809842.600   109356458.462 8      2564.295    20809847.980    85212841.141 8      1998.152    20809848.980    85212845.144 8      1998.152
G21  21084861.160   110801688.164 7      1905.260    21084857.860   110801688.169 6      1905.260    21084860.380    86338970.983 6      1484.618
R16  20717261.840   110667875.194 8       310.426    20717260.880   110667875.198 8       310.426    20717269.740    86075041.865 8       241.442    20717270.300    86075040.869 8       241.442
G27  22469829.760   118079732.642 7       973.008    22469828.800   118079732.650 7       973.008    22469835.280    92010201.207 7       758.188    22469835.680    92010202.200 7       758.188
R18  21209643.820   113218503.027 7      1856.415    21209643.780   113218503.023 7      1856.415    21209651.600    88058866.479 8      1443.879    21209651.880    88058869.479 8      1443.879
R04  22337091.320   119614144.529 7      6633.578    22337091.980   119614144.552 6      6633.578    22337104.680    93033286.343 7      5159.450    22337104.040    93033287.349 7      5159.450
R03  21346954.520   114271923.584 7      4088.097    21346954.420   114271923.610 7      4088.097    21346965.520    88878207.339 8      3179.631    21346965.840    88878208.340 8      3179.631
G16  24128797.980   126797648.753 6      -722.946    24128796.680   126797648.769 4      -722.946    24128803.760    98803370.320 4      -563.334
R09  21611733.880   115405447.612 7      4214.559    21611736.140   115405447.613 7      4214.559    21611740.500    89759833.974 7      3277.991    21611741.120    89759835.968 8      3277.991
G10  24366837.960   128048558.403 7      -212.830    24366836.880   128048558.405 7      -212.830    24366846.840    99778127.550 7      -165.842    24366847.140    99778127.548 7      -165.842
R15  23557141.040   125882149.203 6     -1413.082    23557139.100   125882149.199 6     -1413.082    23557155.660    97908421.313 6     -1099.064    23557154.840    97908420.308 7     -1099.064
R02  23390957.500   124818602.913 7       881.831    23390956.780   124818602.914 7       881.831    23390968.820    97081184.002 7       685.869    23390969.120    97081184.005 7       685.869
G07  24552398.720   129023709.543 6      1398.938    24552397.720   129023709.550 5      1398.938    24552403.320   100537964.515 5      1090.082    24552404.300   100537970.508 6      1090.082
R17  23746876.920   127074307.544 7       900.449    23746877.880   127074307.562 7       900.449    23746892.380    98835649.465 7       700.349    23746891.660    98835646.463 7       700.349
G32  25076835.900   131779661.918 6      3471.535    25076834.680   131779661.918 5      3471.535    25076845.780   102685506.211 5      2705.092    25076846.760   102685508.214 6      2705.092
> 2024 07 08 10 03 52.0000000  0 18
G30  25345482.280   133191405.275 5      2144.392    25345480.700   133191405.285 3      2144.392    25345490.940   103785535.542 3      1670.955    25345493.220   103785552.552 5      1670.955
G02  21550745.980   113249924.922 8      2899.331    21550744.440   113249924.929 6      2899.331    21550745.580    88246693.888 6      2259.219
G03  22619286.720   118865163.725 7      6318.893    22619286.140   118865163.732 7      6318.893    22619293.280    92622240.251 7      4923.813    22619293.840    92622243.248 7      4923.813
G08  20809355.560   109353893.908 8      2564.546    20809354.540   109353893.913 8      2564.546    20809359.860    85210842.789 8      1998.347    20809360.820    85210846.792 8      1998.347
G21  21084498.640   110799782.630 7      1905.542    21084495.220   110799782.635 6      1905.542    21084497.740    86337486.149 6      1484.838
R16  20717203.640   110667564.676 8       310.373    20717202.860   110667564.675 8       310.373    20717211.800    86074800.350 8       241.401    20717212.100    86074799.353 8       241.401
G27  22469644.620   118078759.299 7       973.369    22469643.640   118078759.301 7       973.369    22469650.040    92009442.758 7       758.469    22469650.540    92009443.755 7       758.469
R18  21209295.720   113216646.201 7      1856.992    21209295.480   113216646.205 7      1856.992    21209303.880    88057422.283 8      1444.327    21209304.120    88057425.286 8      1444.327
R04  22335852.240   119607510.477 7      6634.152    22335850.740   119607510.510 6      6634.152    22335866.160    93028126.553 7      5159.896    22335865.280    93028127.565 7      5159.896
R03  21346190.700   114267835.465 7      4087.926    21346191.060   114267835.485 7      4087.926    21346201.920    88875027.691 8      3179.498    21346201.720    88875028.690 8      3179.498
G16  24128935.520   126798371.473 6      -722.573    24128934.320   126798371.489 4      -722.573    24128941.300    98803933.468 4      -563.044
R09  21610944.660   115401233.104 7      4214.291    21610946.720   115401233.113 7      4214.291    21610951.360    89756556.023 8      3277.782    21610952.000    89756558.017 8      3277.782
G10  24366878.300   128048770.859 7      -212.428    24366877.300   128048770.861 7      -212.428    24366887.460    99778293.091 7      -165.529    24366887.540    99778293.092 7      -165.529
R15  23557405.220   125883561.531 6     -1412.175    23557403.360   125883561.514 6     -1412.175    23557419.620    97909519.752 7     -1098.358    23557418.920    97909518.755 7     -1098.358
R02  23390791.960   124817720.988 7       881.837    23390791.380   124817720.986 7       881.837    23390803.560    97080498.058 7       685.873    23390803.960    97080498.061 7       685.873
G07  24552132.240   129022310.245 6      1399.312    24552131.300   129022310.253 5      1399.312    24552136.880   100536874.153 5      1090.373    24552137.640   100536880.163 6      1090.373
R17  23746708.340   127073406.592 7       901.125    23746709.620   127073406.623 7       901.125    23746723.580    98834948.725 7       700.875    23746723.600    98834945.722 7       700.875
G32  25076175.420   131776190.187 6      3471.800    25076174.120   131776190.186 5      3471.800    25076185.140   102682800.970 5      2705.299    25076185.680   102682802.973 6      2705.299
> 2024 07 08 10 03 53.0000000  0 18
G30  25345074.280   133189261.528 5      2143.277    25345072.740   133189261.538 3      2143.277    25345083.040   103783865.087 3      1670.086    25345084.580   103783882.089 5      1670.086
G02  21550194.340   113247025.913 8      2898.687    21550192.900   113247025.915 6      2898.687    21550194.060    88244434.912 6      2258.717
G03  22618084.120   118858845.215 7      6318.133    22618083.740   118858845.217 7      6318.133    22618090.880    92617316.734 7      4923.221    22618091.100    92617319.732 7      4923.221
G08  20808867.860   109351329.729 8      2563.832    20808866.640   109351329.731 8      2563.832    20808872.000    85208844.723 8      1997.791    20808873.060    85208848.728 8      1997.791
G21  21084136.180   110797877.299 7      1905.031    21084132.780   110797877.301 6      1905.031    21084135.180    86336001.477 6      1484.440
R16  20717145.800   110667254.862 8       309.210    20717144.600   110667254.865 8       309.210    20717153.860    86074559.368 8       240.497    20717154.240    86074558.374 8       240.497
G27  22469459.280   118077786.274 7       972.656    22469458.340   118077786.282 7       972.656    22469464.820    92008684.555 7       757.914    22469465.520    92008685.550 7       757.914
R18  21208948.460   113214789.483 7      1856.542    21208947.340   113214789.481 7      1856.542    21208956.300    88055978.162 8      1443.977    21208956.280    88055981.167 8      1443.977
R04  22334613.000   119600876.740 7      6633.461    22334612.520   119600876.779 6      6633.461    22334627.140    93022966.991 7      5159.358    22334626.720    93022968.001 7      5159.358
R03  21345427.180   114263748.146 7      4086.576    21345427.000   114263748.182 7      4086.576    21345438.380    88871848.673 8      3178.448    21345438.380    88871849.671 8      3178.448
G16  24129073.800   126799094.343 6      -723.068    24129071.700   126799094.356 4      -723.068    24129078.740    98804496.739 4      -563.429
R09  21610155.660   115397019.463 7      4212.972    21610157.760   115397019.480 7      4212.972    21610162.300    89753278.749 7      3276.756    21610163.000    89753280.742 7      3276.756
G10  24366918.760   128048983.632 7      -213.266    24366917.800   128048983.635 7      -213.266    24366927.760    99778458.881 7      -166.181    24366928.080    99778458.881 7      -166.181
R15  23557669.540   125884973.934 6     -1412.730    23557668.220   125884973.912 6     -1412.730    23557683.900    97910618.244 7     -1098.790    23557683.700    97910617.243 7     -1098.790
R02  23390626.860   124816839.849 7       880.489    23390626.320   124816839.853 7       880.489    23390638.540    97079812.724 7       684.825    23390638.880    97079812.727 7       684.825
G07  24551866.160   129020911.189 6      1398.629    24551864.960   129020911.192 5      1398.629    24551870.680   100535783.984 5      1089.841    24551871.700   100535790.010 6      1089.841
R17  23746539.600   127072505.647 7       900.852    23746541.300   127072505.676 7       900.852    23746555.480    98834247.976 7       700.663    23746555.300    98834244.977 7       700.663
G32  25075515.060   131772718.965 6      3470.770    25075513.960   131772718.967 5      3470.770    25075524.700   102680096.129 5      2704.496    25075525.120   102680098.135 6      2704.496
> 2024 07 08 10 03 54.0000000  0 18
G30  25344666.240   133187118.296 5      2143.074    25344664.980   133187118.304 3      2143.074    25344675.200   103782195.038 3      1669.928    25344676.460   103782212.047 5      1669.928
G02  21549642.720   113244127.367 8      2898.389    21549641.020   113244127.374 6      2898.389    21549642.300    88242176.311 6      2258.485
G03  22616882.140   118852527.254 7      6317.910    22616881.340   118852527.259 7      6317.910    22616888.600    92612393.654 7      4923.046    22616888.720    92612396.662 7      4923.046
G08  20808379.880   109348766.147 8      2563.461    20808378.780   109348766.149 8      2563.461    20808384.100    85206847.127 8      1997.502    20808384.980    85206851.131 8      1997.502
G21  21083773.780   110795972.433 7      1904.837    21083770.340   110795972.438 6      1904.837    21083772.700    86334517.164 6      1484.288
R16  20717087.560   110666945.955 7       308.621    20717086.860   110666945.959 7       308.621    20717095.940    86074319.111 8       240.039    20717096.220    86074318.121 8       240.039
G27  22469274.400   118076813.804 7       972.321    22469273.260   118076813.808 7       972.321    22469279.800    92007926.773 7       757.653    22469280.580    92007927.766 8       757.653
R18  21208600.360   113212933.079 7      1856.361    21208599.400   113212933.077 7      1856.361    21208608.700    88054534.295 8      1443.837    21208608.720    88054537.297 7      1443.837
R04  22333374.480   119594243.483 7      6633.232    22333375.140   119594243.509 6      6633.232    22333388.260    93017807.795 7      5159.181    22333387.780    93017808.807 7      5159.181
R03  21344663.860   114259661.876 7      4085.853    21344664.320   114259661.902 7      4085.853    21344674.880    88868670.455 8      3177.885    21344674.720    88868671.457 8      3177.885
G16  24129211.220   126799817.630 6      -723.330    24129209.320   126799817.648 4      -723.330    24129216.220    98805060.332 4      -563.634
R09  21609366.660   115392806.907 7      4212.150    21609368.780   115392806.924 7      4212.150    21609373.440    89750002.308 8      3276.117    21609374.000    89750004.302 8      3276.117
G10  24366959.260   128049196.921 7      -213.550    24366958.400   128049196.926 7      -213.550    24366968.360    99778625.072 7      -166.402    24366968.560    99778625.070 7      -166.402
R15  23557934.360   125886386.514 6     -1412.706    23557933.360   125886386.494 6     -1412.706    23557947.880    97911716.902 7     -1098.772    23557947.860    97911715.901 7     -1098.772
R02  23390462.000   124815959.706 7       879.794    23390461.360   124815959.712 7       879.794    23390473.400    97079128.161 7       684.284    23390473.880    97079128.162 7       684.284
G07  24551600.240   129019512.617 6      1398.667    24551598.620   129019512.619 5      1398.667    24551604.360   100534694.185 5      1089.870    24551605.040   100534700.196 6      1089.870
R17  23746371.560   127071604.968 7       900.733    23746372.700   127071604.993 7       900.733    23746386.900    98833547.437 7       700.570    23746387.000    98833544.438 7       700.570
G32  25074854.700   131769248.432 6      3470.400    25074853.660   131769248.439 5      3470.400    25074864.200   102677391.823 5      2704.208    25074864.640   102677393.834 6      2704.208
> 2024 07 08 10 03 55.0000000  0 18
G30  25344258.020   133184975.574 5      2142.621    25344257.320   133184975.581 3      2142.621    25344267.500   103780525.383 3      1669.575    25344268.880   103780542.383 5      1669.575
G02  21549091.200   113241229.073 8      2898.228    21549089.660   113241229.078 6      2898.228    21549090.820    88239917.900 6      2258.360
G03  22615679.940   118846209.669 7      6317.393    22615679.260   118846209.671 7      6317.393    22615686.420    92607470.860 6      4922.644    22615686.620    92607473.860 7      4922.644
G08  20807892.220   109346202.958 8      2563.075    20807891.040   109346202.955 8      2563.075    20807896.320    85204849.827 8      1997.201    20807897.380    85204853.834 8      1997.201
G21  21083411.340   110794067.821 7      1904.453    21083407.960   110794067.826 6      1904.453    21083410.400    86333033.051 6      1483.990
R16  20717029.780   110666637.790 8       307.859    20717029.360   110666637.797 8       307.859    20717038.240    86074079.434 8       239.446    20717038.260    86074078.440 8       239.446
G27  22469089.500   118075841.651 7       971.977    22469088.240   118075841.656 7       971.977    22469094.760    92007169.252 7       757.385    22469095.540    92007170.245 8       757.385
R18  21208252.640   113211076.747 7      1856.266    21208251.280   113211076.740 7      1856.266    21208261.080    88053090.471 8      1443.762    21208261.100    88053093.473 8      1443.762
R04  22332135.960   119587610.469 7      6632.884    22332138.340   119587610.492 6      6632.884    22332149.300    93012648.776 7      5158.910    22332149.240    93012649.795 7      5158.910
R03  21343900.740   114255576.455 7      4085.068    21343900.560   114255576.476 7      4085.068    21343911.840    88865492.897 8      3177.275    21343911.660    88865493.897 8      3177.275
G16  24129348.840   126800541.080 6      -723.463    24129347.120   126800541.090 4      -723.463    24129353.820    98805624.051 4      -563.737
R09  21608578.080   115388595.258 7      4211.024    21608579.860   115388595.273 7      4211.024    21608584.960    89746726.583 8      3275.241    21608585.360    89746728.578 8      3275.241
G10  24366999.760   128049410.507 7      -213.775    24366999.020   128049410.509 7      -213.775    24367008.980    99778791.488 7      -166.578    24367009.180    99778791.484 7      -166.578
R15  23558198.640   125887799.093 6     -1412.574    23558197.900   125887799.076 6     -1412.574    23558212.200    97912815.554 7     -1098.669    23558211.900    97912814.562 6     -1098.669
R02  23390297.200   124815080.392 7       878.926    23390296.880   124815080.390 7       878.926    23390308.540    97078444.236 7       683.609    23390309.020    97078444.237 7       683.609
G07  24551334.220   129018114.352 6      1398.091    24551332.520   129018114.359 5      1398.091    24551338.520   100533604.640 5      1089.421    24551338.920   100533610.643 6      1089.421
R17  23746203.440   127070704.310 7       900.528    23746204.440   127070704.325 7       900.528    23746218.500    98832846.912 7       700.410    23746218.440    98832843.914 7       700.410
G32  25074194.520   131765778.414 6      3469.717    25074193.420   131765778.419 5      3469.717    25074203.960   102674687.913 5      2703.676    25074204.940   102674689.920 6      2703.676
> 2024 07 08 10 03 56.0000000  0 18
G30  25343850.060   133182833.306 5      2142.092    25343849.600   133182833.314 3      2142.092    25343859.840   103778856.083 3      1669.163    25343861.080   103778873.079 5      1669.163
G02  21548539.680   113238331.071 8      2897.895    21548538.220   113238331.078 6      2897.895    21548539.180    88237659.715 6      2258.100
G03  22614477.560   118839892.404 7      6317.164    22614477.080   118839892.406 7      6317.164    22614484.280    92602548.316 6      4922.466    22614484.640    92602551.322 7      4922.466
G08  20807404.420   109343640.154 8      2562.648    20807403.360   109343640.153 8      2562.648    20807408.620    85202852.842 8      1996.868    20807409.600    85202856.849 8      1996.868
G21  21083049.020   110792163.449 7      1904.269    21083045.620   110792163.457 6      1904.269    21083047.900    86331549.123 6      1483.846
R16  20716972.060   110666330.355 7       307.109    20716972.140   110666330.362 8       307.109    20716980.640    86073840.314 8       238.863    20716980.840    86073839.318 8       238.863
G27  22468904.400   118074869.842 7       971.690    22468903.280   118074869.845 7       971.690    22468909.780    92006411.994 7       757.161    22468910.660    92006412.993 7       757.161
R18  21207905.060   113209220.495 7      1856.284    21207903.480   113209220.477 7      1856.284    21207913.580    88051646.713 8      1443.776    21207913.140    88051649.718 8      1443.776
R04  22330897.840   119580977.707 7      6632.675    22330899.700   119580977.731 6      6632.675    22330911.000    93007489.957 7      5158.747    22330910.340    93007490.973 7      5158.747
R03  21343137.980   114251491.907 7      4084.169    21343138.140   114251491.927 7      4084.169    21343148.760    88862316.022 8      3176.576    21343148.660    88862317.021 8      3176.576
G16  24129486.100   126801264.717 6      -723.770    24129484.900   126801264.725 4      -723.770    24129491.600    98806187.913 4      -563.977
R09  21607789.540   115384384.453 7      4210.411    21607790.680   115384384.465 7      4210.411    21607796.520    89743451.509 8      3274.764    21607796.940    89743453.503 8      3274.764
G10  24367040.780   128049624.416 7      -213.983    24367039.720   128049624.418 7      -213.983    24367049.820    99778958.162 7      -166.740    24367050.000    99778958.162 7      -166.740
R15  23558463.240   125889211.732 6     -1412.597    23558462.160   125889211.741 6     -1412.597    23558476.480    97913914.288 6     -1098.686    23558476.200    97913913.295 6     -1098.686
R02  23390132.580   124814201.855 7       878.152    23390132.380   124814201.858 7       878.152    23390143.940    97077760.934 7       683.007    23390144.400    97077760.939 7       683.007
G07  24551068.200   129016716.313 6      1397.961    24551066.340   129016716.317 5      1397.961    24551072.620   100532515.241 5      1089.320    24551072.780   100532521.270 6      1089.320
R17  23746035.340   127069803.611 7       900.727    23746036.260   127069803.632 7       900.727    23746050.080    98832146.371 7       700.565    23746050.100    98832143.375 7       700.565
G32  25073534.280   131762308.800 6      3469.391    25073533.500   131762308.800 5      3469.391    25073543.740   102671984.314 5      2703.421    25073545.180   102671986.325 6      2703.421
> 2024 07 08 10 03 57.0000000  0 18
G30  25343442.740   133180691.382 5      2141.635    25343442.180   133180691.382 3      2141.635    25343452.220   103777187.041 3      1668.806    25343452.160   103777204.025 5      1668.806
G02  21547988.200   113235433.250 8      2897.596    21547986.800   113235433.257 6      2897.596    21547987.900    88235401.672 6      2257.867
G03  22613275.600   118833575.423 7      6316.733    22613274.940   118833575.430 7      6316.733    22613282.140    92597626.002 7      4922.130    22613282.760    92597629.003 7      4922.130
G08  20806917.020   109341077.646 8      2562.303    20806915.720   109341077.648 8      2562.303    20806921.060    85200856.081 8      1996.600    20806921.840    85200860.090 8      1996.600
G21  21082686.740   110790259.227 8      1904.099    21082683.200   110790259.231 6      1904.099    21082685.480    86330065.311 6      1483.713
R16  20716915.020   110666023.551 8       306.376    20716914.600   110666023.549 8       306.376    20716923.220    86073601.678 8       238.293    20716923.220    86073600.679 8       238.293
G27  22468719.580   118073898.278 7       971.417    22468718.480   118073898.281 7       971.417    22468724.940    92005654.927 7       756.948    22468725.740    92005655.930 7       756.948
R18  21207557.120   113207364.238 7      1856.150    21207555.840   113207364.234 7      1856.150    21207565.960    88050202.964 8      1443.672    21207565.600    88050205.969 8      1443.672
R04  22329659.220   119574345.128 6      6632.405    22329658.280   119574345.151 6      6632.405    22329672.780    93002331.301 7      5158.537    22329671.880    93002332.313 7      5158.537
R03  21342375.240   114247408.075 7      4083.414    21342375.400   114247408.098 7      4083.414    21342385.920    88859139.711 8      3175.989    21342385.900    88859140.710 8      3175.989
G16  24129623.820   126801988.425 6      -723.790    24129622.640   126801988.432 4      -723.790    24129629.360    98806751.833 4      -563.993
R09  21607001.760   115380174.463 7      4209.486    21607002.140   115380174.474 7      4209.486    21607008.560    89740177.063 8      3274.044    21607008.440    89740179.060 8      3274.044
G10  24367081.620   128049838.561 7      -214.336    24367080.480   128049838.568 7      -214.336    24367090.660    99779125.024 7      -167.015    24367090.660    99779125.029 7      -167.015
R15  23558727.200   125890624.327 6     -1412.543    23558727.180   125890624.331 6     -1412.543    23558740.460    97915012.940 6     -1098.645    23558740.420    97915011.945 6     -1098.645
R02  23389968.120   124813323.977 7       877.471    23389967.700   124813323.980 7       877.471    23389979.580    97077078.137 7       682.477    23389979.700    97077078.140 7       682.477
G07  24550802.320   129015318.470 6      1397.612    24550800.240   129015318.475 5      1397.612    24550806.620   100531426.031 5      1089.048    24550807.320   100531432.061 6      1089.048
R17  23745866.840   127068902.868 7       900.854    23745867.400   127068902.893 7       900.854    23745881.900    98831445.793 7       700.664    23745881.720    98831442.803 7       700.664
G32  25072873.820   131758839.612 6      3468.848    25072873.460   131758839.612 5      3468.848    25072883.600   102669281.059 5      2702.999    25072885.000   102669283.053 6      2702.999
> 2024 07 08 10 03 58.0000000  0 18
G30  25343036.180   133178549.882 5      2140.863    25343034.580   133178549.882 3      2140.863    25343044.880   103775518.334 3      1668.205    25343044.540   103775535.325 5      1668.205
G02  21547436.840   113232535.642 7      2897.305    21547435.320   113232535.644 6      2897.305    21547436.480    88233143.794 6      2257.640
G03  22612073.760   118827258.734 7      6316.366    22612072.960   118827258.744 7      6316.366    22612080.120    92592703.912 7      4921.843    22612080.920    92592706.920 7      4921.843
G08  20806429.380   109338515.493 8      2561.763    20806428.060   109338515.498 8      2561.763    20806433.440    85198859.602 8      1996.179    20806434.680    85198863.609 8      1996.179
G21  21082324.440   110788355.235 7      1903.631    21082320.800   110788355.240 6      1903.631    21082323.160    86328581.681 6      1483.349
R16  20716857.860   110665717.422 8       305.498    20716857.420   110665717.425 8       305.498    20716865.860    86073363.573 8       237.610    20716865.840    86073362.575 8       237.610
G27  22468534.820   118072927.008 7       970.969    22468533.520   118072927.019 7       970.969    22468540.180    92004898.098 7       756.599    22468540.940    92004899.099 7       756.599
R18  21207209.160   113205508.072 7      1855.859    21207208.060   113205508.067 7      1855.859    21207218.400    88048759.281 8      1443.446    21207218.040    88048762.286 8      1443.446
R04  22328420.260   119567712.797 6      6631.952    22328418.720   119567712.831 6      6631.952    22328434.020    92997172.852 7      5158.185    22328433.260    92997173.862 7      5158.185
R03  21341612.460   114243325.058 7      4082.397    21341612.480   114243325.083 7      4082.397    21341623.100    88855964.039 8      3175.198    21341623.200    88855965.044 8      3175.198
G16  24129761.560   126802712.319 6      -724.192    24129760.320   126802712.324 4      -724.192    24129767.260    98807315.901 4      -564.305
R09  21606213.320   115375965.337 7      4208.453    21606213.620   115375965.351 7      4208.453    21606220.440    89736903.303 8      3273.241    21606220.260    89736905.299 8      3273.241
G10  24367122.160   128050052.995 7      -214.847    24367121.220   128050052.995 7      -214.847    24367131.260    99779292.108 6      -167.413    24367131.340    99779292.108 7      -167.413
R15  23558991.340   125892036.891 6     -1412.633    23558991.660   125892036.900 6     -1412.633    23559004.860    97916111.602 7     -1098.715    23559004.580    97916110.608 7     -1098.715
R02  23389803.940   124812446.835 7       876.509    23389803.260   124812446.830 7       876.509    23389815.300    97076395.903 7       681.729    23389815.580    97076395.907 7       681.729
G07  24550535.960   129013920.878 6      1397.234    24550534.500   129013920.880 5      1397.234    24550540.960   100530337.004 5      1088.754    24550541.300   100530343.022 6      1088.754
R17  23745698.540   127068002.172 7       900.520    23745699.680   127068002.190 7       900.520    23745713.760    98830745.241 7       700.404    23745713.440    98830742.245 7       700.404
G32  25072213.440   131755370.879 6      3468.329    25072213.400   131755370.871 5      3468.329    25072223.420   102666578.148 5      2702.594    25072224.740   102666580.156 6      2702.594
> 2024 07 08 10 03 59.0000000  0 18
G30  25342628.940   133176408.734 5      2140.989    25342627.200   133176408.733 3      2140.989    25342637.520   103773849.902 3      1668.303    25342637.340   103773866.886 5      1668.303
G02  21546885.300   113229638.280 8      2897.315    21546884.080   113229638.285 6      2897.315    21546885.180    88230886.114 6      2257.648
G03  22610871.960   118820942.389 7      6316.353    22610870.960   118820942.394 7      6316.353    22610878.120    92587782.085 6      4921.834    22610879.160    92587785.089 7      4921.834
G08  20805941.920   109335953.687 8      2561.812    20805940.640   109335953.687 8      2561.812    20805945.940    85196863.388 8      1996.217    20805947.040    85196867.395 8      1996.217
G21  21081962.020   110786451.433 8      1903.861    21081958.580   110786451.441 6      1903.861    21081960.940    86327098.199 6      1483.528
R16  20716800.740   110665411.947 8       305.284    20716800.380   110665411.948 8       305.284    20716808.600    86073125.980 8       237.443    20716808.720    86073124.979 8       237.443
G27  22468349.920   118071956.051 7       970.978    22468348.840   118071956.056 7       970.978    22468355.400    92004141.501 7       756.606    22468356.200    92004142.499 7       756.606
R18  21206861.480   113203651.940 7      1856.245    21206860.300   113203651.925 7      1856.245    21206870.760    88047315.613 8      1443.746    21206870.420    88047318.615 8      1443.746
R04  22327181.280   119561080.763 6      6632.049    22327181.580   119561080.778 6      6632.049    22327195.540    92992014.596 7      5158.260    22327194.820    92992015.610 8      5158.260
R03  21340850.220   114239242.859 7      4081.892    21340850.460   114239242.882 7      4081.892    21340860.540    88852788.991 8      3174.805    21340860.540    88852789.995 8      3174.805
G16  24129899.060   126803436.353 6      -723.968    24129898.080   126803436.360 4      -723.968    24129905.220    98807880.076 4      -564.131
R09  21605425.220   115371757.042 7      4208.053    21605425.460   115371757.056 7      4208.053    21605432.520    89733630.195 8      3272.930    21605432.440    89733632.195 8      3272.930
G10  24367162.860   128050267.685 7      -214.690    24367161.940   128050267.684 6      -214.690    24367172.080    99779459.384 6      -167.291    24367172.100    99779459.388 7      -167.291
R15  23559254.760   125893449.516 6     -1412.549    23559255.960   125893449.512 6     -1412.549    23559268.800    97917210.294 7     -1098.649    23559269.140    97917209.301 6     -1098.649
R02  23389639.840   124811570.405 7       876.190    23389639.100   124811570.403 7       876.190    23389651.200    97075714.234 7       681.481    23389651.400    97075714.239 7       681.481
G07  24550269.820   129012523.512 6      1397.505    24550268.680   129012523.509 5      1397.505    24550274.860   100529248.143 5      1088.965    24550275.160   100529254.163 6      1088.965
R17  23745529.800   127067101.423 7       900.815    23745531.120   127067101.438 7       900.815    23745545.660    98830044.646 7       700.634    23745545.100    98830041.646 7       700.634
G32  25071554.160   131751902.582 6      3468.232    25071553.400   131751902.579 5      3468.232    25071563.340   102663875.587 5      2702.518    25071564.400   102663877.604 6      2702.518
> 2024 07 08 10 04  0.0000000  0 18
G30  25342221.400   133174267.887 5      2140.801    25342219.860   133174267.892 3      2140.801    25342230.040   103772181.710 3      1668.157    25342229.900   103772198.722 5      1668.157
G02  21546334.080   113226741.045 8      2897.168    21546332.720   113226741.050 6      2897.168    21546333.900    88228628.524 6      2257.534
G03  22609669.960   118814626.243 7      6316.076    22609669.180   118814626.246 6      6316.076    22609676.240    92582860.415 6      4921.618    22609677.140    92582863.415 7      4921.618
G08  20805454.460   109333392.146 8      2561.394    20805453.120   109333392.151 8      2561.394    20805458.580    85194867.382 8      1995.892    20805459.280    85194871.387 8      1995.892
G21  21081599.920   110784547.760 7      1903.537    21081596.320   110784547.767 6      1903.537    21081598.700    86325614.817 6      1483.275
R16  20716743.380   110665107.081 8       304.549    20716743.580   110665107.082 8       304.549    20716751.480    86072888.858 8       236.871    20716752.020    86072887.855 8       236.871
G27  22468165.280   118070985.289 7       970.657    22468164.060   118070985.299 7       970.657    22468170.580    92003385.063 7       756.356    22468171.040    92003386.058 7       756.356
R18  21206513.840   113201795.763 7      1856.133    21206512.840   113201795.751 7      1856.133    21206523.200    88045871.913 8      1443.659    21206522.560    88045874.914 8      1443.659
R04  22325943.000   119554448.853 6      6631.724    22325944.980   119554448.871 6      6631.724    22325956.840    92986856.433 7      5158.008    22325956.820    92986857.453 7      5158.008
R03  21340087.560   114235161.327 7      4081.174    21340087.840   114235161.355 7      4081.174    21340098.000    88849614.468 8      3174.246    21340098.300    88849615.472 7      3174.246
G16  24130037.400   126804160.412 6      -723.959    24130035.760   126804160.420 4      -723.959    24130043.060    98808444.267 4      -564.124
R09  21604637.140   115367549.521 7      4207.078    21604637.520   115367549.532 7      4207.078    21604644.600    89730357.670 8      3272.172    21604644.340    89730359.673 8      3272.172
G10  24367203.500   128050482.563 7      -215.024    24367202.800   128050482.565 6      -215.024    24367212.940    99779626.817 6      -167.551    24367212.760    99779626.814 7      -167.551
R15  23559519.420   125894861.986 6     -1412.430    23559519.500   125894861.976 6     -1412.430    23559533.260    97918308.857 6     -1098.557    23559533.120    97918307.860 6     -1098.557
R02  23389475.020   124810694.627 7       875.334    23389474.800   124810694.628 7       875.334    23389486.800    97075033.067 7       680.815    23389487.440    97075033.072 7       680.815
G07  24550003.800   129011126.313 6      1397.096    24550003.100   129011126.315 5      1397.096    24550009.000   100528159.419 5      1088.646    24550009.040   100528165.435 6      1088.646
R17  23745361.340   127066200.575 7       900.857    23745362.540   127066200.584 7       900.857    23745377.240    98829343.970 7       700.666    23745377.020    98829340.961 7       700.666
G32  25070893.660   131748434.616 6      3467.752    25070893.380   131748434.618 5      3467.752    25070903.300   102661173.290 5      2702.144    25070904.480   102661175.303 6      2702.144
> 2024 07 08 10 04  1.0000000  0 18
G30  25341814.060   133172127.509 5      2140.126    25341812.540   133172127.516 3      2140.126    25341822.740   103770513.885 3      1667.631    25341822.760   103770530.895 5      1667.631
G02  21545782.660   113223844.041 7      2896.937    21545781.340   113223844.049 6      2896.937    21545782.560    88226371.122 6      2257.353
G03  22608468.160   118808310.426 7      6315.805    22608467.380   118808310.434 7      6315.805    22608474.520    92577939.000 7      4921.406    22608475.480    92577942.007 7      4921.406
G08  20804967.080   109330830.955 8      2561.061    20804965.800   109330830.960 8      2561.061    20804971.220    85192871.648 8      1995.632    20804972.020    85192875.653 8      1995.632
G21  21081237.620   110782644.286 8      1903.511    21081234.260   110782644.288 6      1903.511    21081236.640    86324131.585 6      1483.256
R16  20716686.940   110664802.934 8       303.879    20716686.560   110664802.940 8       303.879    20716694.500    86072652.299 8       236.350    20716695.020    86072651.298 8       236.350
G27  22467980.700   118070014.844 7       970.362    22467979.480   118070014.843 7       970.362    22467986.000    92002628.862 7       756.126    22467986.080    92002629.863 7       756.126
R18  21206166.200   113199939.624 7      1856.247    21206164.940   113199939.619 7      1856.247    21206175.380    88044428.258 8      1443.747    21206174.960    88044431.260 8      1443.747
R04  22324705.440   119547817.140 7      6631.535    22324706.620   119547817.156 6      6631.535    22324717.500    92981698.432 7      5157.861    22324717.960    92981699.455 7      5157.861
R03  21339325.120   114231080.630 7      4080.367    21339325.840   114231080.647 7      4080.367    21339335.940    88846440.586 8      3173.619    21339335.780    88846441.590 8      3173.619
G16  24130175.360   126804884.667 6      -724.308    24130173.460   126804884.674 4      -724.308    24130181.000    98809008.612 4      -564.396
R09  21603849.340   115363342.814 7      4206.421    21603849.400   115363342.826 7      4206.421    21603856.980    89727085.789 8      3271.660    21603856.660    89727087.790 8      3271.660
G10  24367244.780   128050697.730 7      -215.247    24367243.780   128050697.735 6      -215.247    24367253.900    99779794.472 6      -167.725    24367253.780    99779794.472 7      -167.725
R15  23559783.520   125896274.488 6     -1412.300    23559783.740   125896274.468 6     -1412.300    23559797.500    97919407.436 6     -1098.456    23559797.460    97919406.450 6     -1098.456
R02  23389311.400   124809819.593 7       874.689    23389311.160   124809819.594 7       874.689    23389322.740    97074352.476 7       680.314    23389323.440    97074352.484 7       680.314
G07  24549737.800   129009729.354 7      1396.821    24549737.120   129009729.356 5      1396.821    24549743.220   100527070.880 5      1088.432    24549742.860   100527076.885 6      1088.432
R17  23745193.220   127065299.703 7       900.940    23745194.120   127065299.723 7       900.940    23745208.700    98828643.302 7       700.731    23745208.200    98828640.295 7       700.731
G32  25070233.940   131744967.157 6      3467.313    25070233.460   131744967.162 5      3467.313    25070243.320   102658471.384 5      2701.803    25070244.260   102658473.378 6      2701.803
> 2024 07 08 10 04  2.0000000  0 18
G30  25341406.000   133169987.409 5      2140.103    25341405.140   133169987.413 3      2140.103    25341415.560   103768846.270 3      1667.613    25341416.340   103768863.260 5      1667.613
G02  21545231.560   113220947.190 8      2896.854    21545230.120   113220947.198 6      2896.854    21545231.380    88224113.830 6      2257.289
G03  22607266.360   118801994.830 7      6315.660    22607265.440   118801994.838 7      6315.660    22607272.760    92573017.754 7      4921.293    22607273.660    92573020.758 7      4921.293
G08  20804479.740   109328270.026 8      2560.916    20804478.380   109328270.029 8      2560.916    20804483.840    85190876.113 8      1995.519    20804484.760    85190880.120 8      1995.519
G21  21080875.600   110780740.944 8      1903.344    21080872.140   110780740.949 6      1903.344    21080874.380    86322648.461 6      1483.125
R16  20716629.860   110664499.396 8       303.352    20716629.880   110664499.394 8       303.352    20716637.860    86072416.207 8       235.941    20716638.020    86072415.209 8       235.941
G27  22467795.960   118069044.580 7       970.302    22467794.860   118069044.583 7       970.302    22467801.520    92001872.802 7       756.079    22467801.860    92001873.806 8       756.079
R18  21205818.300   113198083.473 7      1856.305    21205817.380   113198083.469 7      1856.305    21205827.880    88042984.583 8      1443.793    21205827.300    88042987.586 8      1443.793
R04  22323466.900   119541185.508 7      6631.653    22323466.580   119541185.537 6      6631.653    22323479.140    92976540.515 7      5157.953    22323479.320    92976541.527 7      5157.953
R03  21338563.100   114227000.629 7      4079.717    21338563.920   114227000.649 7      4079.717    21338573.620    88843267.250 8      3173.113    21338573.360    88843268.256 8      3173.113
G16  24130313.040   126805608.955 6      -724.356    24130311.400   126805608.963 4      -724.356    24130318.740    98809572.985 4      -564.433
R09  21603061.760   115359136.847 7      4205.650    21603061.680   115359136.864 7      4205.650    21603069.140    89723814.490 8      3271.061    21603069.040    89723816.489 8      3271.061
G10  24367285.960   128050913.074 7      -215.370    24367284.880   128050913.079 6      -215.370    24367295.040    99779962.266 6      -167.821    24367295.020    99779962.272 7      -167.821
R15  23560047.760   125897686.923 6     -1412.388    23560046.120   125897686.908 6     -1412.388    23560061.440    97920505.989 6     -1098.524    23560061.680    97920505.002 6     -1098.524
R02  23389147.540   124808945.210 7       874.077    23389147.260   124808945.213 7       874.077    23389159.100    97073672.407 7       679.837    23389159.220    97073672.412 7       679.837
G07  24549472.000   129008332.500 6      1396.835    24549471.240   129008332.505 5      1396.835    24549477.380   100525982.414 5      1088.443    24549477.400   100525988.425 6      1088.443
R17  23745024.920   127064398.729 7       901.049    23745025.720   127064398.744 7       901.049    23745040.040    98827942.547 7       700.816    23745040.180    98827939.544 7       700.816
G32  25069574.360   131741500.045 6      3466.922    25069573.440   131741500.044 5      3466.922    25069583.560   102655769.730 5      2701.498    25069584.120   102655771.712 6      2701.498
> 2024 07 08 10 04  3.0000000  0 18
G30  25340998.440   133167847.771 5      2139.497    25340997.860   133167847.779 3      2139.497    25341008.440   103767179.022 3      1667.140    25341008.620   103767196.002 5      1667.140
G02  21544680.300   113218050.591 8      2896.593    21544679.040   113218050.596 6      2896.593    21544680.120    88221856.737 6      2257.086
G03  22606064.440   118795679.586 7      6315.205    22606063.720   118795679.594 7      6315.205    22606071.000    92568096.792 7      4920.939    22606072.100    92568099.796 7      4920.939
G08  20803992.400   109325709.484 8      2560.429    20803991.180   109325709.489 8      2560.429    20803996.620    85188880.888 8      1995.140    20803997.580    85188884.891 8      1995.140
G21  21080513.360   110778837.846 7      1903.028    21080509.840   110778837.851 6      1903.028    21080512.100    86321165.527 6      1482.879
R16  20716573.100   110664196.584 7       302.518    20716573.100   110664196.585 8       302.518    20716581.020    86072180.691 8       235.292    20716581.260    86072179.695 8       235.292
G27  22467611.400   118068074.656 7       969.914    22467610.380   118068074.658 7       969.914    22467616.800    92001117.023 7       755.777    22467617.300    92001118.020 8       755.777
R18  21205470.320   113196227.406 7      1856.153    21205470.000   113196227.393 7      1856.153    21205480.020    88041540.971 8      1443.675    21205479.580    88041543.973 8      1443.675
R04  22322228.360   119534554.195 7      6631.359    22322226.660   119534554.232 6      6631.359    22322241.120    92971382.847 7      5157.724    22322240.760    92971383.847 7      5157.724
R03  21337800.960   114222921.452 7      4078.829    21337801.960   114222921.483 7      4078.829    21337811.740    88840094.565 8      3172.422    21337811.540    88840095.573 8      3172.422
G16  24130451.000   126806333.417 6      -724.484    24130449.300   126806333.430 4      -724.484    24130456.940    98810137.488 4      -564.533
R09  21602274.180   115354931.799 7      4204.684    21602274.260   115354931.808 7      4204.684    21602281.660    89720543.891 8      3270.310    21602281.700    89720545.889 8      3270.310
G10  24367326.960   128051128.735 7      -215.677    24367325.920   128051128.740 6      -215.677    24367335.980    99780130.306 6      -168.060    24367336.220    99780130.304 7      -168.060
R15  23560311.780   125899099.308 6     -1412.181    23560311.400   125899099.295 6     -1412.181    23560325.740    97921604.487 6     -1098.363    23560325.940    97921603.501 6     -1098.363
R02  23388983.800   124808071.598 7       873.347    23388983.320   124808071.601 7       873.347    23388995.280    97072992.929 7       679.270    23388995.680    97072992.934 7       679.270
G07  24549206.320   129006935.972 7      1396.462    24549205.600   129006935.974 5      1396.462    24549211.720   100524894.206 5      1088.152    24549211.460   100524900.199 6      1088.152
R17  23744856.660   127063497.731 7       901.064    23744857.720   127063497.743 7       901.064    23744871.720    98827241.766 7       700.827    23744871.940    98827238.764 7       700.827
G32  25068914.460   131738033.382 6      3466.416    25068913.260   131738033.379 5      3466.416    25068923.920   102653068.426 5      2701.104    25068924.960   102653070.435 6      2701.104
> 2024 07 08 10 04  4.0000000  0 18
G30  25340591.100   133165708.210 5      2139.351    25340590.740   133165708.214 3      2139.351    25340601.160   103765511.827 3      1667.027    25340603.200   103765528.829 5      1667.027
G02  21544129.120   113215153.905 8      2896.755    21544127.640   113215153.910 6      2896.755    21544128.900    88219599.581 6      2257.212
G03  22604862.880   118789364.342 7      6315.246    22604861.940   118789364.341 7      6315.246    22604869.120    92563175.823 7      4920.971    22604870.440    92563178.827 7      4920.971
G08  20803505.160   109323148.968 8      2560.448    20803503.980   109323148.970 8      2560.448    20803509.280    85186885.680 8      1995.154    20803510.000    85186889.685 8      1995.154
G21  21080151.020   110776934.619 7      1903.195    21080147.640   110776934.627 6      1903.195    21080150.020    86319682.496 6      1483.009
R16  20716516.720   110663894.109 8       302.303    20716516.660   110663894.115 8       302.303    20716524.380    86071945.433 8       235.125    20716524.740    86071944.436 8       235.125
G27  22467427.140   118067104.710 7       969.997    22467425.760   118067104.715 7       969.997    22467432.360    92000361.219 7       755.842    22467432.900    92000362.217 7       755.842
R18  21205122.720   113194371.045 7      1856.520    21205122.200   113194371.040 7      1856.520    21205132.280    88040097.134 8      1443.960    21205131.860    88040100.135 8      1443.960
R04  22320989.460   119527922.863 6      6631.373    22320989.340   119527922.891 6      6631.373    22321003.240    92966225.147 7      5157.735    22321002.820    92966226.142 7      5157.735
R03  21337039.000   114218842.738 7      4078.496    21337039.740   114218842.761 7      4078.496    21337049.800    88836922.228 8      3172.164    21337049.880    88836923.232 8      3172.164
G16  24130589.020   126807057.700 6      -724.216    24130587.240   126807057.713 4      -724.216    24130594.800    98810701.852 4      -564.324
R09  21601486.700   115350727.257 7      4204.349    21601487.160   115350727.261 7      4204.349    21601494.480    89717273.692 8      3270.049    21601494.420    89717275.686 8      3270.049
G10  24367368.020   128051344.339 7      -215.486    24367367.020   128051344.341 6      -215.486    24367376.920    99780298.296 6      -167.911    24367377.140    99780298.301 7      -167.911
R15  23560576.180   125900511.425 6     -1412.002    23560575.460   125900511.413 6     -1412.002    23560589.940    97922702.772 6     -1098.224    23560590.040    97922701.781 6     -1098.224
R02  23388820.380   124807198.397 7       872.973    23388819.840   124807198.398 7       872.973    23388831.640    97072313.766 7       678.979    23388831.960    97072313.769 7       678.979
G07  24548940.720   129005539.312 6      1396.752    24548939.720   129005539.309 5      1396.752    24548945.980   100523805.893 5      1088.379    24548945.800   100523811.889 6      1088.379
R17  23744688.520   127062596.404 7       901.494    23744689.300   127062596.421 7       901.494    23744703.840    98826540.734 7       701.162    23744703.440    98826537.740 7       701.162
G32  25068254.800   131734566.840 6      3466.519    25068253.180   131734566.834 5      3466.519    25068264.380   102650367.222 5      2701.184    25068265.260   102650369.223 6      2701.184
> 2024 07 08 10 04  5.0000000  0 18
G30  25340185.320   133163569.150 5      2138.665    25340183.620   133163569.155 3      2138.665    25340194.020   103763845.028 3      1666.492    25340194.440   103763862.030 5      1666.492
G02  21543577.760   113212257.582 7      2896.076    21543576.620   113212257.586 6      2896.076    21543577.820    88217342.704 6      2256.683
G03  22603661.340   118783049.521 7      6314.442    22603660.200   118783049.526 7      6314.442    22603667.400    92558255.189 7      4920.345    22603668.280    92558258.189 7      4920.345
G08  20803017.940   109320588.935 8      2559.635    20803016.760   109320588.935 8      2559.635    20803022.240    85184890.848 8      1994.521    20803022.860    85184894.849 8      1994.521
G21  21079789.000   110775031.744 7      1902.500    21079785.560   110775031.752 6      1902.500    21079787.800    86318199.736 6      1482.467
R16  20716460.240   110663592.456 8       301.127    20716460.340   110663592.465 8       301.127    20716468.060    86071710.814 8       234.210    20716468.320    86071709.815 8       234.210
G27  22467242.360   118066135.209 7       969.106    22467241.180   118066135.219 7       969.106    22467247.720    91999605.768 7       755.147    22467248.260    91999606.761 8       755.147
R18  21204775.040   113192514.910 7      1855.930    21204774.540   113192514.898 7      1855.930    21204784.660    88038653.470 8      1443.501    21204784.500    88038656.471 8      1443.501
R04  22319751.000   119521291.898 6      6630.520    22319753.220   119521291.918 6      6630.520    22319765.240    92961067.723 7      5157.071    22319764.520    92961068.721 7      5157.071
R03  21336277.220   114214764.956 7      4077.127    21336278.280   114214764.987 7      4077.127    21336288.180    88833750.624 8      3171.099    21336288.040    88833751.630 8      3171.099
G16  24130727.080   126807782.272 6      -724.831    24130725.120   126807782.288 4      -724.831    24130732.660    98811266.444 4      -564.803
R09  21600699.800   115346523.699 7      4202.972    21600699.900   115346523.708 7      4202.972    21600707.060    89714004.266 8      3268.978    21600707.080    89714006.262 8      3268.978
G10  24367409.540   128051560.389 7      -216.373    24367408.140   128051560.389 6      -216.373    24367418.140    99780466.639 6      -168.602    24367418.640    99780466.641 7      -168.602
R15  23560840.040   125901923.612 6     -1412.320    23560839.480   125901923.613 6     -1412.320    23560854.040    97923801.139 6     -1098.471    23560853.940    97923800.148 6     -1098.471
R02  23388656.920   124806326.004 7       871.890    23388656.220   124806326.008 7       871.890    23388667.960    97071635.239 7       678.137    23388668.580    97071635.238 7       678.137
G07  24548674.900   129004143.052 6      1395.916    24548673.980   129004143.049 5      1395.916    24548680.380   100522717.896 5      1087.727    24548680.140   100522723.896 6      1087.727
R17  23744520.100   127061695.240 7       901.060    23744520.680   127061695.252 7       901.060    23744535.840    98825839.814 7       700.824    23744535.280    98825836.816 7       700.824
G32  25067594.560   131731100.845 6      3465.595    25067593.620   131731100.842 5      3465.595    25067604.920   102647666.455 5      2700.464    25067605.940   102647668.472 6      2700.464
> 2024 07 08 10 04  6.0000000  0 18
G30  25339778.600   133161430.503 5      2138.663    25339776.520   133161430.505 3      2138.663    25339787.060   103762178.554 3      1666.491    25339788.960   103762195.545 5      1666.491
G02  21543026.780   113209361.487 7      2896.108    21543025.500   113209361.489 6      2896.108    21543026.520    88215086.003 6      2256.708
G03  22602459.380   118776735.036 7      6314.324    22602458.560   118776735.041 7      6314.324    22602465.780    92553334.808 7      4920.253    22602466.620    92553337.801 7      4920.253
G08  20802530.900   109318029.250 8      2559.568    20802529.720   109318029.252 8      2559.568    20802535.120    85182896.285 8      1994.469    20802535.940    85182900.290 8      1994.469
G21  21079426.760   110773129.085 7      1902.507    21079423.460   110773129.087 6      1902.507    21079425.780    86316717.141 6      1482.473
R16  20716403.680   110663291.466 8       300.748    20716403.980   110663291.470 8       300.748    20716411.540    86071476.702 8       233.915    20716411.840    86071475.699 8       233.915
G27  22467057.860   118065166.007 7       969.022    22467056.720   118065166.007 7       969.022    22467063.380    91998850.533 7       755.082    22467063.680    91998851.526 7       755.082
R18  21204427.400   113190658.837 7      1856.044    21204427.000   113190658.828 7      1856.044    21204436.820    88037209.860 8      1443.590    21204436.500    88037212.865 8      1443.590
R04  22318512.980   119514661.090 7      6630.688    22318515.500   119514661.108 6      6630.688    22318526.680    92955910.422 7      5157.201    22318526.760    92955911.420 8      5157.201
R03  21335515.400   114210687.987 7      4076.584    21335516.400   114210688.013 7      4076.584    21335526.660    88830579.644 8      3170.676    21335526.640    88830580.643 8      3170.676
G16  24130865.120   126808507.007 6      -724.763    24130862.940   126808507.020 4      -724.763    24130870.580    98811831.160 4      -564.750
R09  21599912.920   115342320.992 7      4202.356    21599912.960   115342321.001 7      4202.356    21599920.040    89710735.494 8      3268.499    21599920.200    89710737.490 8      3268.499
G10  24367450.100   128051776.684 7      -216.393    24367449.120   128051776.691 6      -216.393    24367459.260    99780635.182 6      -168.618    24367459.560    99780635.182 7      -168.618
R15  23561104.820   125903335.881 6     -1412.209    23561103.920   125903335.872 6     -1412.209    23561118.100    97924899.554 6     -1098.385    23561118.360    97924898.560 6     -1098.385
R02  23388493.600   124805454.361 7       871.343    23388492.860   124805454.365 7       871.343    23388504.780    97070957.282 7       677.711    23388505.200    97070957.287 7       677.711
G07  24548409.460   129002746.994 6      1395.958    24548408.400   129002746.996 5      1395.958    24548414.680   100521630.065 5      1087.759    24548414.520   100521636.079 6      1087.759
R17  23744351.680   127060794.028 7       901.319    23744351.800   127060794.043 7       901.319    23744367.200    98825138.872 7       701.026    23744366.840    98825135.877 7       701.026
G32  25066935.060   131727635.372 6      3465.290    25066933.940   131727635.369 5      3465.290    25066945.320   102644966.089 5      2700.226    25066946.360   102644968.087 6      2700.226
> 2024 07 08 10 04  7.0000000  0 18
G30  25339372.120   133159292.250 5      2138.090    25339369.680   133159292.255 3      2138.090    25339380.260   103760512.391 3      1666.044    25339382.020   103760529.407 5      1666.044
G02  21542475.760   113206465.581 8      2896.045    21542474.400   113206465.584 6      2896.045    21542475.400    88212829.457 6      2256.659
G03  22601257.940   118770420.814 7      6314.186    22601257.020   118770420.816 7      6314.186    22601264.160    92548414.630 6      4920.145    22601265.240    92548417.628 7      4920.145
G08  20802043.940   109315469.890 8      2559.287    20802042.720   109315469.895 8      2559.287    20802048.040    85180901.981 8      1994.250    20802048.940    85180905.986 8      1994.250
G21  21079064.800   110771226.565 7      1902.568    21079061.380   110771226.573 6      1902.568    21079063.820    86315234.662 6      1482.521
R16  20716347.540   110662991.122 8       300.126    20716347.660   110662991.123 8       300.126    20716355.380    86071243.095 8       233.431    20716355.700    86071242.096 8       233.431
G27  22466873.420   118064197.026 7       969.071    22466872.400   118064197.028 7       969.071    22466878.940    91998095.483 7       755.120    22466879.080    91998096.480 7       755.120
R18  21204079.680   113188802.765 7      1856.190    21204079.320   113188802.749 7      1856.190    21204089.100    88035766.250 8      1443.703    21204088.860    88035769.254 8      1443.703
R04  22317275.100   119508030.438 7      6630.697    22317275.480   119508030.459 6      6630.697    22317288.280    92950753.255 7      5157.209    22317288.600    92950754.259 7      5157.209
R03  21334754.100   114206611.789 7      4075.921    21334755.180   114206611.812 7      4075.921    21334764.840    88827409.268 8      3170.161    21334765.040    88827410.263 8      3170.161
G16  24131003.080   126809231.834 6      -724.799    24131001.000   126809231.842 4      -724.799    24131008.440    98812395.952 4      -564.778
R09  21599126.160   115338119.110 7      4201.606    21599126.460   115338119.127 7      4201.606    21599133.060    89707467.361 8      3267.916    21599133.240    89707469.357 8      3267.916
G10  24367491.340   128051993.236 7      -216.576    24367490.360   128051993.241 6      -216.576    24367500.400    99780803.912 6      -168.760    24367500.560    99780803.916 7      -168.760
R15  23561370.060   125904748.071 6     -1411.988    23561368.580   125904748.056 6     -1411.988    23561382.360    97925997.926 6     -1098.213    23561382.360    97925996.925 6     -1098.213
R02  23388330.240   124804583.441 7       870.618    23388329.380   124804583.445 7       870.618    23388341.460    97070279.908 7       677.147    23388342.020    97070279.907 7       677.147
G07  24548143.720   129001351.143 6      1395.954    24548143.020   129001351.148 5      1395.954    24548149.140   100520542.387 5      1087.757    24548149.500   100520548.383 6      1087.757
R17  23744183.360   127059892.773 7       901.445    23744183.920   127059892.783 7       901.445    23744199.060    98824437.879 7       701.124    23744198.540    98824434.876 7       701.124
G32  25066275.960   131724170.273 6      3464.890    25066274.240   131724170.262 5      3464.890    25066286.160   102642266.015 5      2699.915    25066287.000   102642268.016 6      2699.915
> 2024 07 08 10 04  8.0000000  0 18
G30  25338965.540   133157154.394 5      2137.546    25338962.780   133157154.401 3      2137.546    25338973.440   103758846.535 3      1665.620    25338975.220   103758863.539 5      1665.620
G02  21541924.860   113203569.897 7      2895.680    21541923.360   113203569.904 6      2895.680    21541924.420    88210573.081 6      2256.374
G03  22600056.540   118764106.876 7      6313.855    22600055.500   118764106.886 7      6313.855    22600062.580    92543494.687 7      4919.887    22600063.440    92543497.690 7      4919.887
G08  20801557.100   109312910.835 8      2559.027    20801555.660   109312910.839 8      2559.027    20801561.060    85178907.914 8      1994.047    20801561.700    85178911.919 8      1994.047
G21  21078702.660   110769324.261 7      1902.254    21078699.220   110769324.271 6      1902.254    21078701.760    86313752.348 6      1482.276
R16  20716291.260   110662691.438 8       299.447    20716291.480   110662691.436 8       299.447    20716299.380    86071010.007 8       232.903    20716299.560    86071009.007 8       232.903
G27  22466689.320   118063228.365 7       968.625    22466687.980   118063228.367 7       968.625    22466694.780    91997340.680 7       754.773    22466694.820    91997341.680 7       754.773
R18  21203732.100   113186946.729 7      1856.085    21203731.640   113186946.714 7      1856.085    21203741.420    88034322.662 8      1443.621    21203741.100    88034325.669 8      1443.621
R04  22316036.280   119501399.968 6      6630.563    22316034.400   119501400.010 6      6630.563    22316049.780    92945596.264 7      5157.105    22316050.200    92945597.268 7      5157.105
R03  21333992.700   114202536.370 7      4075.089    21333993.940   114202536.396 7      4075.089    21334003.620    88824239.500 8      3169.514    21334003.500    88824240.491 8      3169.514
G16  24131140.560   126809956.753 6      -724.851    24131138.880   126809956.756 4      -724.851    24131146.380    98812960.812 4      -564.819
R09  21598339.260   115333918.058 7      4200.682    21598339.640   115333918.070 7      4200.682    21598346.500    89704199.872 8      3267.197    21598346.540    89704201.869 8      3267.197
G10  24367532.640   128052210.019 7      -216.761    24367531.700   128052210.021 6      -216.761    24367541.640    99780972.832 6      -168.904    24367541.780    99780972.832 7      -168.904
R15  23561635.360   125906160.236 6     -1412.039    23561634.160   125906160.227 6     -1412.039    23561646.000    97927096.271 6     -1098.252    23561646.560    97927095.270 6     -1098.252
R02  23388167.360   124803713.277 7       869.829    23388166.440   124803713.288 7       869.829    23388178.780    97069603.105 7       676.533    23388179.020    97069603.110 7       676.533
G07  24547878.260   128999955.516 6      1395.673    24547877.380   128999955.524 5      1395.673    24547883.520   100519454.886 5      1087.537    24547884.000   100519460.879 6      1087.537
R17  23744015.200   127058991.489 7       901.331    23744015.460   127058991.501 7       901.331    23744030.440    98823736.886 7       701.035    23744029.820    98823733.886 7       701.035
G32  25065616.720   131720705.575 6      3464.630    25065614.820   131720705.564 5      3464.630    25065626.920   102639566.253 5      2699.712    25065627.580   102639568.252 6      2699.712
> 2024 07 08 10 04  9.0000000  0 18
G30  25338558.560   133155016.906 5      2137.212    25338556.120   133155016.916 3      2137.212    25338566.580   103757180.958 3      1665.360    25338568.320   103757197.962 5      1665.360
G02  21541373.880   113200674.446 7      2895.196    21541372.440   113200674.453 6      2895.196    21541373.600    88208316.888 6      2255.997
G03  22598854.940   118757793.274 7      6313.302    22598854.080   118757793.281 7      6313.302    22598861.220    92538574.999 7      4919.456    22598862.120    92538578.003 7      4919.456
G08  20801070.080   109310352.155 8      2558.408    20801068.840   109310352.160 8      2558.408    20801074.160    85176914.140 8      1993.565    20801075.080    85176918.143 8      1993.565
G21  21078340.820   110767422.156 7      1901.884    21078337.320   110767422.161 6      1901.884    21078339.820    86312270.185 6      1481.988
R16  20716235.600   110662392.445 8       298.605    20716235.640   110662392.441 8       298.605    20716243.080    86070777.456 8       232.248    20716243.720    86070776.457 8       232.248
G27  22466504.860   118062259.985 7       968.166    22466503.700   118062259.985 7       968.166    22466510.300    91996586.095 7       754.415    22466510.740    91996587.094 8       754.415
R18  21203384.640   113185090.728 7      1855.948    21203384.140   113185090.716 7      1855.948    21203393.700    88032879.102 8      1443.515    21203393.440    88032882.109 8      1443.515
R04  22314798.160   119494769.854 6      6629.866    22314797.780   119494769.888 6      6629.866    22314811.660    92940439.511 7      5156.563    22314811.660    92940440.506 7      5156.563
R03  21333231.720   114198461.752 7      4074.165    21333232.520   114198461.775 7      4074.165    21333242.480    88821070.346 8      3168.795    21333242.400    88821071.337 8      3168.795
G16  24131278.860   126810681.846 6      -725.170    24131277.000   126810681.853 4      -725.170    24131284.220    98813525.811 4      -565.068
R09  21597552.640   115329717.818 7      4199.771    21597552.940   115329717.825 7      4199.771    21597559.800    89700933.015 8      3266.488    21597559.920    89700935.011 8      3266.488
G10  24367573.980   128052427.113 7      -217.283    24367572.980   128052427.117 6      -217.283    24367582.900    99781141.981 6      -169.312    24367582.620    99781141.984 7      -169.312
R15  23561899.880   125907572.380 6     -1412.288    23561899.060   125907572.373 6     -1412.288    23561910.480    97928194.592 6     -1098.446    23561910.640    97928193.604 6     -1098.446
R02  23388004.040   124802843.912 7       868.945    23388003.640   124802843.916 7       868.945    23388015.380    97068926.924 7       675.846    23388016.020    97068926.927 7       675.846
G07  24547612.740   128998560.123 6      1395.281    24547611.960   128998560.128 5      1395.281    24547618.140   100518367.560 5      1087.232    24547618.320   100518373.555 6      1087.232
R17  23743846.760   127058090.165 7       901.184    23743846.720   127058090.182 7       901.184    23743861.720    98823035.850 7       700.921    23743861.500    98823032.850 7       700.921
G32  25064957.840   131717241.338 6      3463.914    25064955.620   131717241.329 5      3463.914    25064967.780   102636866.851 5      2699.154    25064968.620   102636868.864 6      2699.154
> 2024 07 08 10 04 10.0000000  0 18
G30  25338152.280   133152880.069 5      2136.850    25338149.560   133152880.079 3      2136.850    25338160.040   103755515.890 3      1665.078    25338161.520   103755532.880 5      1665.078
G02  21540822.940   113197779.441 8      2895.026    21540821.500   113197779.446 6      2895.026    21540822.660    88206061.034 6      2255.864
G03  22597653.720   118751480.195 7      6313.048    22597652.720   118751480.194 7      6313.048    22597659.820    92533655.715 7      4919.258    22597660.520    92533658.720 7      4919.258
G08  20800583.140   109307794.041 8      2558.105    20800582.140   109307794.048 8      2558.105    20800587.380    85174920.804 8      1993.329    20800588.240    85174924.805 8      1993.329
G21  21077978.940   110765520.472 7      1901.737    21077975.400   110765520.479 6      1901.737    21077977.940    86310788.361 6      1481.873
R16  20716179.760   110662094.393 8       297.882    20716179.780   110662094.392 8       297.882    20716187.200    86070545.631 8       231.686    20716187.820    86070544.635 8       231.686
G27  22466320.720   118061292.123 7       967.852    22466319.580   118061292.128 7       967.852    22466326.140    91995831.919 7       754.170    22466326.440    91995832.920 8       754.170
R18  21203037.100   113183235.037 7      1855.820    21203036.440   113183235.024 7      1855.820    21203046.080    88031435.787 8      1443.415    21203045.620    88031438.798 8      1443.415
R04  22313559.920   119488140.196 6      6629.683    22313563.260   119488140.203 6      6629.683    22313573.720    92935283.087 7      5156.420    22313573.620    92935284.078 7      5156.420
R03  21332470.500   114194388.142 7      4073.384    21332471.280   114194388.168 7      4073.384    21332481.440    88817901.983 8      3168.187    21332481.180    88817902.970 8      3168.187
G16  24131416.640   126811407.327 6      -725.385    24131415.020   126811407.332 4      -725.385    24131422.280    98814091.113 4      -565.235
R09  21596766.440   115325518.662 7      4198.865    21596766.240   115325518.669 7      4198.865    21596773.520    89697667.009 8      3265.784    21596773.640    89697669.005 8      3265.784
G10  24367615.600   128052644.689 7      -217.558    24367614.420   128052644.700 6      -217.558    24367624.200    99781311.518 6      -169.526    24367624.200    99781311.516 7      -169.526
R15  23562163.980   125908984.695 6     -1412.120    23562163.980   125908984.688 6     -1412.120    23562174.700    97929293.062 6     -1098.315    23562174.560    97929292.069 6     -1098.315
R02  23387841.020   124801975.482 7       868.238    23387840.880   124801975.483 7       868.238    23387853.000    97068251.468 7       675.297    23387853.400    97068251.467 7       675.297
G07  24547347.480   128997165.205 6      1394.909    24547346.360   128997165.210 5      1394.909    24547352.600   100517280.605 5      1086.942    24547353.020   100517286.602 6      1086.942
R17  23743678.380   127057189.036 7       901.393    23743678.340   127057189.048 7       901.393    23743693.500    98822334.962 7       701.084    23743693.000    98822331.957 7       701.084
G32  25064298.560   131713777.762 6      3463.627    25064296.800   131713777.751 5      3463.627    25064308.840   102634167.965 5      2698.930    25064309.800   102634169.964 6      2698.930
> 2024 07 08 10 04 11.0000000  0 18
G30  25337745.520   133150743.364 5      2136.487    25337742.940   133150743.371 3      2136.487    25337753.400   103753850.923 3      1664.795    25337754.300   103753867.908 5      1664.795
G02  21540271.980   113194884.361 8      2895.035    21540270.620   113194884.363 6      2895.035    21540271.680    88203805.123 6      2255.871
G03  22596452.380   118745167.134 7      6312.958    22596451.340   118745167.136 7      6312.958    22596458.420    92528736.453 7      4919.188    22596458.960    92528739.460 7      4919.188
G08  20800096.400   109305235.971 8      2557.989    20800095.300   109305235.976 8      2557.989    20800100.660    85172927.501 8      1993.238    20800101.300    85172931.504 8      1993.238
G21  21077616.820   110763618.703 7      1901.792    21077613.560   110763618.708 6      1901.792    21077616.100    86309306.455 6      1481.916
R16  20716123.980   110661796.702 8       297.362    20716124.080   110661796.700 8       297.362    20716131.680    86070314.093 8       231.282    20716131.920    86070313.097 8       231.282
G27  22466136.760   118060324.254 7       967.769    22466135.460   118060324.259 7       967.769    22466142.060    91995077.730 7       754.106    22466142.440    91995078.730 8       754.106
R18  21202689.640   113181379.076 7      1855.965    21202688.740   113181379.061 7      1855.965    21202698.740    88029992.251 8      1443.528    21202698.020    88029995.262 8      1443.528
R04  22312321.940   119481510.392 7      6629.785    22312326.300   119481510.426 6      6629.785    22312335.980    92930126.584 7      5156.499    22312335.460    92930127.569 7      5156.499
R03  21331709.540   114190314.982 7      4072.785    21331710.700   114190315.016 7      4072.785    21331720.700    88814733.978 8      3167.722    21331720.300    88814734.971 8      3167.722
G16  24131554.440   126812132.635 6      -725.257    24131552.940   126812132.640 4      -725.257    24131560.280    98814656.280 4      -565.135
R09  21595980.280   115321320.038 7      4198.284    21595979.740   115321320.052 7      4198.284    21595987.280    89694401.414 8      3265.332    21595987.480    89694403.408 8      3265.332
G10  24367656.760   128052862.227 7      -217.606    24367655.840   128052862.237 6      -217.606    24367665.560    99781481.017 6      -169.563    24367665.120    99781481.021 7      -169.563
R15  23562428.080   125910396.695 6     -1411.996    23562428.160   125910396.699 6     -1411.996    23562439.180    97930391.300 6     -1098.219    23562438.940    97930390.308 6     -1098.219
R02  23387678.500   124801107.433 7       867.753    23387678.160   124801107.431 7       867.753    23387690.340    97067576.311 7       674.919    23387690.560    97067576.309 7       674.919
G07  24547082.300   128995770.175 6      1395.017    24547080.880   128995770.185 5      1395.017    24547087.020   100516193.564 5      1087.026    24547087.920   100516199.574 6      1087.026
R17  23743509.880   127056287.578 7       901.536    23743510.060   127056287.590 7       901.536    23743525.220    98821633.832 7       701.195    23743524.280    98821630.823 7       701.195
G32  25063639.300   131710314.339 6      3463.316    25063637.920   131710314.333 5      3463.316    25063649.860   102631469.198 5      2698.688    25063651.340   102631471.199 6      2698.688
> 2024 07 08 10 04 12.0000000  0 18
G30  25337338.920   133148606.942 5      2136.257    25337336.500   133148606.944 3      2136.257    25337347.020   103752186.177 3      1664.616    25337347.540   103752203.185 5      1664.616
G02  21539720.980   113191989.459 7      2894.911    21539719.760   113191989.466 6      2894.911    21539720.760    88201549.358 6      2255.775
G03  22595250.920   118738854.336 7      6312.697    22595250.100   118738854.349 7      6312.697    22595257.040    92523817.395 7      4918.985    22595257.540    92523820.399 7      4918.985
G08  20799609.620   109302678.216 8      2557.722    20799608.500   109302678.219 8      2557.722    20799613.880    85170934.439 8      1993.030    20799614.880    85170938.440 8      1993.030
G21  21077254.960   110761717.108 7      1901.623    21077251.680   110761717.111 6      1901.623    21077254.160    86307824.693 6      1481.784
R16  20716068.340   110661499.630 8       296.837    20716068.480   110661499.628 8       296.837    20716075.860    86070083.033 8       230.874    20716076.280    86070082.034 8       230.874
G27  22465952.720   118059356.644 7       967.534    22465951.340   118059356.652 7       967.534    22465957.920    91994323.745 7       753.923    22465958.120    91994324.742 7       753.923
R18  21202341.820   113179523.137 7      1855.967    21202341.040   113179523.119 7      1855.967    21202350.840    88028548.741 8      1443.530    21202350.460    88028551.752 8      1443.530
R04  22311084.200   119474880.809 7      6629.661    22311088.020   119474880.848 6      6629.661    22311098.160    92924970.247 7      5156.403    22311097.560    92924971.238 7      5156.403
R03  21330948.700   114186242.579 7      4072.097    21330949.880   114186242.611 7      4072.097    21330959.720    88811566.547 8      3167.186    21330959.780    88811567.547 8      3167.186
G16  24131692.900   126812858.040 6      -725.256    24131691.040   126812858.045 4      -725.256    24131698.400    98815221.522 4      -565.135
R09  21595194.120   115317122.214 7      4197.538    21595193.720   115317122.229 7      4197.538    21595201.180    89691136.436 8      3264.752    21595201.240    89691138.430 8      3264.752
G10  24367698.180   128053080.006 7      -217.787    24367697.280   128053080.016 6      -217.787    24367707.000    99781650.711 6      -169.704    24367707.020    99781650.715 7      -169.704
R15  23562692.080   125911808.647 6     -1411.853    23562692.160   125911808.658 6     -1411.853    23562703.900    97931489.493 6     -1098.108    23562703.520    97931488.501 6     -1098.108
R02  23387515.940   124800240.024 7       867.105    23387515.620   124800240.022 7       867.105    23387527.940    97066901.657 7       674.415    23387527.860    97066901.660 7       674.415
G07  24546816.760   128994375.375 6      1394.846    24546815.660   128994375.383 5      1394.846    24546821.700   100515106.704 5      1086.893    24546822.160   100515112.705 6      1086.893
R17  23743341.120   127055386.058 7       901.620    23743341.280   127055386.075 7       901.620    23743356.900    98820932.648 7       701.260    23743356.340    98820929.641 7       701.260
G32  25062980.000   131706851.342 6      3462.856    25062979.240   131706851.349 5      3462.856    25062991.100   102628770.763 5      2698.329    25062992.020   102628772.755 7      2698.329
> 2024 07 08 10 04 13.0000000  0 18
G30  25336932.140   133146471.012 5      2135.806    25336930.140   133146471.017 3      2135.806    25336940.480   103750521.818 3      1664.264    25336940.740   103750538.820 5      1664.264
G02  21539170.440   113189094.846 8      2894.585    21539168.900   113189094.856 6      2894.585    21539170.020    88199293.819 6      2255.521
G03  22594049.660   118732541.909 7      6312.414    22594048.940   118732541.914 7      6312.414    22594055.660    92518898.617 7      4918.764    22594056.180    92518901.623 7      4918.764
G08  20799123.120   109300120.864 8      2557.237    20799121.860   109300120.869 8      2557.237    20799127.260    85168941.699 8      1992.652    20799127.960    85168945.698 8      1992.652
G21  21076893.280   110759815.752 7      1901.429    21076889.820   110759815.757 6      1901.429    21076892.380    86306343.115 6      1481.633
R16  20716013.140   110661203.300 8       296.088    20716012.880   110661203.298 8       296.088    20716020.480    86069852.552 8       230.291    20716021.060    86069851.558 8       230.291
G27  22465768.460   118058389.379 7       967.257    22465767.220   118058389.383 7       967.257    22465773.840    91993570.029 7       753.707    22465774.300    91993571.026 7       753.707
R18  21201994.200   113177667.277 7      1855.935    21201992.940   113177667.270 7      1855.935    21202003.300    88027105.301 8      1443.505    21202002.720    88027108.310 8      1443.505
R04  22309846.280   119468251.525 7      6629.220    22309846.960   119468251.569 6      6629.220    22309860.380    92919814.156 7      5156.060    22309859.580    92919815.156 7      5156.060
R03  21330188.480   114182171.066 7      4071.132    21330189.260   114182171.094 7      4071.132    21330199.080    88808399.818 8      3166.436    21330199.120    88808400.818 8      3166.436
G16  24131830.560   126813583.640 6      -725.518    24131829.200   126813583.644 4      -725.518    24131836.360    98815786.914 4      -565.339
R09  21594408.180   115312925.296 7      4196.573    21594407.220   115312925.310 7      4196.573    21594415.320    89687872.172 8      3264.002    21594415.320    89687874.165 8      3264.002
G10  24367739.800   128053298.111 7      -218.079    24367738.640   128053298.113 6      -218.079    24367748.620    99781820.653 6      -169.932    24367748.660    99781820.653 7      -169.932
R15  23562956.180   125913220.684 6     -1411.848    23562956.600   125913220.682 6     -1411.848    23562968.720    97932587.742 6     -1098.104    23562968.200    97932586.745 6     -1098.104
R02  23387353.520   124799373.381 7       866.343    23387352.820   124799373.387 7       866.343    23387365.460    97066227.614 7       673.823    23387365.940    97066227.617 7       673.823
G07  24546551.340   128992980.868 6      1394.464    24546550.320   128992980.878 5      1394.464    24546556.580   100514020.068 5      1086.595    24546556.720   100514026.061 6      1086.595
R17  23743172.820   127054484.608 7       901.527    23743172.700   127054484.623 7       901.527    23743188.480    98820231.511 7       701.188    23743187.800    98820228.505 7       701.188
G32  25062321.620   131703388.822 6      3462.211    25062320.560   131703388.827 5      3462.211    25062332.340   102626072.696 5      2697.827    25062332.980   102626074.703 7      2697.827
> 2024 07 08 10 04 14.0000000  0 18
G30  25336525.600   133144335.352 5      2135.441    25336523.800   133144335.360 3      2135.441    25336534.100   103748857.671 3      1663.980    25336534.760   103748874.667 5      1663.980
G02  21538619.720   113186200.320 7      2894.381    21538618.000   113186200.330 6      2894.381    21538619.180    88197038.340 6      2255.362
G03  22592848.480   118726229.652 7      6312.096    22592847.780   118726229.657 7      6312.096    22592854.680    92513979.975 7      4918.516    22592855.120    92513982.975 7      4918.516
G08  20798636.540   109297563.722 8      2556.883    20798635.260   109297563.724 8      2556.883    20798640.620    85166949.119 8      1992.377    20798641.560    85166953.120 8      1992.377
G21  21076531.420   110757914.483 7      1901.152    21076528.040   110757914.488 6      1901.152    21076530.700    86304861.604 6      1481.417
R16  20715957.540   110660907.531 8       295.335    20715957.300   110660907.527 8       295.335    20715965.140    86069622.506 8       229.705    20715965.540    86069621.510 8       229.705
G27  22465584.500   118057422.284 7       966.809    22465583.340   118057422.289 7       966.809    22465589.900    91992816.449 7       753.358    22465589.920    91992817.448 7       753.358
R18  21201646.420   113175811.330 7      1855.925    21201645.360   113175811.320 7      1855.925    21201655.640    88025661.788 8      1443.497    21201655.140    88025664.797 8      1443.497
R04  22308608.060   119461622.329 7      6629.021    22308607.840   119461622.369 6      6629.021    22308621.980    92914658.125 7      5155.905    22308621.740    92914659.129 7      5155.905
R03  21329427.720   114178100.221 7      4070.378    21329428.340   114178100.244 7      4070.378    21329438.540    88805233.600 8      3165.849    21329438.660    88805234.607 8      3165.849
G16  24131968.640   126814309.255 6      -725.795    24131967.340   126814309.260 4      -725.795    24131974.360    98816352.322 4      -565.555
R09  21593622.460   115308729.079 7      4195.804    21593620.860   115308729.091 7      4195.804    21593629.820    89684608.451 8      3263.403    21593629.420    89684610.445 8      3263.403
G10  24367781.340   128053516.337 7      -218.324    24367780.120   128053516.342 6      -218.324    24367790.080    99781990.701 6      -170.123    24367790.100    99781990.699 7      -170.123
R15  23563220.500   125914632.542 6     -1411.825    23563220.800   125914632.546 6     -1411.825    23563233.460    97933685.856 6     -1098.086    23563233.000    97933684.857 6     -1098.086
R02  23387190.980   124798507.355 7       865.582    23387190.720   124798507.356 7       865.582    23387203.320    97065554.028 7       673.230    23387203.540    97065554.033 7       673.230
G07  24546285.800   128991586.418 6      1394.139    24546284.920   128991586.425 5      1394.139    24546291.140   100512933.480 5      1086.342    24546291.420   100512939.483 6      1086.342
R17  23743004.380   127053583.019 7       901.533    23743004.060   127053583.025 7       901.533    23743020.040    98819530.263 7       701.192    23743019.360    98819527.254 7       701.192
G32  25061662.780   131699926.569 6      3462.006    25061662.000   131699926.573 5      3462.006    25061673.520   102623374.836 5      2697.667    25061674.360   102623376.847 7      2697.667
> 2024 07 08 10 04 15.0000000  0 18
G30  25336119.120   133142200.111 5      2135.329    25336117.480   133142200.118 3      2135.329    25336127.640   103747193.849 3      1663.893    25336128.840   103747210.847 5      1663.893
G02  21538068.900   113183306.054 7      2894.390    21538067.300   113183306.062 6      2894.390    21538068.420    88194783.070 6      2255.369
G03  22591647.480   118719917.745 7      6312.016    22591646.560   118719917.752 7      6312.016    22591653.440    92509061.610 7      4918.454    22591654.380    92509064.616 7      4918.454
G08  20798150.040   109295006.947 8      2556.838    20798148.680   109295006.949 8      2556.838    20798154.200    85164956.827 8      1992.341    20798154.980    85164960.830 8      1992.341
G21  21076169.880   110756013.437 7      1901.256    21076166.240   110756013.445 6      1901.256    21076168.820    86303380.272 6      1481.499
R16  20715902.580   110660612.471 8       295.008    20715902.040   110660612.472 8       295.008    20715909.860    86069393.020 8       229.451    20715910.540    86069392.026 8       229.451
G27  22465400.400   118056455.494 7       966.904    22465399.380   118056455.496 7       966.904    22465405.820    91992063.102 7       753.432    22465406.020    91992064.101 7       753.432
R18  21201298.940   113173955.500 7      1856.028    21201297.480   113173955.487 7      1856.028    21201308.040    88024218.361 8      1443.577    21201307.460    88024221.367 8      1443.577
R04  22307369.980   119454993.407 7      6629.117    22307371.080   119454993.443 6      6629.117    22307383.840    92909502.299 7      5155.980    22307383.780    92909503.305 7      5155.980
R03  21328667.480   114174030.233 7      4069.828    21328668.280   114174030.256 7      4069.828    21328678.380    88802068.049 8      3165.422    21328678.040    88802069.053 7      3165.422
G16  24132106.920   126815035.036 6      -725.594    24132105.560   126815035.041 4      -725.594    24132112.460    98816917.856 4      -565.398
R09  21592836.780   115304533.736 7      4195.177    21592835.000   115304533.751 7      4195.177    21592844.240    89681345.412 8      3262.916    21592843.920    89681347.407 8      3262.916
G10  24367822.980   128053734.891 7      -218.358    24367821.800   128053734.899 6      -218.358    24367831.500    99782160.989 6      -170.149    24367831.760    99782160.985 7      -170.149
R15  23563484.280   125916044.400 6     -1411.465    23563484.760   125916044.401 6     -1411.465    23563498.100    97934783.966 6     -1097.806    23563497.680    97934782.973 6     -1097.806
R02  23387028.960   124797642.134 7       865.113    23387028.500   124797642.132 7       865.113    23387041.000    97064881.076 7       672.866    23387041.200    97064881.073 7       672.866
G07  24546020.940   128990192.254 6      1394.263    24546019.600   128990192.256 5      1394.263    24546025.740   100511847.106 5      1086.439    24546026.220   100511853.103 6      1086.439
R17  23742835.820   127052681.403 7       901.974    23742835.580   127052681.412 7       901.974    23742852.000    98818829.002 7       701.535    23742851.240    98818825.989 7       701.535
G32  25061004.060   131696464.827 6      3461.686    25061003.300   131696464.829 5      3461.686    25061014.820   102620677.385 5      2697.418    25061015.420   102620679.398 7      2697.418
> 2024 07 08 10 04 16.0000000  0 18
G30  25335713.020   133140065.216 5      2134.669    25335711.260   133140065.221 3      2134.669    25335721.440   103745530.292 3      1663.378    25335721.980   103745547.278 5      1663.378
G02  21537518.180   113180411.893 7      2894.049    21537516.620   113180411.901 6      2894.049    21537517.560    88192527.880 6      2255.103
G03  22590446.180   118713606.053 7      6311.532    22590445.540   118713606.055 7      6311.532    22590452.320    92504143.405 6      4918.077    22590453.320    92504146.406 7      4918.077
G08  20797663.540   109292450.425 8      2556.300    20797662.240   109292450.430 8      2556.300    20797667.700    85162964.736 8      1991.922    20797668.440    85162968.739 8      1991.922
G21  21075808.460   110754112.512 7      1900.729    21075804.360   110754112.517 6      1900.729    21075807.080    86301899.034 6      1481.088
R16  20715846.940   110660318.011 8       294.036    20715846.980   110660318.009 8       294.036    20715854.780    86069163.988 8       228.695    20715855.040    86069162.993 8       228.695
G27  22465216.480   118055488.909 7       966.366    22465215.420   118055488.914 7       966.366    22465221.920    91991309.917 7       753.012    22465222.240    91991310.910 7       753.012
R18  21200951.480   113172099.584 7      1855.838    21200949.840   113172099.575 7      1855.838    21200960.420    88022774.860 8      1443.430    21200959.860    88022777.867 8      1443.430
R04  22306132.460   119448364.610 7      6628.687    22306134.500   119448364.636 6      6628.687    22306145.620    92904346.560 7      5155.645    22306145.780    92904347.566 7      5155.645
R03  21327907.400   114169960.911 7      4068.837    21327907.840   114169960.939 7      4068.837    21327918.120    88798903.029 8      3164.651    21327917.640    88798904.031 8      3164.651
G16  24132245.620   126815760.817 6      -725.844    24132243.800   126815760.827 4      -725.844    24132250.440    98817483.397 4      -565.593
R09  21592051.200   115300339.159 7      4194.113    21592049.080   115300339.166 7      4194.113    21592058.860    89678082.972 8      3262.088    21592058.600    89678084.970 8      3262.088
G10  24367864.700   128053953.624 7      -218.994    24367863.580   128053953.629 6      -218.994    24367873.020    99782331.422 6      -170.644    24367873.240    99782331.424 7      -170.644
R15  23563748.040   125917456.191 6     -1411.953    23563748.260   125917456.195 6     -1411.953    23563762.180    97935882.016 6     -1098.186    23563761.660    97935881.008 6     -1098.186
R02  23386867.000   124796777.556 7       864.170    23386866.480   124796777.557 7       864.170    23386879.060    97064208.618 7       672.132    23386879.260    97064208.624 7       672.132
G07  24545755.720   128988798.201 6      1393.882    24545754.180   128988798.203 5      1393.882    24545760.560   100510760.829 5      1086.142    24545761.260   100510766.830 6      1086.142
R17  23742667.140   127051779.653 7       901.743    23742667.660   127051779.668 7       901.743    23742683.380    98818127.628 7       701.355    23742682.800    98818124.617 7       701.355
G32  25060345.080   131693003.417 6      3461.169    25060344.700   131693003.416 5      3461.169    25060356.480   102617980.190 5      2697.015    25060356.680   102617982.197 7      2697.015
> 2024 07 08 10 04 17.0000000  0 18
G30  25335306.300   133137930.518 5      2134.672    25335304.880   133137930.517 3      2134.672    25335315.240   103743866.887 3      1663.381    25335316.640   103743883.879 5      1663.381
G02  21536967.480   113177517.885 7      2893.808    21536965.900   113177517.892 6      2893.808    21536966.960    88190272.808 6      2254.915
G03  22589245.340   118707294.566 7      6311.233    22589244.540   118707294.571 7      6311.233    22589251.340    92499225.369 7      4917.844    22589252.000    92499228.383 7      4917.844
G08  20797177.060   109289894.152 8      2555.964    20797175.720   109289894.155 8      2555.964    20797181.280    85160972.833 8      1991.660    20797182.260    85160976.838 8      1991.660
G21  21075446.540   110752211.698 7      1900.573    21075442.720   110752211.700 6      1900.573    21075445.400    86300417.875 6      1480.966
R16  20715792.240   110660024.112 8       293.506    20715791.800   110660024.113 8       293.506    20715799.880    86068935.404 8       228.283    20715800.040    86068934.414 8       228.283
G27  22465032.620   118054522.516 7       966.128    22465031.640   118054522.523 7       966.128    22465037.940    91990556.879 7       752.827    22465038.440    91990557.874 8       752.827
R18  21200603.540   113170243.664 7      1855.657    21200602.000   113170243.654 7      1855.657    21200612.680    88021331.366 8      1443.289    21200612.160    88021334.369 8      1443.289
R04  22304894.960   119441735.942 7      6628.424    22304897.260   119441735.982 6      6628.424    22304907.780    92899190.934 7      5155.441    22304907.620    92899191.929 7      5155.441
R03  21327147.160   114165892.263 7      4068.173    21327147.680   114165892.295 7      4068.173    21327158.000    88795738.526 8      3164.134    21327157.640    88795739.527 8      3164.134
G16  24132383.500   126816486.731 6      -726.167    24132381.900   126816486.744 4      -726.167    24132388.420    98818049.033 4      -565.845
R09  21591265.660   115296145.317 7      4193.209    21591263.580   115296145.323 7      4193.209    21591273.560    89674821.096 8      3261.385    21591273.280    89674823.091 8      3261.385
G10  24367906.200   128054172.517 7      -219.168    24367905.280   128054172.522 6      -219.168    24367914.820    99782501.978 6      -170.780    24367915.060    99782501.974 7      -170.780
R15  23564012.200   125918867.846 6     -1411.683    23564012.100   125918867.837 6     -1411.683    23564026.500    97936979.943 6     -1097.976    23564025.820    97936978.941 6     -1097.976
R02  23386705.160   124795913.621 7       863.441    23386704.800   124795913.620 7       863.441    23386717.200    97063536.665 7       671.565    23386717.040    97063536.668 7       671.565
G07  24545490.000   128987404.284 6      1393.721    24545488.900   128987404.281 5      1393.721    24545495.440   100509674.656 5      1086.016    24545496.300   100509680.661 6      1086.016
R17  23742498.900   127050877.734 7       901.796    23742499.080   127050877.755 7       901.796    23742514.680    98817426.147 7       701.397    23742514.320    98817423.138 7       701.397
G32  25059686.200   131689542.364 6      3460.676    25059686.020   131689542.366 5      3460.676    25059697.840   102615283.266 5      2696.631    25059698.160   102615285.275 7      2696.631
> 2024 07 08 10 04 18.0000000  0 18
G30  25334900.480   133135796.267 5      2133.931    25334898.560   133135796.269 3      2133.931    25334909.200   103742203.836 3      1662.803    25334910.300   103742220.851 5      1662.803
G02  21536416.660   113174624.023 7      2893.821    21536415.240   113174624.034 6      2893.821    21536416.280    88188017.854 6      2254.925
G03  22588044.200   118700983.335 7      6311.132    22588043.520   118700983.339 7      6311.132    22588050.360    92494307.532 7      4917.765    22588051.060    92494310.538 7      4917.765
G08  20796690.480   109287338.161 8      2555.944    20796689.340   109287338.161 8      2555.944    20796694.880    85158981.149 8      1991.645    20796695.660    85158985.152 8      1991.645
G21  21075084.780   110750310.991 7      1900.729    21075080.980   110750310.993 6      1900.729    21075083.600    86298936.803 6      1481.088
R16  20715737.600   110659730.846 8       293.003    20715737.120   110659730.842 8       293.003    20715744.980    86068707.308 8       227.891    20715745.260    86068706.312 8       227.891
G27  22464848.900   118053556.362 7       966.115    22464847.820   118053556.364 7       966.115    22464854.100    91989804.024 7       752.817    22464854.620    91989805.021 8       752.817
R18  21200255.760   113168387.692 7      1855.977    21200254.220   113168387.690 7      1855.977    21200265.040    88019887.831 8      1443.538    21200264.620    88019890.834 8      1443.538
R04  22303657.060   119435107.408 7      6628.426    22303658.720   119435107.447 6      6628.426    22303670.500    92894035.415 7      5155.443    22303670.040    92894036.409 7      5155.443
R03  21326387.360   114161824.344 7      4067.566    21326387.680   114161824.370 7      4067.566    21326397.960    88792574.580 8      3163.662    21326397.700    88792575.578 8      3163.662
G16  24132521.580   126817212.651 6      -725.967    24132520.120   126817212.664 4      -725.967    24132526.600    98818614.673 4      -565.688
R09  21590480.880   115291952.232 7      4192.788    21590478.020   115291952.228 7      4192.788    21590488.180    89671559.804 8      3261.058    21590488.020    89671561.803 8      3261.058
G10  24367947.960   128054391.587 7      -219.035    24367946.860   128054391.589 6      -219.035    24367956.320    99782672.679 6      -170.676    24367957.080    99782672.679 7      -170.676
R15  23564276.520   125920279.456 6     -1411.577    23564276.440   125920279.452 6     -1411.577    23564290.720    97938077.849 6     -1097.893    23564290.300    97938076.846 6     -1097.893
R02  23386543.660   124795050.300 7       863.034    23386543.220   124795050.304 7       863.034    23386555.240    97062865.191 7       671.249    23386555.260    97062865.196 7       671.249
G07  24545224.320   128986010.549 6      1393.779    24545223.720   128986010.551 5      1393.779    24545230.160   100508588.620 5      1086.062    24545230.580   100508594.624 6      1086.062
R17  23742330.120   127049975.816 7       901.854    23742330.440   127049975.826 7       901.854    23742346.000    98816724.642 7       701.442    23742345.800    98816721.640 7       701.442
G32  25059027.720   131686081.673 6      3460.528    25059027.260   131686081.681 5      3460.528    25059039.420   102612586.626 5      2696.515    25059040.100   102612588.635 7      2696.515
> 2024 07 08 10 04 19.0000000  0 18
G30  25334493.660   133133662.336 5      2133.689    25334492.420   133133662.341 3      2133.689    25334503.200   103740541.033 3      1662.615    25334504.620   103740558.047 5      1662.615
G02  21535866.200   113171730.401 8      2893.499    21535864.580   113171730.406 6      2893.499    21535865.500    88185763.081 6      2254.675
G03  22586843.280   118694672.421 7      6310.711    22586842.600   118694672.423 6      6310.711    22586849.440    92489389.937 6      4917.437    22586850.160    92489392.939 7      4917.437
G08  20796204.440   109284782.522 8      2555.468    20796203.140   109284782.526 8      2555.468    20796208.540    85156989.748 8      1991.274    20796209.520    85156993.749 8      1991.274
G21  21074723.160   110748410.505 7      1900.444    21074719.300   110748410.512 6      1900.444    21074722.100    86297455.907 6      1480.865
R16  20715682.780   110659438.226 8       292.290    20715682.100   110659438.225 8       292.290    20715690.180    86068479.713 8       227.337    20715690.480    86068478.717 8       227.337
G27  22464664.840   118052590.499 7       965.634    22464664.000   118052590.507 7       965.634    22464670.360    91989051.404 7       752.442    22464671.320    91989052.401 8       752.442
R18  21199907.800   113166531.761 7      1855.890    21199906.260   113166531.764 7      1855.890    21199917.400    88018444.333 8      1443.470    21199916.980    88018447.336 8      1443.470
R04  22302418.940   119428479.104 7      6628.198    22302420.560   119428479.138 6      6628.198    22302433.420    92888880.068 7      5155.265    22302432.360    92888881.070 7      5155.265
R03  21325627.340   114157757.198 7      4066.730    21325627.980   114157757.221 7      4066.730    21325638.200    88789411.240 8      3163.012    21325638.240    88789412.240 7      3163.012
G16  24132659.720   126817938.711 6      -726.086    24132658.340   126817938.724 4      -726.086    24132664.960    98819180.425 4      -565.781
R09  21589695.220   115287760.026 7      4191.710    21589692.660   115287760.027 7      4191.710    21589703.220    89668299.214 8      3260.219    21589703.000    89668301.211 8      3260.219
G10  24367990.100   128054610.958 7      -219.480    24367988.560   128054610.963 6      -219.480    24367998.040    99782843.626 6      -171.024    24367998.840    99782843.626 7      -171.024
R15  23564540.540   125921691.031 6     -1411.396    23564540.160   125921691.021 6     -1411.396    23564554.440    97939175.717 7     -1097.752    23564554.800    97939174.716 6     -1097.752
R02  23386382.040   124794187.742 7       862.256    23386381.640   124794187.741 7       862.256    23386393.700    97062194.308 7       670.644    23386393.780    97062194.313 7       670.644
G07  24544959.020   128984617.037 6      1393.522    24544958.420   128984617.042 5      1393.522    24544964.720   100507502.763 5      1085.861    24544965.740   100507508.758 6      1085.861
R17  23742161.940   127049073.863 7       901.987    23742161.740   127049073.872 7       901.987    23742177.660    98816023.125 7       701.545    23742177.300    98816020.127 7       701.545
G32  25058369.240   131682621.414 6      3460.170    25058368.480   131682621.421 5      3460.170    25058381.240   102609890.322 5      2696.237    25058382.200   102609892.339 7      2696.237
> 2024 07 08 10 04 20.0000000  0 18
G30  25334089.080   133131528.844 5      2133.580    25334086.560   133131528.852 3      2133.580    25334097.060   103738878.574 3      1662.530    25334097.680   103738895.586 5      1662.530
G02  21535315.420   113168837.037 7      2893.339    21535313.900   113168837.041 6      2893.339    21535314.940    88183508.509 6      2254.550
G03  22585642.360   118688361.848 7      6310.434    22585641.740   118688361.856 6      6310.434    22585648.360    92484472.616 6      4917.222    22585649.420    92484475.618 7      4917.222
G08  20795718.160   109282227.274 8      2555.226    20795716.880   109282227.276 8      2555.226    20795722.300    85154998.642 8      1991.085    20795723.180    85155002.641 8      1991.085
G21  21074361.600   110746510.273 7      1900.266    21074357.760   110746510.281 6      1900.266    21074360.540    86295975.207 6      1480.727
R16  20715627.900   110659146.304 8       291.709    20715627.420   110659146.305 8       291.709    20715635.560    86068252.660 8       226.885    20715635.720    86068251.662 8       226.885
G27  22464481.000   118051624.960 7       965.542    22464480.260   118051624.965 7       965.542    22464486.540    91988299.031 7       752.370    22464487.280    91988300.031 8       752.370
R18  21199560.160   113164675.941 7      1855.862    21199558.840   113164675.945 7      1855.862    21199569.840    88017000.914 8      1443.449    21199569.480    88017003.916 8      1443.449
R04  22301181.000   119421851.084 7      6627.925    22301181.600   119421851.121 6      6627.925    22301195.840    92883724.964 7      5155.053    22301195.040    92883725.976 8      5155.053
R03  21324868.020   114153690.872 7      4066.088    21324868.360   114153690.887 7      4066.088    21324878.600    88786248.538 7      3162.513    21324878.720    88786249.539 8      3162.513
G16  24132797.700   126818664.970 6      -726.149    24132796.560   126818664.980 4      -726.149    24132803.460    98819746.333 4      -565.830
R09  21588910.120   115283568.718 7      4191.084    21588907.900   115283568.708 7      4191.084    21588918.440    89665039.301 8      3259.732    21588918.280    89665041.297 8      3259.732
G10  24368031.580   128054830.653 7      -219.717    24368030.440   128054830.660 6      -219.717    24368039.900    99783014.808 6      -171.208    24368040.300    99783014.807 7      -171.208
R15  23564804.240   125923102.654 6     -1411.596    23564803.920   125923102.658 6     -1411.596    23564818.680    97940273.638 7     -1097.908    23564818.760    97940272.635 7     -1097.908
R02  23386220.620   124793325.961 7       861.640    23386220.280   124793325.959 7       861.640    23386232.220    97061524.023 7       670.164    23386232.380    97061524.029 7       670.164
G07  24544693.940   128983223.799 6      1393.266    24544693.400   128983223.796 5      1393.266    24544699.340   100506417.116 5      1085.662    24544699.900   100506423.119 6      1085.662
R17  23741993.540   127048171.961 7       902.050    23741993.560   127048171.981 7       902.050    23742009.020    98815321.644 7       701.594    23742008.760    98815318.643 7       701.594
G32  25057710.560   131679161.685 6      3459.552    25057709.920   131679161.692 5      3459.552    25057723.000   102607194.431 5      2695.755    25057723.600   102607196.448 7      2695.755
> 2024 07 08 10 04 21.0000000  0 18
G30  25333682.940   133129395.694 5      2132.893    25333680.720   133129395.704 3      2132.893    25333691.100   103737216.379 3      1661.994    25333691.400   103737233.365 5      1661.994
G02  21534764.800   113165943.735 8      2893.237    21534763.380   113165943.737 6      2893.237    21534764.300    88181253.986 6      2254.471
G03  22584441.520   118682051.428 7      6310.225    22584440.960   118682051.438 7      6310.225    22584447.480    92479555.406 7      4917.059    22584448.380    92479558.407 7      4917.059
G08  20795231.800   109279672.218 8      2554.929    20795230.700   109279672.220 8      2554.929    20795236.080    85153007.685 8      1990.854    20795236.960    85153011.686 8      1990.854
G21  21074000.100   110744610.092 7      1900.040    21073996.100   110744610.097 6      1900.040    21073998.800    86294494.544 6      1480.551
R16  20715573.260   110658854.884 8       291.138    20715573.020   110658854.882 8       291.138    20715581.160    86068025.994 8       226.441    20715581.140    86068024.993 8       226.441
G27  22464297.320   118050659.587 7       965.213    22464296.560   118050659.586 7       965.213    22464302.980    91987546.786 7       752.114    22464303.400    91987547.785 8       752.114
R18  21199212.440   113162820.010 7      1855.988    21199210.860   113162820.005 7      1855.988    21199222.140    88015557.405 8      1443.546    21199221.600    88015560.410 8      1443.546
R04  22299942.980   119415223.169 6      6627.849    22299943.640   119415223.213 6      6627.849    22299957.720    92878569.931 7      5154.993    22299957.280    92878570.945 7      5154.993
R03  21324108.460   114149625.206 7      4065.196    21324108.720   114149625.226 7      4065.196    21324119.100    88783086.353 8      3161.819    21324119.140    88783087.359 8      3161.819
G16  24132935.980   126819391.218 6      -726.342    24132934.620   126819391.226 4      -726.342    24132941.700    98820312.233 4      -565.981
R09  21588125.660   115279378.124 7      4190.122    21588122.960   115279378.117 7      4190.122    21588133.620    89661779.949 8      3258.984    21588133.520    89661781.943 8      3258.984
G10  24368073.720   128055050.447 7      -219.875    24368072.380   128055050.457 6      -219.875    24368081.700    99783186.075 6      -171.331    24368081.840    99783186.077 7      -171.331
R15  23565068.880   125924514.093 6     -1411.359    23565068.140   125924514.083 6     -1411.359    23565082.640    97941371.380 7     -1097.723    23565083.080    97941370.381 7     -1097.723
R02  23386058.840   124792464.766 7       860.851    23386058.720   124792464.767 7       860.851    23386070.820    97060854.205 7       669.551    23386071.160    97060854.208 7       669.551
G07  24544429.000   128981830.628 6      1393.111    24544428.240   128981830.623 5      1393.111    24544434.120   100505331.521 5      1085.541    24544434.280   100505337.526 6      1085.541
R17  23741824.820   127047269.852 7       902.192    23741825.540   127047269.862 7       902.192    23741840.880    98814619.985 7       701.705    23741840.300    98814616.987 7       701.705
G32  25057052.360   131675702.203 6      3459.276    25057051.480   131675702.205 5      3459.276    25057064.640   102604498.735 5      2695.540    25057065.600   102604500.754 7      2695.540
> 2024 07 08 10 04 22.0000000  0 18
G30  25333277.080   133127262.809 5      2132.301    25333274.780   133127262.816 3      2132.301    25333285.080   103735554.391 3      1661.534    25333285.840   103735571.389 5      1661.534
G02  21534214.240   113163050.609 8      2892.871    21534212.920   113163050.614 6      2892.871    21534213.680    88178999.607 6      2254.185
G03  22583240.520   118675741.260 7      6309.860    22583240.180   118675741.260 7      6309.860    22583246.680    92474638.386 6      4916.774    22583247.860    92474641.385 7      4916.774
G08  20794745.740   109277117.440 8      2554.440    20794744.460   109277117.442 8      2554.440    20794749.960    85151016.953 8      1990.472    20794751.000    85151020.954 8      1990.472
G21  21073638.680   110742710.031 7      1899.770    21073634.540   110742710.034 6      1899.770    21073637.240    86293013.971 6      1480.340
R16  20715518.540   110658564.102 8       290.291    20715518.660   110658564.100 8       290.291    20715526.660    86067799.826 8       225.782    20715526.740    86067798.825 8       225.782
G27  22464113.640   118049694.402 7       964.882    22464112.940   118049694.402 7       964.882    22464119.300    91986794.694 7       751.856    22464119.620    91986795.698 8       751.856
R18  21198864.700   113160964.084 7      1855.771    21198863.380   113160964.085 7      1855.771    21198874.500    88014113.909 8      1443.378    21198874.000    88014116.914 8      1443.378
R04  22298705.720   119408595.451 6      6627.524    22298706.980   119408595.482 6      6627.524    22298719.240    92873415.033 7      5154.741    22298719.140    92873416.048 7      5154.741
R03  21323349.000   114145560.271 7      4064.365    21323349.260   114145560.297 7      4064.365    21323359.520    88779924.746 8      3161.173    21323359.640    88779925.747 8      3161.173
G16  24133074.300   126820117.530 6      -726.719    24133072.660   126820117.537 4      -726.719    24133080.000    98820878.181 4      -566.274
R09  21587341.160   115275188.246 7      4189.316    21587338.740   115275188.231 7      4189.316    21587349.000    89658521.159 8      3258.357    21587348.700    89658523.153 8      3258.357
G10  24368115.680   128055270.452 7      -220.285    24368114.220   128055270.457 6      -220.285    24368123.660    99783357.501 6      -171.651    24368123.800    99783357.495 7      -171.651
R15  23565333.000   125925925.443 6     -1411.491    23565332.320   125925925.428 6     -1411.491    23565347.300    97942469.085 7     -1097.826    23565347.280    97942468.084 7     -1097.826
R02  23385897.920   124791604.265 7       859.994    23385897.500   124791604.266 7       859.994    23385909.520    97060184.923 7       668.884    23385909.780    97060184.930 7       668.884
G07  24544164.020   128980437.597 6      1392.877    24544163.140   128980437.599 5      1392.877    24544169.120   100504246.046 5      1085.359    24544169.400   100504252.053 6      1085.359
R17  23741655.900   127046367.613 7       902.074    23741656.820   127046367.641 7       902.074    23741671.840    98813918.250 7       701.613    23741671.800    98813915.251 7       701.613
G32  25056394.360   131672243.097 6      3458.774    25056393.040   131672243.102 5      3458.774    25056406.200   102601803.330 5      2695.149    25056407.440   102601805.353 7      2695.149
> 2024 07 08 10 04 23.0000000  0 18
G30  25332871.020   133125130.452 5      2132.491    25332869.120   133125130.460 3      2132.491    25332879.400   103733892.814 3      1661.681    25332880.500   103733909.806 5      1661.681
G02  21533663.940   113160157.862 8      2892.718    21533662.460   113160157.869 6      2892.718    21533663.360    88176745.512 6      2254.066
G03  22582039.780   118669431.555 7      6309.705    22582039.480   118669431.557 6      6309.705    22582046.060    92469721.738 6      4916.653    22582047.160    92469724.736 7      4916.653
G08  20794259.580   109274563.162 8      2554.257    20794258.360   109274563.164 8      2554.257    20794263.820    85149026.603 8      1990.330    20794264.900    85149030.603 8      1990.330
G21  21073277.200   110740810.331 7      1899.811    21073273.120   110740810.333 6      1899.811    21073275.660    86291533.683 6      1480.372
R16  20715464.480   110658274.164 8       289.773    20715464.160   110658274.165 8       289.773    20715472.460    86067574.316 8       225.379    20715472.620    86067573.316 8       225.379
G27  22463930.320   118048729.693 7       964.725    22463929.380   118048729.693 7       964.725    22463935.700    91986042.967 7       751.734    22463936.480    91986043.968 8       751.734
R18  21198517.300   113159108.366 7      1855.798    21198515.640   113159108.367 7      1855.798    21198526.960    88012670.569 8      1443.398    21198526.360    88012673.574 8      1443.398
R04  22297468.540   119401968.076 6      6627.411    22297469.860   119401968.115 6      6627.411    22297481.060    92868260.423 7      5154.653    22297481.320    92868261.431 7      5154.653
R03  21322589.560   114141496.332 7      4063.698    21322590.100   114141496.363 7      4063.698    21322600.500    88776763.906 8      3160.654    21322600.740    88776764.912 8      3160.654
G16  24133212.760   126820844.117 6      -726.663    24133211.040   126820844.128 4      -726.663    24133218.240    98821444.349 4      -566.231
R09  21586556.560   115270999.359 7      4188.685    21586554.540   115270999.336 7      4188.685    21586564.380    89655263.131 8      3257.866    21586564.580    89655265.126 8      3257.866
G10  24368157.460   128055490.872 7      -220.358    24368156.100   128055490.877 6      -220.358    24368165.660    99783529.257 6      -171.707    24368166.160    99783529.253 7      -171.707
R15  23565597.200   125927336.948 6     -1411.377    23565596.540   125927336.928 6     -1411.377    23565610.960    97943566.897 7     -1097.738    23565611.580    97943565.896 7     -1097.738
R02  23385736.920   124790744.666 7       859.355    23385736.280   124790744.664 7       859.355    23385748.400    97059516.341 7       668.387    23385748.540    97059516.347 7       668.387
G07  24543899.160   128979044.989 6      1392.774    24543898.060   128979044.999 5      1392.774    24543904.080   100503160.895 5      1085.279    24543904.580   100503166.894 6      1085.279
R17  23741487.500   127045465.523 7       902.250    23741488.340   127045465.546 7       902.250    23741503.180    98813216.622 7       701.750    23741503.100    98813213.618 7       701.750
G32  25055736.920   131668784.637 6      3458.230    25055734.580   131668784.639 5      3458.230    25055748.040   102599108.431 5      2694.725    25055748.880   102599110.437 7      2694.725
> 2024 07 08 10 04 24.0000000  0 18
G30  25332465.000   133122998.419 5      2131.947    25332463.600   133122998.418 3      2131.947    25332473.580   103732231.485 3      1661.257    25332475.100   103732248.481 5      1661.257
G02  21533113.340   113157265.225 8      2892.453    21533111.960   113157265.230 6      2892.453    21533112.820    88174491.505 6      2253.860
G03  22580839.160   118663122.076 7      6309.131    22580838.880   118663122.073 7      6309.131    22580845.260    92464805.261 7      4916.206    22580846.440    92464808.263 7      4916.206
G08  20793773.560   109272009.141 8      2553.755    20793772.360   109272009.141 8      2553.755    20793777.860    85147036.452 8      1989.939    20793778.860    85147040.453 8      1989.939
G21  21072915.500   110738910.748 7      1899.360    21072911.680   110738910.748 6      1899.360    21072914.380    86290053.485 6      1480.021
R16  20715410.460   110657984.792 8       288.991    20715409.960   110657984.788 8       288.991    20715418.400    86067349.241 8       224.771    20715418.560    86067348.245 8       224.771
G27  22463746.740   118047765.171 7       964.265    22463745.760   118047765.165 7       964.265    22463752.280    91985291.385 7       751.376    22463752.740    91985292.386 8       751.376
R18  21198169.440   113157252.557 7      1855.672    21198168.100   113157252.563 7      1855.672    21198179.300    88011227.162 8      1443.301    21198178.480    88011230.169 8      1443.301
R04  22296231.040   119395340.814 7      6627.158    22296232.700   119395340.856 6      6627.158    22296243.900    92863105.886 7      5154.456    22296244.100    92863106.892 7      5154.456
R03  21321830.740   114137433.099 7      4062.698    21321831.060   114137433.136 7      4062.698    21321841.560    88773603.614 8      3159.876    21321841.820    88773604.622 8      3159.876
G16  24133351.220   126821570.747 6      -726.828    24133349.360   126821570.754 4      -726.828    24133356.480    98822010.542 4      -566.359
R09  21585772.120   115266811.244 7      4187.590    21585770.740   115266811.237 7      4187.590    21585780.160    89652005.721 8      3257.014    21585779.920    89652007.717 8      3257.014
G10  24368199.340   128055711.478 7      -220.862    24368198.120   128055711.483 6      -220.862    24368207.400    99783701.160 6      -172.100    24368208.100    99783701.156 7      -172.100
R15  23565861.420   125928748.270 6     -1411.438    23565859.760   125928748.257 6     -1411.438    23565875.540    97944664.585 7     -1097.785    23565875.700    97944663.586 7     -1097.785
R02  23385576.080   124789885.662 7       858.543    23385575.340   124789885.665 7       858.543    23385587.180    97058848.229 7       667.756    23385587.760    97058848.236 7       667.756
G07  24543634.460   128977652.520 6      1392.155    24543633.120   128977652.523 5      1392.155    24543639.060   100502075.844 5      1084.796    24543639.840   100502081.843 6      1084.796
R17  23741319.240   127044563.348 7       902.069    23741319.460   127044563.352 7       902.069    23741334.360    98812514.914 7       701.609    23741334.420    98812511.911 7       701.609
G32  25055078.740   131665326.487 6      3457.620    25055076.060   131665326.490 5      3457.620    25055089.840   102596413.771 5      2694.250    25055090.960   102596415.775 7      2694.250
> 2024 07 08 10 04 25.0000000  0 18
G30  25332059.880   133120866.903 5      2131.241    25332058.080   133120866.900 3      2131.241    25332068.000   103730570.564 3      1660.707    25332069.120   103730587.576 5      1660.707
G02  21532562.920   113154372.932 8      2892.081    21532561.480   113154372.937 6      2892.081    21532562.580    88172237.776 6      2253.570
G03  22579638.740   118656812.975 7      6308.883    22579638.080   118656812.974 7      6308.883    22579644.780    92459889.080 7      4916.012    22579646.020    92459892.084 7      4916.012
G08  20793287.600   109269455.572 8      2553.280    20793286.520   109269455.572 8      2553.280    20793291.940    85145046.658 8      1989.569    20793292.960    85145050.657 8      1989.569
G21  21072553.880   110737011.463 8      1899.039    21072550.200   110737011.463 6      1899.039    21072553.000    86288573.522 6      1479.771
R16  20715356.380   110657696.192 8       288.101    20715355.800   110657696.190 8       288.101    20715364.280    86067124.772 8       224.079    20715364.480    86067123.772 8       224.079
G27  22463562.980   118046801.053 7       963.760    22463562.220   118046801.055 7       963.760    22463568.660    91984540.124 7       750.982    22463569.360    91984541.126 7       750.982
R18  21197821.920   113155396.919 7      1855.517    21197820.460   113155396.923 7      1855.517    21197831.840    88009783.878 8      1443.180    21197831.120    88009786.883 8      1443.180
R04  22294993.460   119388713.924 7      6626.580    22294994.820   119388713.979 7      6626.580    22295006.700    92857951.648 7      5154.007    22295006.420    92857952.652 7      5154.007
R03  21321071.960   114133370.787 7      4061.802    21321072.460   114133370.810 7      4061.802    21321082.840    88770444.023 8      3159.179    21321083.000    88770445.029 8      3159.179
G16  24133489.120   126822297.623 6      -726.940    24133487.800   126822297.626 4      -726.940    24133494.880    98822576.929 4      -566.447
R09  21584987.940   115262624.097 7      4186.547    21584987.000   115262624.088 7      4186.547    21584996.120    89648749.053 8      3256.203    21584995.920    89648751.048 8      3256.203
G10  24368241.160   128055932.466 7      -221.233    24368240.200   128055932.465 6      -221.233    24368249.260    99783873.360 6      -172.390    24368249.820    99783873.356 7      -172.390
R15  23566125.580   125930159.714 6     -1411.504    23566124.140   125930159.707 6     -1411.504    23566139.820    97945762.365 7     -1097.836    23566139.900    97945761.366 7     -1097.836
R02  23385414.780   124789027.488 7       857.699    23385414.520   124789027.483 7       857.699    23385426.600    97058180.750 7       667.099    23385426.880    97058180.753 7       667.099
G07  24543369.320   128976260.383 6      1391.794    24543368.260   128976260.387 5      1391.794    24543374.140   100500991.055 5      1084.515    24543374.720   100500997.048 6      1084.515
R17  23741150.560   127043661.272 7       901.948    23741150.480   127043661.282 7       901.948    23741165.340    98811813.289 7       701.515    23741165.420    98811810.294 7       701.515
G32  25054420.580   131661868.858 6      3457.209    25054417.900   131661868.860 5      3457.209    25054431.840   102593719.510 5      2693.929    25054432.740   102593721.518 7      2693.929
> 2024 07 08 10 04 26.0000000  0 18
G30  25331654.420   133118735.663 5      2131.275    25331652.660   133118735.660 3      2131.275    25331662.440   103728909.861 3      1660.734    25331662.460   103728926.869 5      1660.734
G02  21532012.520   113151480.763 7      2892.110    21532010.980   113151480.773 6      2892.110    21532012.160    88169984.140 6      2253.592
G03  22578438.480   118650504.102 7      6308.900    22578437.540   118650504.107 7      6308.900    22578444.340    92454973.096 7      4916.026    22578445.660    92454976.096 7      4916.026
G08  20792801.680   109266902.242 8      2553.226    20792800.560   109266902.250 8      2553.226    20792805.980    85143057.053 8      1989.527    20792806.860    85143061.052 8      1989.527
G21  21072192.540   110735112.264 7      1899.242    21072188.740   110735112.269 6      1899.242    21072191.520    86287093.629 6      1479.929
R16  20715301.960   110657408.148 8       287.818    20715302.180   110657408.149 8       287.818    20715310.420    86066900.730 8       223.859    20715310.300    86066899.731 8       223.859
G27  22463379.560   118045837.093 7       963.948    22463379.060   118045837.098 7       963.948    22463385.340    91983788.993 7       751.129    22463385.720    91983789.996 8       751.129
R18  21197474.120   113153541.212 7      1855.812    21197473.180   113153541.216 7      1855.812    21197483.940    88008340.544 8      1443.410    21197483.300    88008343.549 8      1443.410
R04  22293755.920   119382087.130 7      6626.776    22293757.180   119382087.188 7      6626.776    22293769.840    92852797.484 7      5154.159    22293768.780    92852798.490 8      5154.159
R03  21320313.540   114129309.118 7      4061.410    21320313.780   114129309.141 7      4061.410    21320323.940    88767284.951 8      3158.875    21320324.000    88767285.961 8      3158.875
G16  24133627.620   126823024.566 6      -726.981    24133626.040   126823024.571 4      -726.981    24133633.160    98823143.367 4      -566.479
R09  21584203.920   115258437.669 7      4186.153    21584203.100   115258437.659 7      4186.153    21584211.960    89645492.945 8      3255.897    21584211.660    89645494.941 8      3255.897
G10  24368283.520   128056153.605 7      -221.187    24368282.380   128056153.608 6      -221.187    24368291.400    99784045.672 6      -172.353    24368291.780    99784045.670 7      -172.353
R15  23566389.360   125931571.101 6     -1411.334    23566388.360   125931571.092 6     -1411.334    23566404.180    97946860.092 7     -1097.704    23566403.840    97946859.093 7     -1097.704
R02  23385254.040   124788169.866 7       857.307    23385253.640   124788169.864 7       857.307    23385266.080    97057513.706 7       666.794    23385266.340    97057513.709 7       666.794
G07  24543104.380   128974868.379 6      1392.034    24543103.340   128974868.381 5      1392.034    24543109.160   100499906.348 5      1084.701    24543108.920   100499912.331 6      1084.701
R17  23740982.280   127042759.051 7       902.383    23740982.120   127042759.066 7       902.383    23740996.520    98811111.559 7       701.853    23740996.400    98811108.557 7       701.853
G32  25053762.760   131658411.591 6      3457.070    25053759.760   131658411.594 5      3457.070    25053773.800   102591025.536 5      2693.821    25053774.880   102591027.538 7      2693.821
> 2024 07 08 10 04 27.0000000  0 18
G30  25331248.940   133116604.796 5      2130.753    25331246.980   133116604.795 3      2130.753    25331256.960   103727249.449 3      1660.327    25331258.220   103727266.441 5      1660.327
G02  21531462.380   113148588.760 7      2891.934    21531460.740   113148588.767 6      2891.934    21531462.000    88167730.627 6      2253.455
G03  22577238.000   118644195.508 7      6308.552    22577237.060   118644195.513 7      6308.552    22577243.840    92450057.299 7      4915.755    22577245.000    92450060.296 7      4915.755
G08  20792316.060   109264349.191 8      2552.962    20792314.820   109264349.196 8      2552.962    20792320.160    85141067.662 8      1989.321    20792321.020    85141071.663 8      1989.321
G21  21071831.300   110733213.231 7      1899.032    21071827.320   110733213.236 6      1899.032    21071830.120    86285613.863 6      1479.765
R16  20715248.260   110657120.739 8       287.112    20715248.340   110657120.740 7       287.112    20715256.500    86066677.192 8       223.310    20715257.120    86066676.191 8       223.310
G27  22463196.200   118044873.422 7       963.550    22463195.460   118044873.427 7       963.550    22463201.880    91983038.068 7       750.818    22463202.560    91983039.069 8       750.818
R18  21197126.480   113151685.521 7      1855.754    21197125.840   113151685.527 7      1855.754    21197136.500    88006897.222 8      1443.364    21197136.100    88006900.227 8      1443.364
R04  22292518.540   119375460.534 7      6626.624    22292520.300   119375460.576 7      6626.624    22292532.340    92847643.461 7      5154.041    22292531.620    92847644.469 8      5154.041
R03  21319554.860   114125248.181 7      4060.640    21319555.240   114125248.202 7      4060.640    21319565.300    88764126.441 8      3158.276    21319565.600    88764127.449 8      3158.276
G16  24133765.800   126823751.568 6      -727.084    24133764.520   126823751.578 4      -727.084    24133771.360    98823709.859 4      -566.559
R09  21583419.980   115254252.058 7      4185.253    21583419.600   115254252.038 7      4185.253    21583428.340    89642237.461 8      3255.196    21583428.100    89642239.453 8      3255.196
G10  24368325.560   128056374.966 7      -221.382    24368324.380   128056374.965 6      -221.382    24368333.460    99784218.155 6      -172.506    24368333.720    99784218.151 7      -172.506
R15  23566654.260   125932982.374 6     -1411.137    23566652.520   125932982.365 6     -1411.137    23566668.280    97947957.747 7     -1097.551    23566668.020    97947956.752 7     -1097.551
R02  23385093.740   124787312.913 7       856.636    23385093.380   124787312.914 7       856.636    23385105.120    97056847.186 7       666.273    23385105.520    97056847.189 7       666.273
G07  24542839.380   128973476.449 6      1391.827    24542838.320   128973476.451 5      1391.827    24542844.240   100498821.732 5      1084.540    24542844.180   100498827.776 6      1084.540
R17  23740813.700   127041856.742 7       902.336    23740813.560   127041856.760 7       902.336    23740828.320    98810409.761 7       701.817    23740828.280    98810406.763 7       701.817
G32  25053105.240   131654954.679 6      3457.008    25053102.220   131654954.684 5      3457.008    25053115.920   102588331.834 5      2693.772    25053117.140   102588333.834 7      2693.772
> 2024 07 08 10 04 28.0000000  0 18
G30  25330842.960   133114474.233 5      2130.578    25330841.580   133114474.238 3      2130.578    25330851.680   103725589.271 3      1660.191    25330852.460   103725606.247 5      1660.191
G02  21530912.020   113145696.906 7      2891.893    21530910.440   113145696.913 6      2891.893    21530911.600    88165477.236 6      2253.423
G03  22576037.580   118637887.140 7      6308.484    22576036.660   118637887.143 7      6308.484    22576043.500    92445141.681 7      4915.702    22576044.340    92445144.679 7      4915.702
G08  20791830.280   109261796.424 7      2552.828    20791829.020   109261796.426 8      2552.828    20791834.400    85139078.491 8      1989.217    20791835.260    85139082.492 8      1989.217
G21  21071469.920   110731314.313 7      1899.021    21071466.080   110731314.318 6      1899.021    21071468.820    86284134.187 6      1479.757
R16  20715194.840   110656833.966 8       286.636    20715194.560   110656833.967 8       286.636    20715202.980    86066454.148 8       222.939    20715203.180    86066453.150 8       222.939
G27  22463012.800   118043909.985 7       963.517    22463012.200   118043909.984 7       963.517    22463018.680    91982287.329 7       750.792    22463019.040    91982288.327 8       750.792
R18  21196779.060   113149829.808 7      1855.897    21196778.300   113149829.820 7      1855.897    21196789.040    88005453.899 8      1443.476    21196788.300    88005456.903 8      1443.476
R04  22291280.640   119368834.062 7      6626.675    22291282.380   119368834.104 7      6626.675    22291294.660    92842489.548 7      5154.081    22291294.440    92842490.562 8      5154.081
R03  21318796.360   114121187.933 7      4060.094    21318796.580   114121187.956 7      4060.094    21318807.100    88760968.474 8      3157.851    21318807.240    88760969.478 8      3157.851
G16  24133904.180   126824478.600 6      -726.778    24133902.780   126824478.610 4      -726.778    24133909.780    98824276.371 4      -566.321
R09  21582636.340   115250067.168 7      4184.855    21582635.940   115250067.153 7      4184.855    21582644.680    89638982.550 8      3254.887    21582644.400    89638984.549 8      3254.887
G10  24368367.720   128056596.510 7      -221.493    24368366.580   128056596.513 6      -221.493    24368375.420    99784390.791 6      -172.592    24368375.540    99784390.797 7      -172.592
R15  23566917.920   125934393.583 6     -1410.959    23566916.960   125934393.574 6     -1410.959    23566932.360    97949055.335 7     -1097.413    23566932.140    97949054.338 7     -1097.413
R02  23384933.080   124786456.663 7       856.063    23384932.740   124786456.663 7       856.063    23384944.660    97056181.213 7       665.827    23384945.320    97056181.214 7       665.827
G07  24542575.140   128972084.731 6      1391.837    24542573.380   128972084.739 5      1391.837    24542579.260   100497737.295 5      1084.549    24542579.880   100497743.302 6      1084.549
R17  23740645.220   127040954.350 7       902.672    23740645.340   127040954.368 7       902.672    23740659.660    98809707.888 7       702.078    23740659.700    98809704.892 7       702.078
G32  25052446.900   131651498.164 6      3456.721    25052444.100   131651498.171 5      3456.721    25052458.060   102585638.451 5      2693.548    25052458.960   102585640.450 7      2693.548
> 2024 07 08 10 04 29.0000000  0 18
G30  25330437.840   133112343.931 5      2130.225    25330436.320   133112343.931 3      2130.225    25330446.340   103723929.289 3      1659.915    25330447.480   103723946.263 5      1659.915
G02  21530361.800   113142805.136 7      2891.665    21530360.360   113142805.141 6      2891.665    21530361.280    88163223.905 6      2253.245
G03  22574837.260   118631578.959 7      6307.985    22574836.040   118631578.961 7      6307.985    22574843.080    92440226.219 7      4915.313    22574843.900    92440229.215 7      4915.313
G08  20791344.500   109259243.877 7      2552.401    20791343.300   109259243.879 8      2552.401    20791348.660    85137089.491 8      1988.884    20791349.620    85137093.492 8      1988.884
G21  21071108.640   110729415.490 7      1898.689    21071104.780   110729415.495 6      1898.689    21071107.520    86282654.579 6      1479.498
R16  20715141.120   110656547.746 8       285.883    20715141.000   110656547.747 7       285.883    20715149.340    86066231.528 8       222.353    20715149.780    86066230.530 8       222.353
G27  22462829.500   118042946.661 7       963.182    22462828.880   118042946.660 7       963.182    22462835.340    91981536.691 7       750.531    22462836.020    91981537.691 8       750.531
R18  21196431.420   113147974.010 7      1855.824    21196431.020   113147974.017 7      1855.824    21196441.440    88004010.488 8      1443.418    21196440.600    88004013.490 8      1443.418
R04  22290043.260   119362207.710 7      6626.176    22290044.760   119362207.752 7      6626.176    22290056.820    92837335.729 7      5153.693    22290057.040    92837336.735 8      5153.693
R03  21318038.120   114117128.341 7      4059.182    21318038.660   114117128.364 7      4059.182    21318048.700    88757811.009 8      3157.141    21318048.620    88757812.011 8      3157.141
G16  24134042.220   126825205.705 6      -727.114    24134041.200   126825205.718 4      -727.114    24134048.200    98824842.940 4      -566.583
R09  21581852.680   115245883.014 7      4183.707    21581852.740   115245883.002 7      4183.707    21581860.860    89635728.221 8      3253.994    21581860.820    89635730.218 8      3253.994
G10  24368409.780   128056818.202 7      -221.797    24368408.840   128056818.204 6      -221.797    24368417.680    99784563.531 6      -172.829    24368417.340    99784563.534 7      -172.829
R15  23567181.640   125935804.627 6     -1410.982    23567181.260   125935804.625 6     -1410.982    23567196.320    97950152.790 7     -1097.430    23567196.220    97950151.791 7     -1097.430
R02  23384773.040   124785601.068 7       855.227    23384772.520   124785601.069 7       855.227    23384784.420    97055515.741 7       665.177    23384784.980    97055515.744 7       665.177
G07  24542310.200   128970693.135 6      1391.477    24542308.620   128970693.148 5      1391.477    24542314.460   100496652.938 5      1084.268    24542315.400   100496658.937 6      1084.268
R17  23740476.120   127040051.795 7       902.557    23740476.780   127040051.807 7       902.557    23740490.840    98809005.887 7       701.988    23740490.880    98809002.888 7       701.988
G32  25051789.640   131648041.982 6      3455.898    25051786.500   131648041.987 5      3455.898    25051800.380   102582945.327 5      2692.907    25051800.720   102582947.325 7      2692.907
> 2024 07 08 10 04 30.0000000  0 18
G30  25330032.540   133110214.136 5      2129.728    25330031.080   133110214.139 3      2129.728    25330041.040   103722269.709 3      1659.529    25330042.080   103722286.705 5      1659.529
G02  21529811.620   113139913.726 7      2891.310    21529810.000   113139913.731 6      2891.310    21529811.200    88160970.858 6      2252.969
G03  22573636.760   118625271.196 7      6307.665    22573635.820   118625271.195 7      6307.665    22573642.700    92435311.079 7      4915.064    22573643.680    92435314.070 7      4915.064
G08  20790858.780   109256691.803 7      2551.902    20790857.620   109256691.805 8      2551.902    20790863.000    85135100.858 8      1988.495    20790863.980    85135104.861 8      1988.495
G21  21070747.200   110727516.975 7      1898.422    21070743.500   110727516.977 6      1898.422    21070746.340    86281175.216 6      1479.290
R16  20715087.960   110656262.316 8       285.139    20715087.560   110656262.317 8       285.139    20715096.040    86066009.517 8       221.775    20715096.500    86066008.519 8       221.775
G27  22462646.320   118041983.754 7       962.821    22462645.580   118041983.759 7       962.821    22462652.120    91980786.375 7       750.250    22462652.980    91980787.374 8       750.250
R18  21196083.660   113146118.378 7      1855.596    21196083.740   113146118.376 7      1855.596    21196093.760    88002567.203 8      1443.242    21196092.940    88002570.208 8      1443.242
R04  22288805.300   119355581.698 7      6625.981    22288807.540   119355581.734 7      6625.981    22288819.140    92832182.156 7      5153.541    22288819.780    92832183.155 7      5153.541
R03  21317279.660   114113069.663 7      4058.369    21317280.500   114113069.689 7      4058.369    21317290.520    88754654.258 8      3156.509    21317290.560    88754655.260 8      3156.509
G16  24134180.340   126825933.039 6      -727.356    24134179.700   126825933.049 4      -727.356    24134186.800    98825409.681 4      -566.771
R09  21581069.240   115241699.833 7      4182.785    21581069.280   115241699.829 7      4182.785    21581077.460    89632474.634 8      3253.277    21581077.620    89632476.630 8      3253.277
G10  24368452.140   128057040.290 7      -222.202    24368450.960   128057040.292 6      -222.202    24368460.080    99784736.587 6      -173.144    24368460.060    99784736.585 7      -173.144
R15  23567446.140   125937215.779 6     -1411.168    23567445.320   125937215.786 6     -1411.168    23567460.560    97951250.347 7     -1097.575    23567460.000    97951249.359 7     -1097.575
R02  23384612.880   124784746.357 7       854.360    23384612.320   124784746.363 7       854.360    23384624.480    97054850.973 7       664.502    23384624.820    97054850.979 7       664.502
G07  24542045.360   128969301.872 6      1391.253    24542043.980   128969301.880 5      1391.253    24542049.820   100495568.829 5      1084.093    24542050.160   100495574.814 6      1084.093
R17  23740307.320   127039149.323 7       902.462    23740307.540   127039149.346 7       902.462    23740322.220    98808303.980 7       701.915    23740322.200    98808300.980 7       701.915
G32  25051132.100   131644586.358 6      3455.479    25051129.100   131644586.357 5      3455.479    25051142.680   102580252.622 5      2692.581    25051142.920   102580254.606 6      2692.581
> 2024 07 08 10 04 31.0000000  0 18
G30  25329627.140   133108084.775 5      2129.266    25329625.820   133108084.780 3      2129.266    25329635.680   103720610.468 3      1659.168    25329637.480   103720627.468 5      1659.168
G02  21529261.460   113137022.526 7      2891.233    21529259.800   113137022.531 6      2891.233    21529261.020    88158717.977 6      2252.909
G03  22572436.460   118618963.734 7      6307.508    22572435.580   118618963.742 7      6307.508    22572442.620    92430396.180 7      4914.941    22572443.400    92430399.180 7      4914.941
G08  20790373.100   109254140.055 8      2551.736    20790372.040   109254140.057 8      2551.736    20790377.400    85133112.483 8      1988.366    20790378.360    85133116.484 8      1988.366
G21  21070386.200   110725618.651 8      1898.407    21070382.300   110725618.656 6      1898.407    21070385.040    86279696.001 6      1479.278
R16  20715034.680   110655977.533 8       284.579    20715034.400   110655977.534 8       284.579    20715042.820    86065788.019 8       221.339    20715043.160    86065787.023 8       221.339
G27  22462463.180   118041021.153 7       962.503    22462462.300   118041021.160 7       962.503    22462468.980    91980036.291 7       750.003    22462469.600    91980037.293 8       750.003
R18  21195735.780   113144262.732 7      1855.803    21195736.280   113144262.730 7      1855.803    21195746.160    88001123.921 8      1443.402    21195745.180    88001126.928 8      1443.402
R04  22287568.080   119348955.895 7      6625.841    22287571.080   119348955.942 7      6625.841    22287581.780    92827028.764 7      5153.432    22287582.360    92827029.761 7      5153.432
R03  21316521.720   114109011.813 7      4057.625    21316522.720   114109011.839 7      4057.625    21316532.420    88751498.151 8      3155.930    21316532.140    88751499.154 8      3155.930
G16  24134319.160   126826660.517 6      -727.482    24134318.000   126826660.524 4      -727.482    24134325.260    98825976.533 4      -566.869
R09  21580286.220   115237517.482 7      4182.133    21580285.820   115237517.477 7      4182.133    21580294.220    89629221.692 8      3252.770    21580294.240    89629223.688 8      3252.770
G10  24368494.580   128057262.644 7      -222.352    24368493.400   128057262.643 6      -222.352    24368502.460    99784909.842 6      -173.261    24368502.680    99784909.836 6      -173.261
R15  23567709.940   125938626.932 6     -1411.103    23567709.480   125938626.931 6     -1411.103    23567724.140    97952347.892 7     -1097.524    23567724.260    97952346.897 7     -1097.524
R02  23384452.820   124783892.337 7       853.900    23384452.200   124783892.338 7       853.900    23384464.160    97054186.729 7       664.145    23384464.640    97054186.735 7       664.145
G07  24541780.840   128967910.838 6      1391.067    24541779.280   128967910.846 5      1391.067    24541784.980   100494484.902 5      1083.948    24541785.840   100494490.891 6      1083.948
R17  23740138.740   127038246.837 7       902.643    23740138.880   127038246.847 7       902.643    23740153.740    98807602.037 7       702.056    23740153.680    98807599.038 7       702.056
G32  25050474.220   131641131.117 6      3455.108    25050471.560   131641131.124 5      3455.108    25050485.000   102577560.229 5      2692.292    25050485.880   102577562.252 6      2692.292
> 2024 07 08 10 04 32.0000000  0 18
G30  25329221.880   133105955.739 5      2128.707    25329220.700   133105955.742 3      2128.707    25329230.460   103718951.473 3      1658.732    25329232.300   103718968.461 5      1658.732
G02  21528711.260   113134131.455 7      2891.146    21528709.660   113134131.466 6      2891.146    21528710.720    88156465.199 6      2252.841
G03  22571236.560   118612656.517 7      6307.212    22571235.280   118612656.522 7      6307.212    22571242.400    92425481.465 7      4914.710    22571243.180    92425484.463 7      4914.710
G08  20789887.760   109251588.572 7      2551.453    20789886.580   109251588.575 8      2551.453    20789891.980    85131124.313 8      1988.145    20789892.960    85131128.318 8      1988.145
G21  21070025.080   110723720.461 7      1898.192    21070021.040   110723720.469 6      1898.192    21070023.760    86278216.892 6      1479.111
R16  20714981.300   110655693.338 8       283.996    20714981.220   110655693.336 8       283.996    20714989.500    86065566.970 8       220.885    20714989.840    86065565.976 8       220.885
G27  22462280.320   118040058.735 7       962.425    22462279.120   118040058.742 7       962.425    22462285.800    91979286.349 7       749.942    22462286.440    91979287.349 8       749.942
R18  21195388.520   113142407.105 7      1855.754    21195389.020   113142407.111 7      1855.754    21195398.700    87999680.662 8      1443.364    21195397.560    87999683.662 8      1443.364
R04  22286331.540   119342330.252 7      6625.720    22286334.460   119342330.294 7      6625.720    22286344.880    92821875.484 7      5153.338    22286344.560    92821876.480 7      5153.338
R03  21315763.900   114104954.691 7      4056.816    21315764.600   114104954.722 7      4056.816    21315774.700    88748342.617 7      3155.302    21315774.440    88748343.625 8      3155.302
G16  24134457.520   126827388.029 6      -727.481    24134456.500   126827388.037 4      -727.481    24134463.580    98826543.415 4      -566.868
R09  21579503.060   115233335.900 7      4181.211    21579502.760   115233335.890 7      4181.211    21579511.140    89625969.350 8      3252.053    21579511.080    89625971.349 8      3252.053
G10  24368536.800   128057485.158 7      -222.507    24368535.740   128057485.160 6      -222.507    24368544.780    99785083.233 6      -173.382    24368544.820    99785083.236 6      -173.382
R15  23567975.120   125940037.975 6     -1410.993    23567973.900   125940037.971 6     -1410.993    23567988.180    97953445.361 7     -1097.439    23567988.180    97953444.371 7     -1097.439
R02  23384292.760   124783038.939 7       853.228    23384292.220   124783038.937 7       853.228    23384304.500    97053522.963 7       663.621    23384304.920    97053522.964 7       663.621
G07  24541516.000   128966519.946 6      1390.914    24541514.580   128966519.953 5      1390.914    24541520.380   100493401.090 5      1083.829    24541520.700   100493407.083 6      1083.829
R17  23739970.260   127037344.226 7       902.787    23739969.920   127037344.246 7       902.787    23739985.200    98806900.004 7       702.168    23739985.100    98806897.003 7       702.168
G32  25049816.720   131637676.278 6      3454.522    25049814.100   131637676.296 5      3454.522    25049827.380   102574868.159 5      2691.835    25049828.340   102574870.171 6      2691.835
> 2024 07 08 10 04 33.0000000  0 18
G30  25328816.960   133103827.264 5      2128.069    25328815.580   133103827.263 3      2128.069    25328825.320   103717292.917 3      1658.235    25328827.620   103717309.900 5      1658.235
G02  21528161.040   113131240.857 7      2890.385    21528159.580   113131240.865 6      2890.385    21528160.600    88154212.783 6      2252.248
G03  22570036.320   118606349.836 7      6306.401    22570035.140   118606349.841 7      6306.401    22570042.120    92420567.166 6      4914.078    22570042.880    92420570.170 7      4914.078
G08  20789402.180   109249037.660 8      2550.625    20789401.120   109249037.665 8      2550.625    20789406.560    85129136.593 8      1987.500    20789407.540    85129140.596 8      1987.500
G21  21069663.820   110721822.692 8      1897.502    21069659.920   110721822.694 6      1897.502    21069662.520    86276738.108 6      1478.573
R16  20714928.200   110655410.016 8       282.842    20714928.240   110655410.019 8       282.842    20714936.620    86065346.617 8       219.988    20714936.880    86065345.620 8       219.988
G27  22462097.080   118039096.851 7       961.619    22462096.020   118039096.855 7       961.619    22462102.800    91978536.825 7       749.313    22462102.920    91978537.824 8       749.313
R18  21195040.960   113140551.744 7      1855.217    21195041.400   113140551.761 7      1855.217    21195051.240    87998237.614 8      1442.946    21195050.240    87998240.615 8      1442.946
R04  22285094.520   119335705.089 7      6624.957    22285096.360   119335705.136 7      6624.957    22285107.980    92816722.586 7      5152.744    22285107.380    92816723.585 7      5152.744
R03  21315006.240   114100898.589 7      4055.621    21315007.040   114100898.612 7      4055.621    21315017.020    88745187.867 8      3154.372    21315016.460    88745188.868 8      3154.372
G16  24134595.780   126828115.902 6      -728.133    24134594.940   126828115.906 4      -728.133    24134602.060    98827110.578 4      -567.377
R09  21578720.400   115229155.375 7      4179.895    21578720.060   115229155.368 7      4179.895    21578728.160    89622717.833 8      3251.029    21578728.280    89622719.832 8      3251.029
G10  24368579.380   128057708.171 7      -223.146    24368578.100   128057708.173 6      -223.146    24368587.040    99785257.012 6      -173.880    24368587.180    99785257.020 6      -173.880
R15  23568238.660   125941449.195 6     -1411.204    23568238.620   125941449.196 6     -1411.204    23568251.720    97954542.970 7     -1097.603    23568252.240    97954541.978 7     -1097.603
R02  23384133.000   124782186.450 8       852.041    23384132.520   124782186.445 7       852.041    23384144.920    97052859.918 7       662.699    23384145.180    97052859.919 7       662.699
G07  24541251.320   128965129.505 6      1390.128    24541249.880   128965129.513 5      1390.128    24541255.720   100492317.628 5      1083.216    24541256.840   100492323.623 6      1083.216
R17  23739802.040   127036441.837 7       902.216    23739801.600   127036441.852 7       902.216    23739816.760    98806198.137 7       701.724    23739816.320    98806195.130 7       701.724
G32  25049159.280   131634222.061 6      3453.841    25049157.060   131634222.074 5      3453.841    25049169.960   102572176.568 5      2691.305    25049170.820   102572178.585 6      2691.305
> 2024 07 08 10 04 34.0000000  0 18
G30  25328412.640   133101699.069 5      2127.662    25328410.500   133101699.068 3      2127.662    25328420.360   103715634.585 3      1657.918    25328422.040   103715651.591 5      1657.918
G02  21527611.060   113128350.328 7      2890.331    21527609.500   113128350.335 6      2890.331    21527610.720    88151960.420 6      2252.206
G03  22568835.960   118600043.313 7      6306.211    22568835.120   118600043.320 6      6306.211    22568842.020    92415652.996 7      4913.931    22568842.680    92415655.992 7      4913.931
G08  20788916.720   109246486.947 8      2550.470    20788915.700   109246486.949 8      2550.470    20788921.140    85127149.022 8      1987.379    20788922.100    85127153.023 8      1987.379
G21  21069302.800   110719924.965 7      1897.569    21069298.820   110719924.970 6      1897.569    21069301.520    86275259.362 6      1478.625
R16  20714875.200   110655127.209 8       282.352    20714875.280   110655127.218 8       282.352    20714883.560    86065126.658 8       219.607    20714883.840    86065125.662 8       219.607
G27  22461913.900   118038135.098 7       961.501    22461913.040   118038135.103 7       961.501    22461919.780    91977787.409 7       749.222    22461919.980    91977788.411 8       749.222
R18  21194693.220   113138696.309 7      1855.316    21194693.960   113138696.329 7      1855.316    21194703.440    87996794.492 8      1443.023    21194702.620    87996797.492 8      1443.023
R04  22283857.540   119329079.987 7      6624.917    22283857.420   119329080.037 7      6624.917    22283870.380    92811569.746 7      5152.713    22283870.000    92811570.747 7      5152.713
R03  21314248.420   114096843.118 7      4055.022    21314249.400   114096843.141 7      4055.022    21314259.400    88742033.610 8      3153.906    21314258.880    88742034.611 8      3153.906
G16  24134734.520   126828843.771 6      -728.058    24134733.460   126828843.779 4      -728.058    24134740.420    98827677.741 4      -567.318
R09  21577937.520   115224975.560 7      4179.319    21577937.380   115224975.551 7      4179.319    21577945.400    89619466.862 8      3250.581    21577945.540    89619468.863 8      3250.581
G10  24368621.720   128057931.334 7      -223.378    24368620.620   128057931.339 6      -223.378    24368629.580    99785430.905 6      -174.061    24368629.180    99785430.897 6      -174.061
R15  23568502.540   125942860.265 6     -1411.138    23568502.540   125942860.274 6     -1411.138    23568515.280    97955640.478 7     -1097.551    23568516.260    97955639.487 7     -1097.551
R02  23383973.180   124781334.516 7       851.452    23383972.820   124781334.520 7       851.452    23383985.100    97052197.305 7       662.240    23383985.600    97052197.306 7       662.240
G07  24540987.100   128963739.152 6      1390.085    24540985.280   128963739.157 5      1390.085    24540991.400   100491234.225 5      1083.183    24540992.020   100491240.225 6      1083.183
R17  23739633.100   127035539.236 7       902.492    23739632.900   127035539.257 7       902.492    23739647.980    98805496.114 7       701.938    23739647.680    98805493.110 7       701.938
G32  25048502.460   131630768.192 6      3453.762    25048500.100   131630768.202 5      3453.762    25048512.600   102569485.243 5      2691.243    25048513.700   102569487.225 6      2691.243
> 2024 07 08 10 04 35.0000000  0 18
G30  25328007.100   133099571.105 5      2127.653    25328005.480   133099571.102 3      2127.653    25328015.400   103713976.430 3      1657.912    25328015.780   103713993.403 5      1657.912
G02  21527061.080   113125459.866 7      2890.343    21527059.380   113125459.871 6      2890.343    21527060.540    88149708.113 6      2252.215
G03  22567635.900   118593736.968 7      6306.080    22567635.220   118593736.967 7      6306.080    22567641.960    92410738.957 7      4913.829    22567642.500    92410741.951 7      4913.829
G08  20788431.680   109243936.429 7      2550.341    20788430.420   109243936.431 8      2550.341    20788435.800    85125161.599 8      1987.279    20788436.820    85125165.600 8      1987.279
G21  21068941.480   110718027.300 8      1897.511    21068937.780   110718027.305 6      1897.511    21068940.420    86273780.658 6      1478.580
R16  20714822.320   110654844.939 8       281.895    20714822.520   110654844.946 8       281.895    20714830.700    86064907.109 8       219.251    20714830.940    86064906.110 8       219.251
G27  22461731.020   118037173.505 7       961.417    22461730.020   118037173.505 7       961.417    22461736.660    91977038.102 7       749.156    22461736.900    91977039.105 7       749.156
R18  21194345.500   113136840.760 7      1855.352    21194345.960   113136840.777 7      1855.352    21194356.120    87995351.282 8      1443.052    21194354.940    87995354.283 8      1443.052
R04  22282619.760   119322454.990 7      6624.883    22282620.400   119322455.043 7      6624.883    22282633.000    92806416.970 7      5152.687    22282632.820    92806417.972 7      5152.687
R03  21313490.700   114092788.266 7      4054.416    21313491.700   114092788.294 7      4054.416    21313501.820    88738879.838 8      3153.434    21313501.680    88738880.839 8      3153.434
G16  24134873.440   126829571.633 6      -727.990    24134872.100   126829571.638 4      -727.990    24134878.720    98828244.896 4      -567.265
R09  21577154.640   115220796.440 7      4178.665    21577154.860   115220796.419 7      4178.665    21577162.640    89616216.429 8      3250.073    21577163.020    89616218.429 8      3250.073
G10  24368664.260   128058154.599 7      -223.464    24368663.040   128058154.602 6      -223.464    24368672.080    99785604.866 6      -174.128    24368671.740    99785604.864 6      -174.128
R15  23568766.380   125944271.145 6     -1410.874    23568766.240   125944271.144 6     -1410.874    23568778.980    97956737.825 6     -1097.347    23568780.000    97956736.832 7     -1097.347
R02  23383813.300   124780483.212 7       850.796    23383813.160   124780483.210 7       850.796    23383825.480    97051535.167 7       661.731    23383826.180    97051535.168 7       661.731
G07  24540722.480   128962348.861 6      1390.130    24540720.680   128962348.866 5      1390.130    24540726.960   100490150.876 5      1083.218    24540727.280   100490156.867 6      1083.218
R17  23739464.580   127034636.502 7       902.671    23739463.960   127034636.517 7       902.671    23739479.200    98804793.979 7       702.078    23739478.680    98804790.970 7       702.078
G32  25047845.080   131627314.632 6      3453.169    25047843.240   131627314.635 5      3453.169    25047855.400   102566794.147 5      2690.781    25047856.340   102566796.140 6      2690.781
