     3.05           OBSERVATION DATA    MIXED               RINEX VERSION / TYPE
TPS2RIN 1.0.28.3459 TPS-USER            20260427 143336 UTC PGM / RUN BY / DATE
Win64 build Jun 01, 2022 (c) Topcon Positioning Systems     COMMENT
SRC: 20240402_LM006.tps                                     COMMENT
Observer            Agency                                  OBSERVER / AGENCY
O0M3X53SBGM         TPS HIPER_SR        4.8 HSR Jul,08,2022 REC # / TYPE / VERS
FW: 4.8 HSR Jul,08,2022 p3                                  COMMENT
SN: HiPer SR 1212-12575                                     COMMENT
000                 TPSHIPER_SR     NONE                    ANT # / TYPE
        1.8000        0.0000        0.0000                  ANTENNA: DELTA H/E/N
DELTA H stands for **SLANT** height here!                   COMMENT
LM.006                                                      MARKER NAME
  5390184.0041 -1600526.6284  3005688.6510                  APPROX POSITION XYZ
  2024     4     2    15     4   53.0000000     GPS         TIME OF FIRST OBS
  2024     4     2    15    11   24.0000000     GPS         TIME OF LAST OBS
     1.000                                                  INTERVAL
   392 EPOCHS                                               COMMENT
G   12 C1C L1C D1C C1W L1W D1W C2W L2W D2W C2X L2X D2X      SYS / # / OBS TYPES
R   12 C1C L1C D1C C1P L1P D1P C2P L2P D2P C2C L2C D2C      SYS / # / OBS TYPES
    16                                                      # OF SATELLITES
   G02   392   392   392   392   392   392   392   392   392PRN / # OF OBS
           0     0     0                                    PRN / # OF OBS
   G07   392   392   392   392   392   392   392   392   392PRN / # OF OBS
         392   392   392                                    PRN / # OF OBS
   G08   392   392   392   392   392   392   392   392   392PRN / # OF OBS
         392   392   392                                    PRN / # OF OBS
   G10   392   392   392   392   392   392   392   392   392PRN / # OF OBS
         392   392   392                                    PRN / # OF OBS
   G16   392   392   392   392   392   392   392   392   392PRN / # OF OBS
           0     0     0                                    PRN / # OF OBS
   G21   392   392   392   392   392   392   392   392   392PRN / # OF OBS
           0     0     0                                    PRN / # OF OBS
   G23   392   392   392   392   392   392   392   392   392PRN / # OF OBS
         392   392   392                                    PRN / # OF OBS
   G26   392   392   392   392   392   392   392   392   392PRN / # OF OBS
         392   392   392                                    PRN / # OF OBS
   G27   392   392   392   392   392   392   392   392   392PRN / # OF OBS
         392   392   392                                    PRN / # OF OBS
   R01   392   392   392   392   392   392   392   392   392PRN / # OF OBS
         392   392   392                                    PRN / # OF OBS
   R02   392   392   392   392   392   392   392   392   392PRN / # OF OBS
         392   392   392                                    PRN / # OF OBS
   R14   392   392   392   392   392   392   392   392   392PRN / # OF OBS
         392   392   392                                    PRN / # OF OBS
   R15   392   392   392   392   392   392   392   392   392PRN / # OF OBS
         392   392   392                                    PRN / # OF OBS
   R17   392   392   392   392   392   392   392   392   392PRN / # OF OBS
         392   392   392                                    PRN / # OF OBS
   R18   392   392   392   392   392   392   392   392   392PRN / # OF OBS
         392   392   392                                    PRN / # OF OBS
   R24   392   392   392   392   392   392   392   392   392PRN / # OF OBS
         392   392   392                                    PRN / # OF OBS
G L1C                                                       SYS / PHASE SHIFT
G L1W -0.25000                                              SYS / PHASE SHIFT
G L2W  0.00000                                              SYS / PHASE SHIFT
G L2X  0.25000                                              SYS / PHASE SHIFT
R L1C                                                       SYS / PHASE SHIFT
R L1P -0.25000                                              SYS / PHASE SHIFT
R L2P -0.25000                                              SYS / PHASE SHIFT
R L2C                                                       SYS / PHASE SHIFT
  7 R01  1 R02 -4 R14 -7 R15  0 R17  4 R18 -3 R24  2        GLONASS SLOT / FRQ #
                                                            GLONASS COD/PHS/BIS
               *** Undefined LeapSeconds ***                COMMENT
                                                            END OF HEADER
> 2024 04 02 15 04 53.0000000  0 16
G02  22297413.500   117173697.707 7      4326.698    22297411.860   117173697.712 6      4326.698    22297422.780    91304219.268 6      3371.453
G26  23061473.200   121188870.015 7      -601.903    23061472.700   121188870.020 6      -601.903    23061491.540    94432946.831 6      -469.015    23061491.920    94432951.838 7      -469.015
R02  24036036.840   128260890.835 7      5743.262    24036037.680   128260890.828 6      5743.262    24036059.380    99758563.812 6      4466.981    24036059.040    99758565.803 6      4466.981
G27  21045145.440   110592978.279 7      1887.596    21045144.660   110592978.279 8      1887.596    21045154.360    86176385.616 8      1470.854    21045154.860    86176386.618 8      1470.854
R14  19636241.520   104672202.722 8       463.247    19636241.260   104672202.720 8       463.247    19636256.080    81411778.966 8       360.303    19636256.240    81411776.965 8       360.303
G16  21005648.100   110385422.101 7       792.099    21005646.960   110385422.109 6       792.099    21005657.320    86014648.873 6       617.220
G10  22180414.640   116558863.589 7      2094.041    22180413.640   116558863.588 7      2094.041    22180427.880    90825087.354 7      1631.721    22180427.420    90825140.360 7      1631.721
G21  20832797.660   109477082.983 8      3554.808    20832796.240   109477082.993 6      3554.808    20832804.880    85306852.942 6      2769.980
R17  20354897.240   108923159.706 8      2540.273    20354897.000   108923159.718 7      2540.273    20354909.260    84718065.889 8      1975.768    20354908.920    84718065.889 8      1975.768
G08  21254945.460   111695485.044 7      3533.923    21254944.220   111695485.044 7      3533.923    21254953.700    87035479.440 7      2753.707    21254954.620    87035482.446 8      2753.707
R15  20267383.280   108302743.107 8      4658.707    20267381.040   108302743.106 8      4658.707    20267392.720    84235515.193 8      3623.438    20267392.740    84235513.197 8      3623.438
R01  23054588.360   123239988.948 6      4459.886    23054587.100   123239988.938 6      4459.886    23054617.820    95853457.655 6      3468.800    23054617.140    95853452.652 6      3468.800
R24  21394250.160   114404666.174 7       216.849    21394249.580   114404666.178 7       216.849    21394263.820    88981474.618 7       168.660    21394263.400    88981461.621 7       168.660
G23  23992733.720   126082660.270 6       266.666    23992732.540   126082660.275 4       266.666    23992745.220    98246275.361 4       207.792    23992746.180    98246286.374 7       207.792
G07  24067006.820   126472979.385 6      3550.381    24067005.640   126472979.375 5      3550.381    24067015.620    98550401.531 5      2766.530    24067016.660    98550408.546 7      2766.530
R18  22690578.440   121123855.832 7      4566.690    22690579.120   121123855.832 7      4566.690    22690596.880    94207517.484 7      3551.870    22690597.440    94207519.490 7      3551.870
> 2024 04 02 15 04 54.0000000  0 16
G02  22296590.300   117169371.110 7      4326.444    22296588.600   117169371.112 6      4326.444    22296599.320    91300847.902 6      3371.255
G26  23061587.780   121189472.045 7      -602.004    23061587.300   121189472.042 7      -602.004    23061606.040    94433415.948 7      -469.094    23061606.420    94433420.950 7      -469.094
R02  24034960.600   128255147.487 7      5743.489    24034960.880   128255147.477 6      5743.489    24034982.960    99754096.765 6      4467.158    24034982.820    99754098.750 6      4467.158
G27  21044786.380   110591090.700 7      1887.585    21044785.460   110591090.699 8      1887.585    21044795.220    86174914.775 8      1470.845    21044795.520    86174915.774 8      1470.845
R14  19636154.840   104671739.806 8       462.578    19636154.360   104671739.806 8       462.578    19636169.260    81411418.916 8       359.783    19636169.520    81411416.914 8       359.783
G16  21005497.260   110384630.267 7       791.735    21005496.200   110384630.275 6       791.735    21005506.640    86014031.860 6       616.936
G10  22180016.320   116556769.854 7      2093.539    22180015.260   116556769.853 7      2093.539    22180029.340    90823455.880 7      1631.329    22180029.080    90823508.888 8      1631.329
G21  20832121.240   109473528.374 8      3554.424    20832119.880   109473528.379 6      3554.424    20832128.480    85304083.125 6      2769.681
R17  20354422.440   108920619.546 7      2540.098    20354422.340   108920619.561 7      2540.098    20354434.480    84716090.214 8      1975.632    20354434.260    84716090.214 8      1975.632
G08  21254273.100   111691951.216 7      3533.802    21254271.980   111691951.219 7      3533.802    21254281.240    87032725.814 7      2753.612    21254282.240    87032728.816 8      2753.612
R15  20266511.500   108298084.726 8      4658.025    20266509.280   108298084.730 7      4658.025    20266520.940    84231892.014 8      3622.908    20266520.800    84231890.018 8      3622.908
R01  23053753.820   123235529.289 6      4459.382    23053752.700   123235529.295 6      4459.382    23053782.800    95849989.058 6      3468.408    23053782.420    95849984.064 6      3468.408
R24  21394209.600   114404449.413 7       216.768    21394208.920   114404449.406 7       216.768    21394223.260    88981306.028 7       168.598    21394222.860    88981293.027 7       168.598
G23  23992683.020   126082393.898 6       266.350    23992681.900   126082393.903 4       266.350    23992694.700    98246067.804 4       207.545    23992695.480    98246078.819 7       207.545
G07  24066331.220   126469428.989 6      3550.122    24066330.120   126469428.983 5      3550.122    24066340.100    98547634.997 5      2766.329    24066340.620    98547642.009 7      2766.329
R18  22689723.200   121119289.200 7      4566.463    22689723.380   121119289.201 7      4566.463    22689741.380    94203965.676 7      3551.693    22689741.760    94203967.678 7      3551.693
> 2024 04 02 15 04 55.0000000  0 16
G02  22295767.000   117165044.597 7      4326.775    22295765.260   117165044.602 6      4326.775    22295776.180    91297476.602 6      3371.513
G26  23061702.400   121190074.010 7      -601.574    23061701.780   121190074.009 7      -601.574    23061720.680    94433885.011 7      -468.759    23061721.060    94433890.017 7      -468.759
R02  24033884.480   128249403.773 7      5744.166    24033884.820   128249403.763 6      5744.166    24033906.380    99749629.422 6      4467.685    24033906.640    99749631.417 6      4467.685
G27  21044427.100   110589202.991 8      1887.993    21044426.260   110589202.993 8      1887.993    21044435.980    86173443.839 8      1471.163    21044436.420    86173444.841 8      1471.163
R14  19636068.000   104671277.382 8       462.417    19636067.620   104671277.380 8       462.417    19636082.580    81411059.249 8       359.658    19636082.800    81411057.247 8       359.658
G16  21005346.820   110383838.614 7       791.838    21005345.640   110383838.624 6       791.838    21005355.920    86013414.981 6       617.016
G10  22179618.060   116554676.418 7      2093.573    22179616.700   116554676.418 7      2093.573    22179631.040    90821824.640 7      1631.355    22179630.980    90821877.644 8      1631.355
G21  20831444.960   109469973.957 7      3554.574    20831443.600   109469973.965 6      3554.574    20831451.960    85301313.462 6      2769.798
R17  20353947.920   108918079.416 8      2540.382    20353947.700   108918079.426 8      2540.382    20353959.640    84714114.566 8      1975.853    20353959.660    84714114.564 8      1975.853
G08  21253600.400   111688417.187 7      3534.382    21253599.280   111688417.192 7      3534.382    21253608.860    87029972.035 7      2754.064    21253609.760    87029975.039 8      2754.064
R15  20265639.800   108293426.799 8      4657.971    20265637.460   108293426.801 7      4657.971    20265649.340    84228269.191 8      3622.866    20265649.020    84228267.194 8      3622.866
R01  23052919.580   123231069.803 6      4459.708    23052918.520   123231069.823 6      4459.708    23052948.960    95846520.603 6      3468.661    23052948.180    95846515.600 6      3468.661
R24  21394168.760   114404232.322 7       217.514    21394168.500   114404232.321 7       217.514    21394182.720    88981137.182 8       169.177    21394182.640    88981124.183 8       169.177
G23  23992632.280   126082127.701 6       266.407    23992631.280   126082127.709 4       266.407    23992644.200    98245860.388 4       207.590    23992644.940    98245871.406 7       207.590
G07  24065655.800   126465878.810 6      3550.484    24065654.600   126465878.810 6      3550.484    24065664.560    98544868.632 5      2766.611    24065665.060    98544875.645 7      2766.611
R18  22688867.980   121114722.579 7      4566.863    22688867.700   121114722.580 7      4566.863    22688885.960    94200413.866 7      3552.005    22688886.380    94200415.872 7      3552.005
> 2024 04 02 15 04 56.0000000  0 16
G02  22294943.840   117160717.972 7      4326.602    22294941.920   117160717.974 6      4326.602    22294952.720    91294105.215 6      3371.378
G26  23061817.080   121190675.724 7      -601.671    23061816.240   121190675.727 6      -601.671    23061835.060    94434353.888 6      -468.834    23061835.380    94434358.890 7      -468.834
R02  24032807.940   128243659.448 7      5744.639    24032807.980   128243659.438 6      5744.639    24032829.980    99745161.603 6      4468.053    24032830.080    99745163.603 6      4468.053
G27  21044067.780   110587314.930 8      1888.151    21044067.000   110587314.933 8      1888.151    21044076.680    86171972.621 8      1471.287    21044077.260    86171973.622 8      1471.287
R14  19635981.120   104670815.236 8       461.929    19635980.920   104670815.228 8       461.929    19635995.800    81410699.797 8       359.278    19635995.920    81410697.798 8       359.278
G16  21005196.300   110383046.925 7       791.621    21005195.040   110383046.935 6       791.621    21005205.480    86012798.079 6       616.847
G10  22179219.600   116552583.051 7      2093.224    22179218.340   116552583.054 7      2093.224    22179232.700    90820193.453 7      1631.084    22179232.700    90820246.457 8      1631.084
G21  20830768.380   109466419.543 8      3554.296    20830767.180   109466419.548 6      3554.296    20830775.600    85298543.789 6      2769.581
R17  20353473.360   108915539.080 8      2540.400    20353473.000   108915539.092 7      2540.400    20353484.920    84712138.749 8      1975.867    20353484.980    84712138.749 8      1975.867
G08  21252927.960   111684882.784 7      3534.557    21252926.840   111684882.791 7      3534.557    21252936.180    87027217.959 7      2754.201    21252937.240    87027220.961 8      2754.201
R15  20264767.900   108288769.105 8      4657.521    20264765.860   108288769.098 7      4657.521    20264777.660    84224646.539 8      3622.516    20264777.640    84224644.543 8      3622.516
R01  23052085.500   123226610.347 6      4459.389    23052084.240   123226610.351 6      4459.389    23052114.220    95843052.143 6      3468.413    23052113.680    95843047.140 6      3468.413
R24  21394127.600   114404014.737 7       217.801    21394127.540   114404014.738 7       217.801    21394141.860    88980967.949 7       169.401    21394142.140    88980954.944 8       169.401
G23  23992581.880   126081861.455 7       266.203    23992580.740   126081861.460 4       266.203    23992593.660    98245652.930 4       207.431    23992594.020    98245663.943 7       207.431
G07  24064980.080   126462328.698 6      3549.923    24064979.000   126462328.697 5      3549.923    24064989.000    98542102.316 5      2766.174    24064989.860    98542109.327 7      2766.174
R18  22688013.040   121110155.739 7      4566.883    22688012.620   121110155.745 7      4566.883    22688030.380    94196861.896 7      3552.020    22688031.000    94196863.900 7      3552.020
> 2024 04 02 15 04 57.0000000  0 16
G02  22294120.600   117156391.351 7      4326.781    22294118.620   117156391.356 6      4326.781    22294129.360    91290733.839 6      3371.518
G26  23061931.600   121191277.276 7      -601.267    23061930.680   121191277.276 6      -601.267    23061949.640    94434822.629 6      -468.520    23061949.780    94434827.633 7      -468.520
R02  24031731.520   128237914.659 7      5745.247    24031731.380   128237914.649 6      5745.247    24031753.860    99740693.440 6      4468.525    24031753.600    99740695.433 6      4468.525
G27  21043708.400   110585426.652 8      1888.536    21043707.640   110585426.656 7      1888.536    21043717.360    86170501.237 7      1471.587    21043717.820    86170502.238 8      1471.587
R14  19635894.540   104670353.492 8       461.721    19635894.260   104670353.492 8       461.721    19635909.260    81410340.665 8       359.116    19635909.480    81410338.666 8       359.116
G16  21005045.560   110382255.322 7       791.727    21005044.300   110382255.332 6       791.727    21005054.980    86012181.245 6       616.930
G10  22178821.400   116550489.924 7      2093.192    22178819.980   116550489.921 7      2093.192    22178834.400    90818562.449 7      1631.059    22178834.280    90818615.450 8      1631.059
G21  20830092.160   109462865.237 8      3554.412    20830090.820   109462865.239 6      3554.412    20830099.280    85295774.202 6      2769.672
R17  20352998.460   108912998.669 7      2540.595    20352998.360   108912998.682 7      2540.595    20353010.240    84710162.876 8      1976.018    20353010.040    84710162.876 8      1976.018
G08  21252255.260   111681348.124 7      3535.038    21252254.120   111681348.131 7      3535.038    21252263.560    87024463.678 7      2754.575    21252264.580    87024466.682 8      2754.575
R15  20263896.620   108284111.750 8      4657.365    20263894.260   108284111.746 7      4657.365    20263906.160    84221024.150 8      3622.395    20263905.940    84221022.154 8      3622.395
R01  23051251.660   123222150.998 6      4459.365    23051249.900   123222150.994 6      4459.365    23051280.400    95839583.781 6      3468.395    23051279.480    95839578.780 6      3468.395
R24  21394087.220   114403796.796 7       218.242    21394087.100   114403796.795 7       218.242    21394101.080    88980798.435 7       169.744    21394101.340    88980785.432 7       169.744
G23  23992530.660   126081595.277 6       266.273    23992530.180   126081595.284 4       266.273    23992542.940    98245445.524 4       207.485    23992543.860    98245456.546 7       207.485
G07  24064304.820   126458778.679 6      3550.049    24064303.220   126458778.679 5      3550.049    24064313.520    98539336.075 5      2766.272    24064313.680    98539343.077 7      2766.272
R18  22687157.180   121105588.851 7      4567.005    22687156.640   121105588.855 7      4567.005    22687174.800    94193309.882 7      3552.115    22687175.340    94193311.886 7      3552.115
> 2024 04 02 15 04 58.0000000  0 16
G02  22293297.040   117152064.715 7      4326.548    22293295.160   117152064.717 6      4326.548    22293306.100    91287362.438 6      3371.336
G26  23062046.020   121191878.660 7      -601.359    23062045.220   121191878.659 7      -601.359    23062063.980    94435291.244 6      -468.592    23062064.140    94435296.244 7      -468.592
R02  24030654.620   128232169.293 7      5745.622    24030654.460   128232169.286 6      5745.622    24030676.660    99736224.821 6      4468.817    24030676.920    99736226.824 6      4468.817
G27  21043349.220   110583538.126 8      1888.525    21043348.300   110583538.128 8      1888.525    21043358.000    86169029.659 8      1471.578    21043358.460    86169030.658 8      1471.578
R14  19635808.120   104669892.131 8       461.114    19635807.700   104669892.132 8       461.114    19635822.640    81409981.821 8       358.644    19635823.000    81409979.824 8       358.644
G16  21004894.840   110381463.790 7       791.452    21004893.680   110381463.795 6       791.452    21004904.300    86011564.457 6       616.716
G10  22178423.040   116548396.966 7      2092.737    22178421.740   116548396.969 7      2092.737    22178436.180    90816931.575 7      1630.704    22178436.120    90816984.579 8      1630.704
G21  20829415.760   109459311.007 7      3554.103    20829414.380   109459311.012 6      3554.103    20829423.000    85293004.678 6      2769.431
R17  20352523.840   108910458.125 8      2540.465    20352523.420   108910458.137 7      2540.465    20352535.460    84708186.901 8      1975.917    20352535.120    84708186.901 8      1975.917
G08  21251582.480   111677813.179 7      3535.054    21251581.500   111677813.184 7      3535.054    21251590.920    87021709.178 7      2754.588    21251591.740    87021712.180 8      2754.588
R15  20263025.280   108279454.705 8      4656.803    20263022.700   108279454.701 8      4656.803    20263034.660    84217402.010 8      3621.958    20263034.540    84217400.014 8      3621.958
R01  23050417.580   123217691.702 6      4459.079    23050415.660   123217691.695 6      4459.079    23050445.940    95836115.455 6      3468.172    23050445.100    95836110.447 6      3468.172
R24  21394046.480   114403578.423 7       218.524    21394046.060   114403578.429 7       218.524    21394059.880    88980628.589 7       169.963    21394060.500    88980615.580 8       169.963
G23  23992480.220   126081329.143 7       266.040    23992479.480   126081329.148 5       266.040    23992492.440    98245238.146 5       207.304    23992493.000    98245249.167 7       207.304
G07  24063629.160   126455228.751 6      3549.968    24063627.760   126455228.750 5      3549.968    24063638.000    98536569.896 5      2766.209    24063638.000    98536576.893 6      2766.209
R18  22686301.600   121101021.843 7      4566.918    22686301.600   121101021.844 7      4566.918    22686319.400    94189757.769 7      3552.048    22686319.620    94189759.773 7      3552.048
> 2024 04 02 15 04 59.0000000  0 16
G02  22292473.920   117147738.247 7      4326.254    22292471.800   117147738.254 6      4326.254    22292482.820    91283991.168 6      3371.107
G26  23062160.100   121192480.085 7      -601.535    23062159.640   121192480.085 7      -601.535    23062178.460    94435759.885 7      -468.729    23062178.800    94435764.885 7      -468.729
R02  24029577.720   128226423.648 7      5745.600    24029577.980   128226423.649 6      5745.600    24029600.420    99731755.985 6      4468.800    24029599.960    99731757.989 6      4468.800
G27  21042989.800   110581649.563 8      1888.461    21042988.880   110581649.563 8      1888.461    21042998.600    86167558.041 8      1471.528    21042999.220    86167559.040 8      1471.528
R14  19635721.540   104669431.347 8       460.375    19635721.360   104669431.342 8       460.375    19635736.160    81409623.419 8       358.070    19635736.540    81409621.422 8       358.070
G16  21004744.280   110380672.534 7       790.975    21004743.040   110380672.542 6       790.975    21004753.800    86010947.886 6       616.344
G10  22178024.940   116546304.393 7      2092.281    22178023.380   116546304.395 7      2092.281    22178037.940    90815300.996 7      1630.349    22178038.060    90815354.002 8      1630.349
G21  20828739.420   109455757.087 7      3553.654    20828738.040   109455757.092 6      3553.654    20828746.680    85290235.392 6      2769.081
R17  20352048.820   108907917.711 7      2540.223    20352048.760   108907917.726 7      2540.223    20352060.700    84706211.021 8      1975.729    20352060.480    84706211.022 8      1975.729
G08  21250909.980   111674278.162 7      3534.912    21250908.800   111674278.167 7      3534.912    21250918.320    87018954.617 7      2754.477    21250919.000    87018957.621 8      2754.477
R15  20262153.840   108274798.232 8      4656.086    20262151.660   108274798.227 7      4656.086    20262163.200    84213780.302 8      3621.400    20262163.060    84213778.306 8      3621.400
R01  23049583.120   123213232.716 6      4458.590    23049580.940   123213232.709 6      4458.590    23049611.720    95832647.353 6      3467.792    23049611.640    95832642.356 6      3467.792
R24  21394005.660   114403359.939 7       218.435    21394005.320   114403359.943 7       218.435    21394019.060    88980458.651 7       169.894    21394019.340    88980445.640 7       169.894
G23  23992429.520   126081063.283 7       265.614    23992428.820   126081063.288 5       265.614    23992441.920    98245030.984 5       206.972    23992442.420    98245041.993 7       206.972
G07  24062953.960   126451679.192 6      3549.427    24062952.360   126451679.192 5      3549.427    24062962.560    98533804.005 5      2765.787    24062962.860    98533811.003 6      2765.787
R18  22685446.120   121096454.958 7      4566.764    22685445.880   121096454.959 7      4566.764    22685463.840    94186205.754 7      3551.928    22685464.120    94186207.758 7      3551.928
> 2024 04 02 15 05  0.0000000  0 16
G02  22291650.700   117143411.839 7      4326.327    22291648.500   117143411.844 6      4326.327    22291659.600    91280619.942 6      3371.164
G26  23062274.660   121193081.427 7      -601.472    23062274.100   121193081.429 7      -601.472    23062292.920    94436228.459 6      -468.680    23062292.920    94436233.465 7      -468.680
R02  24028500.980   128220677.543 7      5746.202    24028501.020   128220677.541 6      5746.202    24028523.100    99727286.778 6      4469.268    24028523.220    99727288.782 6      4469.268
G27  21042630.440   110579760.817 7      1888.818    21042629.480   110579760.814 8      1888.818    21042639.200    86166086.282 8      1471.806    21042639.860    86166087.282 8      1471.806
R14  19635635.200   104668970.946 8       460.176    19635635.100   104668970.941 8       460.176    19635649.880    81409265.319 8       357.914    19635650.380    81409263.324 8       357.914
G16  21004593.700   110379881.412 7       790.963    21004592.560   110379881.422 6       790.963    21004603.440    86010331.421 6       616.335
G10  22177626.640   116544212.103 7      2092.048    22177625.320   116544212.105 7      2092.048    22177639.780    90813670.645 7      1630.167    22177639.680    90813723.650 7      1630.167
G21  20828063.280   109452203.330 8      3553.531    20828061.780   109452203.335 6      3553.531    20828070.380    85287466.236 6      2768.985
R17  20351574.200   108905377.268 8      2540.418    20351573.900   108905377.280 7      2540.418    20351585.920    84704235.119 8      1975.881    20351585.820    84704235.119 8      1975.881
G08  21250237.080   111670742.923 7      3535.194    21250236.120   111670742.926 8      3535.194    21250245.600    87016199.884 7      2754.697    21250246.060    87016202.888 8      2754.697
R15  20261282.480   108270142.180 8      4655.734    20261280.060   108270142.184 8      4655.734    20261292.060    84210158.933 8      3621.127    20261291.520    84210156.937 8      3621.127
R01  23048749.040   123208773.883 6      4458.533    23048746.500   123208773.879 6      4458.533    23048777.660    95829179.404 6      3467.748    23048777.200    95829174.405 6      3467.748
R24  21393964.360   114403141.138 7       218.891    21393963.980   114403141.147 7       218.891    21393978.080    88980288.474 7       170.248    21393978.560    88980275.467 7       170.248
G23  23992379.400   126080797.528 7       265.585    23992378.360   126080797.536 5       265.585    23992391.240    98244823.900 5       206.949    23992391.780    98244834.919 7       206.949
G07  24062278.700   126448129.802 6      3549.250    24062276.920   126448129.796 6      3549.250    24062287.220    98531038.236 6      2765.649    24062287.560    98531045.242 6      2765.649
R18  22684590.700   121091888.067 6      4566.756    22684590.880   121091888.071 7      4566.756    22684608.300    94182653.738 7      3551.921    22684608.720    94182655.740 7      3551.921
> 2024 04 02 15 05  1.0000000  0 16
G02  22290827.460   117139085.453 7      4326.394    22290825.280   117139085.457 6      4326.394    22290836.320    91277248.740 6      3371.216
G26  23062389.120   121193682.603 7      -600.985    23062388.420   121193682.605 7      -600.985    23062407.280    94436696.906 7      -468.300    23062407.360    94436701.908 7      -468.300
R02  24027424.220   128214930.988 7      5746.880    24027424.080   128214930.986 6      5746.880    24027446.620    99722817.225 6      4469.795    24027446.580    99722819.226 6      4469.795
G27  21042271.060   110577871.894 8      1889.042    21042270.060   110577871.897 8      1889.042    21042279.760    86164614.395 8      1471.981    21042280.300    86164615.394 8      1471.981
R14  19635548.860   104668510.940 8       459.818    19635548.660   104668510.940 8       459.818    19635563.560    81408907.534 8       357.637    19635564.020    81408905.537 8       357.637
G16  21004443.340   110379090.411 7       790.982    21004442.180   110379090.424 6       790.982    21004452.780    86009715.048 6       616.350
G10  22177228.540   116542120.024 7      2092.015    22177227.120   116542120.028 7      2092.015    22177241.560    90812040.457 7      1630.142    22177241.100    90812093.461 8      1630.142
G21  20827387.080   109448649.694 8      3553.657    20827385.500   109448649.696 6      3553.657    20827394.320    85284697.167 6      2769.083
R17  20351099.540   108902836.758 7      2540.570    20351098.800   108902836.773 7      2540.570    20351111.060    84702259.167 8      1975.999    20351111.100    84702259.167 8      1975.999
G08  21249564.420   111667207.443 8      3535.619    21249563.440   111667207.448 8      3535.619    21249572.760    87013444.966 7      2755.028    21249573.320    87013447.970 8      2755.028
R15  20260411.180   108265486.554 8      4655.398    20260408.920   108265486.550 7      4655.398    20260420.720    84206537.886 8      3620.865    20260420.700    84206535.890 8      3620.865
R01  23047915.200   123204315.186 6      4458.613    23047912.140   123204315.176 6      4458.613    23047943.300    95825711.545 6      3467.810    23047943.040    95825706.546 6      3467.810
R24  21393923.620   114402921.970 7       219.439    21393922.780   114402921.976 7       219.439    21393936.960    88980118.002 8       170.675    21393937.180    88980105.001 7       170.675
G23  23992328.920   126080531.886 7       265.652    23992327.680   126080531.894 5       265.652    23992340.800    98244616.908 5       207.001    23992341.740    98244627.918 7       207.001
G07  24061603.200   126444580.556 6      3549.320    24061601.520   126444580.551 6      3549.320    24061611.720    98528272.590 5      2765.704    24061612.140    98528279.594 7      2765.704
R18  22683734.620   121087321.094 7      4567.130    22683735.000   121087321.095 7      4567.130    22683752.880    94179101.652 7      3552.212    22683753.060    94179103.656 7      3552.212
> 2024 04 02 15 05  2.0000000  0 16
G02  22290004.080   117134759.195 7      4326.231    22290002.080   117134759.200 6      4326.231    22290013.060    91273877.638 6      3371.089
G26  23062503.840   121194283.800 7      -601.106    23062502.880   121194283.802 6      -601.106    23062521.740    94437165.371 6      -468.395    23062521.820    94437170.371 7      -468.395
R02  24026347.340   128209184.115 7      5747.012    24026347.200   128209184.102 6      5747.012    24026369.600    99718347.422 6      4469.898    24026369.620    99718349.424 6      4469.898
G27  21041911.620   110575982.856 8      1889.193    21041910.620   110575982.858 8      1889.193    21041920.260    86163142.413 8      1472.099    21041920.900    86163143.410 8      1472.099
R14  19635462.680   104668051.424 8       459.274    19635462.540   104668051.422 8       459.274    19635477.340    81408550.121 8       357.213    19635477.820    81408548.126 8       357.213
G16  21004292.880   110378299.641 7       790.655    21004291.600   110378299.652 6       790.655    21004302.360    86009098.854 6       616.095
G10  22176830.560   116540028.309 7      2091.567    22176829.140   116540028.312 7      2091.567    22176843.640    90810410.546 7      1629.792    22176843.140    90810463.551 8      1629.792
G21  20826711.060   109445096.304 8      3553.383    20826709.320   109445096.309 6      3553.383    20826718.080    85281928.294 6      2768.870
R17  20350624.860   108900296.296 8      2540.460    20350624.180   108900296.311 7      2540.460    20350636.280    84700283.254 8      1975.914    20350636.400    84700283.255 8      1975.914
G08  21248891.540   111663671.832 7      3535.724    21248890.500   111663671.831 7      3535.724    21248899.980    87010689.936 7      2755.109    21248900.660    87010692.940 8      2755.109
R15  20259540.100   108260831.403 8      4654.937    20259537.920   108260831.402 8      4654.937    20259549.320    84202917.214 8      3620.507    20259549.600    84202915.217 8      3620.507
R01  23047081.020   123199856.718 6      4458.310    23047078.400   123199856.717 6      4458.310    23047109.980    95822243.878 6      3467.574    23047108.760    95822238.877 6      3467.574
R24  21393882.600   114402702.505 7       219.661    21393881.800   114402702.512 7       219.661    21393896.020    88979947.303 7       170.847    21393896.100    88979934.302 7       170.847
G23  23992278.360   126080266.439 7       265.408    23992277.160   126080266.446 5       265.408    23992290.340    98244410.066 5       206.812    23992290.740    98244421.079 7       206.812
G07  24060928.140   126441031.600 6      3548.700    24060926.160   126441031.597 6      3548.700    24060936.400    98525507.171 6      2765.221    24060936.760    98525514.182 6      2765.221
R18  22682879.180   121082754.211 6      4566.907    22682879.740   121082754.199 7      4566.907    22682897.380    94175549.630 7      3552.039    22682897.520    94175551.634 7      3552.039
> 2024 04 02 15 05  3.0000000  0 16
G02  22289180.640   117130433.063 7      4326.125    22289178.800   117130433.070 6      4326.125    22289189.820    91270506.634 6      3371.007
G26  23062618.420   121194884.963 7      -601.102    23062617.380   121194884.968 7      -601.102    23062636.080    94437633.810 6      -468.391    23062636.200    94437638.814 7      -468.391
R02  24025270.480   128203436.852 7      5747.424    24025269.920   128203436.845 6      5747.424    24025293.000    99713877.327 6      4470.219    24025292.960    99713879.326 7      4470.219
G27  21041551.940   110574093.739 8      1889.176    21041551.140   110574093.742 8      1889.176    21041560.840    86161670.370 8      1472.085    21041561.500    86161671.371 8      1472.085
R14  19635376.740   104667592.439 8       458.770    19635376.440   104667592.442 8       458.770    19635391.240    81408193.130 8       356.821    19635391.640    81408191.133 8       356.821
G16  21004142.420   110377509.074 7       790.462    21004141.240   110377509.079 6       790.462    21004151.940    86008482.817 6       615.944
G10  22176432.440   116537936.910 7      2091.246    22176431.120   116537936.918 7      2091.246    22176445.700    90808780.892 7      1629.542    22176445.340    90808833.898 8      1629.542
G21  20826035.100   109441543.159 8      3553.046    20826033.220   109441543.167 6      3553.046    20826041.880    85279159.616 6      2768.607
R17  20350150.280   108897755.894 8      2540.444    20350149.420   108897755.906 8      2540.444    20350161.700    84698307.381 8      1975.901    20350161.300    84698307.386 8      1975.901
G08  21248218.700   111660136.078 7      3535.887    21248217.760   111660136.075 7      3535.887    21248227.140    87007934.801 7      2755.237    21248227.920    87007937.805 8      2755.237
R15  20258669.000   108256176.725 8      4654.447    20258666.840   108256176.721 7      4654.447    20258678.440    84199296.904 8      3620.125    20258678.380    84199294.908 8      3620.125
R01  23046247.060   123195398.494 6      4458.101    23046244.780   123195398.493 6      4458.101    23046275.080    95818776.397 6      3467.412    23046274.700    95818771.390 6      3467.412
R24  21393841.460   114402482.781 7       219.869    21393840.980   114402482.785 7       219.869    21393854.900    88979776.401 7       171.009    21393855.100    88979763.400 7       171.009
G23  23992227.680   126080001.206 7       265.101    23992226.700   126080001.211 5       265.101    23992239.900    98244203.392 5       206.572    23992240.380    98244214.397 7       206.572
G07  24060252.640   126437482.877 6      3548.452    24060250.880   126437482.882 5      3548.452    24060261.160    98522741.937 6      2765.027    24060261.880    98522748.939 6      2765.027
R18  22682023.720   121078187.345 7      4566.899    22682023.900   121078187.340 7      4566.899    22682041.860    94171997.639 7      3552.033    22682042.180    94171999.643 7      3552.033
> 2024 04 02 15 05  4.0000000  0 16
G02  22288357.560   117126106.973 7      4325.858    22288355.560   117126106.978 6      4325.858    22288366.680    91267135.655 6      3370.799
G26  23062732.560   121195486.016 7      -601.166    23062731.640   121195486.018 7      -601.166    23062750.540    94438102.158 7      -468.441    23062750.420    94438107.162 7      -468.441
R02  24024193.360   128197689.144 7      5747.701    24024193.260   128197689.132 6      5747.701    24024215.800    99709406.879 6      4470.434    24024215.880    99709408.870 6      4470.434
G27  21041192.300   110572204.417 8      1889.193    21041191.500   110572204.420 8      1889.193    21041201.260    86160198.169 8      1472.098    21041202.080    86160199.166 8      1472.098
R14  19635290.720   104667133.917 8       458.140    19635290.340   104667133.915 8       458.140    19635305.080    81407836.491 8       356.331    19635305.700    81407834.492 8       356.331
G16  21003992.100   110376718.627 7       790.171    21003990.780   110376718.637 6       790.171    21004001.480    86007866.880 6       615.718
G10  22176034.620   116535845.763 7      2090.794    22176033.220   116535845.766 7      2090.794    22176047.860    90807151.427 7      1629.190    22176047.520    90807204.435 8      1629.190
G21  20825358.840   109437990.146 8      3552.734    20825357.100   109437990.153 6      3552.734    20825365.760    85276391.038 6      2768.365
R17  20349675.520   108895215.418 7      2540.312    20349674.700   108895215.428 7      2540.312    20349686.820    84696331.456 8      1975.798    20349686.720    84696331.463 8      1975.798
G08  21247545.860   111656600.104 7      3535.856    21247544.720   111656600.104 7      3535.856    21247554.260    87005179.501 7      2755.213    21247554.880    87005182.501 8      2755.213
R15  20257797.740   108251522.424 8      4653.870    20257795.860   108251522.417 7      4653.870    20257807.480    84195676.890 8      3619.677    20257807.740    84195674.896 8      3619.677
R01  23045412.800   123190940.391 6      4457.762    23045410.580   123190940.384 6      4457.762    23045440.980    95815309.000 6      3467.148    23045440.560    95815303.990 6      3467.148
R24  21393800.740   114402262.752 7       220.010    21393799.980   114402262.754 7       220.010    21393813.800    88979605.259 7       171.119    21393813.780    88979592.264 8       171.119
G23  23992177.740   126079736.064 7       264.873    23992176.280   126079736.066 5       264.873    23992189.520    98243996.787 5       206.394    23992189.880    98244007.792 7       206.394
G07  24059577.160   126433934.306 6      3548.244    24059575.540   126433934.306 5      3548.244    24059585.860    98519976.811 5      2764.865    24059586.160    98519983.811 7      2764.865
R18  22681168.360   121073620.449 7      4566.789    22681168.360   121073620.439 7      4566.789    22681186.300    94168445.613 7      3551.947    22681186.260    94168447.615 7      3551.947
> 2024 04 02 15 05  5.0000000  0 16
G02  22287534.260   117121781.167 7      4325.533    22287532.380   117121781.172 6      4325.533    22287543.440    91263764.903 6      3370.545
G26  23062846.960   121196087.200 7      -601.325    23062845.960   121196087.199 6      -601.325    23062864.920    94438570.611 6      -468.565    23062865.360    94438575.609 7      -468.565
R02  24023116.260   128191941.234 7      5747.990    24023115.980   128191941.221 6      5747.990    24023138.100    99704936.271 6      4470.659    24023138.580    99704938.269 6      4470.659
G27  21040832.880   110570315.159 8      1889.121    21040832.100   110570315.166 8      1889.121    21040841.820    86158726.019 8      1472.042    21040842.580    86158727.018 8      1472.042
R14  19635204.960   104666676.107 8       457.399    19635204.740   104666676.100 8       457.399    19635219.380    81407480.409 8       355.755    19635219.840    81407478.410 8       355.755
G16  21003841.720   110375928.554 7       789.843    21003840.360   110375928.556 6       789.843    21003851.220    86007251.228 6       615.462
G10  22175636.740   116533755.113 7      2090.266    22175635.300   116533755.116 7      2090.266    22175650.020    90805522.351 7      1628.779    22175649.680    90805575.357 8      1628.779
G21  20824682.680   109434437.529 7      3552.349    20824681.040   109434437.536 6      3552.349    20824689.800    85273622.769 6      2768.064
R17  20349200.860   108892675.139 8      2540.104    20349199.920   108892675.153 7      2540.104    20349211.980    84694355.689 8      1975.636    20349211.840    84694355.694 8      1975.636
G08  21246872.840   111653064.125 7      3535.967    21246871.960   111653064.130 7      3535.967    21246881.360    87002424.197 7      2755.299    21246882.220    87002427.202 8      2755.299
R15  20256927.220   108246868.762 8      4653.303    20256924.980   108246868.752 8      4653.303    20256936.520    84192057.377 8      3619.236    20256936.520    84192055.383 8      3619.236
R01  23044579.040   123186482.715 6      4457.437    23044576.780   123186482.686 6      4457.437    23044607.380    95811841.914 6      3466.896    23044606.940    95811836.917 6      3466.896
R24  21393759.300   114402042.702 7       219.988    21393758.800   114402042.711 7       219.988    21393772.720    88979434.117 7       171.102    21393772.740    88979421.118 7       171.102
G23  23992126.920   126079471.283 7       264.499    23992125.900   126079471.283 5       264.499    23992139.060    98243790.465 5       206.103    23992139.480    98243801.476 7       206.103
G07  24058902.140   126430386.193 6      3547.569    24058900.420   126430386.193 6      3547.569    24058910.800    98517212.043 6      2764.340    24058910.880    98517219.058 7      2764.340
R18  22680312.460   121069053.750 7      4566.582    22680312.820   121069053.757 7      4566.582    22680331.100    94164893.761 7      3551.786    22680331.120    94164895.770 7      3551.786
> 2024 04 02 15 05  6.0000000  0 16
G02  22286711.040   117117455.403 7      4325.778    22286709.120   117117455.403 6      4325.778    22286720.200    91260394.187 6      3370.736
G26  23062961.220   121196688.292 7      -601.027    23062960.420   121196688.289 7      -601.027    23062979.460    94439038.993 6      -468.333    23062979.720    94439043.997 7      -468.333
R02  24022039.040   128186192.872 7      5748.723    24022038.820   128186192.862 7      5748.723    24022061.240    99700465.326 6      4471.229    24022061.660    99700467.321 6      4471.229
G27  21040473.440   110568425.732 8      1889.510    21040472.460   110568425.734 8      1889.510    21040482.300    86157253.736 8      1472.345    21040482.880    86157254.734 8      1472.345
R14  19635119.220   104666218.713 8       457.278    19635118.840   104666218.708 8       457.278    19635133.560    81407124.651 8       355.661    19635133.900    81407122.654 8       355.661
G16  21003691.240   110375138.619 7       789.915    21003690.100   110375138.629 6       789.915    21003700.920    86006635.695 6       615.518
G10  22175238.900   116531664.715 7      2090.282    22175237.540   116531664.718 7      2090.282    22175252.200    90803893.474 7      1628.791    22175251.860    90803946.484 8      1628.791
G21  20824006.700   109430885.075 8      3552.389    20824005.100   109430885.080 6      3552.389    20824013.620    85270854.628 6      2768.095
R17  20348725.940   108890134.869 7      2540.312    20348725.080   108890134.882 7      2540.312    20348737.440    84692379.922 8      1975.798    20348737.180    84692379.929 8      1975.798
G08  21246200.140   111649527.975 7      3536.275    21246198.960   111649527.980 7      3536.275    21246208.520    86999668.761 7      2755.539    21246209.340    86999671.763 8      2755.539
R15  20256056.280   108242215.516 8      4653.126    20256053.960   108242215.509 7      4653.126    20256065.880    84188438.188 8      3619.098    20256066.040    84188436.194 8      3619.098
R01  23043745.320   123182025.180 6      4457.284    23043742.720   123182025.171 6      4457.284    23043773.060    95808374.989 6      3466.776    23043772.520    95808369.981 6      3466.776
R24  21393718.040   114401822.350 7       220.568    21393717.460   114401822.359 7       220.568    21393731.740    88979262.728 7       171.553    21393731.840    88979249.731 7       171.553
G23  23992076.660   126079206.621 7       264.617    23992075.440   126079206.621 5       264.617    23992088.740    98243584.234 5       206.195    23992089.180    98243595.248 7       206.195
G07  24058226.960   126426838.177 6      3547.989    24058225.280   126426838.179 6      3547.989    24058235.640    98514447.359 6      2764.667    24058235.600    98514454.364 7      2764.667
R18  22679457.300   121064487.071 7      4566.761    22679457.660   121064487.069 7      4566.761    22679475.300    94161341.908 7      3551.925    22679475.420    94161343.910 7      3551.925
> 2024 04 02 15 05  7.0000000  0 16
G02  22285887.820   117113129.647 7      4325.397    22285886.120   117113129.652 6      4325.397    22285897.160    91257023.482 6      3370.439
G26  23063075.660   121197289.242 7      -601.274    23063074.840   121197289.247 6      -601.274    23063093.780    94439507.274 6      -468.525    23063094.140    94439512.278 7      -468.525
R02  24020961.240   128180444.043 7      5748.698    24020961.620   128180444.041 7      5748.698    24020983.980    99695994.027 6      4471.210    24020983.860    99695996.030 6      4471.210
G27  21040113.740   110566536.092 7      1889.348    21040112.920   110566536.094 8      1889.348    21040122.700    86155781.292 8      1472.219    21040123.120    86155782.291 8      1472.219
R14  19635033.300   104665761.718 8       456.447    19635032.940   104665761.711 8       456.447    19635047.840    81406769.207 8       355.014    19635048.640    81406767.210 8       355.014
G16  21003540.760   110374348.803 7       789.394    21003539.880   110374348.813 6       789.394    21003550.720    86006020.248 6       615.112
G10  22174841.440   116529574.543 7      2089.713    22174839.920   116529574.543 7      2089.713    22174854.420    90802264.774 7      1628.347    22174853.940    90802317.780 7      1628.347
G21  20823330.760   109427332.737 8      3551.902    20823329.100   109427332.739 6      3551.902    20823337.720    85268086.580 6      2767.716
R17  20348251.520   108887594.542 7      2539.949    20348250.120   108887594.556 7      2539.949    20348262.720    84690404.120 8      1975.516    20348262.980    84690404.118 8      1975.516
G08  21245527.560   111645991.543 8      3536.227    21245526.040   111645991.546 7      3536.227    21245535.560    86996913.100 7      2755.502    21245536.500    86996916.104 8      2755.502
R15  20255185.340   108237562.668 8      4652.262    20255183.340   108237562.664 7      4652.262    20255195.080    84184819.315 8      3618.426    20255195.400    84184817.323 8      3618.426
R01  23042911.080   123177567.745 6      4457.035    23042909.540   123177567.754 6      4457.035    23042938.660    95804908.128 6      3466.583    23042938.320    95804903.123 6      3466.583
R24  21393677.000   114401601.594 7       220.548    21393676.220   114401601.603 7       220.548    21393690.480    88979091.024 7       171.537    21393690.320    88979078.023 7       171.537
G23  23992026.080   126078942.051 7       264.147    23992025.240   126078942.051 5       264.147    23992038.200    98243378.078 5       205.829    23992038.820    98243389.102 7       205.829
G07  24057552.140   126423290.390 6      3547.070    24057550.040   126423290.395 5      3547.070    24057560.460    98511682.854 5      2763.951    24057561.200    98511689.866 7      2763.951
R18  22678601.720   121059920.319 7      4566.373    22678602.020   121059920.328 7      4566.373    22678620.100    94157790.002 7      3551.623    22678620.500    94157792.008 7      3551.623
> 2024 04 02 15 05  8.0000000  0 16
G02  22285064.740   117108804.306 7      4325.419    22285062.960   117108804.309 6      4325.419    22285073.980    91253653.095 6      3370.456
G26  23063190.200   121197890.444 7      -601.004    23063189.340   121197890.449 6      -601.004    23063208.240    94439975.741 6      -468.314    23063208.460    94439980.747 7      -468.314
R02  24019883.920   128174695.151 7      5749.085    24019884.460   128174695.151 7      5749.085    24019906.620    99691522.668 6      4471.511    24019906.740    99691524.663 6      4471.511
G27  21039754.320   110564646.625 7      1889.656    21039753.440   110564646.628 8      1889.656    21039763.220    86154308.978 8      1472.459    21039763.840    86154309.975 8      1472.459
R14  19634947.880   104665305.507 8       456.010    19634947.320   104665305.500 8       456.010    19634962.260    81406414.374 8       354.674    19634962.600    81406412.377 8       354.674
G16  21003390.760   110373559.476 7       789.304    21003389.460   110373559.483 6       789.304    21003400.400    86005405.179 6       615.042
G10  22174443.440   116527484.989 7      2089.463    22174442.240   116527484.991 7      2089.463    22174456.900    90800636.558 7      1628.153    22174456.600    90800689.564 8      1628.153
G21  20822654.500   109423780.916 8      3551.782    20822653.100   109423780.921 6      3551.782    20822661.920    85265318.932 6      2767.622
R17  20347776.260   108885054.505 7      2540.195    20347775.340   108885054.523 7      2540.195    20347787.920    84688428.534 8      1975.707    20347787.880    84688428.530 8      1975.707
G08  21244854.280   111642455.259 7      3536.452    21244853.140   111642455.267 7      3536.452    21244862.560    86994157.556 7      2755.677    21244863.420    86994160.558 8      2755.677
R15  20254315.280   108232910.590 8      4651.889    20254312.820   108232910.591 7      4651.889    20254324.520    84181201.034 8      3618.136    20254324.340    84181199.042 8      3618.136
R01  23042076.900   123173110.865 6      4456.863    23042075.160   123173110.872 6      4456.863    23042105.300    95801441.691 6      3466.449    23042104.680    95801436.686 6      3466.449
R24  21393634.800   114401380.816 7       221.027    21393635.060   114401380.831 7       221.027    21393649.100    88978919.308 7       171.910    21393649.460    88978906.307 7       171.910
G23  23991976.080   126078677.944 7       264.108    23991975.080   126078677.946 5       264.108    23991988.100    98243172.284 5       205.799    23991988.620    98243183.308 7       205.799
G07  24056876.780   126419743.062 6      3547.337    24056874.860   126419743.059 6      3547.337    24056885.440    98508918.704 5      2764.159    24056885.720    98508925.705 6      2764.159
R18  22677745.980   121055353.895 7      4566.464    22677746.300   121055353.904 7      4566.464    22677764.380    94154238.350 7      3551.694    22677764.580    94154240.354 7      3551.694
> 2024 04 02 15 05  9.0000000  0 16
G02  22284241.560   117104478.913 7      4325.414    22284239.900   117104478.915 6      4325.414    22284250.860    91250282.668 6      3370.453
G26  23063304.560   121198491.449 7      -600.848    23063303.620   121198491.449 7      -600.848    23063322.500    94440444.061 6      -468.193    23063322.820    94440449.063 7      -468.193
R02  24018806.580   128168945.722 7      5749.643    24018807.060   128168945.728 7      5749.643    24018829.140    99687050.890 6      4471.945    24018829.360    99687052.885 6      4471.945
G27  21039394.700   110562756.894 8      1889.847    21039393.740   110562756.896 8      1889.847    21039403.620    86152836.462 8      1472.608    21039404.400    86152837.455 8      1472.608
R14  19634862.500   104664849.611 8       455.741    19634861.860   104664849.598 8       455.741    19634876.840    81406059.778 8       354.465    19634877.280    81406057.777 8       354.465
G16  21003240.800   110372770.164 7       789.280    21003239.360   110372770.174 6       789.280    21003250.240    86004790.127 6       615.024
G10  22174045.960   116525395.574 7      2089.334    22174044.560   116525395.573 8      2089.334    22174059.320    90799008.443 7      1628.053    22174058.800    90799061.446 8      1628.053
G21  20821978.840   109420229.143 8      3551.771    20821977.120   109420229.145 6      3551.771    20821986.000    85262551.318 6      2767.614
R17  20347302.000   108882514.306 8      2540.312    20347300.700   108882514.321 8      2540.312    20347313.260    84686452.827 8      1975.798    20347313.020    84686452.828 8      1975.798
G08  21244181.540   111638918.660 7      3536.727    21244179.980   111638918.665 7      3536.727    21244189.640    86991401.767 7      2755.891    21244190.320    86991404.768 8      2755.891
R15  20253444.740   108228258.814 8      4651.596    20253442.220   108228258.815 8      4651.596    20253454.040    84177582.992 8      3617.908    20253454.000    84177580.998 8      3617.908
R01  23041243.360   123168654.074 6      4456.729    23041241.900   123168654.067 6      4456.729    23041271.760    95797975.314 6      3466.345    23041270.780    95797970.313 6      3466.345
R24  21393593.760   114401159.643 7       221.345    21393594.200   114401159.655 7       221.345    21393607.800    88978747.285 7       172.157    21393607.940    88978734.278 7       172.157
G23  23991925.740   126078413.857 7       264.136    23991924.960   126078413.860 5       264.136    23991937.820    98242966.508 5       205.820    23991938.520    98242977.530 7       205.820
G07  24056201.860   126416195.861 6      3547.215    24056199.800   126416195.852 5      3547.215    24056210.540    98506154.649 5      2764.064    24056210.700    98506161.647 6      2764.064
R18  22676890.340   121050787.344 7      4566.556    22676891.180   121050787.345 7      4566.556    22676909.000    94150686.596 7      3551.766    22676909.120    94150688.594 7      3551.766
> 2024 04 02 15 05 10.0000000  0 16
G02  22283418.500   117100153.609 7      4325.338    22283416.840   117100153.616 6      4325.338    22283427.820    91246912.308 6      3370.393
G26  23063418.860   121199092.399 7      -600.798    23063417.920   121199092.404 7      -600.798    23063436.880    94440912.336 7      -468.154    23063437.280    94440917.340 7      -468.154
R02  24017729.340   128163195.927 7      5750.085    24017729.900   128163195.936 7      5750.085    24017751.620    99682578.819 6      4472.289    24017751.840    99682580.819 6      4472.289
G27  21039035.180   110560867.033 8      1890.024    21039034.140   110560867.035 8      1890.024    21039043.920    86151363.839 8      1472.746    21039044.700    86151364.837 8      1472.746
R14  19634776.960   104664394.194 8       455.272    19634776.500   104664394.187 8       455.272    19634791.120    81405705.563 8       354.101    19634791.620    81405703.568 8       354.101
G16  21003090.700   110371981.045 7       789.182    21003089.320   110371981.060 6       789.182    21003100.260    86004175.225 6       614.947
G10  22173648.480   116523306.468 8      2089.079    22173647.220   116523306.473 7      2089.079    22173661.700    90797380.579 7      1627.854    22173661.300    90797433.586 8      1627.854
G21  20821302.960   109416677.580 8      3551.632    20821301.260   109416677.584 6      3551.632    20821310.040    85259783.876 6      2767.505
R17  20346827.060   108879974.125 8      2540.299    20346825.840   108879974.137 8      2540.299    20346838.480    84684477.138 8      1975.788    20346838.160    84684477.138 8      1975.788
G08  21243508.240   111635381.887 7      3536.952    21243507.140   111635381.892 8      3536.952    21243516.720    86988645.842 7      2756.066    21243517.520    86988648.841 8      2756.066
R15  20252573.720   108223607.492 8      4651.224    20252571.760   108223607.490 8      4651.224    20252583.660    84173965.295 8      3617.618    20252583.840    84173963.305 8      3617.618
R01  23040409.340   123164197.496 6      4456.517    23040408.140   123164197.489 6      4456.517    23040437.460    95794509.106 6      3466.180    23040437.000    95794504.105 6      3466.180
R24  21393552.580   114400938.237 8       221.611    21393552.640   114400938.247 7       221.611    21393566.400    88978575.076 7       172.364    21393566.420    88978562.071 7       172.364
G23  23991875.760   126078149.952 7       263.948    23991874.700   126078149.957 5       263.948    23991887.500    98242760.872 5       205.674    23991888.200    98242771.892 7       205.674
G07  24055526.840   126412648.893 6      3546.809    24055525.040   126412648.890 5      3546.809    24055535.680    98503390.784 5      2763.747    24055536.220    98503397.789 7      2763.747
R18  22676034.920   121046220.814 7      4566.606    22676035.280   121046220.814 7      4566.606    22676053.340    94147134.856 7      3551.805    22676053.500    94147136.862 7      3551.805
> 2024 04 02 15 05 11.0000000  0 16
G02  22282595.740   117095828.292 7      4325.409    22282593.900   117095828.297 6      4325.409    22282604.760    91243541.943 6      3370.448
G26  23063533.460   121199693.205 7      -600.654    23063532.400   121199693.212 7      -600.654    23063551.260    94441380.502 6      -468.042    23063551.540    94441385.502 7      -468.042
R02  24016651.480   128157445.634 7      5750.522    24016652.220   128157445.637 7      5750.522    24016673.620    99678106.367 6      4472.628    24016674.200    99678108.366 6      4472.628
G27  21038675.580   110558976.931 8      1890.306    21038674.540   110558976.933 8      1890.306    21038684.260    86149891.032 8      1472.966    21038684.900    86149892.028 8      1472.966
R14  19634691.540   104663939.138 8       454.959    19634691.060   104663939.133 8       454.959    19634705.900    81405351.628 8       353.857    19634706.360    81405349.631 8       353.857
G16  21002940.500   110371192.022 7       789.126    21002939.180   110371192.029 6       789.126    21002950.040    86003560.394 6       614.904
G10  22173250.940   116521217.574 8      2088.842    22173249.720   116521217.578 7      2088.842    22173264.200    90795752.872 7      1627.669    22173263.860    90795805.882 8      1627.669
G21  20820627.320   109413126.129 7      3551.516    20820625.380   109413126.132 6      3551.516    20820634.280    85257016.517 6      2767.415
R17  20346352.420   108877433.883 8      2540.309    20346351.100   108877433.903 8      2540.309    20346363.880    84682501.400 8      1975.796    20346363.520    84682501.402 8      1975.796
G08  21242835.260   111631844.849 7      3537.256    21242833.980   111631844.851 8      3537.256    21242843.580    86985889.712 8      2756.304    21242844.500    86985892.712 8      2756.304
R15  20251703.600   108218956.504 8      4650.931    20251701.560   108218956.497 8      4650.931    20251713.320    84170347.860 8      3617.391    20251713.080    84170345.865 8      3617.391
R01  23039576.020   123159741.015 6      4456.497    23039574.680   123159741.013 6      4456.497    23039604.400    95791042.977 6      3466.164    23039603.440    95791037.978 6      3466.164
R24  21393511.120   114400716.460 7       221.983    21393511.280   114400716.469 7       221.983    21393525.000    88978402.583 7       172.653    21393525.100    88978389.577 7       172.653
G23  23991825.260   126077886.112 6       263.784    23991824.600   126077886.120 5       263.784    23991837.260    98242555.291 5       205.546    23991838.040    98242566.312 7       205.546
G07  24054851.980   126409101.996 6      3546.928    24054850.020   126409101.996 5      3546.928    24054860.780    98500626.973 5      2763.840    24054861.240    98500633.975 7      2763.840
R18  22675179.220   121041654.174 7      4566.853    22675180.040   121041654.177 7      4566.853    22675198.000    94143583.038 7      3551.997    22675198.020    94143585.042 7      3551.997
> 2024 04 02 15 05 12.0000000  0 16
G02  22281772.420   117091502.972 7      4324.875    22281770.600   117091502.982 6      4324.875    22281781.680    91240171.578 6      3370.033
G26  23063647.820   121200293.834 7      -600.974    23063646.740   121200293.839 7      -600.974    23063665.560    94441848.523 7      -468.292    23063665.680    94441853.525 7      -468.292
R02  24015573.720   128151694.793 7      5750.667    24015574.860   128151694.791 7      5750.667    24015596.140    99673633.478 6      4472.741    24015596.620    99673635.482 6      4472.741
G27  21038315.780   110557086.600 7      1890.034    21038314.780   110557086.600 8      1890.034    21038324.560    86148418.041 8      1472.754    21038325.080    86148419.036 8      1472.754
R14  19634606.400   104663484.427 8       454.129    19634605.760   104663484.422 8       454.129    19634620.660    81404997.958 8       353.212    19634621.200    81404995.963 8       353.212
G16  21002790.280   110370403.057 7       788.516    21002789.100   110370403.065 6       788.516    21002799.900    86002945.612 6       614.428
G10  22172853.480   116519128.873 7      2088.133    22172852.360   116519128.875 7      2088.133    22172866.780    90794125.313 7      1627.117    22172866.400    90794178.323 8      1627.117
G21  20819951.620   109409574.774 8      3550.845    20819949.520   109409574.781 6      3550.845    20819958.560    85254249.239 6      2766.892
R17  20345877.840   108874893.579 8      2539.893    20345876.420   108874893.596 7      2539.893    20345889.140    84680525.610 8      1975.472    20345888.920    84680525.612 8      1975.472
G08  21242162.140   111628307.521 7      3537.063    21242160.880   111628307.526 7      3537.063    21242170.560    86983133.355 7      2756.153    21242171.500    86983136.353 8      2756.153
R15  20250833.460   108214305.868 8      4650.053    20250831.200   108214305.862 8      4650.053    20250843.000    84166730.703 8      3616.708    20250843.020    84166728.711 8      3616.708
R01  23038741.380   123155284.606 6      4455.870    23038741.100   123155284.617 6      4455.870    23038770.700    95787576.920 6      3465.677    23038770.100    95787571.915 6      3465.677
R24  21393469.960   114400494.276 7       221.912    21393469.760   114400494.280 7       221.912    21393483.440    88978229.767 8       172.598    21393483.400    88978216.768 8       172.598
G23  23991775.020   126077622.307 6       263.377    23991774.520   126077622.312 5       263.377    23991787.240    98242349.730 5       205.229    23991787.740    98242360.750 7       205.229
G07  24054177.020   126405555.278 6      3546.126    24054175.220   126405555.270 6      3546.126    24054185.760    98497863.294 5      2763.215    24054186.480    98497870.293 7      2763.215
R18  22674323.840   121037087.449 7      4566.219    22674324.240   121037087.460 7      4566.219    22674342.440    94140031.153 7      3551.504    22674342.560    94140033.157 7      3551.504
> 2024 04 02 15 05 13.0000000  0 16
G02  22280949.720   117087177.928 7      4325.145    22280947.520   117087177.935 6      4325.145    22280958.560    91236801.416 6      3370.243
G26  23063761.720   121200894.580 7      -600.482    23063761.100   121200894.582 6      -600.482    23063779.780    94442316.636 6      -467.908    23063780.020    94442321.640 7      -467.908
R02  24014496.240   128145943.742 7      5751.422    24014496.520   128145943.735 7      5751.422    24014518.480    99669160.441 6      4473.328    24014518.760    99669162.446 6      4473.328
G27  21037956.000   110555196.309 7      1890.500    21037955.060   110555196.311 8      1890.500    21037964.800    86146945.091 8      1473.117    21037965.260    86146946.086 8      1473.117
R14  19634521.080   104663030.349 8       454.056    19634520.680   104663030.341 8       454.056    19634535.340    81404644.784 8       353.155    19634535.880    81404642.789 8       353.155
G16  21002640.040   110369614.439 7       788.782    21002638.960   110369614.452 6       788.782    21002649.840    86002331.106 6       614.635
G10  22172456.160   116517040.651 7      2088.163    22172454.920   116517040.653 7      2088.163    22172469.420    90792498.135 7      1627.140    22172469.280    90792551.149 8      1627.140
G21  20819275.920   109406023.778 7      3551.148    20819274.020   109406023.788 6      3551.148    20819282.840    85251482.233 6      2767.128
R17  20345402.800   108872353.502 8      2540.216    20345401.680   108872353.517 7      2540.216    20345414.380    84678549.997 8      1975.723    20345414.200    84678550.001 8      1975.723
G08  21241488.940   111624770.212 7      3537.578    21241487.760   111624770.217 7      3537.578    21241497.340    86980377.015 7      2756.554    21241498.100    86980380.014 8      2756.554
R15  20249963.080   108209655.877 8      4649.983    20249961.140   108209655.870 8      4649.983    20249972.760    84163114.045 8      3616.654    20249972.660    84163112.049 8      3616.654
R01  23037908.000   123150828.613 6      4455.983    23037907.500   123150828.617 6      4455.983    23037936.860    95784111.163 6      3465.764    23037936.580    95784106.158 6      3465.764
R24  21393428.100   114400271.950 7       222.718    21393428.340   114400271.952 7       222.718    21393441.840    88978056.843 7       173.225    21393441.840    88978043.848 7       173.225
G23  23991725.000   126077358.862 7       263.545    23991724.320   126077358.867 5       263.545    23991737.220    98242144.452 5       205.360    23991737.560    98242155.474 7       205.360
G07  24053502.160   126402008.920 6      3546.453    24053500.300   126402008.914 6      3546.453    24053511.080    98495099.903 6      2763.470    24053511.320    98495106.897 7      2763.470
R18  22673468.680   121032520.900 7      4566.738    22673468.800   121032520.909 7      4566.738    22673486.960    94136479.411 7      3551.907    22673486.980    94136481.411 7      3551.907
> 2024 04 02 15 05 14.0000000  0 16
G02  22280126.660   117082852.887 7      4324.908    22280124.500   117082852.889 6      4324.908    22280135.420    91233431.262 6      3370.058
G26  23063875.980   121201495.201 7      -600.620    23063875.360   121201495.201 7      -600.620    23063894.200    94442784.649 7      -468.015    23063894.220    94442789.647 7      -468.015
R02  24013418.440   128140192.208 7      5751.707    24013418.600   128140192.198 7      5751.707    24013440.540    99664687.019 6      4473.550    24013440.680    99664689.016 6      4473.550
G27  21037596.080   110553305.802 8      1890.487    21037595.260   110553305.804 8      1890.487    21037605.180    86145471.964 8      1473.107    21037605.380    86145472.962 8      1473.107
R14  19634436.160   104662576.664 8       453.381    19634435.640   104662576.654 8       453.381    19634450.380    81404291.910 8       352.630    19634450.800    81404289.911 8       352.630
G16  21002489.900   110368825.948 7       788.425    21002488.800   110368825.958 6       788.425    21002500.000    86001716.687 6       614.357
G10  22172058.860   116514952.631 7      2087.772    22172057.600   116514952.635 7      2087.772    22172072.160    90790871.113 7      1626.835    22172071.980    90790924.125 8      1626.835
G21  20818600.100   109402472.937 7      3550.679    20818598.280   109402472.942 6      3550.679    20818606.920    85248715.347 6      2766.763
R17  20344927.940   108869813.300 8      2540.198    20344927.000   108869813.318 7      2540.198    20344939.740    84676574.286 8      1975.710    20344939.520    84676574.289 8      1975.710
G08  21240815.840   111621232.651 7      3537.529    21240814.580   111621232.654 7      3537.529    21240824.160    86977620.474 7      2756.516    21240824.980    86977623.475 8      2756.516
R15  20249093.180   108205006.244 8      4649.381    20249090.800   108205006.239 7      4649.381    20249102.700    84159497.668 8      3616.185    20249102.780    84159495.678 8      3616.185
R01  23037074.320   123146372.688 6      4455.845    23037073.880   123146372.692 6      4455.845    23037103.380    95780645.458 6      3465.657    23037103.060    95780640.454 6      3465.657
R24  21393386.960   114400049.248 7       222.892    21393386.980   114400049.254 7       222.892    21393400.460    88977883.630 7       173.360    21393400.160    88977870.635 7       173.360
G23  23991675.040   126077095.495 7       263.225    23991674.260   126077095.500 5       263.225    23991687.180    98241939.238 5       205.110    23991687.360    98241950.251 7       205.110
G07  24052827.440   126398462.707 6      3546.076    24052825.400   126398462.706 6      3546.076    24052836.140    98492336.623 6      2763.176    24052836.140    98492343.624 7      2763.176
R18  22672613.200   121027954.343 7      4566.523    22672613.140   121027954.352 7      4566.523    22672631.480    94132927.643 7      3551.740    22672631.680    94132929.645 7      3551.740
> 2024 04 02 15 05 15.0000000  0 16
G02  22279303.420   117078527.953 7      4324.717    22279301.500   117078527.955 6      4324.717    22279312.320    91230061.196 6      3369.909
G26  23063990.460   121202095.776 7      -600.680    23063989.620   121202095.778 7      -600.680    23064008.480    94443252.637 6      -468.062    23064008.720    94443257.637 7      -468.062
R02  24012340.340   128134440.282 7      5752.048    24012340.560   128134440.288 7      5752.048    24012362.920    99660213.307 6      4473.815    24012362.680    99660215.310 6      4473.815
G27  21037236.340   110551415.177 8      1890.524    21037235.500   110551415.179 8      1890.524    21037245.400    86143998.754 8      1473.135    21037245.620    86143999.754 8      1473.135
R14  19634351.060   104662123.487 8       452.734    19634350.620   104662123.479 8       452.734    19634365.320    81403939.438 8       352.126    19634365.880    81403937.443 8       352.126
G16  21002340.060   110368037.661 7       788.028    21002338.800   110368037.666 6       788.028    21002349.940    86001102.431 6       614.048
G10  22171661.840   116512864.947 7      2087.331    22171660.380   116512864.949 7      2087.331    22171674.880    90789244.351 7      1626.492    22171674.660    90789297.367 8      1626.492
G21  20817924.400   109398922.289 7      3550.402    20817922.600   109398922.294 6      3550.402    20817931.220    85245948.612 6      2766.547
R17  20344453.560   108867273.111 7      2540.087    20344452.240   108867273.123 7      2540.087    20344464.960    84674598.582 8      1975.623    20344464.820    84674598.584 8      1975.623
G08  21240142.540   111617694.919 7      3537.679    21240141.280   111617694.924 7      3537.679    21240150.940    86974863.807 7      2756.633    21240151.460    86974866.807 8      2756.633
R15  20248223.060   108200357.083 8      4648.760    20248220.760   108200357.082 8      4648.760    20248232.740    84155881.658 8      3615.702    20248232.760    84155879.666 8      3615.702
R01  23036241.120   123141916.982 6      4455.403    23036240.640   123141916.994 6      4455.403    23036270.240    95777179.937 6      3465.313    23036269.500    95777174.943 6      3465.313
R24  21393344.980   114399826.334 7       222.913    21393345.280   114399826.346 7       222.913    21393358.660    88977710.254 7       173.377    21393358.720    88977697.257 8       173.377
G23  23991624.580   126076832.310 7       262.975    23991624.360   126076832.315 5       262.975    23991636.820    98241734.162 5       204.916    23991637.520    98241745.180 7       204.916
G07  24052152.480   126394916.753 6      3545.800    24052150.520   126394916.753 5      3545.800    24052161.440    98489573.549 5      2762.961    24052161.680    98489580.541 7      2762.961
R18  22671757.780   121023387.829 7      4566.305    22671757.540   121023387.843 7      4566.305    22671776.060    94129375.928 7      3551.571    22671776.240    94129377.930 7      3551.571
> 2024 04 02 15 05 16.0000000  0 16
G02  22278480.380   117074203.140 7      4324.600    22278478.600   117074203.145 6      4324.600    22278489.400    91226691.223 6      3369.818
G26  23064104.680   121202696.318 7      -600.644    23064103.880   121202696.323 6      -600.644    23064122.740    94443720.599 7      -468.034    23064122.880    94443725.599 7      -468.034
R02  24011262.520   128128688.041 7      5752.281    24011262.660   128128688.049 6      5752.281    24011284.660    99655739.342 6      4473.996    24011284.800    99655741.347 7      4473.996
G27  21036876.540   110549524.454 8      1890.603    21036875.680   110549524.456 8      1890.603    21036885.580    86142525.470 8      1473.197    21036885.820    86142526.467 8      1473.197
R14  19634266.140   104661670.834 8       452.249    19634265.640   104661670.824 8       452.249    19634280.360    81403587.369 8       351.749    19634280.860    81403585.374 8       351.749
G16  21002190.100   110367249.558 7       787.862    21002188.920   110367249.565 6       787.862    21002199.980    86000488.321 6       613.919
G10  22171264.480   116510777.586 7      2087.048    22171263.180   116510777.589 7      2087.048    22171277.720    90787617.838 7      1626.271    22171277.520    90787670.850 8      1626.271
G21  20817248.520   109395371.876 7      3550.210    20817246.860   109395371.879 6      3550.210    20817255.740    85243182.063 6      2766.397
R17  20343978.960   108864732.936 7      2540.051    20343977.580   108864732.953 7      2540.051    20343990.500    84672622.896 8      1975.595    20343990.140    84672622.900 8      1975.595
G08  21239469.120   111614157.053 7      3537.815    21239468.160   111614157.061 7      3537.815    21239477.880    86972107.029 7      2756.739    21239478.180    86972110.031 8      2756.739
R15  20247353.240   108195708.385 8      4648.356    20247350.780   108195708.381 8      4648.356    20247362.640    84152266.004 8      3615.388    20247362.720    84152264.010 8      3615.388
R01  23035407.300   123137461.503 6      4455.183    23035407.140   123137461.517 6      4455.183    23035436.740    95773714.586 6      3465.142    23035435.900    95773709.578 6      3465.142
R24  21393303.300   114399603.180 7       223.163    21393304.080   114399603.189 7       223.163    21393316.860    88977536.681 7       173.572    21393316.980    88977523.682 8       173.572
G23  23991574.600   126076569.316 7       262.766    23991574.300   126076569.321 5       262.766    23991586.800    98241529.236 5       204.753    23991587.420    98241540.250 7       204.753
G07  24051477.520   126391371.041 6      3545.476    24051475.700   126391371.044 5      3545.476    24051486.660    98486810.653 5      2762.709    24051487.640    98486817.661 7      2762.709
R18  22670902.080   121018821.314 7      4566.484    22670901.880   121018821.318 7      4566.484    22670920.520    94125824.197 7      3551.710    22670920.600    94125826.203 7      3551.710
> 2024 04 02 15 05 17.0000000  0 16
G02  22277657.400   117069878.530 7      4324.449    22277655.580   117069878.537 6      4324.449    22277666.400    91223321.405 6      3369.701
G26  23064218.880   121203296.916 7      -600.626    23064218.200   121203296.916 6      -600.626    23064236.940    94444188.597 7      -468.020    23064237.160    94444193.597 7      -468.020
R02  24010184.440   128122935.533 7      5752.589    24010184.540   128122935.534 6      5752.589    24010206.740    99651265.156 6      4474.236    24010206.980    99651267.166 7      4474.236
G27  21036516.880   110547633.700 7      1890.727    21036515.880   110547633.705 8      1890.727    21036525.760    86141052.158 8      1473.294    21036526.260    86141053.155 8      1473.294
R14  19634181.340   104661218.802 8       451.658    19634181.020   104661218.795 8       451.658    19634195.600    81403235.784 8       351.290    19634196.160    81403233.787 8       351.290
G16  21002040.380   110366461.762 7       787.632    21002038.920   110366461.772 6       787.632    21002050.080    85999874.454 6       613.739
G10  22170867.160   116508690.638 7      2086.672    22170866.000   116508690.641 7      2086.672    22170880.540    90785991.653 7      1625.978    22170880.220    90786044.663 8      1625.978
G21  20816572.980   109391821.790 7      3549.851    20816571.380   109391821.792 6      3549.851    20816580.160    85240415.763 6      2766.118
R17  20343504.260   108862192.931 7      2539.873    20343502.860   108862192.946 7      2539.873    20343515.820    84670647.339 8      1975.457    20343515.520    84670647.344 8      1975.457
G08  21238796.020   111610619.138 7      3537.879    21238794.900   111610619.143 7      3537.879    21238804.620    86969350.215 7      2756.789    21238804.920    86969353.217 8      2756.789
R15  20246483.340   108191060.298 8      4647.789    20246481.040   108191060.291 7      4647.789    20246492.900    84148650.826 8      3614.947    20246493.140    84148648.835 8      3614.947
R01  23034574.240   123133006.336 6      4454.966    23034574.100   123133006.348 6      4454.966    23034603.840    95770249.479 6      3464.973    23034602.900    95770244.472 6      3464.973
R24  21393261.580   114399379.846 7       223.381    21393262.180   114399379.863 7       223.381    21393275.000    88977362.982 7       173.741    21393275.200    88977349.979 8       173.741
G23  23991524.580   126076306.596 7       262.582    23991524.300   126076306.601 5       262.582    23991536.980    98241324.521 5       204.610    23991537.320    98241335.533 7       204.610
G07  24050802.960   126387825.650 6      3545.366    24050801.020   126387825.645 5      3545.366    24050812.060    98484048.014 5      2762.623    24050812.540    98484055.015 7      2762.623
R18  22670046.600   121014254.942 7      4566.233    22670046.580   121014254.948 7      4566.233    22670065.120    94122272.588 7      3551.515    22670065.120    94122274.594 7      3551.515
> 2024 04 02 15 05 18.0000000  0 16
G02  22276834.460   117065553.869 7      4324.448    22276832.720   117065553.880 6      4324.448    22276843.260    91219951.554 6      3369.700
G26  23064333.340   121203897.315 7      -600.448    23064332.480   121203897.322 6      -600.448    23064351.240    94444656.444 7      -467.881    23064351.480    94444661.448 7      -467.881
R02  24009106.240   128117182.488 7      5753.104    24009106.460   128117182.481 6      5753.104    24009129.040    99646790.566 6      4474.637    24009128.520    99646792.568 6      4474.637
G27  21036157.040   110545742.694 7      1890.961    21036156.100   110545742.699 8      1890.961    21036165.920    86139578.640 8      1473.476    21036166.320    86139579.639 8      1473.476
R14  19634096.540   104660767.074 8       451.401    19634096.080   104660767.069 8       451.401    19634110.940    81402884.440 8       351.090    19634111.380    81402882.443 8       351.090
G16  21001890.640   110365673.998 7       787.642    21001889.060   110365674.006 6       787.642    21001900.140    85999260.606 6       613.747
G10  22170470.080   116506603.832 7      2086.608    22170468.920   116506603.837 7      2086.608    22170483.480    90784365.576 7      1625.928    22170483.300    90784418.582 8      1625.928
G21  20815897.280   109388271.735 8      3549.888    20815895.680   109388271.740 6      3549.888    20815904.640    85237649.493 6      2766.146
R17  20343029.360   108859652.764 7      2540.071    20343028.340   108859652.779 7      2540.071    20343040.940    84668671.662 8      1975.611    20343040.820    84668671.666 8      1975.611
G08  21238122.900   111607080.883 7      3538.252    21238121.560   111607080.888 7      3538.252    21238131.220    86966593.138 8      2757.079    21238131.900    86966596.140 8      2757.079
R15  20245613.580   108186412.533 7      4647.410    20245611.260   108186412.520 8      4647.410    20245623.180    84145035.901 8      3614.652    20245622.940    84145033.907 8      3614.652
R01  23033740.800   123128551.223 6      4454.942    23033740.640   123128551.222 6      4454.942    23033770.020    95766784.406 6      3464.955    23033769.420    95766779.401 6      3464.955
R24  21393219.840   114399156.095 7       223.728    21393220.300   114399156.110 7       223.728    21393233.120    88977188.958 7       174.010    21393233.340    88977175.948 7       174.010
G23  23991474.940   126076043.894 7       262.558    23991474.380   126076043.899 5       262.558    23991486.980    98241119.825 5       204.591    23991487.620    98241130.840 7       204.591
G07  24050128.660   126384280.372 6      3545.018    24050126.480   126384280.369 5      3545.018    24050137.460    98481285.462 5      2762.351    24050137.420    98481292.466 7      2762.351
R18  22669190.780   121009688.427 7      4566.329    22669191.560   121009688.425 7      4566.329    22669209.720    94118720.869 7      3551.589    22669209.720    94118722.880 7      3551.589
> 2024 04 02 15 05 19.0000000  0 16
G02  22276011.520   117061229.222 7      4324.599    22276009.600   117061229.232 6      4324.599    22276020.440    91216581.709 6      3369.818
G26  23064447.860   121204497.603 7      -600.271    23064446.740   121204497.605 7      -600.271    23064465.520    94445124.191 6      -467.743    23064465.420    94445129.187 7      -467.743
R02  24008028.440   128111428.991 7      5753.644    24008027.900   128111428.978 6      5753.644    24008050.740    99642315.617 6      4475.057    24008050.300    99642317.610 6      4475.057
G27  21035797.040   110543851.475 7      1891.216    21035796.220   110543851.480 8      1891.216    21035806.100    86138104.959 8      1473.675    21035806.360    86138105.960 8      1473.675
R14  19634011.600   104660315.767 8       451.048    19634011.520   104660315.760 8       451.048    19634026.280    81402533.420 8       350.815    19634026.820    81402531.423 8       350.815
G16  21001740.640   110364886.345 7       787.590    21001739.180   110364886.352 6       787.590    21001750.280    85998646.846 6       613.706
G10  22170072.980   116504517.281 7      2086.369    22170071.940   116504517.283 7      2086.369    22170086.520    90782739.696 7      1625.742    22170086.180    90782792.704 8      1625.742
G21  20815221.980   109384721.819 8      3549.780    20815220.180   109384721.821 6      3549.780    20815229.200    85234883.335 6      2766.063
R17  20342554.800   108857112.551 7      2540.146    20342553.600   108857112.569 7      2540.146    20342566.360    84666695.945 8      1975.669    20342566.320    84666695.947 8      1975.669
G08  21237449.440   111603542.402 7      3538.511    21237448.320   111603542.407 7      3538.511    21237457.860    86963835.882 7      2757.282    21237458.620    86963838.888 8      2757.282
R15  20244743.920   108181765.125 8      4647.103    20244741.740   108181765.118 7      4647.103    20244753.280    84141421.257 8      3614.413    20244753.240    84141419.266 8      3614.413
R01  23032907.480   123124096.217 6      4454.924    23032907.260   123124096.221 6      4454.924    23032936.400    95763319.428 6      3464.941    23032936.040    95763314.419 6      3464.941
R24  21393177.880   114398931.989 7       224.181    21393178.440   114398932.006 7       224.181    21393191.180    88977014.653 7       174.363    21393191.400    88977001.648 7       174.363
G23  23991425.460   126075781.289 7       262.466    23991424.380   126075781.297 5       262.466    23991437.160    98240915.206 5       204.519    23991437.380    98240926.225 7       204.519
G07  24049454.040   126380735.218 6      3544.928    24049451.960   126380735.222 5      3544.928    24049462.820    98478523.008 5      2762.281    24049462.800    98478530.023 7      2762.281
R18  22668335.640   121005121.838 7      4566.603    22668336.420   121005121.839 7      4566.603    22668354.300    94115169.097 7      3551.803    22668354.580    94115171.101 7      3551.803
> 2024 04 02 15 05 20.0000000  0 16
G02  22275188.820   117056904.827 7      4324.397    22275186.720   117056904.835 6      4324.397    22275197.500    91213212.059 6      3369.660
G26  23064561.820   121205097.959 7      -600.289    23064560.940   121205097.961 7      -600.289    23064579.740    94445592.005 6      -467.758    23064579.980    94445597.001 7      -467.758
R02  24006950.080   128105675.213 7      5754.017    24006949.400   128105675.208 6      5754.017    24006972.460    99637840.455 6      4475.347    24006972.220    99637842.454 6      4475.347
G27  21035437.080   110541960.267 7      1891.266    21035436.400   110541960.269 8      1891.266    21035446.160    86136631.286 8      1473.714    21035446.400    86136632.287 8      1473.714
R14  19633927.060   104659865.111 8       450.400    19633926.760   104659865.104 8       450.400    19633941.740    81402182.905 8       350.311    19633942.160    81402180.908 8       350.311
G16  21001590.820   110364099.009 7       787.300    21001589.260   110364099.024 6       787.300    21001600.340    85998033.338 6       613.481
G10  22169676.140   116502431.155 7      2086.056    22169674.960   116502431.158 7      2086.056    22169689.480    90781114.152 7      1625.498    22169688.960    90781167.166 8      1625.498
G21  20814546.640   109381172.245 8      3549.480    20814544.840   109381172.253 6      3549.480    20814553.600    85232117.439 6      2765.828
R17  20342080.200   108854572.501 7      2540.059    20342078.920   108854572.522 7      2540.059    20342091.940    84664720.353 8      1975.602    20342091.780    84664720.353 8      1975.602
G08  21236776.120   111600003.887 7      3538.618    21236774.840   111600003.892 7      3538.618    21236784.500    86961078.600 8      2757.365    21236785.100    86961081.602 8      2757.365
R15  20243874.220   108177118.286 8      4646.611    20243872.080   108177118.279 7      4646.611    20243883.720    84137807.051 8      3614.031    20243883.980    84137805.061 8      3614.031
R01  23032074.340   123119641.578 6      4454.647    23032074.420   123119641.579 6      4454.647    23032103.680    95759854.733 6      3464.725    23032102.700    95759849.724 6      3464.725
R24  21393135.860   114398707.757 7       224.401    21393136.740   114398707.769 7       224.401    21393149.440    88976840.244 7       174.534    21393149.440    88976827.243 7       174.534
G23  23991375.120   126075518.979 7       262.253    23991374.540   126075518.987 5       262.253    23991387.180    98240710.817 5       204.353    23991387.720    98240721.842 7       204.353
G07  24048779.380   126377190.420 6      3544.731    24048777.440   126377190.428 6      3544.731    24048788.160    98475760.830 6      2762.128    24048788.260    98475767.843 7      2762.128
R18  22667479.880   121000555.479 7      4566.386    22667480.680   121000555.480 7      4566.386    22667498.900    94111617.488 7      3551.634    22667499.120    94111619.494 7      3551.634
> 2024 04 02 15 05 21.0000000  0 16
G02  22274365.900   117052580.664 7      4323.853    22274363.980   117052580.668 6      4323.853    22274374.700    91209842.591 6      3369.236
G26  23064676.340   121205698.389 7      -600.600    23064675.180   121205698.396 7      -600.600    23064693.840    94446059.874 6      -468.000    23064694.420    94446064.874 7      -468.000
R02  24005871.960   128099921.189 7      5753.942    24005871.100   128099921.190 6      5753.942    24005893.740    99633365.118 6      4475.288    24005893.960    99633367.113 6      4475.288
G27  21035077.320   110540069.069 7      1891.027    21035076.380   110540069.068 8      1891.027    21035086.320    86135157.627 8      1473.528    21035086.620    86135158.629 8      1473.528
R14  19633842.560   104659415.065 8       449.535    19633842.560   104659415.058 8       449.535    19633857.360    81401832.863 8       349.638    19633857.940    81401830.866 8       349.638
G16  21001440.960   110363312.015 7       786.700    21001439.520   110363312.028 6       786.700    21001450.780    85997420.089 6       613.013
G10  22169279.180   116500345.490 7      2085.326    22169278.140   116500345.492 7      2085.326    22169292.740    90779488.962 7      1624.930    22169292.340    90779541.972 8      1624.930
G21  20813871.180   109377623.020 8      3548.896    20813869.260   109377623.028 6      3548.896    20813878.120    85229351.818 6      2765.374
R17  20341605.440   108852032.599 7      2539.616    20341604.280   108852032.619 7      2539.616    20341617.240    84662744.885 8      1975.257    20341617.060    84662744.883 8      1975.257
G08  21236102.860   111596465.354 7      3538.327    21236101.660   111596465.356 7      3538.327    21236111.160    86958321.303 7      2757.138    21236111.640    86958324.305 8      2757.138
R15  20243004.800   108172472.075 8      4645.681    20243002.800   108172472.068 8      4645.681    20243014.180    84134193.338 8      3613.308    20243014.260    84134191.343 8      3613.308
R01  23031240.640   123115187.325 6      4453.923    23031240.600   123115187.324 6      4453.923    23031270.220    95756390.327 6      3464.163    23031269.540    95756385.322 6      3464.163
R24  21393093.920   114398483.392 7       224.184    21393094.680   114398483.401 7       224.184    21393107.340    88976665.735 7       174.365    21393107.620    88976652.738 7       174.365
G23  23991324.820   126075257.005 7       261.655    23991324.440   126075257.010 5       261.655    23991337.320    98240506.687 5       203.887    23991338.020    98240517.698 7       203.887
G07  24048105.080   126373646.025 6      3544.012    24048102.980   126373646.030 5      3544.012    24048113.940    98472998.966 5      2761.568    24048113.860    98473005.964 7      2761.568
R18  22666624.220   120995989.253 7      4565.939    22666625.600   120995989.256 7      4565.939    22666643.640    94108065.993 7      3551.286    22666643.700    94108067.997 7      3551.286
> 2024 04 02 15 05 22.0000000  0 16
G02  22273543.160   117048256.665 7      4323.939    22273541.160   117048256.673 6      4323.939    22273551.880    91206473.252 6      3369.303
G26  23064790.640   121206298.874 7      -600.405    23064789.520   121206298.876 7      -600.405    23064808.160    94446527.783 7      -467.848    23064808.680    94446532.772 7      -467.848
R02  24004793.880   128094166.848 7      5754.597    24004793.140   128094166.847 6      5754.597    24004815.500    99628889.500 6      4475.798    24004815.820    99628891.496 6      4475.798
G27  21034717.320   110538177.808 8      1891.374    21034716.520   110538177.807 8      1891.374    21034726.480    86133683.917 8      1473.798    21034726.800    86133684.921 8      1473.798
R14  19633758.380   104658965.547 8       449.329    19633758.220   104658965.534 8       449.329    19633772.980    81401483.230 8       349.478    19633773.360    81401481.232 8       349.478
G16  21001291.180   110362525.268 7       786.692    21001289.880   110362525.280 6       786.692    21001301.080    85996807.034 6       613.007
G10  22168882.440   116498260.202 8      2085.176    22168881.320   116498260.202 7      2085.176    22168895.780    90777864.063 7      1624.812    22168895.320    90777917.075 8      1624.812
G21  20813195.600   109374074.085 8      3548.810    20813193.980   109374074.090 6      3548.810    20813202.740    85226586.422 6      2765.307
R17  20341130.760   108849492.782 8      2539.835    20341129.960   108849492.800 7      2539.835    20341142.680    84660769.470 8      1975.427    20341142.420    84660769.468 8      1975.427
G08  21235429.320   111592926.718 7      3538.744    21235428.200   111592926.715 8      3538.744    21235437.820    86955563.923 7      2757.463    21235438.580    86955566.926 8      2757.463
R15  20242135.400   108167826.410 8      4645.362    20242133.220   108167826.408 7      4645.362    20242144.960    84130580.044 8      3613.060    20242145.200    84130578.052 8      3613.060
R01  23030407.600   123110733.362 6      4453.810    23030407.760   123110733.366 6      4453.810    23030437.020    95752926.163 6      3464.074    23030436.180    95752921.151 6      3464.074
R24  21393051.760   114398258.793 7       224.736    21393052.280   114398258.805 7       224.736    21393065.420    88976491.048 7       174.795    21393065.200    88976478.053 7       174.795
G23  23991275.000   126074995.247 7       261.696    23991274.640   126074995.251 5       261.696    23991287.600    98240302.723 5       203.919    23991287.960    98240313.739 7       203.919
G07  24047430.460   126370101.905 6      3543.917    24047428.520   126370101.916 5      3543.917    24047439.540    98470237.318 5      2761.493    24047439.060    98470244.321 7      2761.493
R18  22665768.860   120991423.080 7      4566.274    22665770.280   120991423.084 7      4566.274    22665788.360    94104514.530 7      3551.546    22665788.120    94104516.536 7      3551.546
> 2024 04 02 15 05 23.0000000  0 16
G02  22272720.400   117043932.675 7      4323.771    22272718.360   117043932.680 6      4323.771    22272729.000    91203103.917 6      3369.172
G26  23064904.840   121206899.196 7      -600.514    23064903.700   121206899.198 6      -600.514    23064922.460    94446995.570 6      -467.933    23064922.740    94447000.572 7      -467.933
R02  24003715.000   128088412.033 7      5754.809    24003714.620   128088412.028 6      5754.809    24003737.040    99624413.530 6      4475.963    24003737.040    99624415.534 6      4475.963
G27  21034357.380   110536286.347 8      1891.292    21034356.660   110536286.352 8      1891.292    21034366.480    86132210.056 8      1473.734    21034366.860    86132211.059 8      1473.734
R14  19633674.380   104658516.404 8       448.652    19633673.780   104658516.397 8       448.652    19633688.740    81401133.894 8       348.951    19633689.080    81401131.899 8       348.951
G16  21001141.640   110361738.631 7       786.310    21001140.160   110361738.638 6       786.310    21001151.300    85996194.066 6       612.709
G10  22168485.420   116496175.136 7      2084.671    22168484.560   116496175.140 7      2084.671    22168499.100    90776239.346 7      1624.419    22168498.660    90776292.360 8      1624.419
G21  20812520.320   109370525.257 7      3548.531    20812518.640   109370525.262 6      3548.531    20812527.520    85223821.103 6      2765.089
R17  20340656.320   108846952.930 8      2539.557    20340655.160   108846952.937 7      2539.557    20340668.000    84658794.022 8      1975.211    20340667.720    84658794.028 8      1975.211
G08  21234755.880   111589387.846 7      3538.643    21234754.780   111589387.851 7      3538.643    21234764.360    86952806.366 7      2757.384    21234764.960    86952809.370 8      2757.384
R15  20241266.160   108163181.097 8      4644.867    20241264.020   108163181.098 8      4644.867    20241275.480    84126967.029 8      3612.674    20241275.780    84126965.039 8      3612.674
R01  23029574.380   123106279.527 6      4453.499    23029574.680   123106279.528 6      4453.499    23029603.980    95749462.083 6      3463.833    23029603.040    95749457.080 6      3463.833
R24  21393009.880   114398033.866 7       224.833    21393010.240   114398033.876 7       224.833    21393023.540    88976316.100 7       174.870    21393023.360    88976303.103 7       174.870
G23  23991225.480   126074733.590 7       261.296    23991224.680   126074733.598 5       261.296    23991237.820    98240098.842 5       203.607    23991238.240    98240109.861 7       203.607
G07  24046755.840   126366557.925 6      3543.672    24046754.060   126366557.930 5      3543.672    24046765.100    98467475.777 5      2761.303    24046765.320    98467482.770 7      2761.303
R18  22664913.780   120986856.884 7      4565.939    22664914.920   120986856.892 7      4565.939    22664933.020    94100963.064 7      3551.286    22664932.880    94100965.071 8      3551.286
> 2024 04 02 15 05 24.0000000  0 16
G02  22271897.720   117039609.179 7      4323.434    22271895.620   117039609.181 6      4323.434    22271906.320    91199734.963 6      3368.910
G26  23065018.900   121207499.849 7      -600.602    23065018.060   121207499.849 6      -600.602    23065036.740    94447463.614 6      -468.002    23065037.340    94447468.614 7      -468.002
R02  24002636.680   128082657.241 7      5755.064    24002636.260   128082657.241 6      5755.064    24002658.760    99619937.583 6      4476.161    24002658.700    99619939.585 6      4476.161
G27  21033997.580   110534395.123 8      1891.322    21033996.760   110534395.128 8      1891.322    21034006.580    86130736.377 8      1473.758    21034007.120    86130737.378 8      1473.758
R14  19633590.120   104658068.106 8       448.072    19633589.880   104658068.099 8       448.072    19633604.600    81400785.216 8       348.500    19633605.140    81400783.219 8       348.500
G16  21000992.040   110360952.533 7       786.067    21000990.780   110360952.543 6       786.067    21001001.760    85995581.518 6       612.520
G10  22168088.740   116494090.747 8      2084.232    22168087.960   116494090.749 7      2084.232    22168102.500    90774615.151 7      1624.077    22168101.980    90774668.169 8      1624.077
G21  20811845.160   109366977.020 8      3548.107    20811843.380   109366977.028 6      3548.107    20811852.300    85221056.250 6      2764.759
R17  20340181.680   108844413.448 8      2539.498    20340180.600   108844413.455 7      2539.498    20340193.540    84656818.873 8      1975.165    20340193.360    84656818.879 8      1975.165
G08  21234082.380   111585849.139 7      3538.862    21234081.420   111585849.139 7      3538.862    21234091.000    86950048.936 7      2757.555    21234091.580    86950051.940 8      2757.555
R15  20240396.800   108158536.639 8      4644.281    20240394.740   108158536.637 8      4644.281    20240406.480    84123354.677 8      3612.219    20240406.600    84123352.681 8      3612.219
R01  23028741.460   123101826.293 6      4453.179    23028741.200   123101826.289 6      4453.179    23028770.740    95745998.478 6      3463.584    23028769.860    95745993.466 6      3463.584
R24  21392967.700   114397809.033 7       225.057    21392967.760   114397809.045 7       225.057    21392981.440    88976141.238 7       175.045    21392981.620    88976128.241 8       175.045
G23  23991175.780   126074472.444 7       261.120    23991174.880   126074472.452 5       261.120    23991188.220    98239895.357 5       203.470    23991188.380    98239906.375 7       203.470
G07  24046081.580   126363014.547 6      3543.422    24046079.860   126363014.549 5      3543.422    24046090.780    98464714.699 5      2761.108    24046091.060    98464721.691 7      2761.108
R18  22664058.540   120982291.093 7      4565.819    22664059.920   120982291.107 7      4565.819    22664077.560    94097411.910 7      3551.193    22664077.600    94097413.916 8      3551.193
> 2024 04 02 15 05 25.0000000  0 16
G02  22271074.880   117035285.701 7      4323.389    22271072.800   117035285.700 6      4323.389    22271083.680    91196366.027 6      3368.874
G26  23065133.240   121208100.400 7      -600.659    23065132.320   121208100.399 6      -600.659    23065151.020    94447931.575 6      -468.046    23065151.440    94447936.575 7      -468.046
R02  24001558.260   128076902.006 7      5755.393    24001557.540   128076902.017 6      5755.393    24001580.280    99615461.292 6      4476.417    24001580.380    99615463.297 6      4476.417
G27  21033637.680   110532503.733 8      1891.374    21033636.800   110532503.738 8      1891.374    21033646.760    86129262.565 8      1473.798    21033647.220    86129263.568 8      1473.798
R14  19633506.140   104657620.278 8       447.507    19633505.900   104657620.268 8       447.507    19633520.620    81400436.897 8       348.061    19633520.980    81400434.900 8       348.061
G16  21000842.600   110360166.590 7       785.739    21000841.240   110360166.602 6       785.739    21000852.120    85994969.090 6       612.265
G10  22167692.220   116492006.615 7      2083.813    22167691.200   116492006.623 7      2083.813    22167705.760    90772991.165 7      1623.751    22167705.360    90773044.177 8      1623.751
G21  20811170.060   109363428.951 8      3547.928    20811168.260   109363428.959 6      3547.928    20811177.100    85218291.527 6      2764.619
R17  20339707.000   108841873.912 7      2539.440    20339706.020   108841873.924 7      2539.440    20339718.980    84654843.686 8      1975.120    20339718.720    84654843.691 8      1975.120
G08  21233408.960   111582310.256 8      3538.858    21233407.880   111582310.253 7      3538.858    21233417.540    86947291.371 7      2757.551    21233418.160    86947294.373 8      2757.551
R15  20239527.920   108153892.605 8      4643.712    20239525.640   108153892.604 8      4643.712    20239537.380    84119742.649 8      3611.776    20239537.480    84119740.655 8      3611.776
R01  23027908.140   123097373.232 6      4452.824    23027908.000   123097373.234 6      4452.824    23027938.500    95742535.011 6      3463.308    23027936.760    95742530.006 6      3463.308
R24  21392925.520   114397583.940 7       225.165    21392925.820   114397583.941 7       225.165    21392939.340    88975966.151 7       175.128    21392939.520    88975953.146 7       175.128
G23  23991126.220   126074211.455 7       260.862    23991125.180   126074211.463 5       260.862    23991138.580    98239691.989 5       203.269    23991138.760    98239703.003 7       203.269
G07  24045407.220   126359471.368 6      3542.927    24045405.660   126359471.370 6      3542.927    24045416.660    98461953.785 5      2760.722    24045417.300    98461960.777 7      2760.722
R18  22663203.400   120977725.302 7      4565.696    22663204.700   120977725.319 7      4565.696    22663222.480    94093860.758 7      3551.097    22663222.380    94093862.764 7      3551.097
> 2024 04 02 15 05 26.0000000  0 16
G02  22270252.220   117030962.336 7      4323.345    22270250.100   117030962.338 6      4323.345    22270260.960    91192997.183 6      3368.840
G26  23065247.440   121208700.906 7      -600.471    23065246.560   121208700.903 7      -600.471    23065265.260    94448399.506 6      -467.900    23065265.600    94448404.504 7      -467.900
R02  24000479.600   128071146.419 7      5755.744    24000479.240   128071146.428 6      5755.744    24000501.360    99610984.716 6      4476.690    24000501.740    99610986.721 6      4476.690
G27  21033277.860   110530612.228 7      1891.557    21033276.820   110530612.233 8      1891.557    21033286.940    86127788.670 8      1473.941    21033287.100    86127789.672 8      1473.941
R14  19633422.180   104657172.977 8       447.002    19633421.980   104657172.967 8       447.002    19633436.860    81400088.988 8       347.668    19633437.180    81400086.991 8       347.668
G16  21000693.000   110359380.831 7       785.663    21000691.740   110359380.843 6       785.663    21000702.640    85994356.806 6       612.205
G10  22167295.620   116489922.797 7      2083.653    22167294.740   116489922.799 7      2083.653    22167309.220    90771367.408 7      1623.626    22167308.780    90771420.418 8      1623.626
G21  20810494.800   109359881.117 7      3547.713    20810493.080   109359881.122 6      3547.713    20810501.860    85215526.989 6      2764.452
R17  20339232.960   108839334.400 8      2539.505    20339231.520   108839334.417 7      2539.505    20339244.360    84652868.517 8      1975.171    20339244.120    84652868.517 8      1975.171
G08  21232735.380   111578771.203 7      3539.178    21232734.500   111578771.205 7      3539.178    21232744.140    86944533.665 7      2757.801    21232744.880    86944536.673 8      2757.801
R15  20238658.860   108149249.016 8      4643.380    20238656.860   108149249.017 7      4643.380    20238668.680    84116130.972 8      3611.518    20238668.640    84116128.976 8      3611.518
R01  23027075.240   123092920.405 6      4452.760    23027075.200   123092920.403 6      4452.760    23027104.940    95739071.709 6      3463.258    23027104.080    95739066.706 6      3463.258
R24  21392883.300   114397358.524 7       225.586    21392883.580   114397358.522 7       225.586    21392897.160    88975790.827 7       175.456    21392897.440    88975777.820 7       175.456
G23  23991076.880   126073950.632 7       260.756    23991075.600   126073950.637 5       260.756    23991088.900    98239488.751 5       203.186    23991089.280    98239499.772 7       203.186
G07  24044732.700   126355928.384 6      3543.007    24044731.600   126355928.383 6      3543.007    24044742.500    98459193.020 5      2760.785    24044742.640    98459200.016 7      2760.785
R18  22662347.880   120973159.524 7      4565.872    22662349.100   120973159.528 7      4565.872    22662367.060    94090309.589 7      3551.234    22662366.960    94090311.598 7      3551.234
> 2024 04 02 15 05 27.0000000  0 16
G02  22269429.500   117026639.118 7      4323.068    22269427.500   117026639.120 6      4323.068    22269438.280    91189628.450 6      3368.624
G26  23065361.760   121209301.391 7      -600.519    23065360.760   121209301.393 6      -600.519    23065379.560    94448867.412 6      -467.937    23065380.280    94448872.408 7      -467.937
R02  23999400.680   128065390.461 7      5755.952    23999400.680   128065390.459 6      5755.952    23999422.920    99606507.856 6      4476.852    23999422.780    99606509.855 6      4476.852
G27  21032917.820   110528720.636 8      1891.549    21032916.980   110528720.641 8      1891.549    21032926.860    86126314.694 8      1473.934    21032927.200    86126315.696 8      1473.934
R14  19633338.600   104656726.183 8       446.423    19633338.260   104656726.175 8       446.423    19633353.020    81399741.475 8       347.218    19633353.500    81399739.478 8       347.218
G16  21000543.380   110358595.316 7       785.280    21000542.300   110358595.328 6       785.280    21000553.160    85993744.713 6       611.907
G10  22166899.320   116487839.325 8      2083.171    22166898.220   116487839.330 7      2083.171    22166912.820    90769743.929 8      1623.250    22166912.340    90769796.943 8      1623.250
G21  20809819.820   109356333.508 8      3547.392    20809817.940   109356333.513 6      3547.392    20809826.820    85212762.631 6      2764.202
R17  20338757.980   108836794.952 7      2539.300    20338757.260   108836794.970 7      2539.300    20338769.940    84650893.399 8      1975.011    20338769.580    84650893.399 8      1975.011
G08  21232061.980   111575232.049 7      3539.062    21232060.960   111575232.046 7      3539.062    21232070.700    86941775.879 7      2757.711    21232071.400    86941778.887 8      2757.711
R15  20237790.080   108144605.888 8      4642.833    20237787.880   108144605.887 8      4642.833    20237799.740    84112519.653 8      3611.092    20237799.640    84112517.657 8      3611.092
R01  23026242.480   123088467.818 6      4452.439    23026242.060   123088467.819 6      4452.439    23026272.260    95735608.607 6      3463.008    23026270.980    95735603.605 6      3463.008
R24  21392841.560   114397132.850 7       225.703    21392841.720   114397132.854 7       225.703    21392854.840    88975615.310 7       175.547    21392854.940    88975602.305 7       175.547
G23  23991027.460   126073690.017 7       260.366    23991026.140   126073690.024 5       260.366    23991039.320    98239285.682 5       202.882    23991039.540    98239296.703 7       202.882
G07  24044058.620   126352385.683 6      3542.709    24044057.420   126352385.691 6      3542.709    24044068.300    98456432.482 6      2760.553    24044068.500    98456439.478 7      2760.553
R18  22661492.960   120968593.781 7      4565.546    22661494.080   120968593.790 7      4565.546    22661511.960    94086758.475 7      3550.980    22661511.760    94086760.479 7      3550.980
> 2024 04 02 15 05 28.0000000  0 16
G02  22268606.860   117022315.937 7      4323.391    22268604.640   117022315.944 6      4323.391    22268615.440    91186259.750 6      3368.876
G26  23065475.880   121209901.789 7      -600.066    23065474.920   121209901.786 6      -600.066    23065493.820    94449335.257 6      -467.584    23065494.540    94449340.255 7      -467.584
R02  23998321.840   128059634.047 7      5756.927    23998321.420   128059634.045 6      5756.927    23998344.520    99602030.638 6      4477.610    23998344.100    99602032.642 7      4477.610
G27  21032557.960   110526828.857 8      1892.146    21032556.880   110526828.865 8      1892.146    21032566.900    86124840.583 8      1474.400    21032567.080    86124841.585 8      1474.400
R14  19633254.720   104656279.807 8       446.412    19633254.520   104656279.799 8       446.412    19633269.200    81399394.292 8       347.210    19633269.520    81399392.299 8       347.210
G16  21000393.960   110357809.922 7       785.533    21000392.700   110357809.929 6       785.533    21000403.780    85993132.709 6       612.104
G10  22166502.860   116485756.092 7      2083.441    22166501.720   116485756.100 7      2083.441    22166516.460    90768120.639 7      1623.461    22166515.880    90768173.651 8      1623.461
G21  20809144.800   109352786.070 7      3547.595    20809142.920   109352786.078 6      3547.595    20809151.700    85209998.399 6      2764.360
R17  20338283.380   108834255.483 8      2539.731    20338282.720   108834255.506 7      2539.731    20338295.340    84648918.261 8      1975.347    20338295.140    84648918.259 8      1975.347
G08  21231388.600   111571692.649 7      3539.699    21231387.340   111571692.649 7      3539.699    21231397.120    86939017.911 7      2758.207    21231397.920    86939020.921 8      2758.207
R15  20236921.200   108139963.180 8      4642.731    20236919.360   108139963.173 8      4642.731    20236930.940    84108908.656 8      3611.013    20236930.720    84108906.662 8      3611.013
R01  23025409.640   123084015.375 6      4452.674    23025409.640   123084015.382 6      4452.674    23025439.700    95732145.631 6      3463.191    23025438.260    95732140.634 6      3463.191
R24  21392798.920   114396906.862 7       226.393    21392799.740   114396906.869 7       226.393    21392812.180    88975439.537 7       176.083    21392812.640    88975426.536 7       176.083
G23  23990977.860   126073429.506 7       260.762    23990976.560   126073429.514 5       260.762    23990989.700    98239082.693 5       203.191    23990990.000    98239093.708 7       203.191
G07  24043384.980   126348843.235 6      3542.561    24043383.340   126348843.237 6      3542.561    24043394.180    98453672.123 6      2760.437    24043394.280    98453679.127 7      2760.437
R18  22660637.360   120964027.985 7      4566.145    22660638.560   120964028.002 7      4566.145    22660656.360    94083207.306 7      3551.446    22660656.360    94083209.314 7      3551.446
> 2024 04 02 15 05 29.0000000  0 16
G02  22267784.060   117017992.706 7      4322.963    22267782.080   117017992.713 6      4322.963    22267792.800    91182891.011 6      3368.542
G26  23065589.940   121210501.972 7      -600.339    23065589.220   121210501.972 6      -600.339    23065608.040    94449802.936 6      -467.796    23065608.720    94449807.934 7      -467.796
R02  23997243.040   128053877.132 7      5756.811    23997242.880   128053877.132 6      5756.811    23997265.600    99597553.039 6      4477.520    23997265.320    99597555.043 7      4477.520
G27  21032197.900   110524936.829 8      1891.909    21032196.940   110524936.834 8      1891.909    21032206.820    86123366.274 8      1474.215    21032207.040    86123367.277 8      1474.215
R14  19633170.840   104655833.748 8       445.571    19633170.720   104655833.748 8       445.571    19633185.540    81399047.359 8       346.555    19633185.860    81399045.362 8       346.555
G16  21000244.360   110357024.562 7       785.041    21000243.360   110357024.569 6       785.041    21000254.180    85992520.732 6       611.721
G10  22166106.560   116483673.049 7      2082.689    22166105.240   116483673.054 7      2082.689    22166120.000    90766497.493 7      1622.875    22166119.420    90766550.499 8      1622.875
G21  20808469.660   109349238.682 8      3547.079    20808467.760   109349238.692 6      3547.079    20808476.620    85207234.203 6      2763.958
R17  20337808.840   108831715.880 8      2539.426    20337808.080   108831715.898 7      2539.426    20337820.840    84646943.012 8      1975.109    20337820.460    84646943.012 8      1975.109
G08  21230714.840   111568152.939 7      3539.622    21230713.800   111568152.938 7      3539.622    21230723.580    86936259.701 7      2758.147    21230723.960    86936262.709 8      2758.147
R15  20236052.400   108135320.806 8      4641.957    20236050.440   108135320.802 8      4641.957    20236062.140    84105297.925 8      3610.411    20236062.200    84105295.930 8      3610.411
R01  23024576.840   123079562.991 6      4452.150    23024576.580   123079563.006 6      4452.150    23024606.340    95728682.688 6      3462.784    23024605.480    95728677.687 6      3462.784
R24  21392756.860   114396680.470 7       226.304    21392757.380   114396680.476 7       226.304    21392770.060    88975263.450 7       176.015    21392770.140    88975250.453 7       176.015
G23  23990928.120   126073169.038 7       260.141    23990926.960   126073169.050 5       260.141    23990940.100    98238879.742 5       202.707    23990940.420    98238890.762 7       202.707
G07  24042710.880   126345300.797 6      3542.181    24042709.320   126345300.789 5      3542.181    24042720.080    98450911.779 5      2760.141    24042720.180    98450918.788 7      2760.141
R18  22659781.960   120959462.109 7      4565.597    22659783.360   120959462.128 7      4565.597    22659800.940    94079656.090 7      3551.020    22659800.860    94079658.096 7      3551.020
> 2024 04 02 15 05 30.0000000  0 16
G02  22266961.480   117013669.622 7      4322.915    22266959.360   117013669.635 6      4322.915    22266970.240    91179522.387 6      3368.505
G26  23065703.880   121211102.168 7      -600.216    23065703.340   121211102.165 6      -600.216    23065722.200    94450270.617 6      -467.700    23065722.540    94450275.613 7      -467.700
R02  23996164.000   128048119.912 7      5757.225    23996164.040   128048119.905 6      5757.225    23996186.600    99593075.196 7      4477.842    23996186.600    99593077.195 7      4477.842
G27  21031837.940   110523044.704 8      1892.138    21031836.880   110523044.708 8      1892.138    21031846.920    86121891.890 8      1474.393    21031847.160    86121892.894 8      1474.393
R14  19633087.380   104655388.203 8       445.252    19633087.400   104655388.196 8       445.252    19633101.980    81398700.816 8       346.307    19633102.460    81398698.817 8       346.307
G16  21000095.020   110356239.454 7       784.935    21000094.040   110356239.457 6       784.935    21000104.840    85991908.954 6       611.638
G10  22165710.260   116481590.355 7      2082.437    22165709.020   116481590.357 7      2082.437    22165723.680    90764874.616 7      1622.678    22165723.260    90764927.624 8      1622.678
G21  20807794.840   109345691.562 7      3546.971    20807792.900   109345691.562 6      3546.971    20807801.620    85204470.215 6      2763.873
R17  20337334.240   108829176.331 8      2539.495    20337333.480   108829176.346 7      2539.495    20337346.220    84644967.809 8      1975.163    20337345.920    84644967.811 8      1975.163
G08  21230041.560   111564613.123 7      3539.788    21230040.160   111564613.120 7      3539.788    21230049.940    86933501.401 7      2758.277    21230050.560    86933504.407 8      2758.277
R15  20235183.980   108130678.972 8      4641.481    20235181.960   108130678.968 7      4641.481    20235193.620    84101687.611 8      3610.040    20235193.260    84101685.617 8      3610.040
R01  23023743.700   123075110.856 6      4452.006    23023743.520   123075110.878 6      4452.006    23023773.460    95725219.944 6      3462.672    23023772.740    95725214.944 6      3462.672
R24  21392714.420   114396453.853 7       226.650    21392715.040   114396453.862 7       226.650    21392727.680    88975087.190 7       176.283    21392727.600    88975074.189 8       176.283
G23  23990878.380   126072908.774 7       260.083    23990877.540   126072908.784 5       260.083    23990890.660    98238676.944 5       202.662    23990890.940    98238687.959 7       202.662
G07  24042036.860   126341758.667 6      3541.900    24042035.360   126341758.669 6      3541.900    24042046.040    98448151.688 6      2759.922    24042046.180    98448158.699 7      2759.922
R18  22658926.840   120954896.326 7      4565.638    22658928.040   120954896.343 7      4565.638    22658945.440    94076104.929 7      3551.052    22658945.840    94076106.938 7      3551.052
> 2024 04 02 15 05 31.0000000  0 16
G02  22266139.040   117009346.678 7      4322.885    22266136.700   117009346.685 6      4322.885    22266147.400    91176153.867 6      3368.482
G26  23065818.240   121211702.343 7      -600.206    23065817.700   121211702.345 7      -600.206    23065836.480    94450738.288 6      -467.693    23065836.780    94450743.286 7      -467.693
R02  23995085.380   128042362.270 7      5757.774    23995084.620   128042362.279 6      5757.774    23995108.180    99588597.045 7      4478.269    23995107.820    99588599.044 7      4478.269
G27  21031477.780   110521152.497 8      1892.253    21031476.740   110521152.499 8      1892.253    21031486.800    86120417.439 8      1474.483    21031487.080    86120418.440 8      1474.483
R14  19633004.000   104654943.128 8       444.855    19633003.900   104654943.129 8       444.855    19633018.600    81398354.651 8       345.999    19633018.960    81398352.653 8       345.999
G16  20999945.640   110355454.557 7       784.742    20999944.620   110355454.562 6       784.742    20999955.620    85991297.340 6       611.487
G10  22165314.020   116479507.989 7      2082.181    22165312.640   116479507.994 7      2082.181    22165327.440    90763251.994 7      1622.479    22165327.000    90763305.004 8      1622.479
G21  20807119.820   109342144.668 7      3546.824    20807117.800   109342144.667 6      3546.824    20807126.760    85201706.402 6      2763.759
R17  20336859.440   108826636.806 8      2539.610    20336859.080   108826636.820 7      2539.610    20336871.840    84642992.625 8      1975.253    20336871.380    84642992.623 8      1975.253
G08  21229367.780   111561073.166 7      3539.956    21229366.520   111561073.163 7      3539.956    21229376.300    86930742.997 7      2758.407    21229377.200    86930746.003 8      2758.407
R15  20234315.520   108126037.619 8      4641.016    20234313.520   108126037.620 7      4641.016    20234325.040    84098077.678 8      3609.679    20234324.840    84098075.682 8      3609.679
R01  23022910.960   123070658.987 6      4451.818    23022910.640   123070658.994 6      4451.818    23022940.940    95721757.384 6      3462.525    23022939.720    95721752.391 6      3462.525
R24  21392671.660   114396226.968 7       227.014    21392672.260   114396226.978 7       227.014    21392685.340    88974910.723 7       176.566    21392685.420    88974897.722 7       176.566
G23  23990828.980   126072648.721 7       259.816    23990828.120   126072648.726 5       259.816    23990841.340    98238474.309 5       202.454    23990841.600    98238485.320 7       202.454
G07  24041362.820   126338216.796 6      3541.789    24041361.340   126338216.801 6      3541.789    24041372.080    98445391.789 6      2759.836    24041372.780    98445398.785 7      2759.836
R18  22658071.660   120950330.596 7      4565.621    22658072.300   120950330.618 7      4565.621    22658089.780    94072553.825 7      3551.039    22658090.120    94072555.835 7      3551.039
> 2024 04 02 15 05 32.0000000  0 16
G02  22265316.160   117005023.849 7      4322.779    22265314.020   117005023.853 6      4322.779    22265324.860    91172785.437 6      3368.399
G26  23065932.600   121212302.486 7      -600.235    23065931.960   121212302.486 6      -600.235    23065950.560    94451205.937 6      -467.716    23065950.580    94451210.928 7      -467.716
R02  23994006.580   128036604.306 7      5758.232    23994005.560   128036604.302 6      5758.232    23994029.220    99584118.624 6      4478.625    23994028.880    99584120.621 7      4478.625
G27  21031117.540   110519260.185 8      1892.327    21031116.660   110519260.187 8      1892.327    21031126.640    86118942.910 8      1474.541    21031127.140    86118943.912 8      1474.541
R14  19632920.780   104654498.572 8       444.276    19632920.540   104654498.570 8       444.276    19632935.180    81398008.879 8       345.548    19632935.640    81398006.880 8       345.548
G16  20999796.400   110354669.873 7       784.504    20999795.260   110354669.883 6       784.504    20999806.200    85990685.895 6       611.302
G10  22164917.620   116477425.970 8      2081.752    22164916.520   116477425.975 7      2081.752    22164931.260    90761629.648 7      1622.144    22164930.900    90761682.657 8      1622.144
G21  20806444.800   109338598.010 7      3546.477    20806442.880   109338598.013 6      3546.477    20806451.860    85198942.777 6      2763.488
R17  20336384.740   108824097.382 8      2539.295    20336384.620   108824097.402 7      2539.295    20336397.120    84641017.526 8      1975.008    20336396.700    84641017.524 8      1975.008
G08  21228694.020   111557533.077 7      3540.029    21228692.980   111557533.074 7      3540.029    21228702.600    86927984.488 7      2758.464    21228703.480    86927987.494 8      2758.464
R15  20233446.880   108121396.757 8      4640.518    20233444.960   108121396.755 8      4640.518    20233456.360    84094468.121 8      3609.292    20233456.260    84094466.122 8      3609.292
R01  23022078.220   123066207.336 6      4451.456    23022078.400   123066207.345 6      4451.456    23022108.400    95718295.011 6      3462.244    23022106.980    95718290.010 6      3462.244
R24  21392628.960   114395999.852 7       227.224    21392629.840   114395999.866 7       227.224    21392642.720    88974734.078 7       176.730    21392643.100    88974721.077 7       176.730
G23  23990779.780   126072388.833 7       259.710    23990778.620   126072388.838 5       259.710    23990791.900    98238271.805 5       202.371    23990792.280    98238282.825 7       202.371
G07  24040688.760   126334675.184 6      3541.349    24040687.360   126334675.191 6      3541.349    24040698.240    98442632.079 6      2759.493    24040698.120    98442639.089 7      2759.493
R18  22657216.400   120945764.909 7      4565.624    22657216.960   120945764.923 7      4565.624    22657234.440    94069002.742 7      3551.041    22657234.960    94069004.750 7      3551.041
> 2024 04 02 15 05 33.0000000  0 16
G02  22264493.420   117000701.322 7      4322.449    22264491.520   117000701.329 6      4322.449    22264502.340    91169417.246 6      3368.142
G26  23066046.980   121212902.761 7      -600.232    23066046.180   121212902.764 6      -600.232    23066064.780    94451673.687 6      -467.713    23066064.880    94451678.683 7      -467.713
R02  23992927.740   128030846.145 7      5758.408    23992926.720   128030846.132 6      5758.408    23992949.800    99579640.048 6      4478.761    23992950.080    99579642.041 7      4478.761
G27  21030757.520   110517367.941 8      1892.349    21030756.640   110517367.946 8      1892.349    21030766.600    86117468.437 8      1474.557    21030767.300    86117469.436 8      1474.557
R14  19632837.680   104654054.731 8       443.567    19632837.240   104654054.724 8       443.567    19632851.960    81397663.657 8       344.997    19632852.360    81397661.659 8       344.997
G16  20999647.100   110353885.569 7       784.189    20999645.960   110353885.577 6       784.189    20999656.980    85990074.743 6       611.056
G10  22164521.400   116475344.443 8      2081.298    22164520.280   116475344.448 7      2081.298    22164535.060    90760007.682 7      1621.791    22164535.100    90760060.690 8      1621.791
G21  20805770.180   109335051.739 7      3546.185    20805768.200   109335051.746 6      3546.185    20805777.000    85196179.456 6      2763.261
R17  20335910.640   108821558.151 7      2539.191    20335910.000   108821558.166 7      2539.191    20335922.800    84639042.562 8      1974.926    20335922.020    84639042.560 8      1974.926
G08  21228020.520   111553993.006 7      3540.143    21228019.240   111553993.003 7      3540.143    21228029.020    86925225.992 7      2758.553    21228029.700    86925229.000 8      2758.553
R15  20232577.980   108116756.526 8      4639.938    20232576.660   108116756.535 7      4639.938    20232588.040    84090859.061 8      3608.841    20232588.220    84090857.062 8      3608.841
R01  23021245.280   123061756.072 6      4451.107    23021245.620   123061756.094 6      4451.107    23021275.780    95714832.948 6      3461.972    23021274.560    95714827.942 6      3461.972
R24  21392586.980   114395772.692 7       227.299    21392587.340   114395772.699 7       227.299    21392600.420    88974557.397 7       176.788    21392600.280    88974544.391 7       176.788
G23  23990730.300   126072129.347 7       259.329    23990729.200   126072129.355 5       259.329    23990742.600    98238069.617 5       202.074    23990743.020    98238080.638 7       202.074
G07  24040015.180   126331133.957 6      3541.144    24040013.740   126331133.962 6      3541.144    24040024.360    98439872.696 6      2759.333    24040024.620    98439879.696 7      2759.333
R18  22656361.020   120941199.409 7      4565.507    22656362.040   120941199.415 7      4565.507    22656379.040    94065451.795 7      3550.950    22656379.380    94065453.805 7      3550.950
> 2024 04 02 15 05 34.0000000  0 16
G02  22263670.880   116996378.884 7      4322.314    22263669.120   116996378.892 6      4322.314    22263679.760    91166049.119 6      3368.037
G26  23066161.260   121213502.994 7      -600.269    23066160.340   121213502.996 6      -600.269    23066179.040    94452141.405 6      -467.742    23066179.380    94452146.403 7      -467.742
R02  23991847.880   128025087.612 7      5758.623    23991847.600   128025087.608 6      5758.623    23991870.660    99575161.172 7      4478.929    23991870.580    99575163.165 7      4478.929
G27  21030397.560   110515475.571 8      1892.431    21030396.500   110515475.573 8      1892.431    21030406.560    86115993.857 8      1474.622    21030406.980    86115994.856 8      1474.622
R14  19632753.940   104653611.380 8       443.126    19632754.160   104653611.373 8       443.126    19632768.840    81397318.822 8       344.654    19632769.520    81397316.825 8       344.654
G16  20999497.940   110353101.444 7       784.019    20999496.860   110353101.454 6       784.019    20999507.700    85989463.737 6       610.924
G10  22164125.560   116473263.212 7      2081.118    22164124.260   116473263.217 7      2081.118    22164139.080    90758385.948 7      1621.650    22164138.840    90758438.956 8      1621.650
G21  20805095.120   109331505.683 7      3545.919    20805093.560   109331505.685 6      3545.919    20805102.140    85193416.308 6      2763.054
R17  20335435.720   108819018.920 7      2539.295    20335435.560   108819018.935 7      2539.295    20335448.240    84637067.609 8      1975.007    20335447.600    84637067.609 8      1975.007
G08  21227346.660   111550452.763 7      3540.312    21227345.700   111550452.760 7      3540.312    21227355.260    86922467.365 7      2758.685    21227356.360    86922470.370 8      2758.685
R15  20231710.000   108112116.783 8      4639.551    20231708.400   108112116.779 8      4639.551    20231719.740    84087250.360 8      3608.540    20231719.500    84087248.363 8      3608.540
R01  23020412.640   123057305.013 6      4451.098    23020412.980   123057305.023 6      4451.098    23020443.140    95711371.020 6      3461.965    23020441.840    95711366.012 6      3461.965
R24  21392544.380   114395545.241 7       227.682    21392544.380   114395545.245 7       227.682    21392557.880    88974380.490 7       177.086    21392557.880    88974367.485 7       177.086
G23  23990680.740   126071869.995 7       259.327    23990679.840   126071870.003 5       259.327    23990693.460    98237867.526 5       202.073    23990693.780    98237878.536 7       202.073
G07  24039340.980   126327592.978 6      3540.839    24039340.000   126327592.983 6      3540.839    24039350.360    98437113.505 6      2759.095    24039350.660    98437120.503 7      2759.095
R18  22655505.840   120936633.928 7      4565.473    22655506.500   120936633.937 7      4565.473    22655523.380    94061900.871 7      3550.923    22655524.140    94061902.880 7      3550.923
> 2024 04 02 15 05 35.0000000  0 16
G02  22262848.340   116992056.654 7      4322.062    22262846.760   116992056.659 6      4322.062    22262857.200    91162681.150 6      3367.841
G26  23066275.380   121214103.272 7      -600.388    23066274.620   121214103.274 6      -600.388    23066293.120    94452609.164 6      -467.835    23066293.400    94452614.164 7      -467.835
R02  23990768.920   128019328.765 7      5758.725    23990768.240   128019328.763 6      5758.725    23990791.000    99570682.056 7      4479.009    23990791.600    99570684.047 7      4479.009
G27  21030037.540   110513583.191 8      1892.289    21030036.280   110513583.193 8      1892.289    21030046.460    86114519.279 8      1474.511    21030046.640    86114520.278 8      1474.511
R14  19632671.240   104653168.626 8       442.417    19632670.920   104653168.621 8       442.417    19632685.760    81396974.456 8       344.102    19632686.240    81396972.456 8       344.102
G16  20999348.840   110352317.619 7       783.574    20999347.660   110352317.629 6       783.574    20999358.580    85988852.960 6       610.577
G10  22163729.540   116471182.426 7      2080.418    22163728.260   116471182.431 7      2080.418    22163743.180    90756764.566 7      1621.105    22163742.960    90756817.570 8      1621.105
G21  20804420.420   109327959.940 7      3545.458    20804418.760   109327959.945 6      3545.458    20804427.440    85190653.398 6      2762.694
R17  20334961.380   108816479.807 7      2538.993    20334960.640   108816479.830 7      2538.993    20334973.580    84635092.759 8      1974.772    20334973.120    84635092.764 8      1974.772
G08  21226672.960   111546912.466 7      3540.264    21226671.940   111546912.466 7      3540.264    21226681.660    86919708.700 7      2758.647    21226682.520    86919711.706 8      2758.647
R15  20230841.840   108107477.618 8      4638.788    20230840.260   108107477.614 8      4638.788    20230851.660    84083642.129 8      3607.946    20230851.540    84083640.134 8      3607.946
R01  23019580.120   123052854.316 6      4450.381    23019579.900   123052854.344 6      4450.381    23019610.260    95707909.404 6      3461.407    23019609.500    95707904.398 6      3461.407
R24  21392501.820   114395317.605 7       227.724    21392501.880   114395317.609 7       227.724    21392515.140    88974203.442 7       177.119    21392515.320    88974190.437 7       177.119
G23  23990631.440   126071610.943 7       258.818    23990630.600   126071610.948 5       258.818    23990644.160    98237665.676 5       201.676    23990644.460    98237676.687 7       201.676
G07  24038667.160   126324052.342 6      3540.475    24038666.200   126324052.339 6      3540.475    24038676.460    98434354.564 6      2758.812    24038677.120    98434361.553 7      2758.812
R18  22654650.640   120932068.604 7      4565.170    22654651.540   120932068.618 7      4565.170    22654668.040    94058350.085 7      3550.688    22654668.900    94058352.089 7      3550.688
> 2024 04 02 15 05 36.0000000  0 16
G02  22262025.940   116987734.595 7      4321.971    22262024.400   116987734.603 6      4321.971    22262034.580    91159313.324 6      3367.770
G26  23066389.600   121214703.586 7      -600.252    23066388.760   121214703.588 6      -600.252    23066407.280    94453076.946 6      -467.729    23066407.420    94453081.946 7      -467.729
R02  23989689.960   128013569.653 6      5759.229    23989689.220   128013569.649 6      5759.229    23989711.640    99566202.743 6      4479.401    23989712.100    99566204.736 7      4479.401
G27  21029677.240   110511690.750 8      1892.419    21029676.180   110511690.752 8      1892.419    21029686.380    86113044.654 8      1474.612    21029686.680    86113045.653 8      1474.612
R14  19632588.080   104652726.405 8       442.008    19632587.960   104652726.398 8       442.008    19632602.900    81396630.500 8       343.784    19632603.200    81396628.503 8       343.784
G16  20999199.740   110351534.048 7       783.448    20999198.620   110351534.059 6       783.448    20999209.520    85988242.384 6       610.479
G10  22163333.700   116469101.999 7      2080.156    22163332.280   116469102.007 7      2080.156    22163347.200    90755143.457 7      1620.901    22163346.960    90755196.463 8      1620.901
G21  20803745.840   109324414.475 7      3545.305    20803743.980   109324414.483 6      3545.305    20803752.700    85187890.700 6      2762.575
R17  20334486.880   108813940.798 8      2538.967    20334486.440   108813940.815 7      2538.967    20334499.220    84633117.973 8      1974.752    20334498.820    84633117.979 8      1974.752
G08  21225999.320   111543372.091 7      3540.407    21225998.220   111543372.093 7      3540.407    21226007.900    86916949.973 7      2758.759    21226008.900    86916952.972 8      2758.759
R15  20229973.860   108102839.006 8      4638.394    20229972.160   108102839.002 7      4638.394    20229983.640    84080034.319 8      3607.640    20229983.500    84080032.325 8      3607.640
R01  23018747.660   123048403.897 6      4450.277    23018746.960   123048403.919 6      4450.277    23018777.740    95704447.981 6      3461.327    23018777.240    95704442.982 6      3461.327
R24  21392459.160   114395089.775 7       228.019    21392459.300   114395089.776 7       228.019    21392472.300    88974026.236 7       177.348    21392472.840    88974013.231 7       177.348
G23  23990582.240   126071352.122 7       258.766    23990581.240   126071352.130 5       258.766    23990594.900    98237464.001 5       201.636    23990595.420    98237475.010 7       201.636
G07  24037993.740   126320512.009 6      3540.276    24037992.520   126320512.014 6      3540.276    24038002.760    98431595.869 6      2758.657    24038003.000    98431602.866 7      2758.657
R18  22653795.440   120927503.376 7      4565.355    22653796.200   120927503.385 7      4565.355    22653812.960    94054799.360 7      3550.831    22653813.700    94054801.366 7      3550.831
> 2024 04 02 15 05 37.0000000  0 16
G02  22261203.580   116983412.633 7      4321.837    22261201.900   116983412.638 6      4321.837    22261212.260    91155945.566 6      3367.665
G26  23066504.160   121215303.842 7      -600.247    23066502.980   121215303.844 6      -600.247    23066521.460    94453544.680 6      -467.725    23066521.760    94453549.682 7      -467.725
R02  23988610.580   128007810.115 7      5759.653    23988609.780   128007810.132 6      5759.653    23988632.080    99561723.127 7      4479.730    23988632.400    99561725.125 7      4479.730
G27  21029317.240   110509798.168 8      1892.594    21029316.060   110509798.175 8      1892.594    21029326.140    86111569.914 8      1474.748    21029326.360    86111570.913 8      1474.748
R14  19632505.640   104652284.640 8       441.523    19632505.200   104652284.636 8       441.523    19632519.980    81396286.899 8       343.407    19632520.360    81396284.904 8       343.407
G16  20999050.600   110350750.670 7       783.267    20999049.420   110350750.677 6       783.267    20999060.380    85987631.948 6       610.338
G10  22162937.660   116467021.854 7      2080.012    22162936.420   116467021.859 7      2080.012    22162951.460    90753522.569 7      1620.789    22162951.080    90753575.572 8      1620.789
G21  20803071.200   109320869.194 7      3545.137    20803069.440   109320869.202 6      3545.137    20803078.120    85185128.150 6      2762.444
R17  20334012.500   108811401.797 8      2539.033    20334012.020   108811401.812 7      2539.033    20334024.740    84631143.192 8      1974.804    20334024.520    84631143.197 8      1974.804
G08  21225325.560   111539831.534 7      3540.553    21225324.500   111539831.531 7      3540.553    21225334.100    86914191.099 7      2758.872    21225335.060    86914194.101 8      2758.872
R15  20229105.900   108098200.827 8      4637.984    20229104.240   108098200.825 7      4637.984    20229115.640    84076426.849 8      3607.321    20229115.420    84076424.854 8      3607.321
R01  23017915.480   123043953.715 6      4450.032    23017914.660   123043953.719 6      4450.032    23017945.700    95700986.737 6      3461.136    23017944.500    95700981.729 6      3461.136
R24  21392417.020   114394861.655 7       228.269    21392416.460   114394861.651 7       228.269    21392429.560    88973848.802 7       177.542    21392430.060    88973835.795 7       177.542
G23  23990532.740   126071093.456 7       258.548    23990532.060   126071093.466 5       258.548    23990545.720    98237262.447 5       201.466    23990546.100    98237273.459 7       201.466
G07  24037320.300   126316971.886 7      3539.997    24037319.000   126316971.883 6      3539.997    24037329.020    98428837.332 6      2758.440    24037328.860    98428844.337 7      2758.440
R18  22652940.680   120922938.148 7      4565.356    22652940.960   120922938.160 7      4565.356    22652957.640    94051248.632 7      3550.832    22652958.700    94051250.638 7      3550.832
> 2024 04 02 15 05 38.0000000  0 16
G02  22260381.240   116979090.866 7      4321.692    22260379.560   116979090.871 6      4321.692    22260389.760    91152577.967 6      3367.552
G26  23066618.140   121215904.146 7      -600.287    23066617.140   121215904.153 6      -600.287    23066635.620    94454012.457 6      -467.756    23066636.160    94454017.461 7      -467.756
R02  23987531.520   128002050.339 7      5760.071    23987531.000   128002050.345 6      5760.071    23987552.720    99557243.285 7      4480.055    23987552.940    99557245.286 7      4480.055
G27  21028956.880   110507905.585 8      1892.636    21028955.820   110507905.587 8      1892.636    21028966.060    86110095.174 8      1474.781    21028966.340    86110096.178 8      1474.781
R14  19632422.740   104651843.494 8       440.894    19632422.340   104651843.484 8       440.894    19632437.340    81395943.778 8       342.917    19632437.560    81395941.781 8       342.917
G16  20998901.680   110349967.577 7       783.035    20998900.420   110349967.590 6       783.035    20998911.280    85987021.747 6       610.157
G10  22162542.100   116464942.153 7      2079.547    22162540.780   116464942.158 7      2079.547    22162555.760    90751902.026 7      1620.427    22162555.540    90751955.030 8      1620.427
G21  20802396.800   109317324.239 7      3544.843    20802394.920   109317324.247 6      3544.843    20802403.580    85182365.855 6      2762.215
R17  20333537.960   108808862.983 8      2538.772    20333537.560   108808863.004 7      2538.772    20333550.400    84629168.568 8      1974.601    20333549.940    84629168.572 8      1974.601
G08  21224651.940   111536290.925 7      3540.599    21224650.720   111536290.928 7      3540.599    21224660.280    86911432.185 7      2758.908    21224661.180    86911435.183 8      2758.908
R15  20228237.940   108093563.230 8      4637.328    20228236.260   108093563.231 8      4637.328    20228247.640    84072819.835 8      3606.811    20228247.820    84072817.839 8      3606.811
R01  23017083.120   123039503.865 6      4449.575    23017082.400   123039503.874 6      4449.575    23017112.920    95697525.763 6      3460.780    23017111.740    95697520.758 6      3460.780
R24  21392374.040   114394633.364 7       228.269    21392373.480   114394633.376 7       228.269    21392387.000    88973671.257 7       177.543    21392387.200    88973658.252 7       177.543
G23  23990483.500   126070835.085 7       258.281    23990482.880   126070835.095 5       258.281    23990496.620    98237061.123 5       201.258    23990497.140    98237072.132 7       201.258
G07  24036646.260   126313432.123 7      3539.628    24036645.500   126313432.120 6      3539.628    24036655.540    98426079.081 6      2758.152    24036655.400    98426086.082 7      2758.152
R18  22652085.020   120918373.097 7      4564.876    22652085.180   120918373.108 7      4564.876    22652102.720    94047698.042 7      3550.459    22652103.180    94047700.050 7      3550.459
> 2024 04 02 15 05 39.0000000  0 16
G02  22259558.760   116974769.311 7      4321.463    22259557.160   116974769.316 6      4321.463    22259567.420    91149210.530 6      3367.374
G26  23066732.140   121216504.515 7      -600.439    23066731.580   121216504.525 6      -600.439    23066749.960    94454480.280 6      -467.875    23066750.640    94454485.282 7      -467.875
R02  23986451.660   127996290.331 6      5760.133    23986451.500   127996290.343 6      5760.133    23986473.160    99552763.273 6      4480.103    23986473.540    99552765.272 6      4480.103
G27  21028596.740   110506012.986 8      1892.587    21028595.840   110506012.989 8      1892.587    21028605.920    86108620.416 8      1474.743    21028606.180    86108621.417 8      1474.743
R14  19632340.040   104651402.936 8       440.290    19632339.960   104651402.929 8       440.290    19632354.620    81395601.116 8       342.448    19632355.080    81395599.119 8       342.448
G16  20998752.600   110349184.790 7       782.669    20998751.580   110349184.800 6       782.669    20998762.500    85986411.776 6       609.872
G10  22162146.280   116462862.867 8      2079.115    22162145.100   116462862.871 7      2079.115    22162160.140    90750281.809 7      1620.089    22162159.900    90750334.809 8      1620.089
G21  20801722.420   109313779.594 7      3544.500    20801720.300   109313779.602 6      3544.500    20801729.160    85179603.802 6      2761.948
R17  20333063.720   108806324.277 8      2538.724    20333063.060   108806324.292 7      2538.724    20333076.060    84627194.014 8      1974.563    20333075.640    84627194.016 8      1974.563
G08  21223978.080   111532750.251 7      3540.685    21223976.980   111532750.256 7      3540.685    21223986.580    86908673.220 7      2758.975    21223987.320    86908676.220 8      2758.975
R15  20227370.220   108088926.181 8      4636.760    20227368.640   108088926.180 7      4636.760    20227380.100    84069213.243 8      3606.369    20227379.980    84069211.251 8      3606.369
R01  23016250.440   123035054.317 6      4449.434    23016249.760   123035054.302 6      4449.434    23016280.700    95694065.005 6      3460.671    23016279.540    95694059.996 6      3460.671
R24  21392331.380   114394404.889 7       228.576    21392330.840   114394404.899 7       228.576    21392344.340    88973493.554 7       177.782    21392344.540    88973480.551 7       177.782
G23  23990434.520   126070576.991 7       257.939    23990433.760   126070576.994 5       257.939    23990447.600    98236860.013 5       200.991    23990448.000    98236871.018 8       200.991
G07  24035972.840   126309892.694 7      3539.210    24035971.940   126309892.691 6      3539.210    24035982.200    98423321.076 6      2757.826    24035982.200    98423328.075 7      2757.826
R18  22651230.000   120913808.147 7      4564.789    22651229.580   120913808.153 7      4564.789    22651247.480    94044147.532 7      3550.392    22651248.000    94044149.538 7      3550.392
> 2024 04 02 15 05 40.0000000  0 16
G02  22258736.240   116970447.828 7      4321.407    22258734.760   116970447.835 6      4321.407    22258744.980    91145843.150 6      3367.330
G26  23066846.360   121217104.809 7      -600.319    23066845.700   121217104.813 6      -600.319    23066864.080    94454948.034 6      -467.781    23066864.780    94454953.024 7      -467.781
R02  23985372.180   127990529.843 7      5760.647    23985371.760   127990529.849 6      5760.647    23985393.800    99548282.905 7      4480.504    23985393.740    99548284.911 6      4480.504
G27  21028236.700   110504120.225 7      1892.737    21028235.540   110504120.230 8      1892.737    21028245.780    86107145.537 8      1474.860    21028245.940    86107146.541 8      1474.860
R14  19632257.380   104650962.837 8       439.806    19632257.500   104650962.832 8       439.806    19632272.000    81395258.815 8       342.072    19632272.320    81395256.818 8       342.072
G16  20998603.900   110348402.163 7       782.420    20998602.580   110348402.168 6       782.420    20998613.720    85985801.931 6       609.678
G10  22161750.620   116460783.846 7      2078.851    22161749.360   116460783.851 7      2078.851    22161764.440    90748661.797 7      1619.884    22161764.260    90748714.801 8      1619.884
G21  20801047.800   109310235.126 7      3544.307    20801045.820   109310235.128 6      3544.307    20801054.660    85176841.887 6      2761.798
R17  20332589.620   108803785.520 7      2538.684    20332588.480   108803785.532 7      2538.684    20332601.660    84625219.427 8      1974.532    20332601.200    84625219.431 8      1974.532
G08  21223304.180   111529209.387 7      3540.879    21223303.140   111529209.389 7      3540.879    21223312.860    86905914.101 7      2759.126    21223313.520    86905917.107 8      2759.126
R15  20226502.380   108084289.581 8      4636.280    20226500.640   108084289.577 7      4636.280    20226512.480    84065606.997 8      3605.996    20226512.480    84065605.002 8      3605.996
R01  23015418.100   123030604.924 6      4449.346    23015417.400   123030604.922 6      4449.346    23015448.300    95690604.397 6      3460.602    23015446.880    95690599.396 6      3460.602
R24  21392288.520   114394176.123 7       228.835    21392287.760   114394176.124 7       228.835    21392301.420    88973315.614 7       177.983    21392301.560    88973302.615 7       177.983
G23  23990385.320   126070319.022 7       257.760    23990384.480   126070319.027 5       257.760    23990398.680    98236659.000 5       200.852    23990398.800    98236670.011 8       200.852
G07  24035299.340   126306353.441 6      3539.107    24035298.320   126306353.443 6      3539.107    24035308.680    98420563.208 6      2757.746    24035308.720    98420570.217 7      2757.746
R18  22650375.000   120909243.156 7      4565.053    22650374.200   120909243.165 7      4565.053    22650392.600    94040596.998 7      3550.597    22650392.780    94040599.004 7      3550.597
> 2024 04 02 15 05 41.0000000  0 16
G02  22257914.040   116966126.489 7      4321.361    22257912.340   116966126.499 6      4321.361    22257922.740    91142475.881 6      3367.294
G26  23066961.000   121217705.078 7      -600.074    23066960.020   121217705.078 6      -600.074    23066978.200    94455415.771 6      -467.590    23066978.540    94455420.767 7      -467.590
R02  23984292.560   127984769.083 7      5761.050    23984292.260   127984769.086 6      5761.050    23984314.320    99543802.308 7      4480.816    23984314.500    99543804.307 7      4480.816
G27  21027876.420   110502227.375 8      1893.020    21027875.340   110502227.379 8      1893.020    21027885.560    86105670.589 8      1475.081    21027885.960    86105671.592 8      1475.081
R14  19632175.000   104650523.268 8       439.474    19632174.920   104650523.266 8       439.474    19632189.540    81394916.926 8       341.813    19632189.860    81394914.929 8       341.813
G16  20998454.700   110347619.751 7       782.432    20998453.720   110347619.759 6       782.432    20998464.840    85985192.257 6       609.687
G10  22161355.340   116458705.188 7      2078.594    22161353.680   116458705.198 7      2078.594    22161368.940    90747042.070 7      1619.684    22161368.600    90747095.069 8      1619.684
G21  20800373.300   109306690.912 8      3544.209    20800371.440   109306690.914 6      3544.209    20800380.200    85174080.166 6      2761.721
R17  20332115.360   108801246.784 7      2538.824    20332114.180   108801246.793 7      2538.824    20332127.260    84623244.857 8      1974.641    20332126.420    84623244.863 8      1974.641
G08  21222630.500   111525668.405 7      3541.222    21222629.240   111525668.407 7      3541.222    21222638.960    86903154.900 7      2759.393    21222639.480    86903157.902 8      2759.393
R15  20225635.140   108079653.494 8      4635.956    20225633.060   108079653.487 7      4635.956    20225644.820    84062001.160 8      3605.744    20225644.900    84061999.163 8      3605.744
R01  23014585.660   123026155.822 6      4449.183    23014585.320   123026155.826 6      4449.183    23014615.880    95687144.016 6      3460.476    23014614.900    95687139.009 6      3460.476
R24  21392245.660   114393947.140 7       229.246    21392244.840   114393947.138 7       229.246    21392259.260    88973137.512 7       178.303    21392259.040    88973124.511 7       178.303
G23  23990336.160   126070061.260 7       257.887    23990335.300   126070061.262 5       257.887    23990349.720    98236458.144 5       200.951    23990349.860    98236469.151 8       200.951
G07  24034625.860   126302814.453 7      3539.139    24034624.920   126302814.447 6      3539.139    24034635.340    98417805.566 6      2757.770    24034635.480    98417812.558 7      2757.770
R18  22649519.840   120904678.273 7      4564.967    22649518.400   120904678.284 7      4564.967    22649537.540    94037046.546 7      3550.530    22649537.680    94037048.554 7      3550.530
> 2024 04 02 15 05 42.0000000  0 16
G02  22257091.840   116961805.346 7      4321.053    22257090.000   116961805.357 6      4321.053    22257100.580    91139108.764 6      3367.054
G26  23067075.280   121218305.405 7      -600.274    23067074.280   121218305.402 6      -600.274    23067092.700    94455883.556 6      -467.746    23067093.080    94455888.552 7      -467.746
R02  23983213.020   127979008.010 7      5761.223    23983212.540   127979008.016 7      5761.223    23983234.680    99539321.476 7      4480.951    23983234.920    99539323.475 7      4480.951
G27  21027516.260   110500334.519 7      1892.924    21027515.140   110500334.521 8      1892.924    21027525.460    86104195.634 8      1475.005    21027525.600    86104196.633 8      1475.005
R14  19632092.720   104650084.275 8       438.809    19632092.740   104650084.267 8       438.809    19632107.160    81394575.474 8       341.296    19632107.660    81394573.475 8       341.296
G16  20998306.020   110346837.642 7       782.031    20998304.740   110346837.649 6       782.031    20998316.100    85984582.817 6       609.375
G10  22160959.840   116456626.937 8      2078.051    22160958.240   116456626.944 7      2078.051    22160973.380    90745422.658 7      1619.261    22160973.160    90745475.659 8      1619.261
G21  20799698.760   109303147.002 8      3543.828    20799697.040   109303147.012 6      3543.828    20799705.660    85171318.674 6      2761.425
R17  20331640.640   108798708.163 7      2538.595    20331639.860   108798708.169 7      2538.595    20331652.940    84621270.374 8      1974.463    20331652.300    84621270.380 8      1974.463
G08  21221956.780   111522127.354 7      3541.175    21221955.500   111522127.351 7      3541.175    21221965.160    86900395.640 7      2759.357    21221965.760    86900398.640 8      2759.357
R15  20224767.700   108075018.000 8      4635.246    20224765.620   108075017.993 8      4635.246    20224777.380    84058395.769 8      3605.191    20224777.520    84058393.775 8      3605.191
R01  23013753.460   123021707.049 7      4448.601    23013752.960   123021707.045 6      4448.601    23013784.120    95683683.872 6      3460.023    23013782.380    95683678.871 6      3460.023
R24  21392202.580   114393718.004 7       229.249    21392201.940   114393718.005 7       229.249    21392216.360    88972959.300 7       178.305    21392216.320    88972946.299 7       178.305
G23  23990287.540   126069803.797 7       257.291    23990286.000   126069803.797 5       257.291    23990300.700    98236257.524 5       200.486    23990301.160    98236268.535 8       200.486
G07  24033952.620   126299275.825 7      3538.579    24033951.640   126299275.830 6      3538.579    24033961.900    98415048.187 6      2757.334    24033962.500    98415055.198 7      2757.334
R18  22648664.500   120900113.504 7      4564.706    22648663.200   120900113.516 6      4564.706    22648682.820    94033496.182 7      3550.327    22648682.500    94033498.185 7      3550.327
> 2024 04 02 15 05 43.0000000  0 16
G02  22256269.900   116957484.598 7      4320.588    22256267.640   116957484.606 6      4320.588    22256278.140    91135741.955 6      3366.692
G26  23067189.720   121218905.975 7      -600.660    23067188.620   121218905.974 6      -600.660    23067206.920    94456351.536 6      -468.047    23067207.500    94456356.532 7      -468.047
R02  23982133.020   127973246.820 7      5761.287    23982132.700   127973246.832 7      5761.287    23982154.960    99534840.556 7      4481.001    23982155.340    99534842.554 7      4481.001
G27  21027156.200   110498441.831 8      1892.664    21027154.940   110498441.833 8      1892.664    21027165.240    86102720.808 8      1474.803    21027165.680    86102721.805 8      1474.803
R14  19632010.500   104649646.047 8       437.908    19632010.480   104649646.044 8       437.908    19632025.020    81394234.628 8       340.595    19632025.460    81394232.631 8       340.595
G16  20998157.260   110346056.005 7       781.461    20998155.980   110346056.015 6       781.461    20998167.180    85983973.744 6       608.931
G10  22160564.600   116454549.280 7      2077.462    22160562.820   116454549.282 7      2077.462    22160578.080    90743803.708 7      1618.802    22160577.680    90743856.710 8      1618.802
G21  20799024.500   109299603.608 8      3543.181    20799022.760   109299603.613 6      3543.181    20799031.560    85168557.608 6      2760.920
R17  20331166.500   108796169.908 8      2538.069    20331165.160   108796169.920 7      2538.069    20331178.500    84619296.182 8      1974.053    20331178.080    84619296.191 8      1974.053
G08  21221282.900   111518586.435 8      3540.924    21221281.680   111518586.440 7      3540.924    21221291.420    86897636.485 7      2759.162    21221292.080    86897639.488 8      2759.162
R15  20223900.400   108070383.233 8      4634.475    20223898.420   108070383.231 7      4634.475    20223910.080    84054790.958 8      3604.591    20223910.040    84054788.964 8      3604.591
R01  23012921.240   123017258.746 7      4448.104    23012920.680   123017258.753 6      4448.104    23012950.980    95680224.102 6      3459.636    23012950.080    95680219.105 6      3459.636
R24  21392159.760   114393488.901 7       229.076    21392159.000   114393488.899 7       229.076    21392173.600    88972781.102 7       178.170    21392173.660    88972768.097 7       178.170
G23  23990238.360   126069546.763 6       256.937    23990237.140   126069546.765 5       256.937    23990251.840    98236057.236 5       200.211    23990252.340    98236068.243 8       200.211
G07  24033279.500   126295737.715 7      3537.939    24033278.380   126295737.714 6      3537.939    24033288.640    98412291.235 6      2756.836    24033289.180    98412298.241 7      2756.836
R18  22647809.320   120895549.045 7      4564.383    22647808.280   120895549.051 7      4564.383    22647827.800    94029946.062 7      3550.076    22647827.400    94029948.068 7      3550.076
> 2024 04 02 15 05 44.0000000  0 16
G02  22255447.700   116953163.963 7      4320.587    22255445.380   116953163.971 6      4320.587    22255456.060    91132375.233 6      3366.691
G26  23067304.120   121219506.510 7      -600.517    23067302.760   121219506.506 6      -600.517    23067321.320    94456819.484 6      -467.935    23067321.480    94456824.480 7      -467.935
R02  23981053.600   127967485.291 7      5761.739    23981053.400   127967485.297 6      5761.739    23981075.200    99530359.351 7      4481.353    23981075.760    99530361.346 7      4481.353
G27  21026796.100   110496549.033 8      1892.820    21026794.740   110496549.038 8      1892.820    21026805.000    86101245.901 8      1474.925    21026805.460    86101246.900 8      1474.925
R14  19631928.400   104649208.357 8       437.376    19631928.420   104649208.352 8       437.376    19631942.960    81393894.196 8       340.182    19631943.200    81393892.199 8       340.182
G16  20998008.560   110345274.605 7       781.243    20998007.360   110345274.610 6       781.243    20998018.440    85983364.850 6       608.761
G10  22160169.260   116452471.972 7      2077.015    22160167.600   116452471.979 7      2077.015    22160182.800    90742185.033 7      1618.453    22160182.360    90742238.041 8      1618.453
G21  20798350.120   109296060.443 7      3542.978    20798348.400   109296060.455 6      3542.978    20798357.320    85165796.691 6      2760.762
R17  20330692.040   108793631.718 7      2538.131    20330691.180   108793631.728 7      2538.131    20330704.200    84617322.032 8      1974.102    20330703.800    84617322.037 8      1974.102
G08  21220609.040   111515045.392 7      3541.050    21220607.800   111515045.392 7      3541.050    21220617.500    86894877.233 7      2759.259    21220617.900    86894880.232 8      2759.259
R15  20223032.800   108065748.965 8      4634.066    20223031.340   108065748.964 7      4634.066    20223042.800    84051186.526 8      3604.274    20223042.940    84051184.532 8      3604.274
R01  23012089.540   123012810.727 6      4447.899    23012088.580   123012810.723 6      4447.899    23012119.400    95676764.541 6      3459.477    23012118.060    95676759.542 6      3459.477
R24  21392117.180   114393259.540 7       229.425    21392116.100   114393259.542 7       229.425    21392130.660    88972602.707 7       178.442    21392130.760    88972589.697 7       178.442
G23  23990189.360   126069289.941 7       256.805    23990188.060   126069289.941 5       256.805    23990202.980    98235857.117 5       200.108    23990203.140    98235868.120 8       200.108
G07  24032605.860   126292199.843 7      3537.918    24032605.260   126292199.843 6      3537.918    24032615.460    98409534.448 6      2756.819    24032616.120    98409541.456 7      2756.819
R18  22646954.620   120890984.677 7      4564.252    22646953.300   120890984.675 7      4564.252    22646972.840    94026396.004 7      3549.974    22646972.380    94026398.012 7      3549.974
> 2024 04 02 15 05 45.0000000  0 16
G02  22254625.360   116948843.533 7      4320.473    22254623.300   116948843.541 6      4320.473    22254633.760    91129008.672 6      3366.603
G26  23067418.220   121220107.076 7      -600.421    23067417.020   121220107.076 6      -600.421    23067435.520    94457287.466 6      -467.861    23067435.780    94457292.466 7      -467.861
R02  23979973.700   127961723.504 7      5762.056    23979973.620   127961723.507 6      5762.056    23979995.600    99525877.950 7      4481.599    23979995.880    99525879.943 7      4481.599
G27  21026435.700   110494656.211 7      1892.954    21026434.520   110494656.216 8      1892.954    21026444.900    86099770.975 8      1475.029    21026445.320    86099771.974 8      1475.029
R14  19631846.620   104648771.235 8       436.914    19631846.380   104648771.238 8       436.914    19631861.060    81393554.212 8       339.822    19631861.220    81393552.217 8       339.822
G16  20997859.940   110344493.454 7       781.110    20997858.700   110344493.459 6       781.110    20997869.800    85982756.159 6       608.657
G10  22159774.080   116450395.056 7      2076.798    22159772.340   116450395.063 7      2076.798    22159787.520    90740566.661 7      1618.284    22159787.040    90740619.667 8      1618.284
G21  20797675.700   109292517.584 7      3542.697    20797674.220   109292517.587 6      3542.697    20797683.000    85163036.043 6      2760.543
R17  20330217.980   108791093.643 7      2538.146    20330216.640   108791093.655 7      2538.146    20330229.960    84615347.980 8      1974.113    20330229.340    84615347.982 8      1974.113
G08  21219935.260   111511504.255 8      3541.278    21219934.000   111511504.255 7      3541.278    21219943.620    86892117.909 7      2759.437    21219944.140    86892120.913 8      2759.437
R15  20222165.700   108061115.251 8      4633.530    20222164.200   108061115.249 8      4633.530    20222175.660    84047582.532 8      3603.857    20222175.780    84047580.536 8      3603.857
R01  23011257.420   123008362.985 6      4447.598    23011256.080   123008362.992 6      4447.598    23011286.980    95673305.225 6      3459.243    23011286.020    95673300.221 6      3459.243
R24  21392074.040   114393029.996 7       229.784    21392072.880   114393029.994 7       229.784    21392088.000    88972424.166 7       178.721    21392087.820    88972411.158 7       178.721
G23  23990140.500   126069033.375 6       256.606    23990139.100   126069033.377 5       256.606    23990154.280    98235657.197 5       199.953    23990154.420    98235668.204 8       199.953
G07  24031932.900   126288662.343 7      3537.341    24031932.100   126288662.348 6      3537.341    24031942.160    98406777.952 6      2756.370    24031942.960    98406784.968 7      2756.370
R18  22646099.260   120886420.402 7      4564.326    22646098.840   120886420.395 7      4564.326    22646118.120    94022846.023 7      3550.031    22646117.820    94022848.029 7      3550.031
> 2024 04 02 15 05 46.0000000  0 16
G02  22253803.260   116944523.130 7      4320.314    22253801.200   116944523.137 6      4320.314    22253811.620    91125642.134 6      3366.478
G26  23067532.520   121220707.537 7      -600.496    23067531.440   121220707.542 6      -600.496    23067549.800    94457755.364 6      -467.919    23067549.820    94457760.362 7      -467.919
R02  23978893.740   127955961.231 7      5762.539    23978893.640   127955961.234 6      5762.539    23978915.640    99521396.182 7      4481.975    23978916.040    99521398.173 7      4481.975
G27  21026075.540   110492763.182 8      1893.125    21026074.280   110492763.189 8      1893.125    21026084.700    86098295.889 8      1475.162    21026084.960    86098296.888 8      1475.162
R14  19631764.600   104648334.531 8       436.470    19631764.520   104648334.526 8       436.470    19631778.880    81393214.546 8       339.476    19631779.320    81393212.551 8       339.476
G16  20997711.360   110343712.422 7       780.936    20997710.100   110343712.427 6       780.936    20997721.420    85982147.557 6       608.522
G10  22159378.660   116448318.363 7      2076.538    22159377.240   116448318.368 7      2076.538    22159392.380    90738948.463 7      1618.082    22159391.940    90739001.466 8      1618.082
G21  20797001.940   109288974.844 8      3542.551    20797000.140   109288974.849 6      3542.551    20797008.900    85160275.465 6      2760.429
R17  20329743.480   108788555.469 7      2538.172    20329742.240   108788555.476 7      2538.172    20329755.760    84613373.847 8      1974.134    20329755.140    84613373.849 8      1974.134
G08  21219261.180   111507962.895 7      3541.338    21219260.060   111507962.897 7      3541.338    21219269.760    86889358.416 7      2759.484    21219270.440    86889361.415 8      2759.484
R15  20221298.780   108056481.931 8      4633.003    20221297.020   108056481.933 8      4633.003    20221308.600    84043978.844 8      3603.446    20221308.600    84043976.849 8      3603.446
R01  23010424.600   123003915.375 6      4447.476    23010424.260   123003915.390 6      4447.476    23010455.180    95669845.997 6      3459.148    23010453.700    95669840.996 6      3459.148
R24  21392030.940   114392800.088 7       230.021    21392030.040   114392800.084 7       230.021    21392044.740    88972245.344 7       178.905    21392044.920    88972232.339 7       178.905
G23  23990091.760   126068776.921 7       256.369    23990089.980   126068776.921 5       256.369    23990105.440    98235457.361 5       199.768    23990105.580    98235468.362 8       199.768
G07  24031259.660   126285124.950 7      3537.334    24031258.960   126285124.955 6      3537.334    24031269.060    98404021.548 6      2756.364    24031270.020    98404028.558 7      2756.364
R18  22645244.400   120881856.111 7      4564.085    22645243.880   120881856.093 7      4564.085    22645263.160    94019296.023 7      3549.844    22645262.580    94019298.031 7      3549.844
> 2024 04 02 15 05 47.0000000  0 16
G02  22252981.180   116940202.855 7      4320.218    22252979.080   116940202.862 6      4320.218    22252989.620    91122275.692 6      3366.403
G26  23067646.820   121221307.978 7      -600.452    23067645.820   121221307.983 6      -600.452    23067664.160    94458223.237 6      -467.885    23067664.300    94458228.235 7      -467.885
R02  23977813.920   127950198.643 7      5762.846    23977814.000   127950198.649 6      5762.846    23977835.740    99516914.163 7      4482.214    23977836.060    99516916.158 7      4482.214
G27  21025715.020   110490870.089 7      1893.079    21025713.940   110490870.097 8      1893.079    21025724.420    86096820.750 8      1475.127    21025724.840    86096821.749 8      1475.127
R14  19631682.640   104647898.323 8       435.958    19631682.700   104647898.321 8       435.958    19631697.080    81392875.269 8       339.078    19631697.400    81392873.272 8       339.078
G16  20997562.740   110342931.621 7       780.728    20997561.440   110342931.631 6       780.728    20997572.780    85981539.138 6       608.359
G10  22158983.520   116446242.035 8      2076.111    22158982.020   116446242.043 7      2076.111    22158997.240    90737330.551 7      1617.749    22158996.720    90737383.559 8      1617.749
G21  20796327.800   109285432.367 8      3542.287    20796326.060   109285432.380 6      3542.287    20796334.900    85157515.089 6      2760.224
R17  20329269.000   108786017.319 8      2538.095    20329267.760   108786017.331 7      2538.095    20329281.320    84611399.736 8      1974.074    20329280.720    84611399.741 8      1974.074
G08  21218587.380   111504421.387 7      3541.642    21218586.100   111504421.389 7      3541.642    21218595.920    86886598.799 7      2759.721    21218596.580    86886601.797 8      2759.721
R15  20220431.620   108051849.104 8      4632.629    20220429.940   108051849.102 8      4632.629    20220441.620    84040375.535 8      3603.156    20220441.460    84040373.541 8      3603.156
R01  23009592.260   122999468.048 6      4447.181    23009591.620   122999468.065 6      4447.181    23009623.460    95666386.988 6      3458.919    23009621.720    95666381.993 6      3458.919
R24  21391987.640   114392569.941 7       230.314    21391986.320   114392569.937 7       230.314    21392001.540    88972066.341 7       179.133    21392001.780    88972053.334 7       179.133
G23  23990042.940   126068520.654 7       256.225    23990041.340   126068520.654 5       256.225    23990056.660    98235257.672 5       199.656    23990056.480    98235268.675 8       199.656
G07  24030586.380   126281587.870 7      3536.902    24030585.900   126281587.874 6      3536.902    24030596.040    98401265.379 6      2756.028    24030596.740    98401272.394 7      2756.028
R18  22644389.100   120877291.839 7      4564.157    22644388.920   120877291.829 7      4564.157    22644407.980    94015746.054 7      3549.900    22644407.680    94015748.060 7      3549.900
> 2024 04 02 15 05 48.0000000  0 16
G02  22252158.980   116935882.845 7      4319.828    22252157.000   116935882.853 6      4319.828    22252167.560    91118909.457 6      3366.100
G26  23067760.740   121221908.528 7      -600.704    23067760.200   121221908.528 6      -600.704    23067778.320    94458691.207 6      -468.081    23067778.620    94458696.211 7      -468.081
R02  23976734.260   127944435.833 7      5762.984    23976733.960   127944435.834 6      5762.984    23976756.000    99512431.959 7      4482.321    23976756.100    99512433.948 7      4482.321
G27  21025354.940   110488977.013 8      1892.925    21025353.800   110488977.018 8      1892.925    21025364.220    86095345.625 8      1475.007    21025364.300    86095346.623 8      1475.007
R14  19631601.000   104647462.763 8       435.148    19631601.020   104647462.761 8       435.148    19631615.300    81392536.491 8       338.449    19631615.680    81392534.496 8       338.449
G16  20997414.320   110342151.172 7       780.232    20997412.960   110342151.180 6       780.232    20997424.180    85980930.992 6       607.973
G10  22158588.460   116444166.170 8      2075.499    22158586.980   116444166.175 7      2075.499    22158602.280    90735712.998 7      1617.272    22158601.900    90735766.004 8      1617.272
G21  20795653.460   109281890.239 7      3541.862    20795652.000   109281890.250 6      3541.862    20795660.740    85154754.995 6      2759.893
R17  20328794.920   108783479.308 7      2537.935    20328793.500   108783479.323 7      2537.935    20328807.120    84609425.732 8      1973.949    20328806.420    84609425.736 8      1973.949
G08  21217913.500   111500879.900 7      3541.480    21217912.300   111500879.897 7      3541.480    21217921.980    86883839.203 7      2759.595    21217922.860    86883842.203 8      2759.595
R15  20219564.840   108047216.934 8      4631.696    20219563.100   108047216.932 8      4631.696    20219574.800    84036772.738 8      3602.431    20219574.540    84036770.742 8      3602.431
R01  23008760.920   122995021.103 6      4446.662    23008760.000   122995021.102 6      4446.662    23008791.120    95662928.263 6      3458.515    23008789.780    95662923.260 6      3458.515
R24  21391944.680   114392339.710 7       230.262    21391943.420   114392339.711 7       230.262    21391958.240    88971887.268 7       179.092    21391958.760    88971874.265 7       179.092
G23  23989994.040   126068264.731 7       255.685    23989992.520   126068264.731 5       255.685    23990008.000    98235058.250 5       199.235    23990007.860    98235069.255 8       199.235
G07  24029914.000   126278051.149 7      3536.326    24029912.920   126278051.157 6      3536.326    24029923.000    98398509.499 6      2755.579    24029923.400    98398516.518 7      2755.579
R18  22643534.140   120872727.772 7      4563.830    22643534.180   120872727.762 7      4563.830    22643553.020    94012196.235 7      3549.646    22643552.560    94012198.241 7      3549.646
> 2024 04 02 15 05 49.0000000  0 16
G02  22251337.060   116931563.067 7      4319.753    22251334.960   116931563.071 6      4319.753    22251345.600    91115543.402 6      3366.041
G26  23067874.880   121222509.124 7      -600.462    23067874.540   121222509.131 6      -600.462    23067892.580    94459159.210 6      -467.892    23067892.880    94459164.210 7      -467.892
R02  23975654.160   127938672.757 7      5763.323    23975653.920   127938672.752 6      5763.323    23975676.000    99507949.568 6      4482.585    23975675.940    99507951.557 7      4482.585
G27  21024994.620   110487083.934 7      1893.180    21024993.480   110487083.936 8      1893.180    21025004.020    86093870.497 8      1475.205    21025004.100    86093871.498 8      1475.205
R14  19631519.300   104647027.813 8       434.786    19631519.580   104647027.811 8       434.786    19631533.700    81392198.191 8       338.167    19631534.020    81392196.191 8       338.167
G16  20997265.920   110341371.030 7       780.138    20997264.440   110341371.035 6       780.138    20997275.780    85980323.081 6       607.900
G10  22158193.580   116442090.715 7      2075.408    22158192.060   116442090.717 7      2075.408    22158207.240    90734095.762 7      1617.201    22158207.040    90734148.768 8      1617.201
G21  20794979.820   109278348.443 7      3541.739    20794977.900   109278348.458 6      3541.739    20794986.600    85151995.176 6      2759.797
R17  20328320.660   108780941.516 8      2537.784    20328319.360   108780941.529 7      2537.784    20328332.820    84607451.900 8      1973.832    20328332.320    84607451.903 8      1973.832
G08  21217239.520   111497338.361 8      3541.731    21217238.340   111497338.361 7      3541.731    21217247.980    86881079.567 7      2759.790    21217248.680    86881082.568 8      2759.790
R15  20218697.920   108042585.330 8      4631.426    20218696.460   108042585.328 7      4631.426    20218708.040    84033170.380 8      3602.220    20218708.060    84033168.386 8      3602.220
R01  23007929.100   122990574.460 6      4446.648    23007927.440   122990574.470 6      4446.648    23007959.160    95659469.792 6      3458.504    23007958.040    95659464.791 6      3458.504
R24  21391901.880   114392109.328 7       230.627    21391900.200   114392109.329 7       230.627    21391915.000    88971708.082 7       179.376    21391915.220    88971695.077 7       179.376
G23  23989945.540   126068009.076 7       255.690    23989943.720   126068009.084 5       255.690    23989959.320    98234859.040 5       199.239    23989959.280    98234870.043 8       199.239
G07  24029240.820   126274514.765 7      3536.416    24029239.960   126274514.767 6      3536.416    24029250.020    98395753.875 6      2755.649    24029250.660    98395760.880 7      2755.649
R18  22642679.160   120868163.841 7      4563.881    22642679.060   120868163.839 7      4563.881    22642698.180    94008646.526 7      3549.685    22642697.840    94008648.534 7      3549.685
> 2024 04 02 15 05 50.0000000  0 16
G02  22250514.920   116927243.270 7      4319.781    22250513.020   116927243.275 6      4319.781    22250523.580    91112177.341 6      3366.063
G26  23067989.320   121223109.614 7      -600.439    23067988.680   121223109.619 6      -600.439    23068006.760    94459627.120 6      -467.874    23068007.140    94459632.118 7      -467.874
R02  23974574.320   127932909.235 7      5763.679    23974573.900   127932909.238 6      5763.679    23974595.600    99503466.842 7      4482.861    23974595.820    99503468.837 7      4482.861
G27  21024634.460   110485190.639 7      1893.384    21024633.260   110485190.646 8      1893.384    21024643.700    86092395.204 8      1475.364    21024643.920    86092396.201 8      1475.364
R14  19631437.640   104646593.257 8       434.353    19631437.920   104646593.252 8       434.353    19631452.160    81391860.197 8       337.830    19631452.680    81391858.198 8       337.830
G16  20997117.560   110340590.976 7       779.993    20997116.120   110340590.981 6       779.993    20997127.200    85979715.242 6       607.787
G10  22157798.580   116440015.491 8      2075.137    22157797.220   116440015.493 7      2075.137    22157812.420    90732478.709 7      1616.990    22157811.920    90732531.712 8      1616.990
G21  20794305.700   109274806.770 7      3541.605    20794304.020   109274806.782 6      3541.605    20794312.520    85149235.439 6      2759.692
R17  20327846.320   108778403.693 8      2537.798    20327845.240   108778403.700 7      2537.798    20327858.580    84605478.033 8      1973.843    20327858.180    84605478.034 8      1973.843
G08  21216565.600   111493796.570 7      3541.831    21216564.300   111493796.572 7      3541.831    21216574.000    86878319.731 7      2759.869    21216574.780    86878322.731 8      2759.869
R15  20217831.580   108037954.103 8      4631.031    20217829.480   108037954.104 8      4631.031    20217841.300    84029568.321 8      3601.913    20217841.240    84029566.326 8      3601.913
R01  23007097.460   122986127.989 6      4446.385    23007096.480   122986127.993 6      4446.385    23007126.940    95656011.446 6      3458.299    23007126.000    95656006.445 6      3458.299
R24  21391858.640   114391878.578 7       230.887    21391857.320   114391878.587 7       230.887    21391871.600    88971528.616 7       179.579    21391872.080    88971515.609 7       179.579
G23  23989897.060   126067753.513 7       255.529    23989895.220   126067753.521 5       255.529    23989910.760    98234659.898 5       199.113    23989910.400    98234670.910 8       199.113
G07  24028567.920   126270978.536 7      3536.193    24028567.020   126270978.541 6      3536.193    24028577.160    98392998.383 6      2755.475    24028577.360    98393005.391 7      2755.475
R18  22641823.940   120863599.833 7      4563.936    22641823.940   120863599.839 7      4563.936    22641843.400    94005096.760 7      3549.728    22641842.920    94005098.773 7      3549.728
> 2024 04 02 15 05 51.0000000  0 16
G02  22249692.940   116922923.741 7      4319.457    22249691.020   116922923.746 6      4319.457    22249701.700    91108811.482 6      3365.811
G26  23068103.620   121223710.178 7      -600.469    23068102.980   121223710.178 6      -600.469    23068121.060    94460095.092 6      -467.898    23068121.320    94460100.084 7      -467.898
R02  23973494.560   127927145.452 7      5764.013    23973493.440   127927145.463 7      5764.013    23973515.480    99498983.891 7      4483.121    23973515.960    99498985.884 7      4483.121
G27  21024274.260   110483297.365 7      1893.366    21024272.900   110483297.373 8      1893.366    21024283.500    86090919.922 8      1475.350    21024283.780    86090920.925 8      1475.350
R14  19631356.380   104646159.333 8       433.672    19631356.580   104646159.329 8       433.672    19631370.760    81391522.694 8       337.300    19631371.500    81391520.695 8       337.300
G16  20996969.100   110339811.255 7       779.582    20996967.740   110339811.262 6       779.582    20996978.880    85979107.663 6       607.467
G10  22157403.820   116437940.735 8      2074.586    22157402.320   116437940.737 7      2074.586    22157417.560    90730862.020 7      1616.560    22157417.320    90730915.023 8      1616.560
G21  20793631.880   109271265.462 7      3541.148    20793630.180   109271265.469 6      3541.148    20793638.760    85146475.970 6      2759.336
R17  20327372.200   108775866.027 7      2537.625    20327370.920   108775866.037 7      2537.625    20327384.280    84603504.297 8      1973.708    20327383.820    84603504.296 8      1973.708
G08  21215891.600   111490254.760 7      3541.809    21215890.300   111490254.767 7      3541.809    21215900.140    86875559.885 7      2759.851    21215900.740    86875562.881 8      2759.851
R15  20216965.080   108033323.490 8      4630.347    20216963.100   108033323.492 7      4630.347    20216974.640    84025966.733 8      3601.381    20216974.800    84025964.739 8      3601.381
R01  23006265.500   122981681.862 6      4445.990    23006264.320   122981681.874 6      4445.990    23006295.840    95652553.366 6      3457.992    23006294.700    95652548.371 6      3457.992
R24  21391815.460   114391647.710 7       231.063    21391814.380   114391647.716 7       231.063    21391828.260    88971349.042 7       179.716    21391829.100    88971336.036 7       179.716
G23  23989848.600   126067498.279 6       255.203    23989846.720   126067498.286 5       255.203    23989862.240    98234461.012 5       198.859    23989862.000    98234472.020 8       198.859
G07  24027895.180   126267442.701 7      3535.670    24027894.300   126267442.706 6      3535.670    24027904.180    98390243.187 6      2755.068    24027904.360    98390250.191 7      2755.068
R18  22640969.200   120859036.031 7      4563.700    22640969.100   120859036.032 7      4563.700    22640988.060    94001547.142 7      3549.545    22640988.240    94001549.155 7      3549.545
> 2024 04 02 15 05 52.0000000  0 16
G02  22248871.120   116918604.231 7      4319.377    22248869.220   116918604.235 6      4319.377    22248879.720    91105445.634 6      3365.749
G26  23068217.820   121224310.629 7      -600.492    23068217.340   121224310.631 6      -600.492    23068235.320    94460562.976 6      -467.916    23068235.840    94460567.972 7      -467.916
R02  23972414.320   127921381.239 7      5764.397    23972413.220   127921381.245 6      5764.397    23972435.500    99494500.616 7      4483.420    23972435.640    99494502.607 7      4483.420
G27  21023913.960   110481403.905 7      1893.469    21023912.640   110481403.910 8      1893.469    21023923.160    86089444.496 8      1475.431    21023923.520    86089445.500 8      1475.431
R14  19631275.080   104645725.788 8       433.269    19631275.300   104645725.783 8       433.269    19631289.440    81391185.488 8       336.987    19631290.200    81391183.489 8       336.987
G16  20996820.760   110339031.641 7       779.459    20996819.420   110339031.651 6       779.459    20996830.520    85978500.166 6       607.371
G10  22157009.100   116435866.210 8      2074.264    22157007.540   116435866.212 7      2074.264    22157022.840    90729245.507 7      1616.310    22157022.400    90729298.512 8      1616.310
G21  20792958.180   109267724.274 8      3541.005    20792956.320   109267724.287 6      3541.005    20792965.060    85143716.601 6      2759.224
R17  20326897.860   108773328.244 7      2537.725    20326896.680   108773328.253 7      2537.725    20326910.180    84601530.468 8      1973.786    20326909.800    84601530.468 8      1973.786
G08  21215217.520   111486712.703 7      3542.145    21215216.240   111486712.703 7      3542.145    21215225.940    86872799.839 7      2760.113    21215226.560    86872802.837 8      2760.113
R15  20216098.740   108028693.244 8      4629.913    20216096.600   108028693.237 7      4629.913    20216108.180    84022365.426 8      3601.044    20216108.140    84022363.434 8      3601.044
R01  23005434.060   122977235.895 6      4445.864    23005432.700   122977235.902 6      4445.864    23005464.000    95649095.409 6      3457.894    23005463.120    95649090.412 6      3457.894
R24  21391772.480   114391416.497 7       231.275    21391771.160   114391416.506 7       231.275    21391784.900    88971169.209 7       179.881    21391785.540    88971156.208 7       179.881
G23  23989800.120   126067243.126 7       254.939    23989798.280   126067243.136 5       254.939    23989813.540    98234262.190 5       198.653    23989813.380    98234273.203 8       198.653
G07  24027222.460   126263907.011 7      3535.405    24027221.540   126263907.019 6      3535.405    24027231.440    98387488.099 6      2754.861    24027231.940    98387495.106 7      2754.861
R18  22640113.700   120854472.159 7      4563.735    22640113.720   120854472.157 7      4563.735    22640132.900    93997997.470 7      3549.572    22640133.000    93997999.483 8      3549.572
> 2024 04 02 15 05 53.0000000  0 16
G02  22248049.160   116914285.109 7      4318.881    22248047.260   116914285.117 6      4318.881    22248057.940    91102080.099 6      3365.362
G26  23068332.320   121224911.319 7      -600.941    23068331.620   121224911.326 6      -600.941    23068349.620    94461031.052 6      -468.266    23068350.120    94461036.054 7      -468.266
R02  23971333.840   127915616.932 7      5764.273    23971333.120   127915616.933 6      5764.273    23971354.960    99490017.256 7      4483.324    23971355.240    99490019.245 7      4483.324
G27  21023553.740   110479510.605 8      1893.188    21023552.320   110479510.618 8      1893.188    21023562.920    86087969.202 8      1475.212    21023563.180    86087970.203 8      1475.212
R14  19631193.940   104645293.040 8       432.242    19631194.100   104645293.035 8       432.242    19631208.300    81390848.898 8       336.188    19631208.860    81390846.901 8       336.188
G16  20996672.500   110338252.522 7       778.783    20996671.120   110338252.532 6       778.783    20996682.160    85977893.056 6       606.844
G10  22156614.480   116433792.268 8      2073.620    22156612.840   116433792.268 7      2073.620    22156628.100    90727629.454 7      1615.808    22156627.700    90727682.460 8      1615.808
G21  20792284.300   109264183.597 8      3540.350    20792282.560   109264183.602 6      3540.350    20792291.480    85140957.640 6      2758.715
R17  20326423.680   108770790.752 7      2537.205    20326422.700   108770790.764 7      2537.205    20326435.840    84599556.867 8      1973.382    20326435.440    84599556.868 8      1973.382
G08  21214543.740   111483170.791 7      3541.745    21214542.360   111483170.798 7      3541.745    21214551.960    86870039.914 7      2759.801    21214552.620    86870042.913 8      2759.801
R15  20215232.560   108024063.756 8      4628.982    20215230.180   108024063.749 7      4628.982    20215241.820    84018764.718 8      3600.319    20215241.860    84018762.723 8      3600.319
R01  23004602.580   122972790.442 6      4445.099    23004600.920   122972790.443 6      4445.099    23004632.480    95645637.848 6      3457.299    23004631.440    95645632.851 6      3457.299
R24  21391729.480   114391185.324 7       231.086    21391728.520   114391185.333 7       231.086    21391741.520    88970989.412 7       179.734    21391742.060    88970976.411 7       179.734
G23  23989751.700   126066988.430 7       254.428    23989750.020   126066988.438 5       254.428    23989765.080    98234063.728 5       198.256    23989764.860    98234074.731 8       198.256
G07  24026549.680   126260371.833 7      3534.780    24026548.820   126260371.838 6      3534.780    24026558.680    98384733.419 6      2754.374    24026558.760    98384740.432 7      2754.374
R18  22639258.740   120849908.580 6      4563.261    22639258.560   120849908.587 7      4563.261    22639277.960    93994448.041 7      3549.203    22639278.280    93994450.054 7      3549.203
> 2024 04 02 15 05 54.0000000  0 16
G02  22247227.100   116909966.161 7      4318.974    22247225.300   116909966.166 6      4318.974    22247235.920    91098714.691 6      3365.434
G26  23068446.520   121225512.006 7      -600.598    23068446.020   121225512.008 6      -600.598    23068463.880    94461499.118 6      -467.999    23068464.840    94461504.116 7      -467.999
R02  23970253.040   127909852.282 7      5764.920    23970252.760   127909852.280 7      5764.920    23970274.680    99485533.639 7      4483.827    23970275.140    99485535.633 7      4483.827
G27  21023193.340   110477617.260 8      1893.429    21023192.100   110477617.268 8      1893.429    21023202.620    86086493.862 8      1475.399    21023202.980    86086494.861 8      1475.399
R14  19631112.940   104644860.792 8       432.050    19631113.060   104644860.788 8       432.050    19631127.220    81390512.701 8       336.039    19631127.780    81390510.706 8       336.039
G16  20996524.440   110337473.652 7       778.716    20996522.900   110337473.665 6       778.716    20996533.920    85977286.142 6       606.792
G10  22156219.880   116431718.712 7      2073.441    22156218.220   116431718.715 7      2073.441    22156233.600    90726013.703 7      1615.669    22156233.220    90726066.711 8      1615.669
G21  20791610.640   109260643.182 7      3540.326    20791608.880   109260643.182 6      3540.326    20791617.540    85138198.894 6      2758.695
R17  20325949.480   108768253.348 8      2537.449    20325948.720   108768253.363 7      2537.449    20325961.880    84597583.333 8      1973.571    20325961.340    84597583.334 8      1973.571
G08  21213869.500   111479628.789 7      3542.011    21213868.200   111479628.786 8      3542.011    21213878.000    86867279.906 7      2760.009    21213878.660    86867282.908 8      2760.009
R15  20214365.920   108019434.832 8      4628.663    20214363.800   108019434.828 7      4628.663    20214375.600    84015164.446 8      3600.071    20214375.740    84015162.451 8      3600.071
R01  23003770.880   122968345.250 6      4445.157    23003769.280   122968345.262 6      4445.157    23003801.680    95642180.502 6      3457.344    23003799.820    95642175.501 6      3457.344
R24  21391685.940   114390953.953 7       231.543    21391685.720   114390953.954 7       231.543    21391698.280    88970809.447 7       180.089    21391699.020    88970796.446 7       180.089
G23  23989703.320   126066733.973 7       254.440    23989701.540   126066733.978 5       254.440    23989716.680    98233865.448 5       198.265    23989716.460    98233876.457 8       198.265
G07  24025876.960   126256836.955 7      3534.852    24025876.220   126256836.962 6      3534.852    24025886.060    98381978.968 6      2754.430    24025886.180    98381985.975 7      2754.430
R18  22638403.800   120845345.101 6      4563.546    22638403.580   120845345.104 7      4563.546    22638422.900    93990898.677 7      3549.425    22638423.400    93990900.689 7      3549.425
> 2024 04 02 15 05 55.0000000  0 16
G02  22246405.340   116905647.423 7      4318.586    22246403.480   116905647.428 6      4318.586    22246414.020    91095349.449 6      3365.132
G26  23068560.980   121226112.754 7      -600.735    23068560.260   121226112.756 6      -600.735    23068578.200    94461967.235 6      -468.105    23068578.880    94461972.233 7      -468.105
R02  23969172.900   127904087.383 7      5765.020    23969172.360   127904087.392 7      5765.020    23969194.600    99481049.829 7      4483.904    23969194.840    99481051.825 7      4483.904
G27  21022833.000   110475723.884 8      1893.379    21022831.740   110475723.892 8      1893.379    21022842.320    86085018.506 8      1475.360    21022842.680    86085019.505 8      1475.360
R14  19631031.860   104644429.115 8       431.379    19631032.200   104644429.111 8       431.379    19631046.220    81390176.951 8       335.517    19631046.580    81390174.951 8       335.517
G16  20996376.240   110336695.066 7       778.391    20996374.720   110336695.068 6       778.391    20996385.820    85976679.440 6       606.539
G10  22155825.240   116429645.569 7      2072.947    22155823.680   116429645.572 7      2072.947    22155838.980    90724398.273 7      1615.283    22155838.660    90724451.281 8      1615.283
G21  20790936.920   109257103.091 8      3539.890    20790935.260   109257103.104 6      3539.890    20790943.800    85135440.375 6      2758.355
R17  20325475.320   108765716.113 7      2537.188    20325474.340   108765716.120 7      2537.188    20325487.660    84595609.930 8      1973.368    20325486.980    84595609.931 8      1973.368
G08  21213195.660   111476086.698 7      3542.087    21213194.260   111476086.700 7      3542.087    21213203.880    86864519.850 7      2760.068    21213204.680    86864522.847 8      2760.068
R15  20213499.980   108014806.507 8      4627.977    20213497.620   108014806.497 7      4627.977    20213509.440    84011564.635 8      3599.537    20213509.420    84011562.645 8      3599.537
R01  23002939.660   122963900.382 6      4444.737    23002938.140   122963900.407 6      4444.737    23002969.280    95638723.418 6      3457.018    23002968.420    95638718.421 6      3457.018
R24  21391642.320   114390722.382 7       231.653    21391642.220   114390722.391 7       231.653    21391655.200    88970629.342 7       180.175    21391655.860    88970616.343 7       180.175
G23  23989655.140   126066479.779 7       254.091    23989653.280   126066479.787 5       254.091    23989668.240    98233667.381 5       197.993    23989668.160    98233678.388 8       197.993
G07  24025204.000   126253302.431 7      3534.319    24025203.640   126253302.431 6      3534.319    24025213.420    98379224.792 6      2754.015    24025213.500    98379231.805 7      2754.015
R18  22637549.300   120840781.792 7      4563.218    22637548.400   120840781.788 7      4563.218    22637568.100    93987349.447 7      3549.169    22637568.520    93987351.461 7      3549.169
> 2024 04 02 15 05 56.0000000  0 16
G02  22245583.860   116901329.087 7      4318.198    22245581.720   116901329.097 6      4318.198    22245592.360    91091984.525 6      3364.829
G26  23068675.320   121226713.759 7      -601.013    23068674.680   121226713.761 6      -601.013    23068692.580    94462435.551 6      -468.322    23068692.980    94462440.553 7      -468.322
R02  23968093.060   127898322.453 7      5765.094    23968091.920   127898322.451 7      5765.094    23968114.000    99476565.990 7      4483.962    23968114.720    99476567.984 7      4483.962
G27  21022472.740   110473830.692 7      1893.273    21022471.500   110473830.697 8      1893.273    21022482.060    86083543.287 8      1475.278    21022482.300    86083544.289 8      1475.278
R14  19630950.920   104643998.225 8       430.613    19630951.320   104643998.223 8       430.613    19630965.480    81389841.809 8       334.921    19630965.880    81389839.810 8       334.921
G16  20996228.160   110335916.968 7       777.980    20996226.620   110335916.971 6       777.980    20996237.680    85976073.126 6       606.218
G10  22155430.700   116427573.041 8      2072.328    22155429.420   116427573.043 7      2072.328    22155444.540    90722783.318 7      1614.801    22155444.400    90722836.328 8      1614.801
G21  20790263.360   109253563.491 7      3539.579    20790261.680   109253563.488 6      3539.579    20790270.360    85132682.262 6      2758.113
R17  20325001.220   108763179.189 7      2537.001    20325000.320   108763179.201 7      2537.001    20325013.520    84593636.769 8      1973.223    20325012.940    84593636.773 8      1973.223
G08  21212521.440   111472544.747 7      3542.095    21212520.140   111472544.746 7      3542.095    21212529.860    86861759.879 7      2760.074    21212530.560    86861762.881 8      2760.074
R15  20212633.860   108010178.924 8      4627.387    20212631.920   108010178.920 7      4627.387    20212643.480    84007965.412 8      3599.079    20212643.400    84007963.414 8      3599.079
R01  23002108.740   122959456.062 6      4444.246    23002106.880   122959456.071 6      4444.246    23002137.820    95635266.745 6      3456.635    23002136.780    95635261.740 6      3456.635
R24  21391599.060   114390490.826 7       231.731    21391598.780   114390490.841 7       231.731    21391611.640    88970449.248 7       180.236    21391612.680    88970436.247 7       180.236
G23  23989606.780   126066226.072 7       253.621    23989605.200   126066226.077 5       253.621    23989620.000    98233469.688 5       197.627    23989620.100    98233480.691 8       197.627
G07  24024531.660   126249768.412 7      3533.976    24024531.080   126249768.417 6      3533.976    24024541.000    98376471.017 6      2753.747    24024540.680    98376478.030 7      2753.747
R18  22636694.080   120836218.790 6      4563.013    22636693.980   120836218.794 7      4563.013    22636712.940    93983800.462 7      3549.010    22636713.420    93983802.479 7      3549.010
> 2024 04 02 15 05 57.0000000  0 16
G02  22244762.080   116897010.888 7      4318.191    22244759.900   116897010.898 6      4318.191    22244770.500    91088619.704 6      3364.824
G26  23068789.900   121227314.762 7      -600.954    23068789.000   121227314.761 6      -600.954    23068806.980    94462903.867 6      -468.276    23068807.320    94462908.863 7      -468.276
R02  23967012.660   127892557.189 7      5765.517    23967010.860   127892557.187 7      5765.517    23967033.440    99472081.894 7      4484.291    23967034.200    99472083.889 7      4484.291
G27  21022112.520   110471937.418 7      1893.370    21022111.200   110471937.429 8      1893.370    21022121.880    86082068.013 8      1475.353    21022122.220    86082069.012 8      1475.353
R14  19630870.220   104643567.904 8       430.111    19630870.560   104643567.897 8       430.111    19630884.640    81389507.107 8       334.531    19630885.080    81389505.108 8       334.531
G16  20996080.080   110335139.108 7       777.835    20996078.620   110335139.115 6       777.835    20996089.880    85975466.997 6       606.105
G10  22155036.560   116425500.862 8      2072.113    22155035.080   116425500.862 7      2072.113    22155050.260    90721168.639 7      1614.634    22155050.100    90721221.651 8      1614.634
G21  20789589.800   109250024.164 7      3539.312    20789588.140   109250024.174 6      3539.312    20789596.760    85129924.340 6      2757.905
R17  20324527.040   108760642.326 7      2536.951    20324526.340   108760642.333 7      2536.951    20324539.520    84591663.655 8      1973.184    20324539.100    84591663.654 8      1973.184
G08  21211847.520   111469002.708 7      3542.193    21211846.140   111469002.708 7      3542.193    21211855.840    86858999.853 7      2760.150    21211856.760    86859002.851 8      2760.150
R15  20211768.120   108005551.857 8      4626.886    20211765.920   108005551.848 7      4626.886    20211777.580    84004366.582 8      3598.689    20211777.660    84004364.588 8      3598.689
R01  23001276.940   122955012.009 6      4444.145    23001275.360   122955012.013 6      4444.145    23001306.660    95631810.264 6      3456.558    23001305.360    95631805.261 6      3456.558
R24  21391555.640   114390259.071 7       231.985    21391555.120   114390259.088 7       231.985    21391568.720    88970268.991 7       180.433    21391569.240    88970255.992 7       180.433
G23  23989558.400   126065972.566 7       253.420    23989556.960   126065972.576 5       253.420    23989571.660    98233272.154 5       197.470    23989571.460    98233283.165 8       197.470
G07  24023859.220   126246234.702 7      3533.553    24023858.680   126246234.707 6      3533.553    24023868.500    98373717.473 6      2753.418    24023868.340    98373724.484 7      2753.418
R18  22635839.720   120831655.877 6      4562.740    22635838.620   120831655.878 7      4562.740    22635857.980    93980251.537 7      3548.798    22635858.720    93980253.552 7      3548.798
> 2024 04 02 15 05 58.0000000  0 16
G02  22243940.480   116892692.996 7      4317.880    22243938.160   116892693.003 6      4317.880    22243948.980    91085255.115 6      3364.582
G26  23068904.040   121227915.914 7      -601.150    23068903.460   121227915.911 6      -601.150    23068921.460    94463372.295 6      -468.428    23068921.780    94463377.289 7      -468.428
R02  23965932.180   127886791.727 7      5765.575    23965930.540   127886791.728 6      5765.575    23965953.100    99467597.650 7      4484.336    23965953.740    99467599.646 7      4484.336
G27  21021752.340   110470044.229 8      1893.304    21021750.980   110470044.231 8      1893.304    21021761.560    86080592.792 8      1475.302    21021761.840    86080593.794 8      1475.302
R14  19630789.820   104643138.309 8       429.308    19630790.100   104643138.307 8       429.308    19630804.000    81389172.978 8       333.906    19630804.520    81389170.976 8       333.906
G16  20995932.220   110334361.654 7       777.311    20995930.800   110334361.664 6       777.311    20995941.980    85974861.184 6       605.697
G10  22154642.440   116423429.193 7      2071.476    22154640.800   116423429.196 7      2071.476    22154656.120    90719554.358 7      1614.137    22154655.840    90719607.366 8      1614.137
G21  20788916.500   109246485.250 7      3538.788    20788914.600   109246485.252 6      3538.788    20788923.260    85127166.757 6      2757.497
R17  20324052.980   108758105.661 8      2536.667    20324052.100   108758105.667 7      2536.667    20324065.480    84589690.694 8      1972.963    20324064.980    84589690.692 8      1972.963
G08  21211173.420   111465460.696 7      3542.029    21211172.100   111465460.698 7      3542.029    21211181.820    86856239.846 7      2760.023    21211182.680    86856242.845 8      2760.023
R15  20210902.400   108000925.423 8      4626.181    20210900.060   108000925.422 7      4626.181    20210911.840    84000768.249 8      3598.141    20210911.760    84000766.255 8      3598.141
R01  23000445.280   122950568.370 6      4443.578    23000444.040   122950568.374 6      4443.578    23000475.000    95628354.123 6      3456.116    23000474.040    95628349.118 6      3456.116
R24  21391512.620   114390027.272 7       231.853    21391511.720   114390027.281 7       231.853    21391525.200    88970088.699 7       180.330    21391525.940    88970075.700 7       180.330
G23  23989510.280   126065719.439 7       252.976    23989508.960   126065719.446 5       252.976    23989523.320    98233074.916 5       197.124    23989523.360    98233085.925 8       197.124
G07  24023186.860   126242701.390 7      3533.241    24023186.380   126242701.392 6      3533.241    24023196.280    98370964.245 6      2753.174    24023196.200    98370971.251 7      2753.174
R18  22634984.620   120827093.134 7      4562.726    22634984.340   120827093.132 7      4562.726    22635003.220    93976702.752 7      3548.787    22635003.720    93976704.760 7      3548.787
> 2024 04 02 15 05 59.0000000  0 16
G02  22243118.760   116888375.309 7      4317.555    22243116.540   116888375.319 6      4317.555    22243127.280    91081890.696 6      3364.329
G26  23069018.020   121228517.117 7      -601.364    23069017.780   121228517.113 6      -601.364    23069035.860    94463840.764 6      -468.595    23069036.520    94463845.762 7      -468.595
R02  23964851.580   127881025.948 7      5765.849    23964850.160   127881025.949 6      5765.849    23964872.840    99463113.149 7      4484.549    23964873.760    99463115.144 7      4484.549
G27  21021392.100   110468151.031 7      1893.041    21021390.740   110468151.039 8      1893.041    21021401.420    86079117.575 8      1475.097    21021401.540    86079118.577 8      1475.097
R14  19630709.720   104642709.316 8       428.549    19630709.560   104642709.316 8       428.549    19630723.760    81388839.308 8       333.316    19630724.060    81388837.309 8       333.316
G16  20995784.120   110333584.487 7       776.890    20995782.860   110333584.494 6       776.890    20995793.940    85974255.593 6       605.369
G10  22154248.300   116421357.947 7      2070.897    22154246.540   116421357.950 7      2070.897    22154261.960    90717940.404 7      1613.686    22154261.660    90717993.408 8      1613.686
G21  20788243.340   109242946.643 8      3538.365    20788241.280   109242946.645 6      3538.365    20788249.860    85124409.411 6      2757.167
R17  20323578.920   108755569.119 8      2536.369    20323578.300   108755569.131 8      2536.369    20323591.460    84587717.834 8      1972.732    20323590.720    84587717.832 8      1972.732
G08  21210499.260   111461918.626 7      3541.932    21210498.120   111461918.631 7      3541.932    21210507.760    86853479.793 7      2759.947    21210508.700    86853482.795 8      2759.947
R15  20210036.880   107996299.569 8      4625.440    20210034.540   107996299.568 8      4625.440    20210046.260    83997170.363 8      3597.564    20210046.400    83997168.370 8      3597.564
R01  22999613.920   122946125.063 6      4443.015    22999612.920   122946125.064 6      4443.015    22999643.420    95624898.241 6      3455.678    22999642.600    95624893.237 6      3455.678
R24  21391469.220   114389795.268 7       231.936    21391468.620   114389795.269 7       231.936    21391481.800    88969908.241 7       180.394    21391482.460    88969895.240 7       180.394
G23  23989462.260   126065466.588 7       252.571    23989460.940   126065466.598 5       252.571    23989475.180    98232877.889 5       196.808    23989475.220    98232888.898 8       196.808
G07  24022514.420   126239168.440 7      3532.728    24022514.040   126239168.442 6      3532.728    24022523.920    98368211.297 6      2752.775    24022523.820    98368218.303 7      2752.775
R18  22634130.040   120822530.586 6      4562.335    22634129.640   120822530.581 7      4562.335    22634148.320    93973154.108 7      3548.483    22634148.800    93973156.116 7      3548.483
> 2024 04 02 15 06  0.0000000  0 16
G02  22242297.040   116884057.977 7      4317.255    22242295.160   116884057.987 6      4317.255    22242305.660    91078526.551 6      3364.095
G26  23069132.740   121229118.500 7      -601.455    23069132.120   121229118.500 6      -601.455    23069150.320    94464309.379 6      -468.666    23069150.820    94464314.373 7      -468.666
R02  23963771.020   127875260.076 7      5765.940    23963769.860   127875260.058 6      5765.940    23963792.260    99458628.565 7      4484.620    23963793.260    99458630.560 7      4484.620
G27  21021031.760   110466257.942 7      1893.020    21021030.400   110466257.949 8      1893.020    21021041.060    86077642.441 8      1475.081    21021041.440    86077643.442 8      1475.081
R14  19630628.820   104642281.019 8       427.956    19630629.220   104642281.019 8       427.956    19630643.240    81388506.186 8       332.854    19630644.020    81388504.184 8       332.854
G16  20995636.480   110332807.743 7       776.545    20995635.040   110332807.753 6       776.545    20995646.080    85973650.336 6       605.100
G10  22153854.200   116419287.243 7      2070.402    22153852.480   116419287.245 7      2070.402    22153867.860    90716326.874 7      1613.300    22153867.860    90716379.878 8      1613.300
G21  20787570.040   109239408.488 7      3537.980    20787567.820   109239408.493 6      3537.980    20787576.560    85121652.410 6      2756.868
R17  20323105.080   108753032.860 7      2536.153    20323104.120   108753032.870 7      2536.153    20323117.480    84585745.186 8      1972.563    20323117.060    84585745.189 8      1972.563
G08  21209825.460   111458376.632 7      3541.970    21209824.100   111458376.637 7      3541.970    21209833.840    86850719.802 7      2759.977    21209834.580    86850722.806 8      2759.977
R15  20209171.040   107991674.434 8      4624.798    20209168.780   107991674.435 8      4624.798    20209180.640    83993573.044 8      3597.065    20209180.480    83993571.049 8      3597.065
R01  22998782.320   122941682.186 6      4442.595    22998781.920   122941682.190 6      4442.595    22998812.960    95621442.688 6      3455.351    22998811.580    95621437.696 6      3455.351
R24  21391425.940   114389563.212 7       232.110    21391425.080   114389563.206 7       232.110    21391438.400    88969727.753 7       180.530    21391439.040    88969714.750 7       180.530
G23  23989414.280   126065214.138 7       252.299    23989413.020   126065214.146 5       252.299    23989427.120    98232681.179 5       196.597    23989427.240    98232692.186 8       196.597
G07  24021842.640   126235635.982 6      3532.197    24021841.780   126235635.981 6      3532.197    24021851.700    98365458.734 6      2752.362    24021851.580    98365465.740 7      2752.362
R18  22633275.500   120817968.297 6      4562.161    22633274.860   120817968.289 6      4562.161    22633293.720    93969605.671 7      3548.348    22633294.020    93969607.675 7      3548.348
> 2024 04 02 15 06  1.0000000  0 16
G02  22241475.740   116879740.802 7      4317.202    22241473.680   116879740.812 6      4317.202    22241484.080    91075162.532 6      3364.054
G26  23069247.200   121229719.897 7      -601.303    23069246.540   121229719.897 6      -601.303    23069264.700    94464778.002 6      -468.548    23069265.200    94464782.996 7      -468.548
R02  23962690.440   127869493.862 7      5766.436    23962688.920   127869493.849 6      5766.436    23962711.860    99454143.732 7      4485.006    23962712.480    99454145.729 7      4485.006
G27  21020671.600   110464364.791 7      1893.154    21020670.240   110464364.804 8      1893.154    21020680.860    86076167.263 8      1475.185    21020681.160    86076168.260 8      1475.185
R14  19630548.580   104641853.230 8       427.632    19630548.940   104641853.233 8       427.632    19630563.000    81388173.457 8       332.603    19630563.580    81388171.456 8       332.603
G16  20995488.620   110332031.261 7       776.404    20995487.240   110332031.266 6       776.404    20995498.380    85973045.278 6       604.990
G10  22153460.280   116417216.909 7      2070.208    22153458.500   116417216.911 7      2070.208    22153473.920    90714713.631 7      1613.149    22153473.540    90714766.632 8      1613.149
G21  20786896.580   109235870.614 7      3537.800    20786894.580   109235870.619 6      3537.800    20786903.380    85118895.629 6      2756.728
R17  20322631.240   108750496.698 8      2536.135    20322630.160   108750496.708 7      2536.135    20322643.660    84583772.622 8      1972.549    20322642.940    84583772.622 8      1972.549
G08  21209151.440   111454834.533 8      3542.217    21209150.020   111454834.538 7      3542.217    21209159.780    86847959.729 8      2760.169    21209160.640    86847962.731 8      2760.169
R15  20208305.380   107987049.833 8      4624.401    20208303.080   107987049.835 7      4624.401    20208315.200    83989976.134 8      3596.757    20208315.220    83989974.137 8      3596.757
R01  22997951.340   122937239.587 6      4442.453    22997951.220   122937239.602 6      4442.453    22997980.860    95617987.359 6      3455.241    22997980.340    95617982.353 6      3455.241
R24  21391382.360   114389330.975 7       232.327    21391381.660   114389330.977 7       232.327    21391394.980    88969547.131 7       180.699    21391395.820    88969534.128 7       180.699
G23  23989366.160   126064961.923 7       252.171    23989365.040   126064961.928 5       252.171    23989379.140    98232484.650 5       196.497    23989379.320    98232495.661 8       196.497
G07  24021170.740   126232103.786 7      3532.154    24021169.600   126232103.793 6      3532.154    24021179.560    98362706.384 6      2752.328    24021179.560    98362713.390 7      2752.328
R18  22632421.000   120813406.095 7      4562.101    22632420.260   120813406.096 7      4562.101    22632439.040    93966057.305 7      3548.301    22632439.600    93966059.311 7      3548.301
> 2024 04 02 15 06  2.0000000  0 16
G02  22240654.240   116875423.849 7      4316.764    22240652.260   116875423.856 6      4316.764    22240662.540    91071798.680 6      3363.712
G26  23069361.840   121230321.357 7      -601.552    23069361.120   121230321.359 6      -601.552    23069379.200    94465246.674 6      -468.742    23069379.480    94465251.674 7      -468.742
R02  23961609.540   127863727.421 7      5766.457    23961608.180   127863727.419 6      5766.457    23961631.140    99449658.727 7      4485.022    23961631.900    99449660.726 7      4485.022
G27  21020311.440   110462471.618 8      1893.111    21020309.980   110462471.628 8      1893.111    21020320.620    86074692.060 8      1475.152    21020320.920    86074693.060 8      1475.152
R14  19630468.340   104641426.002 8       426.902    19630468.940   104641426.000 8       426.902    19630482.960    81387841.162 8       332.035    19630483.460    81387839.161 8       332.035
G16  20995340.940   110331255.053 7       775.975    20995339.700   110331255.063 6       775.975    20995350.760    85972440.438 6       604.656
G10  22153066.360   116415146.997 7      2069.602    22153064.720   116415146.997 7      2069.602    22153080.040    90713100.711 7      1612.677    22153079.960    90713153.715 8      1612.677
G21  20786223.280   109232333.045 8      3537.331    20786221.380   109232333.050 6      3537.331    20786230.120    85116139.086 6      2756.362
R17  20322157.360   108747960.662 8      2535.879    20322156.460   108747960.671 7      2535.879    20322169.560    84581800.154 8      1972.350    20322168.860    84581800.152 8      1972.350
G08  21208477.300   111451292.387 8      3542.100    21208475.980   111451292.390 7      3542.100    21208485.800    86845199.618 7      2760.078    21208486.440    86845202.621 8      2760.078
R15  20207440.460   107982425.834 8      4623.634    20207437.860   107982425.827 7      4623.634    20207449.940    83986379.688 8      3596.160    20207449.800    83986377.693 8      3596.160
R01  22997120.200   122932797.317 6      4442.011    22997119.780   122932797.319 6      4442.011    22997150.220    95614532.274 6      3454.898    22997149.420    95614527.269 6      3454.898
R24  21391338.780   114389098.586 7       232.421    21391338.360   114389098.582 7       232.421    21391351.700    88969366.379 7       180.772    21391352.540    88969353.376 7       180.772
G23  23989318.060   126064709.983 7       251.730    23989317.140   126064709.991 5       251.730    23989331.100    98232288.337 5       196.153    23989331.220    98232299.350 8       196.153
G07  24020498.340   126228571.937 7      3531.614    24020497.640   126228571.934 6      3531.614    24020507.480    98359954.290 6      2751.907    24020507.660    98359961.292 7      2751.907
R18  22631566.180   120808844.014 6      4561.847    22631565.580   120808844.023 7      4561.847    22631584.360    93962509.034 7      3548.103    22631584.500    93962511.044 7      3548.103
> 2024 04 02 15 06  3.0000000  0 16
G02  22239832.600   116871107.173 7      4316.522    22239830.860   116871107.181 6      4316.522    22239841.100    91068435.045 6      3363.524
G26  23069476.060   121230922.956 7      -601.554    23069475.460   121230922.955 6      -601.554    23069493.680    94465715.455 6      -468.743    23069493.960    94465720.444 7      -468.743
R02  23960528.720   127857960.820 7      5766.737    23960527.820   127857960.816 6      5766.737    23960550.760    99445173.597 7      4485.240    23960550.800    99445175.588 7      4485.240
G27  21019951.340   110460578.530 7      1893.038    21019949.680   110460578.541 8      1893.038    21019960.360    86073216.923 8      1475.095    21019960.820    86073217.923 8      1475.095
R14  19630388.420   104640999.453 8       426.201    19630388.940   104640999.456 8       426.201    19630402.800    81387509.400 8       331.490    19630403.300    81387507.401 8       331.490
G16  20995193.120   110330479.236 7       775.668    20995192.020   110330479.247 6       775.668    20995203.040    85971835.899 6       604.417
G10  22152672.600   116413077.588 7      2069.191    22152670.760   116413077.588 7      2069.191    22152686.300    90711488.192 7      1612.356    22152685.940    90711541.188 8      1612.356
G21  20785550.060   109228795.889 7      3536.943    20785548.400   109228795.891 6      3536.943    20785557.020    85113382.864 6      2756.060
R17  20321683.260   108745424.818 8      2535.773    20321682.420   108745424.836 7      2535.773    20321695.800    84579827.839 8      1972.268    20321694.980    84579827.841 8      1972.268
G08  21207803.500   111447750.278 7      3542.019    21207801.960   111447750.283 7      3542.019    21207811.620    86842439.534 7      2760.015    21207812.400    86842442.538 8      2760.015
R15  20206575.400   107977802.510 8      4623.015    20206572.660   107977802.508 7      4623.015    20206584.720    83982783.771 8      3595.679    20206584.820    83982781.775 8      3595.679
R01  22996289.460   122928355.453 6      4441.743    22996288.900   122928355.460 6      4441.743    22996319.000    95611077.514 6      3454.689    22996317.960    95611072.511 6      3454.689
R24  21391295.720   114388866.111 7       232.600    21391294.920   114388866.107 7       232.600    21391308.420    88969185.565 7       180.911    21391308.920    88969172.567 7       180.911
G23  23989270.540   126064458.412 7       251.442    23989269.300   126064458.417 5       251.442    23989283.180    98232092.309 5       195.929    23989283.320    98232103.318 8       195.929
G07  24019826.320   126225040.522 7      3531.157    24019825.620   126225040.521 6      3531.157    24019835.400    98357202.535 6      2751.551    24019836.120    98357209.548 7      2751.551
R18  22630711.360   120804282.150 6      4561.842    22630711.160   120804282.148 7      4561.842    22630729.560    93958960.921 7      3548.099    22630729.900    93958962.925 7      3548.099
> 2024 04 02 15 06  4.0000000  0 16
G02  22239011.500   116866790.661 7      4316.468    22239009.280   116866790.668 6      4316.468    22239019.620    91065071.535 6      3363.482
G26  23069590.820   121231524.558 7      -601.479    23069589.960   121231524.560 6      -601.479    23069608.140    94466184.239 6      -468.685    23069608.480    94466189.239 7      -468.685
R02  23959448.220   127852193.907 7      5767.187    23959447.100   127852193.913 6      5767.187    23959469.760    99440688.218 7      4485.590    23959470.200    99440690.211 7      4485.590
G27  21019590.980   110458685.365 7      1893.221    21019589.520   110458685.375 8      1893.221    21019600.140    86071741.729 8      1475.237    21019600.400    86071742.731 8      1475.237
R14  19630308.600   104640573.474 8       425.706    19630309.100   104640573.475 8       425.706    19630322.880    81387178.077 8       331.105    19630323.380    81387176.078 8       331.105
G16  20995045.820   110329703.669 7       775.449    20995044.440   110329703.685 6       775.449    20995055.540    85971231.557 6       604.246
G10  22152278.860   116411008.536 7      2068.944    22152277.020   116411008.538 7      2068.944    22152292.520    90709875.950 7      1612.164    22152292.260    90709928.946 8      1612.164
G21  20784877.060   109225258.982 7      3536.782    20784875.340   109225258.981 6      3536.782    20784884.020    85110626.843 6      2755.934
R17  20321209.440   108742889.041 8      2535.793    20321208.760   108742889.054 7      2535.793    20321221.960    84577855.564 8      1972.284    20321221.280    84577855.569 8      1972.284
G08  21207129.260   111444208.053 8      3542.224    21207127.940   111444208.060 7      3542.224    21207137.620    86839679.365 7      2760.175    21207138.080    86839682.367 8      2760.175
R15  20205710.160   107973179.737 7      4622.596    20205707.600   107973179.727 7      4622.596    20205719.560    83979188.279 8      3595.352    20205719.560    83979186.284 8      3595.352
R01  22995458.320   122923913.910 6      4441.439    22995458.120   122923913.914 6      4441.439    22995488.320    95607622.997 6      3454.453    22995487.460    95607617.994 6      3454.453
R24  21391252.080   114388633.422 7       232.847    21391251.120   114388633.418 7       232.847    21391264.840    88969004.587 7       181.103    21391265.280    88968991.586 7       181.103
G23  23989222.620   126064207.063 7       251.301    23989221.520   126064207.066 5       251.301    23989235.400    98231896.456 5       195.819    23989235.140    98231907.469 8       195.819
G07  24019154.340   126221509.364 7      3531.105    24019153.640   126221509.363 6      3531.105    24019163.460    98354450.988 6      2751.511    24019164.280    98354458.007 7      2751.511
R18  22629856.740   120799720.378 6      4561.718    22629856.220   120799720.385 7      4561.718    22629874.860    93955412.893 7      3548.003    22629875.180    93955414.895 7      3548.003
> 2024 04 02 15 06  5.0000000  0 16
G02  22238190.160   116862474.369 7      4316.122    22238188.020   116862474.377 6      4316.122    22238198.300    91061708.199 6      3363.212
G26  23069705.360   121232126.246 7      -601.738    23069704.380   121232126.251 6      -601.738    23069722.620    94466653.092 6      -468.886    23069722.800    94466658.087 7      -468.886
R02  23958367.500   127846426.733 7      5767.288    23958365.920   127846426.736 6      5767.288    23958389.260    99436202.640 7      4485.668    23958389.340    99436204.633 7      4485.668
G27  21019230.620   110456792.204 8      1893.124    21019229.300   110456792.209 8      1893.124    21019239.800    86070266.535 8      1475.161    21019240.120    86070267.538 8      1475.161
R14  19630229.000   104640148.101 8       425.023    19630229.180   104640148.098 8       425.023    19630243.380    81386847.223 8       330.573    19630243.800    81386845.223 8       330.573
G16  20994898.440   110328928.391 7       775.200    20994896.940   110328928.401 6       775.200    20994908.000    85970627.441 6       604.052
G10  22151885.080   116408939.928 7      2068.308    22151883.380   116408939.933 7      2068.308    22151898.820    90708264.052 7      1611.669    22151898.700    90708317.050 8      1611.669
G21  20784203.900   109221722.411 8      3536.327    20784202.360   109221722.421 6      3536.327    20784210.960    85107871.080 6      2755.580
R17  20320735.760   108740353.398 8      2535.568    20320734.640   108740353.408 7      2535.568    20320747.980    84575883.397 8      1972.108    20320747.380    84575883.404 8      1972.108
G08  21206455.300   111440665.775 7      3542.278    21206453.840   111440665.778 7      3542.278    21206463.560    86836919.147 7      2760.216    21206464.060    86836922.147 8      2760.216
R15  20204845.040   107968557.554 8      4621.890    20204842.600   107968557.542 7      4621.890    20204854.620    83975593.250 8      3594.804    20204854.640    83975591.251 8      3594.804
R01  22994627.900   122919472.693 6      4441.087    22994626.720   122919472.708 6      4441.087    22994658.040    95604168.738 6      3454.179    22994656.760    95604163.733 6      3454.179
R24  21391208.720   114388400.565 7       232.922    21391207.360   114388400.555 7       232.922    21391221.540    88968823.472 7       181.162    21391221.940    88968810.473 7       181.162
G23  23989174.760   126063956.001 7       250.878    23989173.780   126063956.006 5       250.878    23989187.600    98231700.829 5       195.489    23989187.820    98231711.844 8       195.489
G07  24018482.160   126217978.566 7      3530.735    24018481.800   126217978.568 6      3530.735    24018491.560    98351699.719 6      2751.222    24018492.460    98351706.740 7      2751.222
R18  22629002.400   120795158.730 6      4561.618    22629001.580   120795158.736 7      4561.618    22629020.300    93951864.953 7      3547.925    22629020.880    93951866.959 7      3547.925
> 2024 04 02 15 06  6.0000000  0 16
G02  22237368.840   116858158.269 7      4315.938    22237366.700   116858158.277 6      4315.938    22237376.920    91058345.010 6      3363.068
G26  23069819.700   121232727.963 7      -601.800    23069818.840   121232727.966 6      -601.800    23069837.080    94467121.960 6      -468.935    23069837.240    94467126.956 7      -468.935
R02  23957286.820   127840659.273 7      5767.690    23957284.940   127840659.260 6      5767.690    23957308.480    99431716.819 7      4485.981    23957308.900    99431718.814 7      4485.981
G27  21018870.460   110454899.014 8      1893.063    21018868.980   110454899.024 8      1893.063    21018879.540    86068791.324 8      1475.114    21018879.840    86068792.328 8      1475.114
R14  19630149.040   104639723.308 8       424.401    19630149.620   104639723.303 8       424.401    19630163.560    81386516.824 8       330.090    19630164.180    81386514.825 8       330.090
G16  20994751.080   110328153.418 7       774.830    20994749.460   110328153.426 6       774.830    20994760.440    85970023.559 6       603.763
G10  22151491.400   116406871.725 7      2067.871    22151489.900   116406871.730 7      2067.871    22151505.260    90706652.471 7      1611.328    22151504.920    90706705.467 8      1611.328
G21  20783531.240   109218186.143 8      3536.081    20783529.340   109218186.150 6      3536.081    20783538.100    85105115.544 6      2755.388
R17  20320261.900   108737817.900 8      2535.415    20320260.820   108737817.901 7      2535.415    20320274.340    84573911.339 8      1971.989    20320273.700    84573911.341 8      1971.989
G08  21205781.020   111437123.445 8      3542.288    21205779.680   111437123.448 7      3542.288    21205789.480    86834158.892 7      2760.224    21205790.320    86834161.893 8      2760.224
R15  20203980.020   107963935.908 8      4621.307    20203977.700   107963935.901 8      4621.307    20203989.820    83971998.641 8      3594.350    20203989.880    83971996.642 8      3594.350
R01  22993797.360   122915031.840 6      4440.567    22993796.300   122915031.857 6      4440.567    22993826.940    95600714.768 6      3453.774    22993826.080    95600709.762 6      3453.774
R24  21391164.900   114388167.539 7       233.021    21391163.240   114388167.551 7       233.021    21391178.180    88968642.242 7       181.239    21391178.340    88968629.243 7       181.239
G23  23989127.320   126063705.200 7       250.632    23989126.200   126063705.204 5       250.632    23989139.860    98231505.403 5       195.298    23989140.120    98231516.418 8       195.298
G07  24017810.560   126214448.120 6      3530.231    24017809.900   126214448.130 6      3530.231    24017819.700    98348948.728 6      2750.829    24017820.600    98348955.749 7      2750.829
R18  22628148.160   120790597.252 6      4561.392    22628147.200   120790597.247 6      4561.392    22628165.700    93948317.139 7      3547.749    22628166.320    93948319.145 7      3547.749
> 2024 04 02 15 06  7.0000000  0 16
G02  22236547.500   116853842.453 7      4315.594    22236545.380   116853842.458 6      4315.594    22236555.740    91054982.043 6      3362.800
G26  23069934.260   121233329.815 7      -601.951    23069933.260   121233329.814 6      -601.951    23069951.680    94467590.931 6      -469.053    23069951.940    94467595.935 7      -469.053
R02  23956205.840   127834891.610 7      5767.746    23956204.000   127834891.608 6      5767.746    23956227.660    99427230.863 7      4486.024    23956228.080    99427232.859 7      4486.024
G27  21018510.000   110453005.859 8      1893.192    21018508.740   110453005.864 8      1893.192    21018519.320    86067316.132 8      1475.215    21018519.740    86067317.140 8      1475.215
R14  19630069.920   104639299.176 8       423.698    19630070.040   104639299.177 8       423.698    19630084.100    81386186.940 8       329.543    19630084.460    81386184.941 8       329.543
G16  20994603.460   110327378.808 7       774.417    20994602.060   110327378.815 6       774.417    20994612.940    85969419.960 6       603.442
G10  22151098.040   116404803.989 7      2067.506    22151096.420   116404803.994 7      2067.506    22151111.640    90705041.251 7      1611.044    22151111.320    90705094.244 8      1611.044
G21  20782858.180   109214650.245 7      3535.787    20782856.500   109214650.252 6      3535.787    20782865.200    85102360.311 6      2755.159
R17  20319788.280   108735282.589 8      2535.167    20319787.080   108735282.596 7      2535.167    20319800.460    84571939.436 8      1971.797    20319799.900    84571939.437 8      1971.797
G08  21205107.200   111433581.121 7      3542.311    21205105.660   111433581.120 8      3542.311    21205115.460    86831398.637 7      2760.242    21205116.180    86831401.640 8      2760.242
R15  20203114.980   107959314.877 8      4620.709    20203112.940   107959314.873 7      4620.709    20203125.100    83968404.507 8      3593.885    20203125.280    83968402.513 8      3593.885
R01  22992966.260   122910591.376 6      4440.180    22992965.480   122910591.378 6      4440.180    22992996.320    95597261.078 6      3453.473    22992994.920    95597256.077 6      3453.473
R24  21391121.120   114387934.465 7       233.096    21391119.520   114387934.471 7       233.096    21391134.880    88968460.952 7       181.297    21391134.760    88968447.953 7       181.297
G23  23989079.560   126063454.747 7       250.323    23989078.420   126063454.752 5       250.323    23989092.160    98231310.247 5       195.057    23989092.120    98231321.253 8       195.057
G07  24017139.000   126210918.066 7      3529.954    24017138.020   126210918.071 6      3529.954    24017147.960    98346198.039 6      2750.614    24017149.040    98346205.053 7      2750.614
R18  22627293.560   120786035.980 6      4561.077    22627292.360   120786035.964 6      4561.077    22627311.480    93944769.485 7      3547.505    22627311.660    93944771.489 7      3547.505
> 2024 04 02 15 06  8.0000000  0 16
G02  22235725.740   116849526.915 7      4315.366    22235724.060   116849526.920 6      4315.366    22235734.560    91051619.294 6      3362.623
G26  23070048.400   121233931.789 7      -602.092    23070047.940   121233931.797 6      -602.092    23070066.260    94468060.007 6      -469.163    23070066.400    94468065.017 7      -469.163
R02  23955124.680   127829123.745 7      5767.970    23955123.300   127829123.759 6      5767.970    23955146.520    99422744.752 7      4486.199    23955147.100    99422746.749 7      4486.199
G27  21018149.780   110451112.793 8      1892.966    21018148.460   110451112.803 8      1892.966    21018159.160    86065841.020 8      1475.038    21018159.580    86065842.025 8      1475.038
R14  19629989.840   104638875.722 8       423.090    19629990.620   104638875.725 8       423.090    19630004.580    81385857.580 8       329.070    19630005.080    81385855.581 8       329.070
G16  20994456.180   110326604.559 7       774.059    20994454.660   110326604.567 6       774.059    20994465.680    85968816.646 6       603.163
G10  22150704.760   116402736.763 7      2067.014    22150703.100   116402736.766 7      2067.014    22150718.320    90703430.429 7      1610.660    22150718.080    90703483.423 8      1610.660
G21  20782185.480   109211114.775 7      3535.231    20782183.760   109211114.783 6      3535.231    20782192.460    85099605.400 6      2754.725
R17  20319314.560   108732747.478 8      2534.974    20319313.340   108732747.488 7      2534.974    20319326.800    84569967.690 8      1971.646    20319326.240    84569967.690 8      1971.646
G08  21204433.020   111430038.832 7      3542.215    21204431.480   111430038.835 7      3542.215    21204441.360    86828638.420 7      2760.167    21204441.980    86828641.424 8      2760.167
R15  20202250.600   107954694.513 8      4619.976    20202248.260   107954694.509 7      4619.976    20202260.500    83964810.895 8      3593.315    20202260.260    83964808.899 8      3593.315
R01  22992135.960   122906151.330 6      4439.798    22992135.020   122906151.323 6      4439.798    22992165.180    95593807.711 6      3453.176    22992164.340    95593802.720 6      3453.176
R24  21391077.860   114387701.324 7       233.080    21391076.000   114387701.325 7       233.080    21391090.960    88968279.618 7       181.284    21391091.340    88968266.615 7       181.284
G23  23989031.920   126063204.650 7       249.949    23989030.880   126063204.652 5       249.949    23989044.420    98231115.368 5       194.766    23989044.580    98231126.381 8       194.766
G07  24016467.280   126207388.435 7      3529.520    24016466.400   126207388.442 6      3529.520    24016476.240    98343447.675 6      2750.276    24016476.820    98343454.685 7      2750.276
R18  22626439.280   120781474.886 6      4560.777    22626437.760   120781474.887 6      4560.777    22626456.820    93941221.994 7      3547.271    22626457.320    93941224.005 7      3547.271
> 2024 04 02 15 06  9.0000000  0 16
G02  22234904.560   116845211.528 7      4315.419    22234902.700   116845211.538 6      4315.419    22234913.280    91048256.667 6      3362.664
G26  23070162.720   121234533.780 7      -601.877    23070162.360   121234533.782 6      -601.877    23070180.780    94468529.088 6      -468.995    23070181.440    94468534.088 7      -468.995
R02  23954043.600   127823355.554 7      5768.474    23954042.060   127823355.570 6      5768.474    23954065.460    99418258.385 7      4486.591    23954066.140    99418260.381 7      4486.591
G27  21017789.400   110449219.650 8      1893.297    21017788.280   110449219.658 8      1893.297    21017798.860    86064365.838 8      1475.296    21017799.400    86064366.843 8      1475.296
R14  19629910.580   104638452.814 8       422.775    19629911.240   104638452.812 8       422.775    19629925.280    81385528.643 8       328.825    19629925.860    81385526.642 8       328.825
G16  20994308.960   110325830.574 8       773.968    20994307.600   110325830.582 6       773.968    20994318.400    85968213.532 6       603.092
G10  22150311.500   116400669.913 7      2066.813    22150309.720   116400669.913 7      2066.813    22150324.880    90701819.897 7      1610.504    22150324.620    90701872.890 8      1610.504
G21  20781512.900   109207579.553 8      3535.239    20781510.900   109207579.560 6      3535.239    20781519.720    85096850.687 6      2754.732
R17  20318840.580   108730212.432 8      2535.145    20318839.580   108730212.444 8      2535.145    20318853.000    84567995.985 8      1971.779    20318852.560    84567995.985 8      1971.779
G08  21203758.820   111426496.429 7      3542.602    21203757.440   111426496.431 7      3542.602    21203767.260    86825878.104 7      2760.469    21203768.000    86825881.110 8      2760.469
R15  20201386.040   107950074.676 8      4619.646    20201383.680   107950074.675 8      4619.646    20201395.940    83961217.689 8      3593.058    20201396.000    83961215.697 8      3593.058
R01  22991305.400   122901711.521 6      4439.835    22991304.340   122901711.517 6      4439.835    22991334.960    95590354.543 6      3453.205    22991333.580    95590349.542 6      3453.205
R24  21391034.020   114387467.956 7       233.553    21391032.280   114387467.960 7       233.553    21391047.580    88968098.103 7       181.652    21391047.580    88968085.102 7       181.652
G23  23988984.540   126062954.781 7       249.948    23988983.140   126062954.785 5       249.948    23988996.960    98230920.669 5       194.765    23988996.980    98230931.674 7       194.765
G07  24015795.680   126203859.113 7      3529.336    24015794.740   126203859.116 6      3529.336    24015804.700    98340697.548 6      2750.132    24015804.700    98340704.546 7      2750.132
R18  22625585.000   120776913.862 6      4561.222    22625583.600   120776913.852 6      4561.222    22625602.300    93937674.535 7      3547.617    22625602.820    93937676.548 7      3547.617
> 2024 04 02 15 06 10.0000000  0 16
G02  22234083.520   116840896.276 7      4315.125    22234081.500   116840896.281 6      4315.125    22234092.120    91044894.139 6      3362.435
G26  23070277.400   121235135.736 7      -602.041    23070277.000   121235135.736 6      -602.041    23070295.420    94468998.149 6      -469.123    23070295.660    94469003.141 7      -469.123
R02  23952962.460   127817587.029 7      5768.578    23952961.340   127817587.027 6      5768.578    23952984.800    99413771.737 7      4486.671    23952985.080    99413773.734 7      4486.671
G27  21017429.420   110447326.408 8      1893.263    21017428.060   110447326.416 8      1893.263    21017438.600    86062890.584 8      1475.270    21017439.060    86062891.592 8      1475.270
R14  19629831.500   104638030.396 8       422.072    19629832.000   104638030.396 8       422.072    19629846.080    81385200.092 8       328.278    19629846.520    81385198.095 8       328.278
G16  20994161.780   110325056.778 7       773.579    20994160.320   110325056.788 6       773.579    20994171.220    85967610.570 6       602.789
G10  22149918.040   116398603.402 7      2066.221    22149916.520   116398603.402 7      2066.221    22149931.660    90700209.632 7      1610.043    22149931.180    90700262.628 8      1610.043
G21  20780840.140   109204044.572 8      3534.800    20780838.340   109204044.574 6      3534.800    20780847.080    85094096.158 6      2754.390
R17  20318366.740   108727677.394 8      2534.989    20318366.020   108727677.403 8      2534.989    20318379.200    84566024.291 8      1971.658    20318378.740    84566024.293 8      1971.658
G08  21203084.800   111422953.883 8      3542.565    21203083.360   111422953.883 8      3542.565    21203093.100    86823117.681 7      2760.440    21203093.880    86823120.685 8      2760.440
R15  20200521.620   107945455.352 8      4619.002    20200519.260   107945455.346 8      4619.002    20200531.460    83957624.881 8      3592.557    20200531.420    83957622.887 8      3592.557
R01  22990474.660   122897271.986 6      4439.344    22990473.640   122897271.973 6      4439.344    22990504.180    95586901.583 6      3452.823    22990502.920    95586896.586 6      3452.823
R24  21390990.500   114387234.305 7       233.710    21390988.320   114387234.306 7       233.710    21391003.980    88967916.374 7       181.774    21391003.960    88967903.376 7       181.774
G23  23988936.900   126062705.106 7       249.505    23988935.760   126062705.111 5       249.505    23988949.240    98230726.122 5       194.419    23988949.340    98230737.131 7       194.419
G07  24015124.120   126200330.023 6      3528.849    24015123.180   126200330.026 6      3528.849    24015133.060    98337947.608 6      2749.753    24015133.420    98337954.616 7      2749.753
R18  22624730.560   120772352.926 7      4560.808    22624729.000   120772352.911 7      4560.808    22624747.840    93934127.149 7      3547.295    22624748.260    93934129.162 7      3547.295
> 2024 04 02 15 06 11.0000000  0 16
G02  22233262.360   116836581.435 7      4314.577    22233260.480   116836581.440 6      4314.577    22233270.980    91041531.934 6      3362.008
G26  23070392.480   121235737.956 7      -602.514    23070391.740   121235737.955 6      -602.514    23070410.020    94469467.411 6      -469.491    23070410.320    94469472.409 7      -469.491
R02  23951881.400   127811818.398 7      5768.585    23951880.620   127811818.401 7      5768.585    23951903.520    99409285.030 7      4486.678    23951903.760    99409287.033 7      4486.678
G27  21017069.020   110445433.369 8      1892.840    21017067.860   110445433.381 8      1892.840    21017078.380    86061415.492 8      1474.940    21017078.880    86061416.496 8      1474.940
R14  19629752.180   104637608.756 8       421.167    19629752.940   104637608.757 8       421.167    19629766.980    81384872.144 8       327.574    19629767.500    81384870.147 8       327.574
G16  20994014.700   110324283.497 7       772.942    20994013.100   110324283.505 6       772.942    20994024.060    85967008.010 6       602.293
G10  22149525.140   116396537.482 7      2065.493    22149523.340   116396537.487 7      2065.493    22149538.600    90698599.833 7      1609.475    22149538.120    90698652.833 8      1609.475
G21  20780167.720   109200510.106 8      3534.149    20780165.720   109200510.108 6      3534.149    20780174.440    85091342.031 6      2753.882
R17  20317893.200   108725142.719 8      2534.370    20317892.120   108725142.737 8      2534.370    20317905.580    84564052.886 8      1971.177    20317905.320    84564052.888 8      1971.177
G08  21202410.840   111419411.511 8      3542.238    21202409.260   111419411.506 8      3542.238    21202419.020    86820357.389 8      2760.185    21202419.740    86820360.393 8      2760.185
R15  20199657.360   107940836.835 8      4618.028    20199654.940   107940836.826 8      4618.028    20199667.080    83954032.699 8      3591.799    20199667.120    83954030.707 8      3591.799
R01  22989644.120   122892832.974 6      4438.608    22989642.820   122892832.953 6      4438.608    22989672.980    95583449.031 6      3452.251    22989672.780    95583444.038 6      3452.251
R24  21390946.440   114387000.682 7       233.605    21390944.720   114387000.676 7       233.605    21390960.480    88967734.658 7       181.692    21390960.340    88967721.659 7       181.692
G23  23988889.600   126062455.904 7       248.928    23988888.400   126062455.906 5       248.928    23988901.980    98230531.943 5       193.970    23988901.840    98230542.946 7       193.970
G07  24014452.720   126196801.464 7      3528.246    24014451.800   126196801.464 6      3528.246    24014461.480    98335198.085 6      2749.283    24014462.120    98335205.098 7      2749.283
R18  22623875.920   120767792.302 7      4560.347    22623874.780   120767792.293 7      4560.347    22623893.400    93930580.022 7      3546.937    22623894.060    93930582.035 7      3546.937
> 2024 04 02 15 06 12.0000000  0 16
G02  22232441.280   116832266.885 7      4314.482    22232439.400   116832266.893 6      4314.482    22232450.040    91038169.955 6      3361.934
G26  23070506.760   121236340.285 7      -602.303    23070506.320   121236340.290 6      -602.303    23070524.700    94469936.763 6      -469.327    23070524.980    94469941.765 7      -469.327
R02  23950800.400   127806049.604 7      5769.077    23950799.300   127806049.602 7      5769.077    23950822.460    99404798.184 7      4487.060    23950822.900    99404800.187 7      4487.060
G27  21016708.820   110443540.376 8      1893.050    21016707.560   110443540.389 8      1893.050    21016718.160    86059940.429 8      1475.104    21016718.640    86059941.435 8      1475.104
R14  19629673.380   104637187.775 8       420.677    19629673.920   104637187.776 8       420.677    19629687.980    81384544.710 8       327.193    19629688.380    81384542.713 8       327.193
G16  20993867.500   110323510.589 7       772.774    20993866.120   110323510.597 6       772.774    20993877.080    85966405.738 6       602.161
G10  22149132.060   116394472.090 7      2065.155    22149130.380   116394472.087 7      2065.155    22149145.500    90696990.437 7      1609.211    22149145.160    90697043.434 8      1609.211
G21  20779495.200   109196976.034 7      3533.962    20779493.300   109196976.036 6      3533.962    20779501.840    85088588.219 6      2753.737
R17  20317419.540   108722608.248 8      2534.410    20317418.660   108722608.266 7      2534.410    20317431.760    84562081.637 8      1971.208    20317431.580    84562081.635 8      1971.208
G08  21201736.560   111415869.131 8      3542.465    21201735.180   111415869.133 8      3542.465    21201744.920    86817597.099 7      2760.363    21201745.620    86817600.105 8      2760.363
R15  20198793.480   107936218.962 8      4617.653    20198790.760   107936218.955 8      4617.653    20198802.760    83950441.026 8      3591.508    20198803.080    83950439.032 8      3591.508
R01  22988814.420   122888394.325 6      4438.419    22988812.360   122888394.329 6      4438.419    22988843.160    95579996.782 6      3452.104    22988842.140    95579991.781 6      3452.104
R24  21390903.040   114386766.948 7       233.964    21390900.840   114386766.941 7       233.964    21390916.680    88967552.861 7       181.972    21390916.540    88967539.862 7       181.972
G23  23988842.280   126062207.057 7       248.746    23988841.020   126062207.062 5       248.746    23988854.400    98230338.040 5       193.828    23988854.520    98230349.047 8       193.828
G07  24013781.140   126193273.357 7      3527.916    24013780.280   126193273.356 6      3527.916    24013790.040    98332448.906 6      2749.026    24013790.760    98332455.915 7      2749.026
R18  22623021.680   120763231.919 7      4560.415    22623020.600   120763231.904 7      4560.415    22623039.020    93927033.055 7      3546.989    22623039.840    93927035.068 7      3546.989
> 2024 04 02 15 06 13.0000000  0 16
G02  22231620.040   116827952.373 7      4314.440    22231618.360   116827952.383 6      4314.440    22231629.040    91034808.005 6      3361.902
G26  23070621.640   121236942.518 7      -602.096    23070621.020   121236942.517 6      -602.096    23070639.220    94470406.030 6      -469.166    23070639.280    94470411.032 7      -469.166
R02  23949719.480   127800280.404 7      5769.318    23949718.020   127800280.400 6      5769.318    23949741.220    99400311.024 7      4487.248    23949741.840    99400313.024 7      4487.248
G27  21016348.580   110441647.205 8      1893.263    21016347.320   110441647.210 8      1893.263    21016357.840    86058465.227 8      1475.270    21016358.220    86058466.228 8      1475.270
R14  19629594.300   104636767.204 8       420.354    19629594.980   104636767.208 8       420.354    19629609.200    81384217.597 8       326.942    19629609.580    81384215.600 8       326.942
G16  20993720.480   110322737.802 7       772.653    20993719.180   110322737.815 6       772.653    20993730.040    85965803.562 6       602.067
G10  22148738.940   116392406.911 7      2065.039    22148737.360   116392406.914 7      2065.039    22148752.500    90695381.214 7      1609.122    22148752.160    90695434.212 7      1609.122
G21  20778822.720   109193442.099 8      3533.836    20778820.760   109193442.104 6      3533.836    20778829.400    85085834.512 6      2753.639
R17  20316945.800   108720073.742 7      2534.492    20316944.960   108720073.760 7      2534.492    20316958.160    84560110.356 8      1971.272    20316957.800    84560110.355 8      1971.272
G08  21201062.480   111412326.531 8      3542.753    21201061.080   111412326.535 7      3542.753    21201070.760    86814836.635 7      2760.587    21201071.600    86814839.641 8      2760.587
R15  20197929.540   107931601.501 8      4617.247    20197926.780   107931601.491 8      4617.247    20197938.720    83946849.667 8      3591.192    20197938.960    83946847.671 8      3591.192
R01  22987984.040   122883955.815 6      4438.536    22987982.080   122883955.827 6      4438.536    22988012.240    95576544.635 6      3452.194    22988011.480    95576539.638 6      3452.194
R24  21390859.180   114386532.909 7       234.169    21390857.080   114386532.916 7       234.169    21390873.100    88967370.840 7       182.131    21390872.880    88967357.840 7       182.131
G23  23988794.780   126061958.318 7       248.726    23988793.800   126061958.320 5       248.726    23988807.140    98230144.219 5       193.812    23988807.380    98230155.218 8       193.812
G07  24013109.840   126189745.415 6      3527.601    24013108.940   126189745.412 6      3527.601    24013118.740    98329699.867 6      2748.780    24013119.360    98329706.876 7      2748.780
R18  22622167.220   120758671.461 7      4560.505    22622166.440   120758671.459 7      4560.505    22622184.560    93923486.057 7      3547.059    22622185.460    93923488.074 7      3547.059
> 2024 04 02 15 06 14.0000000  0 16
G02  22230799.380   116823638.128 7      4314.052    22230797.340   116823638.138 6      4314.052    22230808.080    91031446.266 6      3361.599
G26  23070736.620   121237544.873 7      -602.376    23070735.520   121237544.870 6      -602.376    23070753.920    94470875.395 6      -469.384    23070754.200    94470880.399 7      -469.384
R02  23948638.240   127794510.986 7      5769.449    23948637.100   127794510.992 6      5769.449    23948659.920    99395823.705 7      4487.349    23948660.760    99395825.705 7      4487.349
G27  21015988.240   110439754.091 8      1893.029    21015987.060   110439754.102 8      1893.029    21015997.600    86056990.077 8      1475.088    21015998.080    86056991.079 8      1475.088
R14  19629515.480   104636347.345 8       419.471    19629516.320   104636347.343 8       419.471    19629530.400    81383891.030 8       326.255    19629530.800    81383889.031 8       326.255
G16  20993573.500   110321965.380 7       772.181    20993572.040   110321965.388 6       772.181    20993583.080    85965201.668 6       601.699
G10  22148346.280   116390342.234 7      2064.402    22148344.600   116390342.236 7      2064.402    22148359.520    90693772.379 7      1608.625    22148358.840    90693825.381 7      1608.625
G21  20778150.160   109189908.555 8      3533.385    20778148.400   109189908.558 6      3533.385    20778157.080    85083081.105 6      2753.287
R17  20316472.180   108717539.424 8      2534.229    20316471.280   108717539.439 7      2534.229    20316484.580    84558139.218 8      1971.067    20316484.100    84558139.220 8      1971.067
G08  21200388.280   111408783.961 7      3542.544    21200386.940   111408783.964 8      3542.544    21200396.620    86812076.193 8      2760.424    21200397.520    86812079.199 8      2760.424
R15  20197065.240   107926984.677 8      4616.448    20197062.680   107926984.673 8      4616.448    20197074.720    83943258.813 8      3590.571    20197074.840    83943256.819 8      3590.571
R01  22987153.540   122879517.782 6      4437.764    22987152.040   122879517.788 6      4437.764    22987182.400    95573092.854 6      3451.594    22987181.180    95573087.850 6      3451.594
R24  21390815.680   114386298.835 7       234.060    21390813.540   114386298.823 7       234.060    21390829.420    88967188.762 7       182.047    21390828.960    88967175.759 7       182.047
G23  23988747.660   126061709.926 7       248.158    23988746.520   126061709.928 5       248.158    23988760.060    98229950.671 5       193.370    23988760.160    98229961.672 7       193.370
G07  24012438.580   126186217.830 6      3527.291    24012437.720   126186217.835 6      3527.291    24012447.480    98326951.102 6      2748.539    24012447.460    98326958.121 7      2748.539
R18  22621312.860   120754111.216 7      4560.100    22621312.480   120754111.212 7      4560.100    22621330.160    93919939.206 7      3546.744    22621331.200    93919941.219 7      3546.744
> 2024 04 02 15 06 15.0000000  0 16
G02  22229978.420   116819324.114 7      4313.994    22229976.580   116819324.124 6      4313.994    22229987.080    91028084.707 6      3361.554
G26  23070851.520   121238147.308 7      -602.409    23070850.120   121238147.310 6      -602.409    23070868.500    94471344.832 6      -469.410    23070868.780    94471349.832 7      -469.410
R02  23947557.180   127788741.351 7      5769.724    23947555.760   127788741.371 6      5769.724    23947578.900    99391336.222 7      4487.563    23947579.460    99391338.219 7      4487.563
G27  21015628.080   110437860.981 8      1893.188    21015626.800   110437860.988 8      1893.188    21015637.420    86055514.920 8      1475.211    21015637.900    86055515.922 8      1475.211
R14  19629436.940   104635928.091 8       418.969    19629437.800   104635928.092 8       418.969    19629451.780    81383564.941 8       325.865    19629452.020    81383562.940 8       325.865
G16  20993426.660   110321193.271 7       771.957    20993425.080   110321193.281 6       771.957    20993435.940    85964600.021 6       601.525
G10  22147953.200   116388277.998 7      2064.018    22147951.720   116388278.003 7      2064.018    22147966.720    90692163.888 7      1608.325    22147965.840    90692216.892 7      1608.325
G21  20777477.840   109186375.358 7      3533.023    20777476.060   109186375.363 6      3533.023    20777484.600    85080327.971 6      2753.005
R17  20315998.780   108715005.255 8      2534.081    20315997.720   108715005.262 7      2534.081    20316011.100    84556168.198 8      1970.952    20316010.400    84556168.198 8      1970.952
G08  21199714.100   111405241.358 7      3542.632    21199712.860   111405241.365 7      3542.632    21199722.540    86809315.729 7      2760.493    21199723.260    86809318.733 8      2760.493
R15  20196201.160   107922368.474 8      4615.869    20196199.060   107922368.467 7      4615.869    20196210.980    83939668.431 8      3590.120    20196211.240    83939666.434 8      3590.120
R01  22986323.040   122875080.079 6      4437.394    22986321.620   122875080.089 6      4437.394    22986352.580    95569641.318 6      3451.306    22986351.000    95569636.312 6      3451.306
R24  21390771.900   114386064.587 7       234.434    21390769.600   114386064.575 7       234.434    21390785.780    88967006.567 7       182.338    21390785.660    88966993.566 7       182.338
G23  23988700.560   126061461.825 7       247.942    23988699.540   126061461.825 5       247.942    23988712.700    98229757.348 5       193.202    23988713.040    98229768.355 8       193.202
G07  24011767.500   126182690.656 6      3526.856    24011766.340   126182690.663 6      3526.856    24011776.140    98324202.658 6      2748.200    24011776.740    98324209.671 7      2748.200
R18  22620458.500   120749551.134 7      4560.006    22620458.340   120749551.132 7      4560.006    22620475.840    93916392.486 7      3546.671    22620476.900    93916394.501 7      3546.671
> 2024 04 02 15 06 16.0000000  0 16
G02  22229157.500   116815010.353 7      4313.554    22229155.800   116815010.363 6      4313.554    22229166.180    91024723.343 6      3361.211
G26  23070965.780   121238749.837 7      -602.702    23070964.840   121238749.839 6      -602.702    23070983.160    94471814.336 6      -469.638    23070983.420    94471819.336 7      -469.638
R02  23946475.620   127782971.477 7      5769.817    23946474.460   127782971.483 6      5769.817    23946497.860    99386848.534 7      4487.636    23946498.180    99386850.531 7      4487.636
G27  21015267.580   110435967.880 8      1893.031    21015266.660   110435967.888 8      1893.031    21015277.180    86054039.777 8      1475.089    21015277.700    86054040.778 8      1475.089
R14  19629358.560   104635509.445 8       418.299    19629359.260   104635509.437 8       418.299    19629373.180    81383239.315 8       325.344    19629373.540    81383237.316 8       325.344
G16  20993279.660   110320421.490 7       771.577    20993278.280   110320421.498 6       771.577    20993289.220    85963998.625 6       601.228
G10  22147560.600   116386214.204 7      2063.493    22147559.160   116386214.209 7      2063.493    22147574.040    90690555.739 7      1607.917    22147573.200    90690608.746 7      1607.917
G21  20776805.720   109182842.485 7      3532.647    20776803.700   109182842.490 6      3532.647    20776812.460    85077575.086 6      2752.712
R17  20315525.400   108712471.236 8      2533.821    20315524.380   108712471.243 7      2533.821    20315537.580    84554197.292 8      1970.750    20315536.900    84554197.294 8      1970.750
G08  21199040.040   111401698.723 7      3542.566    21199038.620   111401698.723 7      3542.566    21199048.340    86806555.233 7      2760.441    21199048.960    86806558.234 8      2760.441
R15  20195337.700   107917752.837 8      4615.221    20195335.140   107917752.830 7      4615.221    20195347.080    83936078.493 8      3589.617    20195347.340    83936076.499 8      3589.617
R01  22985493.280   122870642.706 6      4437.072    22985491.940   122870642.704 6      4437.072    22985522.300    95566190.042 6      3451.056    22985521.180    95566185.041 6      3451.056
R24  21390728.080   114385830.171 7       234.402    21390725.860   114385830.167 7       234.402    21390741.820    88966824.246 7       182.312    21390741.640    88966811.247 8       182.312
G23  23988653.360   126061214.034 7       247.508    23988652.320   126061214.039 5       247.508    23988665.620    98229564.268 5       192.863    23988665.640    98229575.269 8       192.863
G07  24011096.480   126179163.823 6      3526.500    24011095.200   126179163.823 6      3526.500    24011105.260    98321454.469 6      2747.922    24011105.320    98321461.477 7      2747.922
R18  22619604.440   120744991.236 7      4559.631    22619604.340   120744991.232 7      4559.631    22619621.720    93912845.903 7      3546.379    22619622.700    93912847.918 7      3546.379
> 2024 04 02 15 06 17.0000000  0 16
G02  22228336.760   116810696.883 7      4313.258    22228334.820   116810696.893 6      4313.258    22228345.440    91021362.206 6      3360.980
G26  23071080.680   121239352.503 7      -602.797    23071079.560   121239352.503 6      -602.797    23071098.060    94472283.941 6      -469.712    23071098.040    94472288.947 7      -469.712
R02  23945395.100   127777201.416 7      5769.998    23945393.080   127777201.416 6      5769.998    23945416.800    99382360.702 7      4487.777    23945417.220    99382362.699 7      4487.777
G27  21014907.440   110434074.883 7      1892.858    21014906.400   110434074.887 8      1892.858    21014916.960    86052564.710 8      1474.954    21014917.280    86052565.709 8      1474.954
R14  19629280.100   104635091.470 8       417.581    19629280.880   104635091.465 8       417.581    19629294.860    81382914.219 8       324.785    19629295.100    81382912.218 8       324.785
G16  20993132.740   110319650.109 7       771.127    20993131.320   110319650.116 6       771.127    20993142.380    85963397.544 6       600.878
G10  22147167.900   116384150.935 7      2062.936    22147166.520   116384150.938 7      2062.936    22147181.420    90688947.997 7      1607.483    22147180.560    90689001.004 7      1607.483
G21  20776133.580   109179310.050 7      3532.137    20776131.580   109179310.060 6      3532.137    20776140.320    85074822.540 6      2752.314
R17  20315052.240   108709937.458 8      2533.549    20315050.680   108709937.465 7      2533.549    20315064.120    84552226.578 8      1970.538    20315063.380    84552226.578 8      1970.538
G08  21198365.760   111398156.136 7      3542.455    21198364.480   111398156.135 7      3542.455    21198374.260    86803794.773 7      2760.355    21198375.000    86803797.774 8      2760.355
R15  20194474.220   107913137.890 8      4614.565    20194471.540   107913137.878 7      4614.565    20194483.480    83932489.085 8      3589.106    20194483.500    83932487.089 8      3589.106
R01  22984663.600   122866205.800 6      4436.530    22984661.980   122866205.809 6      4436.530    22984692.080    95562739.140 6      3450.635    22984691.420    95562734.139 6      3450.635
R24  21390684.120   114385595.675 7       234.448    21390682.260   114385595.679 7       234.448    21390698.480    88966641.862 7       182.349    21390697.760    88966628.865 7       182.349
G23  23988606.000   126060966.614 7       247.124    23988605.320   126060966.622 5       247.124    23988618.520    98229371.477 5       192.564    23988618.460    98229382.480 7       192.564
G07  24010425.180   126175637.437 7      3525.993    24010424.280   126175637.442 6      3525.993    24010434.100    98318706.639 6      2747.527    24010434.060    98318713.650 7      2747.527
R18  22618750.180   120740431.555 7      4559.405    22618750.120   120740431.551 7      4559.405    22618767.700    93909299.495 7      3546.204    22618768.420    93909301.503 7      3546.204
> 2024 04 02 15 06 18.0000000  0 16
G02  22227516.000   116806383.616 7      4313.047    22227514.060   116806383.628 6      4313.047    22227524.780    91018001.224 6      3360.816
G26  23071195.400   121239955.208 7      -602.787    23071194.300   121239955.211 6      -602.787    23071212.680    94472753.586 6      -469.704    23071212.540    94472758.592 7      -469.704
R02  23944313.380   127771431.021 6      5770.453    23944311.780   127771431.032 6      5770.453    23944334.980    99377872.621 7      4488.130    23944335.820    99377874.623 7      4488.130
G27  21014547.400   110432181.845 7      1892.926    21014546.100   110432181.853 8      1892.926    21014556.780    86051089.618 8      1475.007    21014557.300    86051090.617 8      1475.007
R14  19629202.100   104634674.055 8       416.999    19629202.420   104634674.056 8       416.999    19629216.400    81382589.561 8       324.332    19629216.980    81382587.558 8       324.332
G16  20992985.820   110318879.011 7       770.773    20992984.800   110318879.024 6       770.773    20992995.660    85962796.685 6       600.603
G10  22146775.400   116382088.063 8      2062.519    22146773.980   116382088.065 7      2062.519    22146788.920    90687340.576 7      1607.158    22146788.140    90687393.586 8      1607.158
G21  20775461.400   109175777.899 7      3531.993    20775459.360   109175777.906 6      3531.993    20775468.120    85072070.222 6      2752.202
R17  20314578.620   108707403.792 8      2533.447    20314577.280   108707403.807 7      2533.447    20314590.480    84550255.959 8      1970.459    20314590.300    84550255.962 8      1970.459
G08  21197691.880   111394613.474 7      3542.534    21197690.440   111394613.477 7      3542.534    21197700.100    86801034.262 7      2760.416    21197700.960    86801037.261 8      2760.416
R15  20193610.860   107908523.498 8      4613.991    20193607.960   107908523.489 8      4613.991    20193619.960    83928900.118 8      3588.660    20193620.100    83928898.124 8      3588.660
R01  22983833.560   122861769.175 6      4436.374    22983831.780   122861769.181 6      4436.374    22983862.440    95559288.444 6      3450.513    22983861.340    95559283.437 6      3450.513
R24  21390640.320   114385361.007 7       234.726    21390638.800   114385361.014 7       234.726    21390654.580    88966459.341 8       182.564    21390653.860    88966446.344 8       182.564
G23  23988559.200   126060719.449 7       246.958    23988558.320   126060719.448 5       246.958    23988571.400    98229178.885 5       192.435    23988571.260    98229189.886 7       192.435
G07  24009753.720   126172111.376 7      3525.765    24009753.140   126172111.378 6      3525.765    24009763.080    98315959.064 6      2747.349    24009763.720    98315966.070 7      2747.349
R18  22617895.800   120735871.975 7      4559.451    22617896.240   120735871.976 7      4559.451    22617913.220    93905753.165 7      3546.240    22617913.980    93905755.180 7      3546.240
> 2024 04 02 15 06 19.0000000  0 16
G02  22226695.440   116802070.669 7      4312.747    22226693.300   116802070.681 6      4312.747    22226704.020    91014640.495 6      3360.582
G26  23071310.240   121240558.090 7      -602.910    23071309.080   121240558.095 6      -602.910    23071327.440    94473223.366 6      -469.800    23071327.460    94473228.368 7      -469.800
R02  23943231.880   127765660.530 6      5770.581    23943230.080   127765660.528 6      5770.581    23943253.720    99373384.457 7      4488.230    23943254.480    99373386.457 7      4488.230
G27  21014187.120   110430288.892 8      1892.940    21014185.980   110430288.900 8      1892.940    21014196.580    86049614.585 8      1475.018    21014197.160    86049615.585 8      1475.018
R14  19629123.980   104634257.352 8       416.362    19629124.280   104634257.347 8       416.362    19629138.440    81382265.448 8       323.837    19629138.820    81382263.447 8       323.837
G16  20992839.660   110318108.302 7       770.481    20992838.120   110318108.315 6       770.481    20992849.040    85962196.129 6       600.375
G10  22146382.920   116380025.725 8      2062.041    22146381.560   116380025.729 7      2062.041    22146396.360    90685733.561 7      1606.785    22146395.840    90685786.575 8      1606.785
G21  20774789.080   109172246.187 7      3531.535    20774787.220   109172246.189 6      3531.535    20774795.960    85069318.243 6      2751.845
R17  20314104.980   108704870.335 8      2533.304    20314103.800   108704870.353 7      2533.304    20314117.120    84548285.495 8      1970.348    20314116.740    84548285.499 8      1970.348
G08  21197017.360   111391070.866 7      3542.644    21197016.280   111391070.863 8      3542.644    21197026.060    86798273.785 7      2760.502    21197026.880    86798276.785 8      2760.502
R15  20192747.360   107903909.820 8      4613.330    20192744.780   107903909.810 7      4613.330    20192756.460    83925311.700 8      3588.145    20192756.520    83925309.705 8      3588.145
R01  22983003.680   122857333.020 6      4436.084    22983001.360   122857333.010 6      4436.084    22983032.520    95555838.103 6      3450.288    22983031.320    95555833.102 6      3450.288
R24  21390596.200   114385126.335 7       234.740    21390595.320   114385126.344 7       234.740    21390610.920    88966276.817 7       182.576    21390610.060    88966263.821 8       182.576
G23  23988512.020   126060472.675 7       246.568    23988511.380   126060472.682 5       246.568    23988524.660    98228986.600 5       192.131    23988524.440    98228997.601 7       192.131
G07  24009083.100   126168585.778 6      3525.276    24009082.220   126168585.778 6      3525.276    24009091.960    98313211.840 6      2746.968    24009092.240    98313218.845 7      2746.968
R18  22617041.720   120731312.670 7      4559.183    22617041.980   120731312.665 7      4559.183    22617059.120    93902207.047 7      3546.031    22617060.000    93902209.056 7      3546.031
> 2024 04 02 15 06 20.0000000  0 16
G02  22225874.600   116797758.016 7      4312.670    22225872.640   116797758.026 6      4312.670    22225883.280    91011279.992 6      3360.522
G26  23071424.500   121241161.131 7      -602.942    23071423.960   121241161.133 6      -602.942    23071442.220    94473693.268 6      -469.825    23071442.060    94473698.266 7      -469.825
R02  23942150.140   127759889.884 7      5770.888    23942149.260   127759889.882 6      5770.888    23942172.440    99368896.167 7      4488.468    23942172.600    99368898.171 7      4488.468
G27  21013826.920   110428396.034 8      1893.039    21013825.680   110428396.044 8      1893.039    21013836.360    86048139.633 8      1475.095    21013836.680    86048140.632 8      1475.095
R14  19629045.640   104633841.357 8       415.781    19629046.220   104633841.355 8       415.781    19629060.400    81381941.893 8       323.385    19629060.840    81381939.891 8       323.385
G16  20992692.880   110317338.001 7       770.252    20992691.500   110317338.011 6       770.252    20992702.580    85961595.883 6       600.197
G10  22145990.640   116377963.901 7      2061.687    22145989.360   116377963.906 7      2061.687    22146003.880    90684126.945 7      1606.509    22146003.740    90684179.961 8      1606.509
G21  20774117.180   109168714.892 8      3531.272    20774115.360   109168714.897 6      3531.272    20774123.960    85066566.587 6      2751.640
R17  20313631.680   108702337.087 7      2533.279    20313630.820   108702337.102 7      2533.279    20313643.740    84546315.188 8      1970.328    20313643.360    84546315.193 8      1970.328
G08  21196343.200   111387528.305 7      3542.710    21196342.180   111387528.307 7      3542.710    21196351.880    86795513.352 7      2760.553    21196352.740    86795516.352 8      2760.553
R15  20191883.960   107899296.839 8      4612.784    20191881.500   107899296.832 7      4612.784    20191893.220    83921723.828 8      3587.721    20191893.320    83921721.833 8      3587.721
R01  22982174.140   122852897.306 6      4435.711    22982171.300   122852897.305 6      4435.711    22982202.840    95552388.131 6      3449.998    22982201.460    95552383.138 6      3449.998
R24  21390552.180   114384891.603 7       234.875    21390551.560   114384891.615 7       234.875    21390566.880    88966094.246 7       182.681    21390566.480    88966081.245 7       182.681
G23  23988465.260   126060226.287 7       246.295    23988464.520   126060226.292 5       246.295    23988477.540    98228794.609 5       191.918    23988477.920    98228805.617 7       191.918
G07  24008412.300   126165060.608 7      3525.013    24008411.460   126165060.603 6      3525.013    24008421.300    98310464.955 6      2746.764    24008421.180    98310471.955 7      2746.764
R18  22616187.620   120726753.591 7      4559.070    22616188.100   120726753.590 7      4559.070    22616205.080    93898661.106 7      3545.943    22616205.960    93898663.116 7      3545.943
> 2024 04 02 15 06 21.0000000  0 16
G02  22225054.080   116793445.671 7      4312.169    22225052.020   116793445.681 6      4312.169    22225062.660    91007919.734 6      3360.132
G26  23071539.500   121241764.296 7      -603.220    23071538.720   121241764.299 6      -603.220    23071557.040    94474163.269 6      -470.041    23071556.800    94474168.259 7      -470.041
R02  23941068.520   127754119.057 7      5770.919    23941067.480   127754119.053 6      5770.919    23941090.920    99364407.750 7      4488.492    23941091.400    99364409.754 7      4488.492
G27  21013466.740   110426503.241 8      1892.795    21013465.440   110426503.248 7      1892.795    21013476.180    86046664.727 7      1474.905    21013476.440    86046665.727 8      1474.905
R14  19628967.700   104633426.026 8       414.967    19628968.340   104633426.027 8       414.967    19628982.420    81381618.853 8       322.752    19628983.040    81381616.850 8       322.752
G16  20992546.340   110316568.072 7       769.673    20992545.140   110316568.080 6       769.673    20992556.080    85960995.935 6       599.746
G10  22145598.400   116375902.566 7      2061.063    22145597.040   116375902.571 7      2061.063    22145611.700    90682520.716 7      1606.023    22145611.640    90682573.730 7      1606.023
G21  20773445.140   109165183.981 7      3530.752    20773443.480   109165183.986 6      3530.752    20773452.140    85063815.234 6      2751.236
R17  20313158.040   108699804.058 8      2532.889    20313157.460   108699804.073 7      2532.889    20313170.460    84544345.059 8      1970.025    20313169.900    84544345.059 8      1970.025
G08  21195669.400   111383985.780 7      3542.490    21195668.000   111383985.782 7      3542.490    21195677.820    86792752.947 7      2760.382    21195678.480    86792755.947 8      2760.382
R15  20191020.900   107894684.512 8      4611.985    20191018.520   107894684.511 7      4611.985    20191030.180    83918136.473 8      3587.100    20191030.140    83918134.479 8      3587.100
R01  22981344.240   122848462.007 6      4435.085    22981341.660   122848462.005 6      4435.085    22981373.400    95548938.474 6      3449.511    22981372.160    95548933.483 6      3449.511
R24  21390507.980   114384656.778 7       234.859    21390507.580   114384656.779 7       234.859    21390523.080    88965911.594 7       182.668    21390522.480    88965898.587 7       182.668
G23  23988418.540   126059980.236 7       245.794    23988417.740   126059980.244 5       245.794    23988430.640    98228602.889 5       191.527    23988431.240    98228613.894 7       191.527
G07  24007741.220   126161535.851 6      3524.359    24007740.620   126161535.853 6      3524.359    24007750.720    98307718.395 6      2746.254    24007750.360    98307725.395 7      2746.254
R18  22615333.100   120722194.721 7      4558.682    22615334.280   120722194.727 7      4558.682    22615351.060    93895115.334 7      3545.642    22615351.880    93895117.343 7      3545.642
> 2024 04 02 15 06 22.0000000  0 16
G02  22224233.360   116789133.589 7      4312.046    22224231.540   116789133.593 6      4312.046    22224242.080    91004559.676 6      3360.036
G26  23071654.220   121242367.585 7      -603.103    23071653.620   121242367.590 6      -603.103    23071671.840    94474633.362 6      -469.951    23071671.780    94474638.364 7      -469.951
R02  23939987.060   127748348.049 7      5771.180    23939986.240   127748348.052 6      5771.180    23940009.460    99359919.188 7      4488.695    23940010.060    99359921.189 7      4488.695
G27  21013106.720   110424610.509 7      1892.856    21013105.320   110424610.516 8      1892.856    21013116.000    86045189.871 8      1474.953    21013116.140    86045190.872 8      1474.953
R14  19628890.120   104633011.354 8       414.462    19628890.500   104633011.349 8       414.462    19628904.640    81381296.322 8       322.359    19628905.120    81381294.317 8       322.359
G16  20992399.900   110315798.501 7       769.559    20992398.720   110315798.506 6       769.559    20992409.480    85960396.261 6       599.657
G10  22145206.160   116373841.733 8      2060.687    22145205.000   116373841.732 7      2060.687    22145219.520    90680914.872 7      1605.730    22145219.300    90680967.886 8      1605.730
G21  20772773.240   109161653.486 7      3530.334    20772771.620   109161653.488 6      3530.334    20772780.260    85061064.209 6      2750.910
R17  20312684.820   108697271.270 8      2532.793    20312684.120   108697271.282 7      2532.793    20312697.120    84542375.113 8      1969.950    20312696.580    84542375.115 8      1969.950
G08  21194995.320   111380443.263 7      3542.679    21194993.920   111380443.266 8      3542.679    21195003.560    86789992.547 8      2760.529    21195004.380    86789995.549 8      2760.529
R15  20190157.720   107890072.841 8      4611.468    20190155.540   107890072.836 7      4611.468    20190167.140    83914549.613 8      3586.698    20190167.320    83914547.617 8      3586.698
R01  22980515.020   122844027.161 6      4434.618    22980512.200   122844027.152 6      4434.618    22980543.220    95545489.156 6      3449.147    22980542.260    95545484.155 6      3449.147
R24  21390464.340   114384421.894 7       235.035    21390463.460   114384421.887 7       235.035    21390479.100    88965728.900 7       182.805    21390478.600    88965715.889 8       182.805
G23  23988371.820   126059734.539 7       245.646    23988370.920   126059734.547 5       245.646    23988383.960    98228411.444 5       191.412    23988384.280    98228422.447 7       191.412
G07  24007070.480   126158011.506 6      3524.231    24007069.820   126158011.506 6      3524.231    24007080.140    98304972.150 6      2746.154    24007080.100    98304979.151 7      2746.154
R18  22614479.060   120717636.065 7      4558.673    22614480.540   120717636.065 7      4558.673    22614497.340    93891569.715 7      3545.635    22614497.860    93891571.725 7      3545.635
> 2024 04 02 15 06 23.0000000  0 16
G02  22223412.800   116784821.653 7      4311.798    22223411.020   116784821.661 6      4311.798    22223421.500    91001199.734 6      3359.843
G26  23071769.060   121242970.879 7      -603.287    23071768.480   121242970.889 6      -603.287    23071786.640    94475103.465 6      -470.093    23071787.120    94475108.465 7      -470.093
R02  23938905.440   127742576.698 7      5771.587    23938904.940   127742576.697 6      5771.587    23938927.980    99355430.348 7      4489.012    23938928.480    99355432.349 7      4489.012
G27  21012746.420   110422717.692 7      1892.856    21012745.180   110422717.700 8      1892.856    21012755.760    86043714.947 8      1474.953    21012756.080    86043715.948 8      1474.953
R14  19628812.380   104632597.196 8       413.884    19628812.840   104632597.194 8       413.884    19628826.920    81380974.195 8       321.910    19628827.540    81380972.196 8       321.910
G16  20992253.620   110315029.156 7       769.286    20992252.380   110315029.164 6       769.286    20992263.080    85959796.765 6       599.444
G10  22144814.180   116371781.231 7      2060.300    22144812.900   116371781.233 7      2060.300    22144827.440    90679309.290 7      1605.428    22144827.460    90679362.304 8      1605.428
G21  20772101.560   109158123.200 7      3530.190    20772099.860   109158123.207 6      3530.190    20772108.480    85058313.339 6      2750.797
R17  20312211.620   108694738.533 7      2532.717    20312210.960   108694738.537 7      2532.717    20312223.800    84540405.202 8      1969.891    20312223.380    84540405.206 8      1969.891
G08  21194321.280   111376900.634 7      3542.682    21194319.800   111376900.636 7      3542.682    21194329.580    86787232.056 8      2760.532    21194330.280    86787235.054 8      2760.532
R15  20189294.820   107885461.671 8      4610.834    20189292.440   107885461.667 7      4610.834    20189304.340    83910963.148 8      3586.204    20189304.620    83910961.156 8      3586.204
R01  22979685.460   122839592.509 6      4434.489    22979682.500   122839592.505 6      4434.489    22979714.060    95542040.007 6      3449.047    22979712.360    95542035.008 6      3449.047
R24  21390419.940   114384186.742 7       235.232    21390419.040   114384186.744 7       235.232    21390435.300    88965546.007 7       182.958    21390434.860    88965532.995 8       182.958
G23  23988324.960   126059489.053 7       245.334    23988324.240   126059489.061 5       245.334    23988337.180    98228220.160 5       191.169    23988337.340    98228231.167 7       191.169
G07  24006400.020   126154487.438 6      3523.845    24006399.320   126154487.435 6      3523.845    24006409.480    98302226.123 6      2745.853    24006409.940    98302233.133 7      2745.853
R18  22613624.720   120713077.464 7      4558.500    22613626.540   120713077.473 7      4558.500    22613642.980    93888024.153 7      3545.500    22613643.760    93888026.163 7      3545.500
> 2024 04 02 15 06 24.0000000  0 16
G02  22222592.300   116780509.881 7      4311.600    22222590.420   116780509.886 6      4311.600    22222601.040    90997839.918 6      3359.689
G26  23071884.020   121243574.186 7      -603.317    23071883.320   121243574.196 6      -603.317    23071901.520    94475573.574 6      -470.117    23071902.100    94475578.568 7      -470.117
R02  23937824.200   127736805.114 7      5771.612    23937823.080   127736805.114 6      5771.612    23937846.320    99350941.339 7      4489.031    23937846.820    99350943.347 7      4489.031
G27  21012386.080   110420824.836 8      1892.810    21012385.000   110420824.844 8      1892.810    21012395.600    86042239.992 8      1474.917    21012395.960    86042240.991 8      1474.917
R14  19628734.960   104632183.635 8       413.218    19628735.240   104632183.627 8       413.218    19628749.360    81380652.524 8       321.392    19628749.960    81380650.523 8       321.392
G16  20992107.120   110314260.084 7       768.944    20992105.980   110314260.095 6       768.944    20992116.720    85959197.487 6       599.177
G10  22144422.140   116369721.128 7      2059.780    22144420.820   116369721.130 7      2059.780    22144435.460    90677704.018 7      1605.023    22144435.440    90677757.030 8      1605.023
G21  20771429.880   109154593.230 7      3529.733    20771428.240   109154593.235 6      3529.733    20771436.900    85055562.715 6      2750.441
R17  20311738.360   108692205.886 8      2532.464    20311737.420   108692205.901 7      2532.464    20311750.500    84538435.372 8      1969.694    20311750.240    84538435.376 8      1969.694
G08  21193647.040   111373357.910 7      3542.706    21193645.560   111373357.912 7      3542.706    21193655.400    86784471.492 7      2760.550    21193656.140    86784474.490 8      2760.550
R15  20188432.220   107880851.028 7      4610.295    20188429.740   107880851.021 7      4610.295    20188441.500    83907377.092 8      3585.785    20188441.540    83907375.096 8      3585.785
R01  22978856.000   122835158.195 6      4433.976    22978852.500   122835158.194 6      4433.976    22978884.100    95538591.128 6      3448.648    22978882.740    95538586.116 6      3448.648
R24  21390375.860   114383951.348 7       235.426    21390374.940   114383951.352 7       235.426    21390390.960    88965362.920 8       183.109    21390390.740    88965349.911 8       183.109
G23  23988278.680   126059243.808 7       245.061    23988277.500   126059243.813 5       245.061    23988290.580    98228029.062 5       190.957    23988290.720    98228040.065 7       190.957
G07  24005729.620   126150963.666 7      3523.651    24005728.680   126150963.665 6      3523.651    24005739.000    98299480.328 6      2745.702    24005739.180    98299487.327 7      2745.702
R18  22612771.240   120708518.989 7      4558.273    22612772.260   120708519.006 7      4558.273    22612789.120    93884478.683 7      3545.324    22612789.840    93884480.693 7      3545.324
> 2024 04 02 15 06 25.0000000  0 16
G02  22221771.780   116776198.195 7      4311.625    22221769.980   116776198.205 6      4311.625    22221780.500    90994480.175 6      3359.708
G26  23071998.700   121244177.432 7      -603.222    23071998.160   121244177.434 6      -603.222    23072016.320    94476043.630 6      -470.043    23072016.700    94476048.635 7      -470.043
R02  23936741.880   127731033.102 7      5772.319    23936741.620   127731033.092 6      5772.319    23936764.620    99346451.999 7      4489.581    23936765.220    99346454.005 7      4489.581
G27  21012025.900   110418931.825 8      1893.100    21012024.640   110418931.830 8      1893.100    21012035.420    86040764.913 8      1475.143    21012035.780    86040765.914 8      1475.143
R14  19628657.360   104631770.540 8       412.833    19628657.760   104631770.533 8       412.833    19628671.840    81380331.222 8       321.092    19628672.200    81380329.223 8       321.092
G16  20991960.540   110313491.181 7       768.806    20991959.600   110313491.191 6       768.806    20991970.560    85958598.335 6       599.070
G10  22144030.320   116367661.301 7      2059.619    22144028.880   116367661.306 7      2059.619    22144043.420    90676098.966 7      1604.898    22144043.380    90676151.980 8      1604.898
G21  20770758.020   109151063.428 7      3529.652    20770756.360   109151063.435 6      3529.652    20770765.160    85052812.230 6      2750.379
R17  20311265.320   108689673.211 8      2532.631    20311264.260   108689673.220 7      2532.631    20311277.260    84536465.513 8      1969.824    20311276.680    84536465.515 8      1969.824
G08  21192972.980   111369814.994 7      3542.962    21192971.420   111369814.996 7      3542.962    21192981.160    86781710.780 7      2760.750    21192981.760    86781713.780 8      2760.750
R15  20187569.700   107876240.831 8      4609.884    20187566.940   107876240.829 7      4609.884    20187578.840    83903791.388 8      3585.466    20187578.660    83903789.391 8      3585.466
R01  22978026.220   122830724.059 6      4434.102    22978023.280   122830724.044 6      4434.102    22978054.500    95535142.363 6      3448.746    22978053.560    95535137.356 6      3448.746
R24  21390331.880   114383715.653 7       235.799    21390330.980   114383715.652 7       235.799    21390346.680    88965179.594 7       183.399    21390346.680    88965166.587 7       183.399
G23  23988231.900   126058998.703 7       245.054    23988230.820   126058998.711 5       245.054    23988243.820    98227838.077 5       190.951    23988243.940    98227849.086 7       190.951
G07  24005059.200   126147440.138 7      3523.381    24005058.220   126147440.143 6      3523.381    24005068.280    98296734.724 6      2745.492    24005069.300    98296741.725 7      2745.492
R18  22611917.520   120703960.535 7      4558.405    22611918.500   120703960.536 7      4558.405    22611935.260    93880933.223 7      3545.426    22611935.560    93880935.227 7      3545.426
> 2024 04 02 15 06 26.0000000  0 16
G02  22220951.340   116771886.701 7      4311.320    22220949.380   116771886.712 6      4311.320    22220960.000    90991120.571 6      3359.470
G26  23072113.580   121244780.687 7      -603.370    23072112.720   121244780.692 6      -603.370    23072131.180    94476513.701 6      -470.158    23072131.460    94476518.701 7      -470.158
R02  23935660.700   127725260.829 7      5772.359    23935659.440   127725260.835 6      5772.359    23935683.240    99341962.441 7      4489.613    23935683.340    99341964.448 7      4489.613
G27  21011665.780   110417038.788 7      1892.890    21011664.460   110417038.796 8      1892.890    21011675.080    86039289.823 8      1474.979    21011675.800    86039290.822 8      1474.979
R14  19628579.960   104631358.019 8       412.099    19628580.280   104631358.014 8       412.099    19628594.500    81380010.370 8       320.521    19628594.960    81380008.371 8       320.521
G16  20991814.440   110312722.548 7       768.374    20991813.400   110312722.558 6       768.374    20991824.280    85957999.394 6       598.733
G10  22143638.240   116365601.877 7      2059.138    22143637.180   116365601.879 7      2059.138    22143651.620    90674494.219 7      1604.523    22143651.480    90674547.233 8      1604.523
G21  20770086.320   109147533.933 8      3529.226    20770084.820   109147533.938 6      3529.226    20770093.540    85050061.972 6      2750.046
R17  20310791.840   108687140.623 7      2532.429    20310790.940   108687140.633 7      2532.429    20310804.040    84534495.725 8      1969.667    20310803.860    84534495.727 8      1969.667
G08  21192298.500   111366272.017 7      3542.798    21192297.260   111366272.019 7      3542.798    21192307.000    86778950.021 8      2760.622    21192307.500    86778953.023 8      2760.622
R15  20186706.820   107871631.192 8      4609.234    20186704.180   107871631.191 8      4609.234    20186716.120    83900206.113 8      3584.960    20186716.420    83900204.121 8      3584.960
R01  22977196.580   122826290.213 6      4433.691    22977193.720   122826290.214 6      4433.691    22977225.320    95531693.835 6      3448.426    22977224.040    95531688.832 6      3448.426
R24  21390287.920   114383479.793 7       235.799    21390286.720   114383479.787 7       235.799    21390302.400    88964996.139 7       183.399    21390302.120    88964983.132 8       183.399
G23  23988185.120   126058753.866 7       244.529    23988184.280   126058753.876 5       244.529    23988196.980    98227647.299 5       190.542    23988197.260    98227658.306 7       190.542
G07  24004388.480   126143916.900 6      3523.000    24004387.620   126143916.902 6      3523.000    24004397.880    98293989.342 6      2745.195    24004398.920    98293996.354 7      2745.195
R18  22611063.220   120699402.161 6      4558.221    22611064.480   120699402.157 7      4558.221    22611081.040    93877387.823 7      3545.283    22611082.020    93877389.832 7      3545.283
> 2024 04 02 15 06 27.0000000  0 16
G02  22220130.780   116767575.531 7      4311.163    22220129.180   116767575.533 6      4311.163    22220139.520    90987761.226 6      3359.348
G26  23072228.460   121245384.125 7      -603.410    23072227.560   121245384.133 6      -603.410    23072245.880    94476983.919 7      -470.189    23072246.420    94476988.919 7      -470.189
R02  23934578.700   127719488.377 7      5772.593    23934578.040   127719488.375 6      5772.593    23934601.480    99337472.758 7      4489.795    23934601.940    99337474.761 7      4489.795
G27  21011305.420   110415145.843 7      1892.983    21011304.240   110415145.848 8      1892.983    21011314.940    86037814.798 8      1475.052    21011315.560    86037815.796 8      1475.052
R14  19628502.620   104630946.169 8       411.599    19628503.140   104630946.169 8       411.599    19628517.200    81379690.042 8       320.132    19628517.800    81379688.041 8       320.132
G16  20991668.260   110311954.338 8       768.053    20991667.200   110311954.343 6       768.053    20991677.980    85957400.780 6       598.483
G10  22143246.380   116363542.980 8      2058.760    22143245.300   116363542.982 7      2058.760    22143259.760    90672889.893 7      1604.229    22143259.440    90672942.907 8      1604.229
G21  20769415.000   109144004.861 8      3528.916    20769413.300   109144004.866 6      3528.916    20769422.000    85047312.056 6      2749.805
R17  20310318.600   108684608.295 8      2532.230    20310318.020   108684608.305 7      2532.230    20310330.780    84532526.141 8      1969.512    20310330.480    84532526.143 8      1969.512
G08  21191624.260   111362729.088 7      3542.954    21191623.020   111362729.090 8      3542.954    21191632.740    86776189.297 7      2760.743    21191633.340    86776192.301 8      2760.743
R15  20185844.140   107867022.281 8      4608.633    20185841.600   107867022.282 7      4608.633    20185853.320    83896621.410 8      3584.492    20185853.860    83896619.412 8      3584.492
R01  22976366.700   122821856.833 6      4433.318    22976364.520   122821856.839 6      4433.318    22976396.020    95528245.680 6      3448.136    22976394.200    95528240.681 6      3448.136
R24  21390243.980   114383243.901 7       236.109    21390242.940   114383243.889 7       236.109    21390258.100    88964812.667 7       183.641    21390258.020    88964799.662 7       183.641
G23  23988138.820   126058509.412 7       244.321    23988137.600   126058509.417 5       244.321    23988150.700    98227456.819 5       190.380    23988150.840    98227467.835 7       190.380
G07  24003718.500   126140394.179 7      3522.294    24003717.340   126140394.186 6      3522.294    24003727.740    98291244.366 6      2744.645    24003728.300    98291251.381 7      2744.645
R18  22610209.360   120694844.020 7      4558.118    22610210.500   120694844.026 7      4558.118    22610227.560    93873842.621 7      3545.203    22610227.980    93873844.629 7      3545.203
> 2024 04 02 15 06 28.0000000  0 16
G02  22219310.640   116763264.633 7      4310.728    22219308.780   116763264.638 6      4310.728    22219319.280    90984402.093 6      3359.009
G26  23072343.060   121245987.689 7      -603.695    23072342.500   121245987.694 6      -603.695    23072360.700    94477454.223 6      -470.412    23072360.940    94477459.214 7      -470.412
R02  23933497.400   127713715.695 7      5772.781    23933496.220   127713715.688 6      5772.781    23933519.820    99332982.886 7      4489.941    23933520.020    99332984.886 7      4489.941
G27  21010945.340   110413252.940 8      1892.852    21010944.100   110413252.947 8      1892.852    21010954.700    86036339.809 8      1474.949    21010955.260    86036340.806 8      1474.949
R14  19628425.500   104630534.940 8       410.868    19628425.840   104630534.935 8       410.868    19628440.040    81379370.187 8       319.564    19628440.500    81379368.188 8       319.564
G16  20991522.180   110311186.459 8       767.628    20991521.100   110311186.466 6       767.628    20991531.900    85956802.427 6       598.152
G10  22142854.520   116361484.580 8      2058.055    22142853.680   116361484.582 7      2058.055    22142868.040    90671285.947 7      1603.679    22142867.900    90671338.963 8      1603.679
G21  20768743.360   109140476.166 7      3528.477    20768741.780   109140476.170 6      3528.477    20768750.420    85044562.427 6      2749.463
R17  20309845.480   108682076.155 7      2531.989    20309844.640   108682076.164 8      2531.989    20309857.520    84530556.698 8      1969.324    20309857.220    84530556.698 8      1969.324
G08  21190950.040   111359186.180 7      3542.744    21190948.940   111359186.177 7      3542.744    21190958.620    86773428.588 7      2760.579    21190959.000    86773431.594 8      2760.579
R15  20184982.060   107862413.978 8      4608.011    20184979.380   107862413.977 8      4608.011    20184991.080    83893037.175 8      3584.009    20184991.280    83893035.180 8      3584.009
R01  22975537.260   122817423.842 6      4432.958    22975535.260   122817423.844 6      4432.958    22975566.720    95524797.807 6      3447.856    22975565.260    95524792.801 6      3447.856
R24  21390199.920   114383007.902 7       236.062    21390198.900   114383007.898 7       236.062    21390213.520    88964629.113 7       183.604    21390213.960    88964616.110 7       183.604
G23  23988092.480   126058265.289 7       243.881    23988091.020   126058265.299 5       243.881    23988104.300    98227266.600 5       190.037    23988104.240    98227277.607 7       190.037
G07  24003048.260   126136871.778 6      3522.063    24003047.160   126136871.781 6      3522.063    24003057.360    98288499.643 6      2744.465    24003058.240    98288506.647 7      2744.465
R18  22609356.120   120690286.081 7      4557.749    22609356.460   120690286.088 7      4557.749    22609373.680    93870297.562 7      3544.916    22609374.240    93870299.568 7      3544.916
> 2024 04 02 15 06 29.0000000  0 16
G02  22218490.280   116758954.043 7      4310.377    22218488.380   116758954.048 6      4310.377    22218498.900    90981043.200 6      3358.736
G26  23072458.020   121246591.383 7      -603.754    23072457.340   121246591.382 6      -603.754    23072475.740    94477924.627 6      -470.458    23072475.800    94477929.625 7      -470.458
R02  23932415.180   127707942.865 7      5772.923    23932414.340   127707942.863 6      5772.923    23932437.780    99328492.907 7      4490.051    23932438.160    99328494.908 7      4490.051
G27  21010585.080   110411360.131 7      1892.787    21010583.880   110411360.136 8      1892.787    21010594.540    86034864.887 8      1474.899    21010594.920    86034865.884 8      1474.899
R14  19628348.360   104630124.385 8       410.230    19628348.940   104630124.380 8       410.230    19628362.940    81379050.858 8       319.068    19628363.420    81379048.859 8       319.068
G16  20991376.240   110310418.977 8       767.300    20991374.960   110310418.984 6       767.300    20991385.800    85956204.385 6       597.896
G10  22142463.020   116359426.661 7      2057.731    22142462.100   116359426.663 7      2057.731    22142476.460    90669682.373 7      1603.427    22142476.300    90669735.391 8      1603.427
G21  20768072.200   109136947.877 8      3528.156    20768070.340   109136947.879 6      3528.156    20768079.000    85041813.116 6      2749.212
R17  20309372.520   108679544.228 7      2531.835    20309371.600   108679544.240 7      2531.835    20309384.520    84528587.424 8      1969.205    20309383.920    84528587.424 8      1969.205
G08  21190276.000   111355643.274 7      3542.993    21190274.740   111355643.274 7      3542.993    21190284.480    86770667.886 7      2760.774    21190284.780    86770670.888 8      2760.774
R15  20184119.780   107857806.352 8      4607.335    20184117.160   107857806.347 7      4607.335    20184128.860    83889453.461 8      3583.482    20184128.900    83889451.465 8      3583.482
R01  22974708.160   122812991.293 6      4432.411    22974706.400   122812991.300 6      4432.411    22974737.580    95521350.302 6      3447.430    22974735.700    95521345.294 6      3447.430
R24  21390156.020   114382771.821 7       236.146    21390154.540   114382771.817 7       236.146    21390169.480    88964445.493 7       183.669    21390169.680    88964432.490 7       183.669
G23  23988045.660   126058021.529 7       243.607    23988044.500   126058021.537 5       243.607    23988057.800    98227076.665 5       189.823    23988058.000    98227087.677 7       189.823
G07  24002377.920   126133349.838 6      3521.769    24002376.920   126133349.840 6      3521.769    24002387.100    98285755.272 6      2744.236    24002387.820    98285762.278 7      2744.236
R18  22608502.460   120685728.380 7      4557.585    22608502.640   120685728.386 7      4557.585    22608519.740    93866752.697 7      3544.789    22608520.380    93866754.706 7      3544.789
