     3.05           OBSERVATION DATA    MIXED               RINEX VERSION / TYPE
TPS2RIN 1.0.29.3920 TPS-USER            20240511 200042 UTC PGM / RUN BY / DATE
Win64 build Feb 23, 2024 (c) Topcon Positioning Systems     COMMENT
SRC: 20240510_MI01.tps                                      COMMENT
OPT: -S -v 3.05                                             COMMENT
Observer            Agency                                  OBSERVER / AGENCY
O0M3X53SBGM         TPS HIPER_SR        4.8 HSR Jul,08,2022 REC # / TYPE / VERS
FW: 4.8 HSR Jul,08,2022 p3                                  COMMENT
SN: HiPer SR 1212-12575                                     COMMENT
000                 TPSHIPER_SR     NONE                    ANT # / TYPE
        1.8000        0.0000        0.0000                  ANTENNA: DELTA H/E/N
MI01                                                        MARKER NAME
  5384352.3650 -1584078.9617  3021712.9899                  APPROX POSITION XYZ
  2024     5    10     9    14   36.0000000     GPS         TIME OF FIRST OBS
  2024     5    10     9    29   35.0000000     GPS         TIME OF LAST OBS
     1.000                                                  INTERVAL
   899 EPOCHS                                               COMMENT
G   16 C1C L1C D1C S1C C1W L1W D1W S1W C2W L2W D2W S2W C2X  SYS / # / OBS TYPES
       L2X D2X S2X                                          SYS / # / OBS TYPES
R   16 C1C L1C D1C S1C C1P L1P D1P S1P C2P L2P D2P S2P C2C  SYS / # / OBS TYPES
       L2C D2C S2C                                          SYS / # / OBS TYPES
    14                                                      # OF SATELLITES
   G04   806   806   806   806   805   805   805   805   805PRN / # OF OBS
         805   805   805   806   806   806   806            PRN / # OF OBS
   G16   899   899   899   899   899   899   899   899   899PRN / # OF OBS
         899   899   899     0     0     0     0            PRN / # OF OBS
   G18   899   899   899   899   899   899   899   899   899PRN / # OF OBS
         899   899   899   899   899   899   899            PRN / # OF OBS
   G25   142   142   142   142   142   142   142   142   142PRN / # OF OBS
         142   142   142   142   142   142   142            PRN / # OF OBS
   G26   899   899   899   899   899   899   899   899   899PRN / # OF OBS
         899   899   899   899   899   899   899            PRN / # OF OBS
   G27   899   899   899   899   899   899   899   899   899PRN / # OF OBS
         899   899   899   899   899   899   899            PRN / # OF OBS
   G28   899   899   899   899   899   899   899   899   899PRN / # OF OBS
         899   899   899   899   899   899   899            PRN / # OF OBS
   G29   899   899   899   899   899   899   899   899   899PRN / # OF OBS
         899   899   899   899   899   899   899            PRN / # OF OBS
   G31   899   899   899   899   899   899   899   899   899PRN / # OF OBS
         899   899   899   899   899   899   899            PRN / # OF OBS
   R10   899   899   899   899   899   899   899   899     0PRN / # OF OBS
           0     0     0     0     0     0     0            PRN / # OF OBS
   R11   899   899   899   899   899   899   899   899   899PRN / # OF OBS
         899   899   899   899   899   899   899            PRN / # OF OBS
   R12   899   899   899   899   899   899   899   899   899PRN / # OF OBS
         899   899   899   899   899   899   899            PRN / # OF OBS
   R21   899   899   899   899   899   899   899   899   899PRN / # OF OBS
         899   899   899   899   899   899   899            PRN / # OF OBS
   R22   899   899   899   899   899   899   899   899   899PRN / # OF OBS
         899   899   899   899   899   899   899            PRN / # OF OBS
G L1C                                                       SYS / PHASE SHIFT
G L1W -0.25000                                              SYS / PHASE SHIFT
G L2W  0.00000                                              SYS / PHASE SHIFT
G L2X  0.25000                                              SYS / PHASE SHIFT
R L1C                                                       SYS / PHASE SHIFT
R L1P -0.25000                                              SYS / PHASE SHIFT
R L2P -0.25000                                              SYS / PHASE SHIFT
R L2C                                                       SYS / PHASE SHIFT
  5 R10 -7 R11  0 R12 -1 R21  4 R22 -3                      GLONASS SLOT / FRQ #
                                                            GLONASS COD/PHS/BIS
    18    18  1929     7GPS                                 LEAP SECONDS
                                                            END OF HEADER
> 2024 05 10 09 14 36.0000000  0 14
R10  20838516.660   111081022.838 7       915.428          45.812    20838516.000   111081022.849 7       915.428          44.000
R12  23494573.580   125503784.340 6      5836.588          39.812    23494572.580   125503784.343 6      5836.588          40.375    23494584.680    97614108.030 6      4539.569          41.187    23494585.720    97614112.025 7      4539.569          42.437
R22  20843440.900   111263704.562 7      5901.064          46.062    20843440.980   111263704.553 7      5901.064          46.625    20843448.260    86538466.083 8      4589.717          48.562    20843448.320    86538467.078 8      4589.717          49.437
R11  19869535.960   106176772.638 8      4178.643          48.875    19869535.440   106176772.639 7      4178.643          47.500    19869542.900    82581965.860 8      3250.056          51.500    19869542.640    82581964.863 8      3250.056          52.062
G29  23920182.400   125701402.883 6      -568.737          41.750    23920180.820   125701402.893 6      -568.737          38.562    23920187.080    97949170.027 6      -443.172          38.125    23920188.280    97949176.040 6      -443.172          41.500
G25  25034538.940   131557382.688 5       -49.981          34.750    25034537.380   131557382.712 4       -49.981          25.875    25034551.740   102512247.878 4       -38.946          25.875    25034554.560   102512315.892 5       -38.946          35.750
G04  24267802.780   127528159.387 7      2754.390          42.062    24267802.060   127528159.395 4      2754.390          24.937    24267810.600    99372622.603 4      2146.278          25.062    24267810.960    99372632.609 6      2146.278          41.687
G16  22312737.680   117254224.903 7      4436.502          43.125    22312736.580   117254224.906 5      4436.502          31.687    22312740.720    91366943.516 5      3457.015          31.375
G31  20308488.360   106721822.391 8      2053.201          48.750    20308487.160   106721822.393 8      2053.201          48.875    20308488.640    83159864.175 8      1599.897          49.062    20308489.340    83159870.176 8      1599.897          51.062
G28  20960824.160   110149874.417 7       208.787          46.250    20960823.640   110149874.424 6       208.787          38.312    20960825.680    85831078.437 6       162.691          37.875    20960826.140    85831080.441 8       162.691          50.000
G18  21302759.840   111946758.753 7      2232.559          46.437    21302758.920   111946758.766 6      2232.559          38.937    21302762.740    87231248.856 6      1739.657          38.125    21302763.080    87231252.859 8      1739.657          50.812
G27  22186609.980   116591417.519 7      4672.735          45.250    22186608.440   116591417.524 6      4672.735          36.500    22186614.520    90850476.124 6      3641.092          36.000    22186614.620    90850480.137 8      3641.092          48.875
G26  20658412.240   108560687.508 7      3309.872          47.250    20658410.020   108560687.511 7      3309.872          47.062    20658415.260    84592759.262 7      2579.121          47.625    20658416.720    84592767.255 8      2579.121          49.250
R21  19078959.800   102095375.886 7      2143.263          47.687    19078959.820   102095375.909 7      2143.263          47.812    19078968.260    79407544.690 8      1666.982          49.687    19078967.580    79407541.693 8      1666.982          48.750
> 2024 05 10 09 14 38.0000000  0 14
R10  20838173.580   111079192.909 7       914.361          45.125    20838172.780   111079192.926 7       914.361          44.062
R12  23492388.860   125492110.843 6      5836.756          40.187    23492387.300   125492110.860 6      5836.756          40.562    23492399.340    97605028.669 6      4539.699          41.875    23492400.400    97605032.671 7      4539.699          42.125
R22  20841230.180   111251903.501 7      5899.976          46.562    20841230.160   111251903.496 7      5899.976          46.750    20841237.500    86529287.490 8      4588.871          48.875    20841237.640    86529288.485 8      4588.871          49.187
R11  19867972.220   106168416.026 8      4177.922          49.062    19867971.960   106168416.019 7      4177.922          47.750    19867979.080    82575466.263 8      3249.495          51.187    19867978.840    82575465.264 8      3249.495          52.187
G29  23920398.840   125702540.506 6      -568.875          41.500    23920397.480   125702540.519 6      -568.875          38.250    23920403.560    97950056.476 6      -443.279          38.125    23920405.200    97950062.490 6      -443.279          41.562
G25  25034558.400   131557482.608 5       -50.231          34.312    25034556.700   131557482.628 4       -50.231          25.875    25034571.040   102512325.742 4       -39.141          25.875    25034572.980   102512393.753 5       -39.141          35.750
G04  24266754.800   127522651.771 6      2753.221          40.562    24266754.040   127522651.773 4      2753.221          24.937    24266762.340    99368330.950 4      2145.367          25.062    24266762.760    99368340.944 7      2145.367          42.250
G16  22311049.300   117245351.897 7      4436.391          43.812    22311048.080   117245351.899 5      4436.391          31.687    22311052.340    91360029.487 5      3456.928          31.812
G31  20307707.080   106717717.181 7      2051.921          47.937    20307706.040   106717717.183 8      2051.921          49.500    20307707.520    83156665.312 8      1598.899          49.562    20307708.320    83156671.311 8      1598.899          51.125
G28  20960745.200   110149457.910 7       207.663          46.437    20960744.320   110149457.926 6       207.663          37.750    20960746.420    85830753.888 6       161.816          38.000    20960747.000    85830755.889 8       161.816          49.687
G18  21301910.440   111942294.855 7      2231.291          47.250    21301909.620   111942294.863 6      2231.291          38.812    21301913.400    87227770.492 6      1738.668          38.500    21301913.820    87227774.497 8      1738.668          51.062
G27  22184831.880   116582072.831 7      4671.940          44.625    22184830.280   116582072.836 6      4671.940          36.875    22184836.280    90843194.555 6      3640.473          36.375    22184836.520    90843198.570 8      3640.473          49.000
G26  20657152.720   108554068.113 7      3309.433          47.937    20657150.260   108554068.116 7      3309.433          47.875    20657155.740    84587601.294 7      2578.779          47.750    20657157.100    84587609.291 8      2578.779          49.000
R21  19078159.300   102091091.151 7      2141.386          47.000    19078159.300   102091091.161 8      2141.386          48.062    19078167.520    79404212.106 8      1665.523          49.875    19078166.840    79404209.110 8      1665.523          49.187
> 2024 05 10 09 14 39.0000000  0 14
R10  20838002.140   111078278.739 7       913.661          44.812    20838001.180   111078278.755 7       913.661          44.250
R12  23491295.700   125486273.972 6      5836.603          39.437    23491294.660   125486273.976 6      5836.603          40.562    23491306.480    97600488.872 6      4539.580          41.875    23491307.580    97600492.876 7      4539.580          42.375
R22  20840124.860   111246003.839 7      5899.081          45.812    20840124.940   111246003.840 7      5899.081          46.125    20840132.220    86524698.872 8      4588.174          48.875    20840132.500    86524699.867 8      4588.174          48.937
R11  19867190.400   106164238.294 8      4177.217          48.687    19867190.000   106164238.293 7      4177.217          47.687    19867197.260    82572216.933 8      3248.946          51.500    19867196.940    82572215.936 8      3248.946          52.250
G29  23920507.540   125703109.361 7      -569.089          42.937    23920505.800   125703109.366 6      -569.089          38.125    23920511.920    97950499.730 6      -443.446          38.000    23920513.340    97950505.737 6      -443.446          41.562
G25  25034567.220   131557532.770 5       -50.562          34.312    25034565.840   131557532.788 4       -50.562          24.812    25034581.060   102512364.819 4       -39.399          24.437    25034583.000   102512432.818 5       -39.399          35.750
G04  24266230.760   127519898.834 6      2752.277          41.375    24266230.360   127519898.836 4      2752.277          24.937    24266238.440    99366185.804 4      2144.632          25.062    24266239.440    99366195.802 6      2144.632          41.625
G16  22310205.260   117240915.570 7      4436.028          44.375    22310203.920   117240915.572 5      4436.028          32.250    22310207.940    91356572.619 5      3456.645          31.937
G31  20307316.900   106715665.560 8      2050.988          48.062    20307315.680   106715665.565 8      2050.988          49.187    20307317.160    83155066.648 8      1598.172          49.437    20307317.680    83155072.649 8      1598.172          50.937
G28  20960705.680   110149250.497 7       206.821          46.250    20960705.060   110149250.507 6       206.821          38.187    20960706.960    85830592.261 6       161.160          38.000    20960707.360    85830594.262 8       161.160          50.187
G18  21301485.920   111940063.959 7      2230.217          47.062    21301485.020   111940063.966 6      2230.217          38.750    21301488.720    87226032.129 6      1737.832          38.687    21301489.160    87226036.132 8      1737.832          50.937
G27  22183942.880   116577401.073 7      4671.265          45.250    22183941.200   116577401.078 6      4671.265          37.125    22183947.160    90839554.230 6      3639.947          36.187    22183947.680    90839558.242 8      3639.947          49.187
G26  20656522.920   108550758.818 7      3308.785          47.437    20656520.600   108550758.820 7      3308.785          47.812    20656525.840    84585022.626 7      2578.274          47.562    20656527.280    84585030.623 8      2578.274          48.937
R21  19077759.240   102088950.122 7      2140.258          47.437    19077758.960   102088950.137 7      2140.258          47.125    19077767.460    79402546.870 8      1664.645          49.312    19077766.660    79402543.871 8      1664.645          48.500
> 2024 05 10 09 14 40.0000000  0 14
R10  20837830.640   111077365.206 7       913.421          45.125    20837829.480   111077365.214 7       913.421          43.812
R12  23490203.040   125480437.082 6      5837.048          39.437    23490202.540   125480437.073 6      5837.048          40.250    23490214.640    97595949.058 6      4539.927          41.875    23490214.500    97595953.058 7      4539.927          42.000
R22  20839019.900   111240104.817 7      5898.817          45.937    20839020.020   111240104.821 7      5898.817          46.312    20839027.240    86520110.744 8      4587.969          48.437    20839027.380    86520111.740 8      4587.969          49.062
R11  19866408.640   106160061.025 8      4177.212          48.437    19866408.220   106160061.023 7      4177.212          47.500    19866415.660    82568967.949 8      3248.942          50.937    19866415.280    82568966.951 8      3248.942          52.437
G29  23920615.520   125703678.319 7      -568.904          42.375    23920614.140   125703678.323 6      -568.904          38.562    23920620.220    97950943.069 6      -443.302          38.375    23920621.720    97950949.078 6      -443.302          41.375
G25  25034576.580   131557583.100 5       -50.012          34.312    25034574.800   131557583.115 4       -50.012          24.812    25034590.640   102512404.027 4       -38.970          24.437    25034592.700   102512472.032 5       -38.970          35.875
G04  24265706.900   127517146.514 6      2752.128          40.562    24265706.640   127517146.519 4      2752.128          24.937    24265714.860    99364041.140 4      2144.515          24.750    24265715.480    99364051.148 6      2144.515          41.750
G16  22309361.020   117236479.461 7      4436.181          44.250    22309359.660   117236479.463 5      4436.181          32.250    22309363.700    91353115.915 5      3456.765          31.937
G31  20306926.500   106713614.651 8      2050.737          48.250    20306925.360   106713614.658 8      2050.737          49.125    20306926.960    83153468.537 8      1597.977          49.187    20306927.420    83153474.541 8      1597.977          51.250
G28  20960666.140   110149043.685 7       206.634          47.500    20960665.680   110149043.692 6       206.634          38.437    20960667.600    85830431.103 6       161.013          37.812    20960667.880    85830433.110 8       161.013          49.687
G18  21301061.560   111937833.793 7      2229.889          46.812    21301060.680   111937833.803 6      2229.889          38.437    21301064.320    87224294.342 6      1737.576          38.187    21301064.820    87224298.343 8      1737.576          51.375
G27  22183054.000   116572729.751 7      4671.263          44.062    22183052.380   116572729.759 6      4671.263          36.375    22183058.260    90835914.239 6      3639.945          36.375    22183058.680    90835918.255 8      3639.945          49.000
G26  20655893.240   108547449.809 8      3308.972          48.187    20655890.860   108547449.814 7      3308.972          47.875    20655896.220    84582444.175 8      2578.420          48.250    20655897.940    84582452.173 8      2578.420          48.750
R21  19077359.160   102086810.077 8      2139.704          48.375    19077359.180   102086810.095 7      2139.704          47.812    19077367.520    79400882.388 8      1664.214          49.500    19077366.860    79400879.388 8      1664.214          48.500
> 2024 05 10 09 14 41.0000000  0 14
R10  20837659.320   111076452.280 7       912.853          45.062    20837658.200   111076452.283 7       912.853          43.687
R12  23489110.860   125474600.203 6      5837.070          39.437    23489109.600   125474600.199 6      5837.070          40.250    23489121.840    97591409.270 6      4539.944          41.250    23489122.280    97591413.272 7      4539.944          42.000
R22  20837914.860   111234206.447 7      5898.189          46.000    20837915.060   111234206.451 7      5898.189          46.625    20837922.100    86515523.127 8      4587.481          48.875    20837922.560    86515524.125 8      4587.481          49.625
R11  19865627.040   106155884.255 8      4176.694          48.375    19865626.680   106155884.256 7      4176.694          47.500    19865633.960    82565719.351 8      3248.540          51.125    19865633.700    82565718.354 8      3248.540          52.312
G29  23920723.220   125704247.384 7      -569.028          42.312    23920722.220   125704247.389 6      -569.028          38.187    23920728.460    97951386.486 6      -443.399          38.187    23920729.600    97951392.502 6      -443.399          41.125
G25  25034586.320   131557633.708 5       -50.534          33.625    25034584.280   131557633.724 4       -50.534          24.812    25034599.760   102512443.462 4       -39.377          24.437    25034602.620   102512511.485 5       -39.377          35.875
G04  24265183.160   127514394.862 6      2751.639          41.250    24265182.900   127514394.870 4      2751.639          24.937    24265191.280    99361896.999 4      2144.134          24.750    24265192.020    99361907.005 6      2144.134          41.750
G16  22308516.800   117232043.520 7      4436.005          43.687    22308515.620   117232043.524 5      4436.005          31.937    22308519.660    91349659.341 5      3456.627          31.937
G31  20306536.260   106711564.485 7      2049.955          47.937    20306535.280   106711564.493 8      2049.955          49.375    20306536.800    83151871.010 8      1597.367          49.562    20306537.380    83151877.013 8      1597.367          51.500
G28  20960626.880   110148837.509 7       206.004          46.812    20960626.400   110148837.521 6       206.004          38.000    20960628.220    85830270.448 6       160.522          37.687    20960628.860    85830272.451 8       160.522          49.750
G18  21300637.620   111935604.394 7      2229.181          47.187    21300636.340   111935604.407 6      2229.181          38.375    21300639.900    87222557.150 6      1737.025          38.187    21300640.400    87222561.155 8      1737.025          50.687
G27  22182164.880   116568058.923 7      4670.816          43.687    22182163.480   116568058.926 6      4670.816          36.750    22182169.540    90832274.633 6      3639.597          36.500    22182170.060    90832278.646 8      3639.597          48.687
G26  20655263.400   108544141.144 7      3308.672          47.937    20655261.240   108544141.149 7      3308.672          47.312    20655266.620    84579865.999 7      2578.186          47.312    20655268.440    84579873.996 8      2578.186          48.625
R21  19076959.260   102084671.044 8      2138.629          48.000    19076959.300   102084671.056 7      2138.629          47.500    19076967.820    79399218.692 8      1663.378          50.125    19076967.200    79399215.693 8      1663.378          48.687
> 2024 05 10 09 14 42.0000000  0 14
R10  20837488.120   111075539.699 7       912.444          44.687    20837487.160   111075539.702 7       912.444          43.562
R12  23488017.720   125468763.044 6      5837.249          40.437    23488017.000   125468763.045 6      5837.249          40.500    23488029.320    97586869.263 6      4540.082          41.625    23488029.440    97586873.263 6      4540.082          41.562
R22  20836810.040   111228308.464 7      5897.785          45.812    20836810.200   111228308.460 7      5897.785          46.562    20836817.320    86510935.805 8      4587.166          48.687    20836817.680    86510936.802 8      4587.166          49.187
R11  19864845.500   106151707.667 8      4176.504          48.625    19864845.160   106151707.674 7      4176.504          47.750    19864852.380    82562470.900 8      3248.392          51.062    19864852.060    82562469.901 8      3248.392          52.312
G29  23920831.740   125704816.296 6      -569.029          41.875    23920830.360   125704816.307 6      -569.029          38.562    23920836.620    97951829.793 6      -443.400          38.562    23920837.540    97951835.802 6      -443.400          41.125
G25  25034595.920   131557684.238 5       -50.408          33.625    25034593.920   131557684.246 4       -50.408          24.812    25034609.460   102512482.836 4       -39.279          24.437    25034612.060   102512550.829 5       -39.279          35.875
G04  24264659.720   127511643.670 6      2750.912          41.000    24264659.300   127511643.677 4      2750.912          24.437    24264667.780    99359753.215 4      2143.568          24.750    24264668.340    99359763.205 6      2143.568          41.937
G16  22307672.780   117227607.513 7      4436.002          44.125    22307671.480   117227607.520 5      4436.002          31.937    22307675.500    91346202.721 5      3456.625          32.125
G31  20306146.300   106709514.785 8      2049.427          48.312    20306145.240   106709514.793 8      2049.427          49.187    20306146.800    83150273.841 8      1596.956          49.562    20306147.400    83150279.842 8      1596.956          51.250
G28  20960587.660   110148631.700 7       205.588          46.062    20960587.280   110148631.713 6       205.588          38.062    20960589.020    85830110.076 6       160.198          37.750    20960589.600    85830112.085 8       160.198          49.812
G18  21300213.200   111933375.510 7      2228.643          46.250    21300212.260   111933375.525 6      2228.643          38.250    21300215.820    87220820.359 6      1736.605          37.875    21300216.320    87220824.358 8      1736.605          51.187
G27  22181276.120   116563388.292 7      4670.472          45.062    22181274.780   116563388.303 6      4670.472          36.437    22181280.760    90828635.187 6      3639.329          36.500    22181281.200    90828639.198 8      3639.329          48.750
G26  20654633.840   108540832.558 7      3308.496          47.500    20654631.600   108540832.565 7      3308.496          47.812    20654636.980    84577287.884 7      2578.049          47.437    20654638.820    84577295.879 8      2578.049          48.750
R21  19076559.780   102082532.731 7      2137.859          47.437    19076559.900   102082532.740 8      2137.859          48.000    19076568.160    79397555.557 8      1662.780          50.062    19076567.460    79397552.558 8      1662.780          49.062
> 2024 05 10 09 14 43.0000000  0 14
R10  20837317.120   111074627.551 7       911.789          44.625    20837315.980   111074627.549 7       911.789          43.750
R12  23486925.200   125462925.657 6      5837.187          40.437    23486923.840   125462925.661 6      5837.187          40.500    23486936.140    97582329.086 6      4540.034          41.625    23486936.460    97582333.082 7      4540.034          42.312
R22  20835705.340   111222410.943 7      5897.081          45.812    20835705.220   111222410.941 7      5897.081          47.000    20835712.580    86506348.844 8      4586.618          49.312    20835712.700    86506349.841 8      4586.618          49.375
R11  19864063.700   106147531.392 8      4175.853          48.937    19864063.580   106147531.393 7      4175.853          47.375    19864070.800    82559222.681 8      3247.885          51.312    19864070.540    82559221.682 8      3247.885          52.000
G29  23920940.020   125705385.109 7      -568.937          42.062    23920938.700   125705385.109 6      -568.937          38.312    23920944.820    97952273.015 6      -443.328          38.125    23920946.340    97952279.021 6      -443.328          41.125
G25  25034605.400   131557734.855 5       -50.827          33.625    25034603.380   131557734.870 4       -50.827          24.812    25034618.800   102512522.273 4       -39.606          24.437    25034622.020   102512590.252 5       -39.606          35.875
G04  24264136.340   127508892.911 6      2750.303          40.750    24264135.740   127508892.913 4      2750.303          24.437    24264144.140    99357609.763 4      2143.093          24.750    24264145.160    99357619.754 7      2143.093          42.000
G16  22306828.660   117223171.533 7      4435.828          44.500    22306827.100   117223171.543 5      4435.828          32.062    22306831.360    91342746.115 5      3456.490          32.125
G31  20305756.160   106707465.645 8      2048.693          49.125    20305755.260   106707465.642 8      2048.693          49.937    20305756.840    83148677.100 8      1596.384          49.937    20305757.700    83148683.103 8      1596.384          51.187
G28  20960548.640   110148426.352 7       204.894          47.000    20960548.280   110148426.360 6       204.894          37.625    20960550.040    85829950.063 6       159.657          37.437    20960550.600    85829952.063 8       159.657          50.125
G18  21299789.240   111931147.230 7      2227.757          45.687    21299788.240   111931147.243 6      2227.757          39.000    21299791.800    87219084.035 6      1735.915          38.437    21299792.360    87219088.032 8      1735.915          50.687
G27  22180387.320   116558717.969 7      4669.867          43.875    22180385.960   116558717.977 6      4669.867          36.750    22180391.900    90824995.976 6      3638.857          36.500    22180392.420    90824999.983 8      3638.857          48.875
G26  20654004.420   108537524.111 7      3308.192          47.750    20654002.060   108537524.118 8      3308.192          48.000    20654007.340    84574709.873 7      2577.812          47.687    20654009.260    84574717.873 8      2577.812          49.312
R21  19076160.480   102080395.230 7      2136.889          47.312    19076160.520   102080395.248 7      2136.889          47.625    19076168.720    79395893.061 8      1662.025          50.437    19076167.980    79395890.062 8      1662.025          49.187
> 2024 05 10 09 14 44.0000000  0 14
R10  20837146.580   111073715.940 7       911.393          44.500    20837145.000   111073715.943 7       911.393          43.750
R12  23485832.140   125457088.180 6      5837.548          40.062    23485831.280   125457088.192 6      5837.548          40.625    23485843.820    97577788.832 6      4540.315          41.812    23485844.020    97577792.834 7      4540.315          42.187
R22  20834600.800   111216514.038 7      5896.610          45.312    20834600.680   111216514.031 7      5896.610          46.312    20834607.680    86501762.356 8      4586.252          48.625    20834607.960    86501763.355 8      4586.252          48.750
R11  19863282.260   106143355.472 7      4175.769          47.812    19863282.100   106143355.475 7      4175.769          47.687    19863289.280    82555974.750 8      3247.820          51.000    19863289.180    82555973.751 8      3247.820          51.875
G29  23921048.460   125705953.993 7      -568.881          42.500    23921046.960   125705953.996 6      -568.881          38.312    23921053.200    97952716.297 6      -443.284          38.062    23921054.340    97952722.313 6      -443.284          41.062
G25  25034615.720   131557785.550 5       -50.612          33.062    25034613.020   131557785.563 4       -50.612          24.812    25034628.340   102512561.764 4       -39.438          24.437    25034631.380   102512629.752 5       -39.438          35.875
G04  24263613.180   127506142.780 6      2749.737          40.125    24263612.460   127506142.782 4      2749.737          24.437    24263620.740    99355466.802 4      2142.653          24.750    24263621.580    99355476.793 7      2142.653          42.000
G16  22305984.400   117218735.710 7      4435.825          43.375    22305982.900   117218735.717 5      4435.825          32.062    22305987.220    91339289.630 5      3456.487          32.000
G31  20305366.400   106705417.163 8      2048.225          48.937    20305365.440   106705417.166 8      2048.225          49.625    20305367.060    83147080.885 8      1596.019          49.687    20305367.960    83147086.890 8      1596.019          51.062
G28  20960509.600   110148221.571 7       204.480          46.500    20960509.280   110148221.579 6       204.480          37.937    20960511.100    85829790.493 6       159.335          37.812    20960511.720    85829792.496 8       159.335          50.187
G18  21299365.180   111928919.634 7      2227.331          46.500    21299364.580   111928919.641 6      2227.331          38.312    21299368.060    87217348.240 6      1735.583          38.375    21299368.420    87217352.243 8      1735.583          50.812
G27  22179498.260   116554048.027 7      4669.776          44.625    22179497.340   116554048.031 6      4669.776          36.812    22179503.200    90821357.057 6      3638.787          36.312    22179503.940    90821361.071 8      3638.787          48.562
G26  20653374.760   108534215.953 7      3308.087          46.875    20653372.440   108534215.955 7      3308.087          47.250    20653377.760    84572132.088 7      2577.730          47.562    20653379.640    84572140.083 8      2577.730          48.625
R21  19075761.260   102078258.645 7      2136.160          47.812    19075761.420   102078258.660 7      2136.160          47.375    19075769.540    79394231.279 8      1661.458          50.000    19075768.900    79394228.276 8      1661.458          48.750
> 2024 05 10 09 14 45.0000000  0 14
R10  20836975.680   111072804.837 7       910.884          44.562    20836973.820   111072804.846 7       910.884          43.562
R12  23484738.940   125451250.655 6      5837.563          40.062    23484738.460   125451250.664 6      5837.563          40.625    23484750.560    97573248.541 6      4540.327          41.687    23484750.840    97573252.545 7      4540.327          42.250
R22  20833496.340   111210617.680 7      5896.106          45.375    20833496.100   111210617.670 7      5896.106          46.250    20833503.500    86497176.302 8      4585.860          48.687    20833503.400    86497177.297 8      4585.860          48.312
R11  19862500.980   106139179.950 8      4175.435          48.500    19862500.880   106139179.951 7      4175.435          47.062    19862507.760    82552727.115 8      3247.560          49.312    19862507.860    82552726.116 8      3247.560          52.187
G29  23921156.640   125706522.890 6      -568.777          41.500    23921155.200   125706522.895 6      -568.777          37.875    23921161.500    97953159.592 6      -443.203          37.750    23921162.140    97953165.601 6      -443.203          41.062
G25  25034625.260   131557836.416 5       -50.656          33.062    25034622.980   131557836.423 4       -50.656          24.812    25034638.080   102512601.385 4       -39.472          24.437    25034641.320   102512669.372 5       -39.472          35.000
G04  24263090.120   127503393.180 6      2749.333          40.500    24263089.140   127503393.182 4      2749.333          24.437    24263097.640    99353324.260 4      2142.337          24.750    24263098.260    99353334.258 7      2142.337          42.187
G16  22305140.120   117214299.982 7      4435.815          44.375    22305138.920   117214299.984 5      4435.815          32.062    22305143.120    91335833.220 5      3456.479          32.000
G31  20304976.660   106703369.329 8      2047.623          49.187    20304975.780   106703369.328 8      2047.623          48.625    20304977.380    83145485.169 8      1595.550          48.750    20304978.180    83145491.173 8      1595.550          51.062
G28  20960470.960   110148017.324 7       203.973          46.875    20960470.500   110148017.337 6       203.973          38.000    20960472.380    85829631.339 6       158.940          38.062    20960472.840    85829633.346 8       158.940          48.875
G18  21298941.340   111926692.723 7      2226.670          46.750    21298940.720   111926692.733 6      2226.670          38.437    21298944.240    87215612.987 6      1735.067          38.000    21298944.560    87215616.990 8      1735.067          50.375
G27  22178609.900   116549378.455 7      4669.543          44.250    22178608.740   116549378.460 6      4669.543          36.125    22178614.680    90817718.432 5      3638.605          35.937    22178615.440    90817722.441 8      3638.605          48.687
G26  20652745.420   108530908.032 7      3307.879          47.500    20652743.040   108530908.034 7      3307.879          47.250    20652748.320    84569554.489 7      2577.568          47.125    20652749.900    84569562.489 8      2577.568          48.375
R21  19075362.080   102076122.935 7      2135.322          47.187    19075362.280   102076122.953 7      2135.322          47.000    19075370.440    79392570.173 8      1660.806          48.625    19075369.820    79392567.172 8      1660.806          49.250
> 2024 05 10 09 14 46.0000000  0 14
R10  20836804.860   111071894.305 7       910.407          44.437    20836802.840   111071894.306 7       910.407          43.875
R12  23483645.440   125445413.078 6      5837.810          40.062    23483645.720   125445413.085 6      5837.810          40.625    23483657.760    97568708.202 6      4540.519          41.937    23483658.040    97568712.205 7      4540.519          42.437
R22  20832392.180   111204721.928 7      5895.693          47.062    20832391.440   111204721.921 7      5895.693          46.250    20832398.820    86492590.719 8      4585.539          48.875    20832398.840    86492591.719 8      4585.539          49.000
R11  19861719.600   106135004.869 8      4175.057          48.937    19861719.420   106135004.870 7      4175.057          47.750    19861726.580    82549479.838 8      3247.267          50.687    19861726.500    82549478.840 8      3247.267          52.000
G29  23921264.920   125707091.884 7      -568.921          42.437    23921263.520   125707091.892 6      -568.921          38.187    23921269.720    97953602.954 6      -443.315          38.062    23921270.500    97953608.965 6      -443.315          40.750
G25  25034634.760   131557887.469 5       -50.781          33.062    25034632.560   131557887.471 4       -50.781          24.812    25034647.680   102512641.150 4       -39.569          24.437    25034650.600   102512709.137 5       -39.569          35.000
G04  24262567.040   127500644.245 6      2748.727          40.250    24262566.180   127500644.247 4      2748.727          24.437    24262574.540    99351182.231 4      2141.866          24.750    24262575.360    99351192.220 6      2141.866          41.812
G16  22304295.960   117209864.435 7      4435.487          44.125    22304295.000   117209864.440 5      4435.487          32.062    22304298.940    91332376.952 5      3456.223          32.000
G31  20304587.320   106701322.203 8      2046.876          49.750    20304586.240   106701322.206 8      2046.876          49.125    20304587.800    83143890.009 8      1594.968          49.187    20304588.740    83143896.012 8      1594.968          51.375
G28  20960432.100   110147813.670 7       203.600          46.812    20960431.680   110147813.680 6       203.600          38.500    20960433.580    85829472.646 6       158.649          38.187    20960434.040    85829474.640 8       158.649          49.687
G18  21298517.840   111924466.556 7      2225.940          46.937    21298516.980   111924466.569 6      2225.940          38.562    21298520.740    87213878.313 6      1734.499          37.937    21298521.040    87213882.314 8      1734.499          50.687
G27  22177721.440   116544709.364 7      4669.060          44.750    22177720.320   116544709.363 6      4669.060          36.437    22177726.340    90814080.177 6      3638.229          36.000    22177726.800    90814084.184 8      3638.229          49.000
G26  20652116.020   108527600.415 7      3307.541          47.562    20652113.640   108527600.420 7      3307.541          47.500    20652118.900    84566977.128 7      2577.304          47.500    20652120.620    84566985.129 8      2577.304          48.312
R21  19074963.340   102073988.169 8      2134.515          48.312    19074963.280   102073988.184 7      2134.515          47.625    19074971.640    79390909.789 8      1660.178          49.812    19074971.000    79390906.788 8      1660.178          49.312
> 2024 05 10 09 14 47.0000000  0 14
R10  20836633.900   111070984.306 7       909.841          44.000    20836631.920   111070984.312 7       909.841          43.687
R12  23482552.660   125439575.403 6      5837.967          40.187    23482552.900   125439575.412 6      5837.967          40.750    23482565.240    97564167.794 6      4540.641          41.687    23482565.020    97564171.796 7      4540.641          42.437
R22  20831287.620   111198826.769 7      5895.020          46.687    20831287.380   111198826.772 7      5895.020          46.125    20831294.340    86488005.604 8      4585.015          49.625    20831294.580    86488006.599 8      4585.015          49.312
R11  19860938.340   106130830.180 8      4174.661          48.312    19860938.160   106130830.181 7      4174.661          47.125    19860945.280    82546232.857 8      3246.958          51.562    19860945.140    82546231.858 8      3246.958          52.312
G29  23921373.460   125707660.873 7      -568.786          42.000    23921371.900   125707660.881 6      -568.786          37.687    23921377.860    97954046.322 6      -443.210          37.937    23921378.840    97954052.329 6      -443.210          40.750
G25  25034644.220   131557938.626 5       -51.019          33.687    25034642.520   131557938.639 3       -51.019          23.062    25034657.680   102512681.007 4       -39.755          24.437    25034660.300   102512749.006 5       -39.755          35.000
G04  24262043.780   127497895.872 6      2748.209          40.375    24262043.160   127497895.877 4      2748.209          24.437    24262051.400    99349040.641 4      2141.461          24.375    24262052.600    99349050.639 6      2141.461          41.812
G16  22303451.920   117205428.967 7      4435.621          44.000    22303450.920   117205428.972 5      4435.621          32.062    22303454.920    91328920.749 5      3456.328          31.937
G31  20304197.860   106699275.714 8      2046.309          48.375    20304196.900   106699275.711 8      2046.309          49.000    20304198.400    83142295.338 8      1594.526          49.125    20304199.280    83142301.343 8      1594.526          51.187
G28  20960393.400   110147610.581 7       202.982          46.937    20960393.080   110147610.586 6       202.982          38.437    20960394.920    85829314.391 6       158.168          38.125    20960395.340    85829316.396 8       158.168          49.687
G18  21298094.220   111922241.072 7      2225.224          47.125    21298093.400   111922241.083 6      2225.224          38.187    21298097.200    87212144.170 6      1733.941          38.125    21298097.640    87212148.173 8      1733.941          50.875
G27  22176832.900   116540040.648 7      4668.645          44.375    22176831.880   116540040.645 6      4668.645          36.437    22176837.780    90810442.219 6      3637.905          36.250    22176838.480    90810446.224 8      3637.905          49.125
G26  20651486.860   108524293.046 7      3307.374          47.500    20651484.220   108524293.048 7      3307.374          47.187    20651489.600    84564399.954 7      2577.175          47.062    20651491.180    84564407.954 8      2577.175          48.687
R21  19074564.400   102071854.343 7      2133.488          47.375    19074564.580   102071854.358 8      2133.488          48.125    19074572.820    79389250.150 8      1659.379          49.687    19074572.180    79389247.150 8      1659.379          49.125
> 2024 05 10 09 14 48.0000000  0 14
R10  20836463.440   111070074.819 7       909.044          44.312    20836461.600   111070074.825 7       909.044          43.750
R12  23481460.380   125433737.640 6      5837.601          40.187    23481460.160   125433737.657 6      5837.601          40.750    23481472.420    97559627.318 6      4540.356          41.687    23481472.320    97559631.317 7      4540.356          42.250
R22  20830183.480   111192932.173 7      5894.090          46.125    20830182.860   111192932.168 7      5894.090          47.000    20830190.080    86483420.918 8      4584.292          48.437    20830190.340    86483421.915 8      4584.292          49.187
R11  19860157.440   106126655.893 8      4173.887          48.312    19860156.980   106126655.894 7      4173.887          47.375    19860164.120    82542986.188 8      3246.356          51.062    19860164.140    82542985.190 8      3246.356          52.500
G29  23921481.400   125708229.912 7      -569.244          43.125    23921480.320   125708229.922 6      -569.244          38.250    23921486.100    97954489.718 6      -443.566          38.250    23921487.300    97954495.728 6      -443.566          40.687
G25  25034654.780   131557989.958 5       -51.439          33.687    25034652.280   131557989.970 3       -51.439          23.062    25034667.520   102512720.997 3       -40.082          23.062    25034669.360   102512788.980 5       -40.082          35.000
G04  24261520.780   127495148.074 6      2747.377          40.500    24261520.160   127495148.074 4      2747.377          24.437    24261528.580    99346899.500 4      2140.813          24.375    24261529.120    99346909.490 6      2140.813          41.875
G16  22302607.700   117200993.638 7      4435.105          44.500    22302606.880   117200993.640 5      4435.105          32.062    22302611.020    91325464.653 5      3455.926          31.937
G31  20303808.700   106697229.879 8      2045.247          48.312    20303807.480   106697229.881 8      2045.247          49.187    20303809.080    83140701.184 8      1593.699          49.312    20303809.840    83140707.190 8      1593.699          51.000
G28  20960354.840   110147408.031 7       202.050          46.687    20960354.440   110147408.039 6       202.050          38.125    20960356.360    85829156.560 6       157.441          37.875    20960356.900    85829158.560 8       157.441          50.062
G18  21297670.820   111920016.264 7      2224.237          46.625    21297669.940   111920016.271 6      2224.237          38.250    21297673.800    87210410.553 6      1733.172          38.312    21297674.260    87210414.554 8      1733.172          50.875
G27  22175944.820   116535372.303 7      4667.835          44.375    22175943.560   116535372.303 6      4667.835          36.375    22175949.460    90806804.550 6      3637.274          36.187    22175950.100    90806808.561 8      3637.274          49.000
G26  20650857.180   108520985.920 7      3306.768          47.062    20650854.820   108520985.920 7      3306.768          47.750    20650860.240    84561822.976 7      2576.702          47.625    20650861.860    84561830.977 8      2576.702          48.625
R21  19074165.740   102069721.429 7      2132.219          47.687    19074166.000   102069721.438 7      2132.219          47.562    19074174.120    79387591.215 8      1658.392          49.687    19074173.500    79387588.212 8      1658.392          48.812
> 2024 05 10 09 14 49.0000000  0 14
R10  20836292.320   111069165.891 7       908.678          44.312    20836291.060   111069165.911 7       908.678          43.375
R12  23480367.700   125427899.797 6      5837.905          39.937    23480367.320   125427899.814 6      5837.905          40.375    23480378.940    97555086.771 7      4540.593          42.250    23480379.500    97555090.775 7      4540.593          42.000
R22  20829078.980   111187038.172 7      5893.637          45.250    20829079.080   111187038.178 7      5893.637          46.437    20829086.020    86478836.707 8      4583.940          49.312    20829086.260    86478837.705 8      4583.940          49.125
R11  19859376.160   106122482.019 7      4173.748          47.750    19859375.940   106122482.018 7      4173.748          47.562    19859383.080    82539739.847 8      3246.249          51.312    19859382.720    82539738.848 8      3246.249          51.625
G29  23921589.740   125708798.975 7      -568.973          42.625    23921588.640   125708798.980 6      -568.973          38.187    23921594.380    97954933.140 6      -443.355          38.125    23921595.420    97954939.157 6      -443.355          40.687
G25  25034665.020   131558041.407 5       -51.285          33.687    25034662.020   131558041.420 3       -51.285          23.062    25034677.120   102512761.076 3       -39.963          23.062    25034680.420   102512829.056 5       -39.963          35.000
G04  24260998.220   127492400.889 6      2746.875          39.687    24260997.480   127492400.894 4      2746.875          24.187    24261005.820    99344758.834 4      2140.422          24.375    24261006.420    99344768.834 6      2140.422          41.687
G16  22301763.740   117196558.443 7      4435.207          43.437    22301762.820   117196558.451 5      4435.207          32.062    22301767.100    91322008.659 5      3456.005          32.062
G31  20303419.420   106695184.684 8      2044.982          48.750    20303418.280   106695184.689 8      2044.982          48.500    20303419.880    83139107.529 8      1593.492          48.937    20303420.640    83139113.536 8      1593.492          51.687
G28  20960316.560   110147206.025 7       201.848          46.937    20960315.880   110147206.041 6       201.848          38.125    20960317.900    85828999.154 6       157.284          38.375    20960318.540    85829001.159 8       157.284          50.125
G18  21297247.820   111917792.144 7      2223.863          46.625    21297246.640   111917792.154 6      2223.863          38.312    21297250.560    87208677.472 6      1732.880          38.250    21297251.120    87208681.475 8      1732.880          50.812
G27  22175056.480   116530704.347 7      4667.757          44.437    22175055.280   116530704.352 6      4667.757          36.500    22175061.040    90803167.186 6      3637.213          36.437    22175062.020    90803171.195 8      3637.213          48.812
G26  20650227.880   108517679.047 7      3306.834          47.312    20650225.620   108517679.052 7      3306.834          47.312    20650230.860    84559246.196 7      2576.754          47.250    20650232.620    84559254.195 8      2576.754          48.562
R21  19073767.520   102067589.435 7      2131.564          47.500    19073767.660   102067589.447 7      2131.564          46.875    19073775.920    79385932.998 8      1657.883          49.750    19073774.900    79385929.995 8      1657.883          48.937
> 2024 05 10 09 14 50.0000000  0 14
R10  20836122.000   111068257.334 7       908.275          44.437    20836120.760   111068257.338 7       908.275          43.375
R12  23479274.980   125422061.737 6      5838.135          39.937    23479274.180   125422061.749 6      5838.135          40.375    23479286.620    97550546.054 6      4540.772          41.875    23479286.800    97550550.045 7      4540.772          42.687
R22  20827974.940   111181144.587 7      5893.179          45.750    20827974.720   111181144.582 7      5893.179          46.250    20827981.820    86474252.796 8      4583.584          48.875    20827981.960    86474253.795 8      4583.584          49.375
R11  19858595.440   106118308.365 8      4173.508          48.312    19858594.900   106118308.361 7      4173.508          47.437    19858601.980    82536493.671 8      3246.062          51.375    19858601.600    82536492.674 8      3246.062          51.937
G29  23921698.180   125709367.888 7      -568.781          43.187    23921697.020   125709367.887 6      -568.781          38.062    23921702.620    97955376.440 6      -443.206          38.125    23921703.960    97955382.447 6      -443.206          40.812
G25  25034674.400   131558092.846 5       -51.529          33.875    25034671.860   131558092.851 3       -51.529          23.062    25034687.440   102512801.146 3       -40.152          23.062    25034690.100   102512869.155 5       -40.152          34.562
G04  24260475.580   127489654.079 6      2746.506          40.062    24260474.760   127489654.084 4      2746.506          24.187    24260483.160    99342618.463 4      2140.134          24.375    24260483.580    99342628.477 6      2140.134          41.687
G16  22300919.860   117192123.212 7      4435.141          43.875    22300918.800   117192123.214 5      4435.141          32.062    22300923.180    91318552.635 5      3455.954          32.062
G31  20303030.220   106693140.000 8      2044.382          48.875    20303029.120   106693140.005 8      2044.382          49.312    20303030.720    83137514.270 8      1593.025          49.500    20303031.500    83137520.273 8      1593.025          51.187
G28  20960278.180   110147004.431 7       201.299          46.437    20960277.600   110147004.447 6       201.299          38.312    20960279.600    85828842.062 6       156.856          37.875    20960279.980    85828844.063 8       156.856          49.687
G18  21296824.500   111915568.562 7      2223.266          46.562    21296823.640   111915568.575 6      2223.266          38.187    21296827.400    87206944.813 6      1732.415          38.062    21296827.820    87206948.810 8      1732.415          50.437
G27  22174168.280   116526036.620 7      4667.503          44.375    22174166.940   116526036.627 6      4667.503          36.875    22174172.840    90799529.997 6      3637.015          36.062    22174173.800    90799534.008 8      3637.015          48.625
G26  20649598.460   108514372.282 7      3306.660          47.812    20649596.240   108514372.284 7      3306.660          47.750    20649601.620    84556669.494 7      2576.618          47.687    20649603.020    84556677.493 8      2576.618          48.750
R21  19073369.240   102065458.163 7      2130.854          46.937    19073369.540   102065458.173 8      2130.854          48.375    19073377.580    79384275.344 8      1657.331          50.250    19073376.580    79384272.341 8      1657.331          49.062
> 2024 05 10 09 14 51.0000000  0 14
R10  20835951.700   111067349.222 7       907.776          44.187    20835950.240   111067349.228 7       907.776          43.562
R12  23478182.240   125416223.550 6      5838.045          40.125    23478181.940   125416223.548 6      5838.045          40.750    23478193.600    97546005.233 7      4540.702          42.000    23478194.040    97546009.237 7      4540.702          42.625
R22  20826870.800   111175251.496 7      5892.634          44.750    20826870.880   111175251.492 7      5892.634          46.812    20826878.060    86469669.287 8      4583.159          48.687    20826877.840    86469670.284 8      4583.159          49.250
R11  19857814.420   106114135.045 7      4173.048          47.937    19857813.680   106114135.043 7      4173.048          47.812    19857821.000    82533247.761 8      3245.704          51.250    19857820.800    82533246.763 8      3245.704          51.812
G29  23921806.420   125709936.829 7      -569.090          42.812    23921805.400   125709936.834 6      -569.090          38.125    23921810.900    97955819.765 6      -443.447          38.187    23921812.100    97955825.783 6      -443.447          40.750
G25  25034683.880   131558144.390 5       -51.915          33.875    25034681.640   131558144.403 3       -51.915          23.062    25034697.180   102512841.306 3       -40.454          23.062    25034699.680   102512909.290 5       -40.454          34.562
G04  24259952.440   127486907.861 6      2745.823          40.437    24259952.180   127486907.871 4      2745.823          24.187    24259960.580    99340478.559 4      2139.603          24.375    24259961.000    99340488.554 6      2139.603          41.500
G16  22300075.920   117187688.035 7      4434.937          44.375    22300074.780   117187688.040 5      4434.937          32.187    22300079.100    91315096.657 5      3455.795          32.187
G31  20302641.300   106691095.933 7      2043.580          47.687    20302640.160   106691095.938 8      2043.580          49.687    20302641.820    83135921.487 8      1592.400          49.625    20302642.600    83135927.494 8      1592.400          51.250
G28  20960239.940   110146803.340 7       200.656          46.750    20960239.200   110146803.352 6       200.656          38.437    20960241.280    85828685.363 6       156.356          37.750    20960241.840    85828687.362 8       156.356          50.312
G18  21296401.580   111913345.627 7      2222.477          46.312    21296400.720   111913345.637 6      2222.477          38.687    21296404.300    87205212.652 6      1731.801          38.562    21296404.720    87205216.653 8      1731.801          50.750
G27  22173280.200   116521369.242 7      4667.079          43.937    22173278.780   116521369.247 6      4667.079          36.437    22173284.820    90795893.081 6      3636.685          36.250    22173285.180    90795897.093 8      3636.685          49.375
G26  20648969.140   108511065.719 7      3306.332          47.062    20648967.120   108511065.722 7      3306.332          47.312    20648972.320    84554092.955 7      2576.363          47.312    20648973.900    84554100.955 8      2576.363          48.625
R21  19072970.920   102063327.767 7      2129.814          47.750    19072971.420   102063327.787 7      2129.814          47.187    19072979.420    79382618.373 8      1656.522          50.312    19072978.680    79382615.373 8      1656.522          49.500
> 2024 05 10 09 14 52.0000000  0 14
R10  20835781.740   111066441.667 7       907.263          44.500    20835780.180   111066441.671 7       907.263          43.250
R12  23477089.140   125410385.207 6      5838.364          40.125    23477088.540   125410385.221 6      5838.364          40.750    23477101.140    97541464.316 7      4540.950          42.000    23477101.280    97541468.316 7      4540.950          43.125
R22  20825767.160   111169358.976 7      5892.289          46.000    20825767.340   111169358.980 7      5892.289          46.437    20825774.300    86465086.222 8      4582.892          48.562    20825774.140    86465087.219 8      4582.892          49.312
R11  19857033.400   106109962.120 8      4172.792          48.562    19857032.880   106109962.121 7      4172.792          47.937    19857039.920    82530002.153 8      3245.505          51.062    19857039.720    82530001.154 8      3245.505          51.750
G29  23921914.360   125710505.755 6      -568.757          41.812    23921913.460   125710505.757 6      -568.757          37.750    23921919.340    97956263.080 6      -443.187          37.937    23921920.200    97956269.089 6      -443.187          40.750
G25  25034694.040   131558196.047 5       -51.876          33.875    25034691.600   131558196.054 3       -51.876          23.062    25034706.940   102512881.550 3       -40.423          23.062    25034709.840   102512949.514 5       -40.423          34.562
G04  24259430.340   127484162.202 6      2745.277          39.937    24259429.700   127484162.209 4      2745.277          24.187    24259438.180    99338339.084 4      2139.177          24.375    24259438.720    99338349.090 6      2139.177          41.437
G16  22299232.080   117183252.980 7      4435.123          44.812    22299230.960   117183252.987 5      4435.123          32.187    22299235.240    91311640.776 5      3455.940          32.187
G31  20302252.520   106689052.507 7      2043.093          47.625    20302251.260   106689052.515 8      2043.093          49.125    20302253.000    83134329.213 8      1592.021          49.187    20302253.640    83134335.216 8      1592.021          51.000
G28  20960201.620   110146602.794 7       200.325          46.187    20960201.160   110146602.804 6       200.325          38.750    20960203.100    85828529.094 6       156.097          38.250    20960203.780    85828531.099 8       156.097          50.062
G18  21295978.680   111911123.380 7      2221.935          46.562    21295977.780   111911123.396 6      2221.935          38.437    21295981.460    87203481.035 6      1731.378          38.062    21295981.640    87203485.040 8      1731.378          50.562
G27  22172391.780   116516702.266 7      4666.900          43.812    22172390.700   116516702.271 6      4666.900          36.500    22172396.740    90792256.477 5      3636.545          35.937    22172397.380    90792260.484 8      3636.545          49.187
G26  20648340.100   108507759.419 7      3306.204          47.312    20648337.980   108507759.427 7      3306.204          47.562    20648343.100    84551516.621 7      2576.263          47.687    20648344.640    84551524.619 8      2576.263          48.687
R21  19072573.020   102061198.280 8      2129.089          48.062    19072573.380   102061198.295 7      2129.089          47.250    19072581.740    79380962.106 8      1655.958          50.062    19072580.740    79380959.103 8      1655.958          49.375
> 2024 05 10 09 14 53.0000000  0 14
R10  20835611.460   111065534.587 7       906.829          44.562    20835610.100   111065534.590 7       906.829          43.562
R12  23475996.360   125404546.781 6      5838.544          40.125    23475995.420   125404546.788 6      5838.544          40.812    23476008.040    97536923.318 7      4541.090          42.687    23476008.140    97536927.314 7      4541.090          43.125
R22  20824663.100   111163467.044 7      5891.623          44.750    20824663.520   111163467.047 7      5891.623          46.812    20824670.300    86460503.616 8      4582.374          49.250    20824670.460    86460504.614 8      4582.374          49.125
R11  19856252.580   106105789.582 8      4172.314          48.500    19856252.160   106105789.586 7      4172.314          47.375    19856259.080    82526756.855 8      3245.133          51.000    19856259.000    82526755.860 8      3245.133          52.000
G29  23922023.260   125711074.752 6      -569.092          41.625    23922021.760   125711074.757 6      -569.092          37.687    23922027.620    97956706.448 6      -443.449          37.625    23922028.800    97956712.459 6      -443.449          40.937
G25  25034703.900   131558247.809 5       -51.635          33.875    25034701.460   131558247.814 3       -51.635          23.062    25034716.800   102512921.871 3       -40.235          23.062    25034719.980   102512989.854 5       -40.235          34.562
G04  24258908.340   127481417.084 6      2745.025          39.812    24258907.360   127481417.097 4      2745.025          24.187    24258915.560    99336200.036 4      2138.981          24.375    24258916.080    99336210.044 6      2138.981          41.437
G16  22298388.100   117178818.037 7      4435.014          43.812    22298386.920   117178818.045 5      4435.014          32.250    22298391.180    91308184.983 5      3455.855          32.187
G31  20301863.860   106687009.720 8      2042.507          48.250    20301862.600   106687009.725 8      2042.507          49.187    20301864.320    83132737.429 8      1591.564          49.312    20301864.900    83132743.434 8      1591.564          51.125
G28  20960163.360   110146402.788 7       199.759          46.250    20960163.040   110146402.803 6       199.759          38.187    20960165.080    85828373.247 6       155.656          38.125    20960165.760    85828375.249 8       155.656          49.937
G18  21295555.720   111908901.811 7      2221.244          46.812    21295555.020   111908901.819 6      2221.244          38.500    21295558.780    87201749.941 6      1730.840          38.312    21295558.840    87201753.942 8      1730.840          50.687
G27  22171503.800   116512035.658 7      4666.525          43.937    22171502.680   116512035.660 6      4666.525          36.187    22171508.600    90788620.161 5      3636.253          35.937    22171509.440    90788624.166 8      3636.253          48.875
G26  20647710.900   108504453.356 7      3305.976          47.062    20647708.860   108504453.363 7      3305.976          47.812    20647713.980    84548940.470 7      2576.085          47.875    20647715.540    84548948.469 8      2576.085          48.500
R21  19072175.080   102059069.679 7      2128.152          47.437    19072175.600   102059069.694 7      2128.152          47.500    19072183.840    79379306.529 8      1655.229          49.562    19072182.980    79379303.529 8      1655.229          49.312
> 2024 05 10 09 14 54.0000000  0 14
R10  20835441.720   111064628.130 7       906.307          44.375    20835440.260   111064628.138 7       906.307          43.812
R12  23474903.580   125398708.364 6      5838.578          40.125    23474902.600   125398708.370 6      5838.578          40.812    23474915.080    97532382.340 7      4541.116          42.687    23474915.260    97532386.335 7      4541.116          43.125
R22  20823559.400   111157575.781 7      5891.059          45.875    20823559.760   111157575.785 7      5891.059          46.437    20823566.760    86455921.521 8      4581.935          48.687    20823566.660    86455922.518 8      4581.935          49.000
R11  19855472.100   106101617.520 8      4171.952          48.812    19855471.700   106101617.524 7      4171.952          47.500    19855478.120    82523511.916 8      3244.851          51.125    19855478.180    82523510.919 8      3244.851          51.500
G29  23922131.340   125711643.833 7      -568.991          42.250    23922129.960   125711643.830 6      -568.991          38.500    23922135.980    97957149.875 6      -443.369          38.625    23922137.140    97957155.879 6      -443.369          40.937
G25  25034714.360   131558299.800 5       -51.788          33.562    25034711.380   131558299.802 3       -51.788          23.062    25034726.560   102512962.371 3       -40.354          23.062    25034729.320   102513030.370 5       -40.354          34.562
G04  24258385.780   127478672.697 6      2744.154          38.937    24258385.020   127478672.710 4      2744.154          24.187    24258393.360    99334061.560 4      2138.302          24.000    24258394.040    99334071.568 6      2138.302          41.500
G16  22297544.320   117174383.323 7      4434.848          43.437    22297542.960   117174383.328 5      4434.848          32.250    22297547.380    91304729.361 5      3455.725          32.187
G31  20301475.220   106684967.689 7      2041.775          47.375    20301473.960   106684967.694 8      2041.775          49.312    20301475.700    83131146.236 8      1590.993          49.312    20301476.380    83131152.241 8      1590.993          50.812
G28  20960125.660   110146203.433 7       199.185          45.750    20960125.100   110146203.448 6       199.185          38.187    20960127.060    85828217.903 6       155.209          38.125    20960127.780    85828219.904 8       155.209          49.937
G18  21295133.200   111906681.015 7      2220.567          46.312    21295132.340   111906681.025 6      2220.567          38.125    21295136.060    87200019.448 6      1730.312          38.250    21295136.300    87200023.451 8      1730.312          50.187
G27  22170616.040   116507369.543 7      4666.029          42.875    22170614.700   116507369.546 6      4666.029          36.062    22170620.520    90784984.232 5      3635.866          35.812    22170621.320    90784988.239 8      3635.866          48.250
G26  20647081.860   108501147.647 7      3305.689          46.375    20647079.720   108501147.651 7      3305.689          47.500    20647084.880    84546364.589 7      2575.862          47.625    20647086.300    84546372.590 8      2575.862          48.125
R21  19071777.740   102056942.113 7      2127.087          47.312    19071778.000   102056942.136 7      2127.087          47.875    19071786.180    79377651.756 8      1654.401          50.062    19071785.280    79377648.757 8      1654.401          49.687
> 2024 05 10 09 14 55.0000000  0 14
R10  20835271.640   111063722.046 7       905.990          44.562    20835270.460   111063722.060 7       905.990          43.937
R12  23473810.760   125392869.677 6      5838.892          40.125    23473809.660   125392869.696 6      5838.892          41.062    23473821.740    97527841.147 7      4541.360          42.375    23473822.240    97527845.155 7      4541.360          43.312
R22  20822455.780   111151684.911 7      5890.854          46.500    20822456.220   111151684.909 7      5890.854          46.625    20822463.340    86451339.731 8      4581.776          48.875    20822463.240    86451340.730 8      4581.776          49.250
R11  19854691.260   106097445.688 8      4171.810          48.437    19854690.840   106097445.692 7      4171.810          47.625    19854697.480    82520267.157 8      3244.741          51.312    19854697.420    82520266.156 8      3244.741          51.812
G29  23922239.520   125712212.775 7      -568.736          42.875    23922238.320   125712212.774 6      -568.736          38.250    23922244.200    97957593.206 6      -443.171          38.000    23922245.000    97957599.218 6      -443.171          40.750
G25  25034723.040   131558351.827 5       -51.814          33.562    25034721.120   131558351.829 3       -51.814          22.625    25034736.520   102513002.898 3       -40.375          23.062    25034739.420   102513070.870 5       -40.375          34.562
G04  24257863.800   127475928.691 6      2743.963          38.937    24257862.760   127475928.701 3      2743.963          23.812    24257871.120    99331923.376 4      2138.153          24.000    24257871.740    99331933.374 6      2138.153          41.125
G16  22296700.360   117169948.557 7      4434.920          44.312    22296698.980   117169948.564 5      4434.920          32.312    22296703.540    91301273.701 5      3455.782          32.187
G31  20301086.720   106682926.127 7      2041.419          47.625    20301085.540   106682926.129 8      2041.419          49.312    20301087.220    83129555.408 8      1590.716          49.312    20301087.920    83129561.413 8      1590.716          51.125
G28  20960087.760   110146004.443 7       198.942          46.437    20960087.320   110146004.456 6       198.942          38.500    20960089.400    85828062.844 6       155.020          38.187    20960089.860    85828064.849 8       155.020          50.125
G18  21294710.820   111904460.744 7      2220.067          46.812    21294709.700   111904460.754 6      2220.067          38.500    21294713.680    87198289.371 6      1729.923          38.062    21294713.840    87198293.370 8      1729.923          50.625
G27  22169728.220   116502703.647 7      4665.879          43.250    22169726.720   116502703.650 5      4665.879          35.687    22169732.660    90781348.469 5      3635.750          35.750    22169733.420    90781352.478 8      3635.750          48.875
G26  20646452.740   108497841.998 7      3305.710          47.375    20646450.780   108497842.006 7      3305.710          47.500    20646455.840    84543788.767 7      2575.878          47.312    20646457.540    84543796.768 8      2575.878          48.375
R21  19071380.340   102054815.273 8      2126.580          48.125    19071380.580   102054815.288 7      2126.580          47.562    19071388.860    79375997.542 8      1654.007          50.125    19071387.840    79375994.542 8      1654.007          49.750
> 2024 05 10 09 14 56.0000000  0 14
R10  20835101.440   111062816.496 7       905.272          44.937    20835100.600   111062816.499 7       905.272          43.812
R12  23472717.620   125387030.904 6      5838.815          40.250    23472716.800   125387030.916 6      5838.815          41.062    23472728.720    97523299.883 7      4541.300          42.500    23472729.240    97523303.881 7      4541.300          43.375
R22  20821352.120   111145794.609 7      5889.965          46.125    20821352.540   111145794.613 7      5889.965          47.500    20821359.800    86446758.389 8      4581.084          49.125    20821359.860    86446759.389 8      4581.084          49.312
R11  19853910.600   106093274.209 8      4171.272          48.875    19853910.140   106093274.215 7      4171.272          47.375    19853916.820    82517022.677 8      3244.322          51.062    19853917.020    82517021.683 8      3244.322          51.875
G29  23922347.700   125712781.724 7      -568.963          43.125    23922346.560   125712781.732 6      -568.963          38.500    23922352.660    97958036.540 6      -443.348          38.500    23922353.120    97958042.551 6      -443.348          40.750
G25  25034732.520   131558403.907 5       -52.010          33.562    25034731.180   131558403.909 3       -52.010          22.625    25034746.420   102513043.476 3       -40.528          22.562    25034749.160   102513111.464 5       -40.528          34.562
G04  24257341.680   127473185.263 6      2743.177          39.062    24257340.640   127473185.273 3      2743.177          23.812    24257348.940    99329785.642 4      2137.541          24.000    24257349.520    99329795.621 6      2137.541          41.125
G16  22295856.440   117165513.875 7      4434.638          44.187    22295855.160   117165513.879 5      4434.638          32.312    22295859.540    91297818.107 5      3455.562          32.125
G31  20300698.200   106680885.207 8      2040.517          48.500    20300697.160   106680885.207 8      2040.517          50.000    20300698.800    83127965.083 8      1590.013          49.562    20300699.560    83127971.086 8      1590.013          51.500
G28  20960050.260   110145806.023 7       198.020          46.500    20960049.380   110145806.036 6       198.020          38.250    20960051.820    85827908.229 6       154.302          37.937    20960052.260    85827910.234 8       154.302          50.687
G18  21294288.380   111902241.138 7      2219.233          46.437    21294287.380   111902241.148 6      2219.233          38.562    21294291.260    87196559.810 6      1729.272          37.937    21294291.360    87196563.815 8      1729.272          50.562
G27  22168840.120   116498038.119 7      4665.221          43.500    22168838.960   116498038.124 6      4665.221          36.125    22168844.680    90777712.998 5      3635.237          35.937    22168845.560    90777717.011 8      3635.237          49.000
G26  20645823.900   108494536.617 7      3305.200          47.562    20645821.680   108494536.622 7      3305.200          47.437    20645826.780    84541213.142 7      2575.480          47.125    20645828.420    84541221.143 8      2575.480          48.500
R21  19070982.820   102052689.342 8      2125.404          49.000    19070983.100   102052689.357 7      2125.404          47.312    19070991.500    79374344.043 8      1653.092          50.125    19070990.640    79374341.044 8      1653.092          49.687
> 2024 05 10 09 14 57.0000000  0 14
R10  20834931.560   111061911.339 7       905.070          44.875    20834931.000   111061911.345 7       905.070          43.812
R12  23471624.180   125381191.912 6      5839.046          40.250    23471623.460   125381191.926 6      5839.046          40.750    23471635.700    97518758.447 7      4541.480          42.562    23471636.260    97518762.443 7      4541.480          43.437
R22  20820248.820   111139904.753 7      5889.719          46.312    20820249.560   111139904.757 7      5889.719          46.812    20820256.320    86442177.390 8      4580.892          48.187    20820256.420    86442178.388 8      4580.892          48.312
R11  19853129.940   106089103.034 8      4171.105          48.062    19853129.620   106089103.038 7      4171.105          47.312    19853136.160    82513778.424 8      3244.192          50.000    19853136.200    82513777.421 8      3244.192          50.375
G29  23922456.200   125713350.590 7      -568.669          43.062    23922454.940   125713350.595 6      -568.669          38.437    23922460.760    97958479.801 6      -443.119          38.125    23922462.320    97958485.802 6      -443.119          40.687
G25  25034742.540   131558456.037 5       -52.135          33.312    25034741.080   131558456.037 3       -52.135          22.625    25034756.140   102513084.088 3       -40.625          22.562    25034759.220   102513152.083 5       -40.625          34.562
G04  24256819.740   127470442.300 6      2742.721          39.812    24256818.660   127470442.310 3      2742.721          23.812    24256826.840    99327648.266 4      2137.185          24.000    24256827.960    99327658.256 6      2137.185          40.187
G16  22295012.580   117161079.211 7      4434.780          44.500    22295011.340   117161079.213 5      4434.780          32.312    22295015.600    91294362.524 5      3455.672          32.125
G31  20300309.980   106678844.803 8      2040.244          48.625    20300308.900   106678844.806 8      2040.244          49.437    20300310.580    83126375.158 8      1589.800          49.437    20300311.220    83126381.161 8      1589.800          50.937
G28  20960012.420   110145607.990 7       197.825          47.500    20960011.720   110145608.003 6       197.825          38.187    20960014.060    85827753.918 6       154.150          38.062    20960014.540    85827755.920 8       154.150          49.812
G18  21293866.340   111900022.099 7      2218.861          47.062    21293865.200   111900022.107 6      2218.861          38.312    21293868.980    87194830.687 6      1728.983          37.687    21293869.180    87194834.692 8      1728.983          50.000
G27  22167952.420   116493372.872 7      4665.110          44.375    22167951.220   116493372.877 6      4665.110          36.125    22167957.060    90774077.741 5      3635.151          35.187    22167958.000    90774081.744 8      3635.151          49.125
G26  20645194.960   108491231.347 8      3305.291          48.687    20645192.740   108491231.352 7      3305.291          47.125    20645197.880    84538637.604 7      2575.552          46.750    20645199.480    84538645.606 8      2575.552          48.187
R21  19070585.620   102050564.141 8      2124.894          48.812    19070586.160   102050564.162 7      2124.894          47.562    19070594.420    79372691.109 8      1652.696          49.000    19070593.620    79372688.113 8      1652.696          48.750
> 2024 05 10 09 14 58.0000000  0 14
R10  20834761.680   111061006.594 7       904.570          45.250    20834761.340   111061006.610 7       904.570          43.937
R12  23470531.120   125375352.675 6      5839.359          40.375    23470530.740   125375352.678 6      5839.359          40.750    23470542.820    97514216.808 7      4541.724          42.437    23470543.140    97514220.805 7      4541.724          43.312
R22  20819145.480   111134015.322 7      5889.250          47.000    20819146.000   111134015.328 7      5889.250          46.875    20819153.140    86437596.727 8      4580.528          49.125    20819153.260    86437597.725 8      4580.528          49.250
R11  19852349.420   106084932.089 7      4170.859          47.875    19852349.100   106084932.090 7      4170.859          47.500    19852355.660    82510534.358 8      3244.001          50.875    19852355.720    82510533.357 8      3244.001          51.562
G29  23922564.280   125713919.358 7      -568.728          42.437    23922563.140   125713919.365 6      -568.728          37.937    23922568.960    97958922.997 6      -443.165          37.875    23922570.120    97958929.009 6      -443.165          40.687
G25  25034752.720   131558508.196 5       -52.296          33.312    25034751.040   131558508.193 3       -52.296          22.625    25034766.220   102513124.725 3       -40.750          22.562    25034768.660   102513192.685 5       -40.750          34.562
G04  24256297.980   127467699.757 6      2742.332          39.375    24256296.720   127467699.765 3      2742.332          23.812    24256304.900    99325511.216 4      2136.882          24.000    24256305.840    99325521.211 6      2136.882          40.187
G16  22294168.780   117156644.531 7      4434.677          44.312    22294167.300   117156644.536 5      4434.677          32.312    22294171.700    91290906.934 5      3455.592          32.125
G31  20299921.940   106676804.935 8      2039.615          48.187    20299920.820   106676804.935 8      2039.615          49.125    20299922.440    83124785.648 8      1589.311          49.875    20299923.080    83124791.649 8      1589.311          51.187
G28  20959974.700   110145410.382 7       197.445          46.375    20959974.180   110145410.392 6       197.445          38.312    20959976.460    85827599.934 6       153.853          37.437    20959976.940    85827601.932 8       153.853          50.437
G18  21293444.080   111897803.615 7      2218.247          47.062    21293443.200   111897803.625 6      2218.247          38.625    21293446.940    87193101.998 6      1728.504          38.062    21293447.320    87193106.003 8      1728.504          50.812
G27  22167064.520   116488707.846 7      4664.905          43.187    22167063.540   116488707.851 5      4664.905          35.750    22167069.500    90770442.657 5      3634.991          35.625    22167070.300    90770446.666 8      3634.991          48.687
G26  20644566.260   108487926.188 7      3305.212          47.687    20644563.880   108487926.190 7      3305.212          47.375    20644568.940    84536062.157 7      2575.490          47.250    20644570.680    84536070.155 8      2575.490          48.687
R21  19070188.660   102048439.709 7      2124.090          47.937    19070189.020   102048439.724 7      2124.090          46.937    19070197.280    79371038.768 8      1652.070          49.937    19070196.420    79371035.772 8      1652.070          49.500
> 2024 05 10 09 14 59.0000000  0 14
R10  20834591.860   111060102.442 7       904.017          44.812    20834591.780   111060102.453 7       904.017          43.937
R12  23469438.620   125369513.448 6      5839.336          40.375    23469436.940   125369513.435 6      5839.336          40.812    23469449.380    97509675.189 7      4541.706          42.562    23469449.900    97509679.186 7      4541.706          43.437
R22  20818042.460   111128126.533 7      5888.615          45.625    20818042.600   111128126.537 7      5888.615          46.625    20818050.000    86433016.563 8      4580.034          49.312    20818050.160    86433017.558 8      4580.034          49.500
R11  19851568.820   106080761.577 8      4170.431          48.375    19851568.580   106080761.578 7      4170.431          47.812    19851575.200    82507290.624 8      3243.668          51.125    19851575.160    82507289.625 8      3243.668          51.375
G29  23922672.140   125714488.213 7      -568.670          42.687    23922671.580   125714488.210 6      -568.670          38.250    23922677.120    97959366.242 6      -443.120          38.062    23922678.040    97959372.246 6      -443.120          40.687
G25  25034761.440   131558560.471 5       -52.410          33.312    25034760.760   131558560.475 3       -52.410          22.625    25034776.240   102513165.459 3       -40.839          22.562    25034778.260   102513233.445 5       -40.839          34.562
G04  24255775.820   127464957.890 6      2741.530          39.562    24255774.980   127464957.898 3      2741.530          23.812    24255783.040    99323374.694 4      2136.257          24.000    24255783.660    99323384.700 6      2136.257          40.312
G16  22293325.000   117152210.001 7      4434.578          43.625    22293323.540   117152210.006 5      4434.578          32.312    22293327.920    91287451.458 5      3455.515          32.187
G31  20299533.780   106674765.766 8      2038.924          48.125    20299532.680   106674765.768 8      2038.924          49.625    20299534.340    83123196.687 8      1588.772          49.750    20299535.040    83123202.690 8      1588.772          51.187
G28  20959937.240   110145213.392 7       196.792          45.875    20959936.740   110145213.397 6       196.792          38.375    20959938.920    85827446.431 6       153.345          38.312    20959939.520    85827448.433 8       153.345          50.625
G18  21293022.100   111895585.869 7      2217.527          46.875    21293021.040   111895585.879 6      2217.527          38.500    21293024.820    87191373.886 6      1727.943          38.125    21293025.040    87191377.889 8      1727.943          50.437
G27  22166176.940   116484043.287 7      4664.465          43.375    22166175.700   116484043.289 6      4664.465          36.062    22166181.880    90766807.936 5      3634.648          35.500    22166182.420    90766811.943 8      3634.648          48.812
G26  20643937.300   108484621.361 7      3304.739          47.812    20643934.860   108484621.369 7      3304.739          47.562    20643939.900    84533486.974 7      2575.121          47.437    20643941.780    84533494.976 8      2575.121          48.500
R21  19069792.020   102046316.250 7      2123.106          47.937    19069792.460   102046316.268 7      2123.106          47.875    19069800.460    79369387.194 8      1651.305          50.000    19069799.500    79369384.197 8      1651.305          50.437
> 2024 05 10 09 15  0.0000000  0 14
R10  20834422.580   111059198.720 7       903.510          45.437    20834421.980   111059198.734 7       903.510          43.875
R12  23468344.980   125363674.002 6      5839.545          40.375    23468344.500   125363673.992 6      5839.545          40.812    23468356.660    97505133.400 7      4541.868          42.562    23468356.920    97505137.395 7      4541.868          42.937
R22  20816939.300   111122238.220 7      5888.079          45.437    20816939.480   111122238.218 7      5888.079          46.437    20816946.940    86428436.764 8      4579.617          49.187    20816947.080    86428437.761 8      4579.617          49.312
R11  19850788.320   106076591.364 8      4170.044          48.000    19850788.060   106076591.368 7      4170.044          47.625    19850794.680    82504047.125 8      3243.368          50.812    19850794.760    82504046.126 8      3243.368          51.250
G29  23922780.420   125715056.986 7      -568.732          43.312    23922779.900   125715056.983 6      -568.732          38.000    23922785.300    97959809.441 6      -443.168          37.875    23922786.180    97959815.450 6      -443.168          40.500
G25  25034772.000   131558612.787 5       -52.285          33.312    25034770.700   131558612.789 3       -52.285          22.625    25034786.140   102513206.219 3       -40.741          22.562    25034787.480   102513274.195 5       -40.741          34.562
G04  24255254.120   127462216.456 6      2741.154          39.937    24255253.340   127462216.469 3      2741.154          23.812    24255261.500    99321238.518 4      2135.964          24.000    24255261.980    99321248.515 6      2135.964          40.312
G16  22292481.360   117147775.502 7      4434.420          43.500    22292479.660   117147775.510 5      4434.420          32.250    22292483.940    91283996.011 5      3455.392          32.187
G31  20299145.980   106672727.146 8      2038.284          48.562    20299144.760   106672727.151 8      2038.284          49.000    20299146.440    83121608.152 8      1588.273          49.437    20299147.100    83121614.155 8      1588.273          51.250
G28  20959899.720   110145016.843 7       196.200          46.500    20959899.380   110145016.853 6       196.200          38.250    20959901.680    85827293.274 6       152.883          37.812    20959901.960    85827295.274 8       152.883          50.312
G18  21292600.320   111893368.728 7      2216.785          46.687    21292599.100   111893368.735 6      2216.785          38.687    21292602.820    87189646.241 6      1727.365          38.375    21292603.220    87189650.242 8      1727.365          50.125
G27  22165289.440   116479379.010 7      4664.079          44.312    22165288.180   116479379.014 6      4664.079          36.312    22165294.300    90763173.438 6      3634.348          36.187    22165294.920    90763177.450 8      3634.348          48.625
G26  20643308.280   108481316.669 7      3304.557          47.375    20643306.040   108481316.677 7      3304.557          47.625    20643311.160    84530911.889 7      2574.979          47.562    20643312.800    84530919.889 8      2574.979          48.750
R21  19069395.080   102044193.610 8      2122.216          48.250    19069395.560   102044193.628 7      2122.216          46.812    19069403.740    79367736.256 8      1650.613          50.250    19069403.000    79367733.257 8      1650.613          49.437
> 2024 05 10 09 15  1.0000000  0 14
R10  20834253.500   111058295.515 7       902.984          45.187    20834252.880   111058295.515 7       902.984          44.312
R12  23467251.680   125357834.463 6      5839.489          40.187    23467251.140   125357834.472 6      5839.489          41.062    23467263.240    97500591.550 7      4541.825          42.500    23467263.720    97500595.548 7      4541.825          43.187
R22  20815836.640   111116350.483 7      5887.444          46.000    20815836.660   111116350.484 7      5887.444          46.875    20815843.980    86423857.413 8      4579.123          49.562    20815844.060    86423858.412 8      4579.123          49.687
R11  19850008.260   106072421.538 7      4169.623          47.937    19850007.900   106072421.539 7      4169.623          47.562    19850014.320    82500803.931 8      3243.040          50.750    19850014.540    82500802.933 8      3243.040          51.812
G29  23922888.640   125715625.773 7      -568.858          42.937    23922888.100   125715625.773 6      -568.858          38.125    23922893.480    97960252.649 6      -443.266          38.562    23922894.340    97960258.658 6      -443.266          40.500
G25  25034783.100   131558665.235 5       -52.429          32.562    25034780.400   131558665.232 3       -52.429          22.625    25034796.260   102513247.075 3       -40.854          22.562    25034797.300   102513315.049 5       -40.854          34.562
G04  24254732.760   127459475.624 6      2740.496          40.125    24254731.760   127459475.632 3      2740.496          23.812    24254739.980    99319102.800 3      2135.451          22.687    24254740.240    99319112.792 6      2135.451          40.562
G16  22291637.320   117143341.122 7      4434.344          43.812    22291635.880   117143341.130 5      4434.344          32.250    22291640.040    91280540.653 5      3455.333          32.062
G31  20298758.220   106670689.164 8      2037.654          49.187    20298756.940   106670689.167 8      2037.654          49.250    20298758.580    83120020.112 8      1587.782          49.437    20298759.240    83120026.114 8      1587.782          51.062
G28  20959862.520   110144820.814 7       195.749          46.937    20959862.020   110144820.822 6       195.749          38.000    20959864.320    85827140.522 6       152.532          37.625    20959864.780    85827142.523 8       152.532          50.875
G18  21292178.340   111891152.246 7      2216.082          46.687    21292177.280   111891152.256 6      2216.082          38.500    21292181.080    87187919.112 6      1726.817          38.312    21292181.440    87187923.111 8      1726.817          50.312
G27  22164401.660   116474715.129 7      4663.590          43.937    22164400.620   116474715.131 6      4663.590          36.312    22164406.780    90759539.246 6      3633.966          36.187    22164407.480    90759543.249 8      3633.966          48.687
G26  20642679.500   108478012.219 7      3304.274          47.750    20642677.180   108478012.226 7      3304.274          47.937    20642682.300    84528336.993 7      2574.759          47.687    20642683.920    84528344.997 8      2574.759          48.375
R21  19068999.000   102042071.888 8      2121.256          48.625    19068999.260   102042071.898 7      2121.256          47.437    19069007.320    79366086.021 8      1649.866          49.875    19069006.380    79366083.023 8      1649.866          49.562
> 2024 05 10 09 15  2.0000000  0 14
R10  20834084.060   111057392.725 7       902.579          45.187    20834083.460   111057392.728 7       902.579          43.937
R12  23466158.420   125351994.707 6      5839.949          40.187    23466158.020   125351994.713 6      5839.949          41.062    23466169.740    97496049.520 7      4542.183          43.250    23466170.660    97496053.520 7      4542.183          43.500
R22  20814733.680   111110463.192 7      5887.088          47.812    20814733.580   111110463.196 8      5887.088          48.000    20814741.160    86419278.415 8      4578.846          49.062    20814741.040    86419279.412 8      4578.846          49.625
R11  19849227.980   106068252.001 8      4169.419          49.625    19849227.660   106068251.997 8      4169.419          49.187    19849234.140    82497560.960 8      3242.881          50.812    19849234.200    82497559.959 8      3242.881          51.625
G29  23922996.840   125716194.460 7      -568.608          43.125    23922996.300   125716194.462 6      -568.608          38.375    23923001.540    97960695.781 6      -443.071          38.312    23923002.100    97960701.793 6      -443.071          40.625
G25  25034792.780   131558717.804 5       -52.960          32.562    25034790.380   131558717.798 3       -52.960          22.625    25034806.200   102513288.029 3       -41.267          22.562    25034808.560   102513356.016 5       -41.267          34.250
G04  24254211.160   127456735.265 6      2740.134          39.875    24254210.180   127456735.270 3      2740.134          22.562    24254218.500    99316967.453 3      2135.169          22.687    24254219.040    99316977.453 6      2135.169          40.562
G16  22290793.520   117138906.745 7      4434.392          45.125    22290792.140   117138906.749 5      4434.392          32.250    22290796.220    91277085.296 5      3455.371          32.062
G31  20298370.380   106668651.724 8      2037.168          49.562    20298369.220   106668651.726 8      2037.168          50.250    20298370.920    83118432.497 8      1587.403          49.687    20298371.680    83118438.500 8      1587.403          51.187
G28  20959825.460   110144625.256 7       195.335          46.937    20959824.760   110144625.266 6       195.335          37.875    20959827.020    85826988.137 6       152.209          37.437    20959827.380    85826990.137 8       152.209          50.562
G18  21291756.700   111888936.337 7      2215.749          47.125    21291755.580   111888936.347 6      2215.749          38.062    21291759.400    87186192.428 6      1726.557          37.875    21291759.500    87186196.427 8      1726.557          50.437
G27  22163514.540   116470051.503 7      4663.517          44.687    22163513.260   116470051.508 6      4663.517          36.062    22163519.240    90755905.254 5      3633.910          35.937    22163519.900    90755909.265 8      3633.910          49.000
G26  20642050.740   108474707.921 8      3304.260          48.937    20642048.420   108474707.928 8      3304.260          48.500    20642053.440    84525762.217 8      2574.748          48.375    20642055.120    84525770.215 8      2574.748          48.125
R21  19068602.460   102039950.937 8      2120.607          49.625    19068602.720   102039950.949 8      2120.607          49.187    19068610.820    79364436.394 8      1649.361          49.875    19068610.120    79364433.400 8      1649.361          49.437
> 2024 05 10 09 15  3.0000000  0 14
R10  20833914.580   111056490.509 7       901.902          45.250    20833913.920   111056490.515 7       901.902          44.312
R12  23465065.300   125346154.957 7      5839.778          42.187    23465064.500   125346154.958 7      5839.778          42.625    23465076.520    97491507.496 7      4542.050          42.937    23465077.300    97491511.502 7      4542.050          44.062
R22  20813630.780   111104576.566 7      5886.225          47.875    20813630.560   111104576.572 7      5886.225          47.562    20813638.380    86414699.936 8      4578.175          49.000    20813638.440    86414700.933 8      4578.175          49.875
R11  19848447.760   106064082.921 8      4168.751          50.000    19848447.380   106064082.922 8      4168.751          48.812    19848453.880    82494318.353 8      3242.362          50.812    19848454.040    82494317.354 8      3242.362          51.875
G29  23923105.380   125716763.283 7      -568.847          42.937    23923104.760   125716763.286 6      -568.847          38.437    23923109.960    97961139.014 6      -443.257          38.500    23923110.740    97961145.011 6      -443.257          40.625
G25  25034803.200   131558770.467 5       -52.824          32.562    25034800.200   131558770.459 3       -52.824          22.062    25034816.460   102513329.058 3       -41.162          22.562    25034819.160   102513397.057 5       -41.162          34.250
G04  24253689.460   127453995.547 6      2739.349          39.562    24253688.760   127453995.552 3      2739.349          22.562    24253697.140    99314832.608 3      2134.557          22.687    24253697.900    99314842.602 6      2134.557          40.000
G16  22289949.800   117134472.577 7      4433.977          44.500    22289948.200   117134472.579 5      4433.977          32.062    22289952.400    91273630.103 5      3455.047          32.062
G31  20297982.700   106666615.006 8      2036.328          49.750    20297981.700   106666615.008 8      2036.328          50.500    20297983.260    83116845.444 8      1586.749          49.750    20297983.920    83116851.447 8      1586.749          51.375
G28  20959788.280   110144430.315 7       194.546          47.687    20959787.780   110144430.328 6       194.546          37.875    20959789.760    85826836.233 6       151.595          38.187    20959790.100    85826838.231 8       151.595          50.187
G18  21291335.220   111886721.203 7      2214.776          47.375    21291334.040   111886721.213 6      2214.776          37.687    21291337.840    87184466.354 6      1725.800          38.062    21291337.780    87184470.358 8      1725.800          50.062
G27  22162627.200   116465388.355 7      4662.863          44.312    22162626.000   116465388.363 6      4662.863          36.750    22162631.940    90752271.636 5      3633.400          35.937    22162632.300    90752275.645 8      3633.400          48.687
G26  20641422.040   108471403.954 8      3303.714          48.375    20641419.620   108471403.959 8      3303.714          48.250    20641424.780    84523187.700 7      2574.322          47.687    20641426.520    84523195.703 8      2574.322          48.625
R21  19068206.440   102037830.986 8      2119.407          49.312    19068206.620   102037831.001 8      2119.407          48.812    19068214.700    79362787.550 8      1648.428          49.937    19068214.080    79362784.551 8      1648.428          49.687
> 2024 05 10 09 15  4.0000000  0 14
R10  20833745.580   111055588.898 7       901.281          44.812    20833744.800   111055588.909 7       901.281          43.812
R12  23463971.700   125340315.180 7      5839.823          42.187    23463971.620   125340315.191 7      5839.823          42.625    23463983.660    97486965.462 7      4542.084          42.500    23463983.980    97486969.468 7      4542.084          43.875
R22  20812528.180   111098690.577 7      5885.651          45.937    20812527.740   111098690.584 7      5885.651          47.312    20812535.580    86410121.947 8      4577.728          48.937    20812536.000    86410122.942 8      4577.728          49.312
R11  19847667.720   106059914.295 8      4168.299          48.562    19847667.320   106059914.299 8      4168.299          48.687    19847673.880    82491076.088 8      3242.011          50.875    19847673.800    82491075.087 8      3242.011          51.562
G29  23923213.720   125717332.193 7      -568.959          43.062    23923213.080   125717332.196 6      -568.959          38.000    23923218.140    97961582.317 6      -443.345          37.687    23923218.940    97961588.316 6      -443.345          40.687
G25  25034813.520   131558823.443 5       -53.281          32.562    25034810.300   131558823.435 3       -53.281          22.062    25034826.540   102513370.329 3       -41.518          22.562    25034829.240   102513438.316 5       -41.518          34.250
G04  24253168.680   127451256.507 6      2738.604          39.812    24253167.560   127451256.512 3      2738.604          22.562    24253176.060    99312698.287 3      2133.977          22.687    24253175.840    99312708.271 6      2133.977          40.000
G16  22289106.200   117130038.599 7      4433.718          43.687    22289104.480   117130038.599 5      4433.718          32.062    22289108.780    91270175.059 5      3454.845          32.187
G31  20297595.520   106664579.037 8      2035.527          49.375    20297594.200   106664579.037 8      2035.527          50.250    20297595.880    83115258.974 8      1586.125          49.625    20297596.420    83115264.978 8      1586.125          51.062
G28  20959751.140   110144236.000 7       193.899          47.250    20959750.920   110144236.007 6       193.899          38.125    20959752.920    85826684.814 6       151.090          38.187    20959753.320    85826686.817 8       151.090          50.937
G18  21290913.880   111884506.857 7      2213.874          46.125    21290912.680   111884506.864 6      2213.874          38.500    21290916.440    87182740.889 6      1725.097          38.312    21290916.400    87182744.892 8      1725.097          50.875
G27  22161739.920   116460725.696 7      4662.190          44.750    22161738.680   116460725.704 6      4662.190          36.312    22161744.620    90748638.395 6      3632.875          36.437    22161745.380    90748642.402 8      3632.875          49.000
G26  20640793.340   108468100.318 7      3303.317          47.937    20640791.000   108468100.328 8      3303.317          48.375    20640796.060    84520613.442 8      2574.013          48.000    20640797.820    84520621.446 8      2574.013          48.500
R21  19067810.400   102035712.014 8      2118.434          48.187    19067810.600   102035712.029 8      2118.434          48.125    19067818.700    79361139.463 8      1647.671          49.437    19067818.120    79361136.464 8      1647.671          50.000
> 2024 05 10 09 15  5.0000000  0 14
R10  20833576.360   111054687.867 7       900.749          44.687    20833575.920   111054687.870 7       900.749          44.000
R12  23462879.040   125334475.371 6      5839.863          41.375    23462877.700   125334475.398 6      5839.863          41.562    23462890.160    97482423.397 7      4542.116          42.937    23462890.680    97482427.397 7      4542.116          43.812
R22  20811425.440   111092805.221 7      5884.998          46.375    20811425.320   111092805.228 7      5884.998          46.312    20811433.120    86405544.452 8      4577.221          49.375    20811433.360    86405545.449 8      4577.221          49.687
R11  19846887.580   106055746.073 8      4168.030          48.812    19846887.320   106055746.079 7      4168.030          47.375    19846893.840    82487834.146 8      3241.801          50.812    19846893.640    82487833.145 8      3241.801          51.250
G29  23923322.200   125717901.180 7      -569.034          43.187    23923321.260   125717901.185 6      -569.034          37.875    23923326.520    97962025.679 6      -443.403          37.937    23923326.820    97962031.686 6      -443.403          40.687
G25  25034823.140   131558876.503 5       -53.276          32.250    25034820.420   131558876.497 3       -53.276          22.062    25034836.720   102513411.667 3       -41.514          22.062    25034838.960   102513479.666 5       -41.514          34.250
G04  24252647.820   127448518.069 6      2738.113          40.187    24252646.480   127448518.076 3      2738.113          22.562    24252655.080    99310564.439 3      2133.594          22.687    24252654.560    99310574.439 6      2133.594          39.937
G16  22288262.360   117125604.739 7      4433.871          43.937    22288260.780   117125604.744 5      4433.871          32.375    22288265.080    91266720.109 5      3454.965          32.187
G31  20297208.000   106662543.731 8      2034.974          48.437    20297206.880   106662543.733 8      2034.974          49.875    20297208.540    83113673.023 8      1585.694          49.812    20297209.120    83113679.026 8      1585.694          51.375
G28  20959714.480   110144042.263 7       193.490          46.937    20959713.980   110144042.273 6       193.490          38.812    20959716.000    85826533.850 6       150.771          38.375    20959716.580    85826535.853 8       150.771          50.250
G18  21290492.720   111882293.202 7      2213.282          46.375    21290491.420   111882293.209 6      2213.282          38.437    21290495.240    87181015.965 6      1724.635          38.000    21290495.360    87181019.970 8      1724.635          50.125
G27  22160852.840   116456063.416 7      4662.091          44.625    22160851.460   116456063.421 6      4662.091          36.312    22160857.540    90745005.453 6      3632.798          36.125    22160858.080    90745009.452 8      3632.798          49.062
G26  20640164.780   108464796.971 7      3303.176          47.750    20640162.380   108464796.974 7      3303.176          47.500    20640167.460    84518039.402 7      2573.903          47.437    20640169.140    84518047.405 8      2573.903          48.562
R21  19067414.420   102033593.984 8      2117.635          48.000    19067415.000   102033594.002 7      2117.635          47.250    19067422.860    79359492.098 8      1647.049          49.687    19067422.080    79359489.101 8      1647.049          49.250
> 2024 05 10 09 15  6.0000000  0 14
R10  20833407.240   111053787.274 7       900.381          44.937    20833406.540   111053787.280 7       900.381          43.875
R12  23461785.360   125328635.404 6      5839.982          41.375    23461784.720   125328635.421 6      5839.982          41.562    23461797.120    97477881.198 7      4542.209          42.875    23461797.780    97477885.204 7      4542.209          43.687
R22  20810323.120   111086920.367 7      5884.644          45.625    20810323.220   111086920.365 7      5884.644          46.625    20810330.800    86400967.329 8      4576.946          49.312    20810330.420    86400968.328 8      4576.946          49.437
R11  19846107.640   106051578.227 8      4167.634          48.187    19846107.380   106051578.231 7      4167.634          47.375    19846113.860    82484592.486 8      3241.493          50.562    19846113.780    82484591.485 8      3241.493          51.562
G29  23923430.420   125718470.135 7      -568.992          42.875    23923429.580   125718470.137 6      -568.992          38.000    23923434.820    97962469.012 6      -443.370          38.125    23923435.600    97962475.015 6      -443.370          40.312
G25  25034834.200   131558929.668 5       -53.190          32.250    25034830.740   131558929.665 3       -53.190          22.062    25034846.880   102513453.092 3       -41.447          22.062    25034849.160   102513521.081 5       -41.447          34.250
G04  24252126.760   127445780.166 6      2737.538          40.500    24252125.460   127445780.171 3      2737.538          22.562    24252133.980    99308431.011 3      2133.147          22.687    24252134.020    99308441.011 6      2133.147          39.937
G16  22287418.580   117121171.002 7      4433.640          44.812    22287417.020   117121171.010 5      4433.640          32.375    22287421.340    91263265.252 5      3454.784          32.437
G31  20296820.880   106660509.041 8      2034.290          48.750    20296819.660   106660509.046 8      2034.290          49.437    20296821.340    83112087.555 8      1585.161          49.562    20296821.960    83112093.556 8      1585.161          51.312
G28  20959677.600   110143849.032 7       192.923          47.250    20959677.120   110143849.040 6       192.923          38.500    20959679.360    85826383.281 6       150.330          38.250    20959679.780    85826385.281 8       150.330          50.500
G18  21290071.440   111880080.196 7      2212.589          46.500    21290070.180   111880080.206 6      2212.589          38.062    21290073.980    87179291.547 6      1724.095          37.875    21290074.300    87179295.546 8      1724.095          50.062
G27  22159965.700   116451401.506 7      4661.709          44.437    22159964.620   116451401.505 6      4661.709          36.250    22159970.320    90741372.794 5      3632.501          35.750    22159971.300    90741376.799 8      3632.501          49.062
G26  20639536.040   108461493.814 7      3303.023          47.812    20639533.780   108461493.819 7      3303.023          47.625    20639538.980    84515465.515 7      2573.784          47.812    20639540.520    84515473.512 8      2573.784          48.062
R21  19067018.720   102031476.829 8      2116.736          48.125    19067019.400   102031476.842 7      2116.736          47.812    19067027.080    79357845.422 8      1646.350          50.125    19067026.660    79357842.423 8      1646.350          49.250
> 2024 05 10 09 15  7.0000000  0 14
R10  20833238.660   111052887.208 7       899.828          44.562    20833238.120   111052887.214 7       899.828          43.437
R12  23460691.940   125322795.339 6      5840.008          40.500    23460691.520   125322795.345 6      5840.008          40.687    23460703.780    97473338.919 7      4542.228          42.812    23460704.340    97473342.923 7      4542.228          43.750
R22  20809221.060   111081036.084 7      5883.882          44.875    20809220.480   111081036.080 7      5883.882          46.375    20809228.300    86396390.670 8      4576.352          48.750    20809228.320    86396391.666 8      4576.352          49.312
R11  19845327.580   106047410.758 8      4167.159          48.000    19845327.440   106047410.759 8      4167.159          48.062    19845333.900    82481351.113 8      3241.123          50.937    19845333.840    82481350.114 8      3241.123          51.437
G29  23923538.980   125719039.100 7      -569.051          43.375    23923537.800   125719039.102 6      -569.051          37.937    23923543.100    97962912.355 6      -443.416          37.937    23923543.940    97962918.365 6      -443.416          40.312
G25  25034843.620   131558982.981 5       -53.440          32.250    25034841.040   131558982.978 3       -53.440          22.062    25034857.080   102513494.628 3       -41.642          22.062    25034859.020   102513562.613 5       -41.642          35.375
G04  24251605.700   127443042.829 6      2736.878          40.500    24251604.460   127443042.836 3      2736.878          22.562    24251613.020    99306298.025 3      2132.632          22.687    24251612.880    99306308.031 6      2132.632          39.937
G16  22286575.020   117116737.337 7      4433.566          44.625    22286573.380   117116737.339 5      4433.566          32.500    22286577.480    91259810.446 5      3454.727          32.437
G31  20296433.860   106658474.980 8      2033.710          48.125    20296432.680   106658474.980 8      2033.710          49.312    20296434.240    83110502.568 8      1584.709          49.250    20296434.880    83110508.569 8      1584.709          51.000
G28  20959641.020   110143656.320 7       192.379          46.687    20959640.440   110143656.330 6       192.379          38.687    20959642.580    85826233.115 6       149.906          38.187    20959643.260    85826235.118 8       149.906          50.125
G18  21289650.320   111877867.855 7      2211.914          46.625    21289649.180   111877867.860 6      2211.914          38.000    21289653.000    87177567.641 6      1723.569          37.562    21289653.360    87177571.642 8      1723.569          50.500
G27  22159078.620   116446739.947 7      4661.270          43.437    22159077.660   116446739.950 6      4661.270          36.125    22159083.220    90737740.417 5      3632.159          35.750    22159083.960    90737744.422 8      3632.159          48.875
G26  20638907.620   108458190.895 7      3302.699          46.687    20638905.260   108458190.908 7      3302.699          47.500    20638910.400    84512891.818 7      2573.532          47.437    20638912.000    84512899.824 8      2573.532          48.125
R21  19066623.220   102029360.539 7      2115.745          47.750    19066623.740   102029360.556 7      2115.745          47.000    19066631.600    79356199.422 8      1645.580          49.625    19066630.900    79356196.424 8      1645.580          49.312
> 2024 05 10 09 15  8.0000000  0 14
R10  20833069.720   111051987.697 7       899.214          44.437    20833069.200   111051987.703 7       899.214          43.437
R12  23459598.700   125316955.238 6      5839.957          40.500    23459597.820   125316955.245 6      5839.957          40.687    23459610.500    97468796.623 7      4542.188          42.937    23459611.180    97468800.627 7      4542.188          44.000
R22  20808118.860   111075152.394 7      5883.287          45.562    20808118.500   111075152.389 7      5883.287          46.312    20808126.120    86391814.471 8      4575.890          48.875    20808126.180    86391815.466 8      4575.890          49.250
R11  19844548.000   106043243.701 8      4166.781          48.062    19844547.700   106043243.704 7      4166.781          47.562    19844554.080    82478110.083 8      3240.830          51.312    19844554.180    82478109.084 8      3240.830          51.750
G29  23923647.160   125719608.115 7      -569.082          43.062    23923646.160   125719608.112 6      -569.082          38.125    23923651.500    97963355.736 6      -443.440          38.125    23923652.520    97963361.741 6      -443.440          40.625
G25  25034854.940   131559036.482 5       -53.811          34.062    25034851.420   131559036.479 3       -53.811          22.062    25034867.360   102513536.309 3       -41.930          22.062    25034868.980   102513604.284 5       -41.930          35.375
G04  24251084.800   127440306.077 6      2736.398          40.250    24251083.600   127440306.085 3      2736.398          22.562    24251092.120    99304165.493 3      2132.258          22.687    24251092.120    99304175.493 6      2132.258          39.687
G16  22285731.260   117112303.832 7      4433.324          42.875    22285729.500   117112303.837 5      4433.324          32.500    22285733.760    91256355.770 5      3454.538          32.437
G31  20296046.820   106656441.596 8      2032.992          48.625    20296045.740   106656441.599 8      2032.992          49.312    20296047.340    83108918.114 8      1584.150          49.812    20296047.940    83108924.115 8      1584.150          50.750
G28  20959604.500   110143464.201 7       191.743          47.187    20959603.940   110143464.214 6       191.743          38.562    20959606.040    85826083.416 6       149.410          37.750    20959606.700    85826085.415 8       149.410          50.500
G18  21289229.500   111875656.229 7      2211.206          47.062    21289228.380   111875656.234 6      2211.206          38.250    21289232.140    87175844.296 6      1723.018          38.000    21289232.700    87175848.297 8      1723.018          50.500
G27  22158191.480   116442078.826 7      4660.809          44.687    22158190.580   116442078.828 6      4660.809          36.562    22158196.360    90734108.376 6      3631.800          36.000    22158196.960    90734112.379 8      3631.800          49.187
G26  20638279.080   108454888.266 7      3302.477          47.812    20638276.720   108454888.270 7      3302.477          47.250    20638281.840    84510318.338 7      2573.359          47.500    20638283.480    84510326.342 8      2573.359          48.000
R21  19066227.960   102027245.160 8      2114.867          48.125    19066228.640   102027245.181 7      2114.867          47.562    19066236.320    79354554.130 8      1644.896          49.937    19066235.780    79354551.134 8      1644.896          49.500
> 2024 05 10 09 15  9.0000000  0 14
R10  20832901.240   111051088.639 7       898.776          45.000    20832900.540   111051088.637 7       898.776          43.562
R12  23458505.380   125311114.938 6      5840.304          40.625    23458504.940   125311114.947 6      5840.304          40.875    23458517.260    97464254.178 7      4542.459          43.062    23458517.720    97464258.177 7      4542.459          43.750
R22  20807016.880   111069269.210 7      5882.855          45.000    20807016.440   111069269.203 7      5882.855          46.125    20807024.180    86387238.659 8      4575.554          48.187    20807023.940    86387239.655 8      4575.554          49.000
R11  19843768.020   106039076.972 7      4166.491          47.875    19843768.120   106039076.981 7      4166.491          47.500    19843774.340    82474869.294 8      3240.604          50.687    19843774.300    82474868.290 8      3240.604          50.312
G29  23923755.280   125720177.094 7      -569.120          42.750    23923754.480   125720177.096 6      -569.120          38.062    23923759.860    97963799.093 6      -443.470          38.437    23923760.700    97963805.099 6      -443.470          40.625
G25  25034864.660   131559089.934 5       -53.521          34.062    25034861.620   131559089.933 3       -53.521          22.062    25034877.580   102513577.956 3       -41.705          22.062    25034878.840   102513645.959 5       -41.705          35.375
G04  24250564.140   127437569.846 6      2735.963          40.000    24250562.860   127437569.856 3      2735.963          21.937    24250571.380    99302033.367 3      2131.919          22.125    24250571.460    99302043.375 6      2131.919          39.687
G16  22284887.640   117107870.358 7      4433.389          43.687    22284885.860   117107870.365 5      4433.389          32.500    22284890.100    91252901.119 5      3454.589          32.312
G31  20295659.960   106654408.791 8      2032.489          48.625    20295658.960   106654408.791 8      2032.489          48.187    20295660.460    83107334.109 8      1583.758          48.312    20295661.080    83107340.111 8      1583.758          50.000
G28  20959568.000   110143272.536 7       191.367          46.937    20959567.460   110143272.552 6       191.367          38.250    20959569.700    85825934.061 6       149.117          38.187    20959570.200    85825936.064 8       149.117          50.375
G18  21288808.660   111873445.204 7      2210.673          47.062    21288807.620   111873445.214 6      2210.673          37.937    21288811.420    87174121.424 6      1722.602          37.312    21288811.760    87174125.427 8      1722.602          49.625
G27  22157304.640   116437417.993 7      4660.644          43.812    22157303.600   116437417.995 6      4660.644          36.187    22157309.360    90730476.555 5      3631.671          35.750    22157309.800    90730480.560 8      3631.671          48.062
G26  20637650.720   108451585.810 7      3302.330          46.937    20637648.360   108451585.814 7      3302.330          46.875    20637653.480    84507744.998 7      2573.244          47.000    20637654.960    84507753.002 7      2573.244          47.937
R21  19065832.940   102025130.620 8      2114.053          48.187    19065833.380   102025130.640 7      2114.053          47.562    19065841.260    79352909.485 8      1644.263          48.875    19065840.680    79352906.486 8      1644.263          48.375
> 2024 05 10 09 15 10.0000000  0 14
R10  20832732.500   111050190.072 7       898.337          44.687    20832731.780   111050190.072 7       898.337          44.187
R12  23457412.140   125305274.528 6      5840.571          40.625    23457411.600   125305274.534 6      5840.571          40.875    23457423.820    97459711.636 7      4542.667          42.812    23457424.640    97459715.640 7      4542.667          44.062
R22  20805914.920   111063386.553 7      5882.454          45.125    20805914.420   111063386.553 7      5882.454          46.312    20805922.080    86382663.267 8      4575.242          48.500    20805921.980    86382664.267 8      4575.242          49.250
R11  19842988.540   106034910.595 8      4166.259          48.500    19842988.440   106034910.594 8      4166.259          48.000    19842994.600    82471628.772 8      3240.424          50.875    19842994.620    82471627.771 8      3240.424          51.625
G29  23923863.660   125720746.027 7      -568.776          42.312    23923862.700   125720746.027 6      -568.776          38.125    23923868.100    97964242.408 6      -443.202          38.437    23923868.760    97964248.412 6      -443.202          40.500
G25  25034874.600   131559143.593 5       -53.689          34.062    25034871.880   131559143.593 3       -53.689          22.062    25034887.800   102513619.760 3       -41.836          22.062    25034889.420   102513687.736 5       -41.836          35.375
G04  24250043.100   127434834.167 6      2735.541          39.750    24250042.260   127434834.179 3      2735.541          21.937    24250050.880    99299901.668 3      2131.590          22.125    24250050.740    99299911.672 6      2131.590          39.875
G16  22284043.580   117103436.963 7      4433.410          44.000    22284042.240   117103436.970 5      4433.410          32.375    22284046.400    91249446.528 5      3454.605          32.312
G31  20295273.160   106652376.590 8      2032.037          49.250    20295272.280   106652376.595 8      2032.037          49.875    20295273.740    83105750.578 8      1583.405          49.687    20295274.440    83105756.583 8      1583.405          50.875
G28  20959531.700   110143081.390 7       190.956          46.375    20959531.040   110143081.405 6       190.956          38.437    20959533.360    85825785.118 6       148.797          37.937    20959533.980    85825787.123 8       148.797          50.062
G18  21288388.140   111871234.839 7      2210.170          46.937    21288387.000   111871234.846 6      2210.170          37.687    21288390.800    87172399.059 6      1722.210          37.687    21288391.180    87172403.060 8      1722.210          50.500
G27  22156417.920   116432757.515 7      4660.378          45.000    22156416.740   116432757.519 6      4660.378          36.312    22156422.420    90726845.013 6      3631.464          36.000    22156423.000    90726849.026 8      3631.464          49.000
G26  20637022.260   108448283.572 7      3302.220          47.250    20637019.980   108448283.576 7      3302.220          47.500    20637025.060    84505171.826 7      2573.158          47.687    20637026.600    84505179.829 8      2573.158          48.250
R21  19065437.840   102023016.967 7      2113.288          46.875    19065438.740   102023016.982 7      2113.288          47.687    19065446.160    79351265.531 8      1643.669          49.562    19065445.580    79351262.532 8      1643.669          49.375
> 2024 05 10 09 15 11.0000000  0 14
R10  20832564.500   111049292.061 7       897.708          44.625    20832563.260   111049292.062 7       897.708          43.750
R12  23456319.000   125299434.048 6      5840.517          41.250    23456318.700   125299434.055 6      5840.517          41.000    23456330.640    97455169.050 7      4542.624          43.062    23456331.200    97455173.049 7      4542.624          43.750
R22  20804812.940   111057504.522 7      5881.610          45.750    20804812.580   111057504.523 7      5881.610          46.500    20804820.040    86378088.357 8      4574.585          49.437    20804820.160    86378089.354 8      4574.585          49.187
R11  19842209.120   106030744.633 7      4165.661          47.937    19842208.780   106030744.632 7      4165.661          47.937    19842215.080    82468388.580 8      3239.959          51.250    19842215.080    82468387.579 8      3239.959          51.625
G29  23923971.740   125721315.051 7      -569.088          43.062    23923971.060   125721315.058 6      -569.088          38.500    23923976.480    97964685.803 6      -443.445          38.750    23923977.160    97964691.810 6      -443.445          40.687
G25  25034884.960   131559197.362 5       -53.810          34.187    25034882.080   131559197.359 3       -53.810          23.875    25034898.260   102513661.648 3       -41.930          22.062    25034899.260   102513729.616 5       -41.930          35.375
G04  24249522.780   127432099.102 6      2734.716          40.062    24249521.980   127432099.115 3      2734.716          21.937    24249530.200    99297770.453 3      2130.948          22.125    24249530.860    99297780.451 6      2130.948          39.875
G16  22283200.260   117099003.742 7      4433.036          44.500    22283198.700   117099003.746 5      4433.036          32.375    22283202.680    91245992.070 5      3454.314          32.375
G31  20294886.720   106650345.088 8      2031.182          49.062    20294885.620   106650345.090 8      2031.182          49.250    20294887.140    83104167.587 8      1582.740          49.375    20294887.900    83104173.589 8      1582.740          51.000
G28  20959495.420   110142890.840 7       190.170          46.125    20959494.760   110142890.850 6       190.170          38.375    20959497.140    85825636.629 6       148.185          38.062    20959497.680    85825638.630 8       148.185          50.625
G18  21287967.840   111869025.191 7      2209.304          47.000    21287966.640   111869025.196 6      2209.304          38.062    21287970.360    87170677.254 6      1721.535          37.812    21287970.700    87170681.257 8      1721.535          50.375
G27  22155531.200   116428097.470 7      4659.714          45.000    22155529.860   116428097.475 6      4659.714          36.500    22155535.540    90723213.818 6      3630.946          36.062    22155536.420    90723217.827 8      3630.946          49.000
G26  20636393.900   108444981.620 7      3301.731          47.562    20636391.740   108444981.627 7      3301.731          47.937    20636396.720    84502598.876 8      2572.777          48.125    20636398.420    84502606.886 7      2572.777          47.875
R21  19065043.420   102020904.272 8      2112.123          48.562    19065043.760   102020904.295 7      2112.123          47.125    19065051.540    79349622.332 8      1642.762          49.937    19065050.700    79349619.334 8      1642.762          49.437
> 2024 05 10 09 15 12.0000000  0 14
R10  20832396.100   111048394.661 7       897.223          45.062    20832395.180   111048394.656 7       897.223          43.937
R12  23455225.540   125293593.564 6      5840.581          41.250    23455225.360   125293593.578 6      5840.581          41.000    23455237.020    97450626.448 7      4542.674          43.500    23455237.740    97450630.452 7      4542.674          43.500
R22  20803711.000   111051623.108 7      5881.219          45.250    20803710.540   111051623.101 7      5881.219          46.125    20803718.460    86373513.922 8      4574.281          49.187    20803718.160    86373514.919 8      4574.281          49.812
R11  19841429.560   106026579.139 8      4165.311          48.562    19841429.340   106026579.132 7      4165.311          47.500    19841435.560    82465148.749 8      3239.686          50.375    19841435.460    82465147.750 8      3239.686          52.125
G29  23924079.980   125721884.155 7      -569.021          43.250    23924079.340   125721884.157 6      -569.021          38.625    23924084.680    97965129.249 6      -443.393          38.625    23924085.800    97965135.268 6      -443.393          40.687
G25  25034895.180   131559251.303 5       -53.697          34.187    25034892.380   131559251.300 3       -53.697          23.875    25034908.580   102513703.675 3       -41.842          22.062    25034909.800   102513771.668 5       -41.842          35.750
G04  24249002.800   127429364.686 6      2734.083          39.875    24249001.580   127429364.694 3      2734.083          21.937    24249009.680    99295639.738 3      2130.454          22.125    24249010.000    99295649.742 6      2130.454          39.812
G16  22282356.620   117094570.680 7      4432.878          45.062    22282355.020   117094570.683 5      4432.878          32.125    22282359.000    91242537.740 5      3454.191          32.375
G31  20294500.240   106648314.298 8      2030.514          49.250    20294499.240   106648314.305 8      2030.514          49.187    20294500.700    83102585.158 8      1582.219          49.250    20294501.380    83102591.161 8      1582.219          51.125
G28  20959459.260   110142700.881 7       189.687          47.125    20959458.640   110142700.891 6       189.687          38.562    20959460.860    85825488.607 6       147.808          38.437    20959461.420    85825490.610 8       147.808          50.687
G18  21287547.480   111866816.308 7      2208.508          46.187    21287546.220   111866816.318 6      2208.508          38.187    21287549.980    87168956.046 6      1720.916          38.187    21287550.500    87168960.057 8      1720.916          50.687
G27  22154644.260   116423437.872 7      4659.426          44.375    22154643.180   116423437.872 6      4659.426          36.250    22154649.120    90719582.960 6      3630.722          36.000    22154649.960    90719586.965 8      3630.722          48.937
G26  20635765.660   108441679.970 7      3301.584          47.062    20635763.440   108441679.978 7      3301.584          47.812    20635768.360    84500026.169 8      2572.663          48.062    20635769.840    84500034.174 8      2572.663          48.312
R21  19064648.500   102018792.549 7      2111.286          47.000    19064649.100   102018792.561 7      2111.286          47.562    19064656.880    79347979.874 8      1642.112          49.437    19064656.220    79347976.874 8      1642.112          48.875
> 2024 05 10 09 15 13.0000000  0 14
R10  20832227.800   111047497.724 7       896.789          44.812    20832227.100   111047497.717 7       896.789          43.750
R12  23454131.780   125287752.897 6      5840.855          41.875    23454131.760   125287752.909 6      5840.855          41.000    23454144.060    97446083.718 7      4542.887          43.125    23454144.540    97446087.718 7      4542.887          44.187
R22  20802609.260   111045742.186 7      5880.824          44.812    20802608.840   111045742.187 7      5880.824          46.625    20802616.860    86368939.883 8      4573.974          49.187    20802616.440    86368940.879 8      4573.974          49.187
R11  19840650.220   106022413.968 8      4165.017          48.812    19840650.000   106022413.966 7      4165.017          47.625    19840655.980    82461909.177 8      3239.457          50.812    19840656.220    82461908.178 8      3239.457          51.250
G29  23924188.580   125722453.244 7      -569.022          42.875    23924187.640   125722453.244 6      -569.022          38.375    23924192.920    97965572.686 6      -443.394          38.375    23924193.840    97965578.692 6      -443.394          40.875
G25  25034904.980   131559305.377 5       -53.815          34.187    25034902.400   131559305.377 3       -53.815          23.875    25034918.880   102513745.807 3       -41.934          23.875    25034919.440   102513813.788 5       -41.934          35.750
G04  24248482.140   127426630.741 6      2733.895          39.062    24248481.340   127426630.748 3      2733.895          21.937    24248489.560    99293509.393 3      2130.308          22.125    24248489.680    99293519.395 6      2130.308          39.812
G16  22281512.920   117090137.651 7      4433.144          44.562    22281511.380   117090137.655 5      4433.144          32.125    22281515.520    91239083.438 5      3454.398          32.375
G31  20294113.820   106646284.073 8      2030.119          48.500    20294112.860   106646284.078 8      2030.119          49.000    20294114.340    83101003.164 8      1581.911          49.437    20294114.960    83101009.167 8      1581.911          50.937
G28  20959423.060   110142511.392 7       189.364          46.625    20959422.620   110142511.405 6       189.364          38.375    20959424.940    85825340.951 6       147.557          38.312    20959425.420    85825342.960 8       147.557          50.437
G18  21287127.340   111864608.016 7      2208.154          46.125    21287126.020   111864608.021 6      2208.154          37.812    21287129.760    87167235.297 6      1720.640          37.312    21287130.120    87167239.300 8      1720.640          50.062
G27  22153757.620   116418778.574 7      4659.316          44.437    22153756.540   116418778.576 5      4659.316          35.937    22153762.420    90715952.342 5      3630.636          35.562    22153763.220    90715956.347 8      3630.636          48.875
G26  20635137.460   108438378.513 7      3301.465          46.875    20635135.240   108438378.520 7      3301.465          47.812    20635140.200    84497453.604 7      2572.570          47.562    20635141.600    84497461.608 8      2572.570          48.250
R21  19064254.400   102016681.609 7      2110.634          47.187    19064254.400   102016681.627 7      2110.634          47.875    19064262.440    79346338.035 8      1641.604          49.875    19064261.720    79346335.034 8      1641.604          49.187
> 2024 05 10 09 15 14.0000000  0 14
R10  20832059.780   111046601.214 7       896.311          45.187    20832058.580   111046601.212 7       896.311          43.812
R12  23453038.140   125281912.081 6      5840.945          41.875    23453038.460   125281912.088 6      5840.945          41.000    23453050.500    97441540.861 7      4542.957          43.250    23453051.040    97441544.865 7      4542.957          44.625
R22  20801507.380   111039861.794 7      5880.103          46.812    20801507.360   111039861.792 7      5880.103          46.625    20801515.040    86364366.247 8      4573.413          49.562    20801515.000    86364367.245 8      4573.413          49.437
R11  19839870.680   106018249.128 8      4164.543          48.875    19839870.660   106018249.124 7      4164.543          47.687    19839876.580    82458669.857 8      3239.089          50.875    19839876.800    82458668.856 8      3239.089          51.250
G29  23924297.100   125723022.246 7      -569.012          43.937    23924296.020   125723022.243 6      -569.012          38.875    23924301.140    97966016.061 6      -443.386          38.812    23924302.220    97966022.060 6      -443.386          40.875
G25  25034915.260   131559359.507 5       -54.201          34.187    25034912.720   131559359.504 3       -54.201          23.875    25034929.200   102513787.978 3       -42.235          23.875    25034931.560   102513855.975 5       -42.235          35.750
G04  24247962.240   127423897.342 6      2733.164          39.000    24247961.240   127423897.350 3      2733.164          21.937    24247969.400    99291379.470 3      2129.738          22.125    24247968.920    99291389.469 6      2129.738          39.875
G16  22280669.340   117085704.700 7      4432.922          44.937    22280667.860   117085704.702 5      4432.922          32.125    22280672.000    91235629.192 5      3454.225          32.125
G31  20293727.520   106644254.452 8      2029.284          48.687    20293726.720   106644254.454 8      2029.284          49.437    20293728.100    83099421.641 8      1581.260          49.312    20293728.800    83099427.647 8      1581.260          51.562
G28  20959387.020   110142322.397 7       188.729          46.375    20959386.600   110142322.413 6       188.729          38.125    20959388.920    85825193.685 6       147.062          38.250    20959389.540    85825195.688 8       147.062          50.312
G18  21286707.160   111862400.365 7      2207.234          45.875    21286705.820   111862400.373 6      2207.234          38.250    21286709.720    87165515.054 6      1719.923          38.125    21286709.900    87165519.059 8      1719.923          50.812
G27  22152871.180   116414119.620 7      4658.796          44.000    22152869.980   116414119.619 5      4658.796          35.875    22152875.940    90712321.988 5      3630.231          35.562    22152876.700    90712325.993 8      3630.231          49.000
G26  20634509.360   108435077.236 7      3301.094          46.375    20634506.960   108435077.244 7      3301.094          47.562    20634512.000    84494881.179 7      2572.281          47.750    20634513.560    84494889.185 8      2572.281          48.250
R21  19063860.040   102014571.537 8      2109.532          48.062    19063860.220   102014571.549 7      2109.532          47.875    19063868.100    79344696.865 8      1640.747          49.562    19063867.360    79344693.864 8      1640.747          49.312
> 2024 05 10 09 15 15.0000000  0 14
R10  20831891.360   111045705.248 7       895.603          44.937    20831890.700   111045705.257 7       895.603          43.812
R12  23451945.100   125276071.204 6      5840.783          41.125    23451945.240   125276071.208 6      5840.783          41.500    23451957.240    97436997.952 7      4542.831          43.125    23451957.900    97437001.954 7      4542.831          44.500
R22  20800406.020   111033981.976 7      5879.429          46.062    20800406.040   111033981.972 7      5879.429          46.625    20800413.740    86359793.054 8      4572.889          48.937    20800413.580    86359794.051 8      4572.889          49.250
R11  19839091.340   106014084.665 8      4164.198          49.125    19839091.320   106014084.661 7      4164.198          47.937    19839097.360    82455430.830 8      3238.821          50.500    19839097.380    82455429.832 8      3238.821          51.687
G29  23924405.240   125723591.288 7      -569.088          43.250    23924404.420   125723591.282 6      -569.088          38.687    23924409.640    97966459.463 6      -443.445          38.875    23924410.460    97966465.469 6      -443.445          40.750
G25  25034925.820   131559413.788 5       -54.503          33.875    25034922.940   131559413.785 3       -54.503          23.875    25034939.380   102513830.269 3       -42.470          23.875    25034941.760   102513898.254 5       -42.470          35.750
G04  24247442.020   127421164.506 6      2732.485          38.750    24247441.140   127421164.513 3      2732.485          21.937    24247449.360    99289249.987 3      2129.209          22.125    24247449.840    99289260.001 6      2129.209          39.875
G16  22279825.700   117081271.838 7      4432.735          44.437    22279824.120   117081271.843 5      4432.735          32.250    22279828.340    91232175.023 5      3454.079          32.125
G31  20293341.480   106642225.464 8      2028.559          48.687    20293340.560   106642225.467 8      2028.559          49.437    20293342.020    83097840.612 8      1580.695          49.437    20293342.720    83097846.613 8      1580.695          51.437
G28  20959351.220   110142133.946 7       188.089          46.937    20959350.760   110142133.962 6       188.089          38.687    20959353.100    85825046.840 6       146.563          38.125    20959353.760    85825048.839 8       146.563          50.750
G18  21286287.020   111860193.376 7      2206.551          45.750    21286285.960   111860193.384 6      2206.551          38.750    21286289.720    87163795.322 6      1719.390          38.375    21286289.800    87163799.325 8      1719.390          50.187
G27  22151984.340   116409461.049 7      4658.281          44.000    22151983.480   116409461.046 6      4658.281          36.187    22151989.280    90708691.935 6      3629.829          36.125    22151990.100    90708695.940 8      3629.829          48.625
G26  20633881.160   108431776.207 7      3300.839          47.937    20633878.820   108431776.209 8      3300.839          48.187    20633883.740    84492308.948 8      2572.083          48.000    20633885.280    84492316.952 8      2572.083          48.500
R21  19063465.780   102012462.352 7      2108.652          47.437    19063465.980   102012462.370 7      2108.652          47.687    19063473.920    79343056.395 8      1640.063          49.937    19063473.360    79343053.392 8      1640.063          49.062
> 2024 05 10 09 15 16.0000000  0 14
R10  20831723.100   111044809.991 7       895.225          44.875    20831722.940   111044810.007 7       895.225          43.875
R12  23450851.360   125270230.393 6      5840.997          41.125    23450851.580   125270230.402 6      5840.997          41.500    23450863.400    97432455.110 7      4542.997          43.437    23450864.240    97432459.118 7      4542.997          44.375
R22  20799304.960   111028102.911 7      5878.922          45.500    20799304.700   111028102.907 7      5878.922          46.562    20799312.300    86355220.450 8      4572.495          49.062    20799312.200    86355221.447 8      4572.495          49.687
R11  19838312.120   106009920.784 8      4163.885          48.375    19838312.100   106009920.783 7      4163.885          47.687    19838318.120    82452192.259 8      3238.577          50.562    19838318.120    82452191.260 8      3238.577          51.687
G29  23924513.580   125724160.537 7      -569.166          42.937    23924512.860   125724160.536 6      -569.166          38.937    23924518.060    97966903.032 6      -443.506          38.812    23924518.800    97966909.035 6      -443.506          40.750
G25  25034936.800   131559468.320 5       -54.419          33.875    25034933.320   131559468.314 3       -54.419          23.875    25034949.620   102513872.749 3       -42.404          23.875    25034953.100   102513940.752 5       -42.404          35.750
G04  24246922.220   127418432.434 6      2731.966          38.750    24246921.220   127418432.444 3      2731.966          21.937    24246929.600    99287121.099 3      2128.805          22.125    24246930.140    99287131.120 6      2128.805          39.812
G16  22278982.560   117076839.300 7      4432.645          43.937    22278980.760   117076839.307 5      4432.645          32.250    22278984.820    91228721.103 5      3454.009          32.062
G31  20292955.660   106640197.310 7      2027.990          47.875    20292954.600   106640197.309 8      2027.990          48.750    20292955.920    83096260.230 8      1580.252          49.312    20292956.740    83096266.235 8      1580.252          50.687
G28  20959315.720   110141946.221 7       187.611          46.625    20959315.060   110141946.233 6       187.611          38.125    20959317.400    85824900.558 6       146.191          38.187    20959317.880    85824902.561 8       146.191          50.500
G18  21285867.280   111857987.276 7      2205.873          46.312    21285866.240   111857987.283 6      2205.873          38.250    21285869.940    87162076.283 6      1718.862          37.937    21285870.200    87162080.286 8      1718.862          50.500
G27  22151097.800   116404803.046 7      4658.003          44.000    22151097.080   116404803.038 6      4658.003          36.187    22151103.000    90705062.319 5      3629.613          35.812    22151103.440    90705066.321 8      3629.613          48.687
G26  20633252.980   108428475.619 7      3300.582          47.750    20633250.720   108428475.629 7      3300.582          47.437    20633255.700    84489737.068 7      2571.882          47.312    20633257.220    84489745.075 8      2571.882          48.250
R21  19063071.440   102010354.289 8      2107.772          48.500    19063072.180   102010354.310 7      2107.772          47.250    19063080.000    79341416.794 8      1639.378          49.312    19063079.500    79341413.791 8      1639.378          49.000
> 2024 05 10 09 15 17.0000000  0 14
R10  20831555.660   111043915.250 7       894.722          44.625    20831555.000   111043915.262 7       894.722          43.562
R12  23449757.920   125264389.473 6      5840.980          40.875    23449758.460   125264389.493 6      5840.980          41.125    23449769.980    97427912.178 7      4542.984          43.375    23449770.900    97427916.184 7      4542.984          44.250
R22  20798203.620   111022224.404 7      5878.281          46.000    20798203.240   111022224.400 7      5878.281          46.062    20798211.060    86350648.279 8      4571.996          49.437    20798211.060    86350649.283 8      4571.996          49.500
R11  19837533.020   106005757.277 8      4163.444          48.875    19837533.100   106005757.273 7      4163.444          47.375    19837539.000    82448953.978 8      3238.235          50.625    19837539.000    82448952.979 8      3238.235          51.500
G29  23924621.860   125724729.794 7      -569.211          42.312    23924621.120   125724729.791 6      -569.211          39.000    23924626.340    97967346.607 6      -443.541          38.625    23924627.320    97967352.610 6      -443.541          40.687
G25  25034947.000   131559523.004 5       -54.639          34.250    25034943.820   131559522.998 3       -54.639          23.875    25034960.040   102513915.358 3       -42.576          23.875    25034962.480   102513983.373 5       -42.576          35.437
G04  24246402.760   127415700.927 6      2731.335          39.812    24246401.500   127415700.937 3      2731.335          21.625    24246409.660    99284992.654 3      2128.313          21.750    24246410.220    99285002.673 6      2128.313          39.812
G16  22278139.100   117072406.861 7      4432.397          44.687    22278137.260   117072406.869 5      4432.397          32.062    22278141.300    91225267.257 5      3453.816          32.062
G31  20292569.700   106638169.778 8      2027.314          48.312    20292568.800   106638169.785 8      2027.314          48.937    20292570.140    83094680.341 8      1579.725          49.250    20292570.760    83094686.346 8      1579.725          50.562
G28  20959279.880   110141759.039 7       186.935          46.750    20959279.340   110141759.046 6       186.935          38.812    20959281.860    85824754.696 6       145.663          38.437    20959282.500    85824756.701 8       145.663          51.125
G18  21285447.540   111855781.819 7      2205.273          45.562    21285446.420   111855781.824 6      2205.273          37.937    21285450.140    87160357.743 6      1718.395          38.000    21285450.500    87160361.744 8      1718.395          50.125
G27  22150211.440   116400145.387 7      4657.611          43.500    22150210.720   116400145.384 6      4657.611          36.125    22150216.480    90701432.976 5      3629.307          35.625    22150217.220    90701436.989 8      3629.307          49.000
G26  20632624.920   108425175.262 7      3300.351          47.187    20632622.760   108425175.265 7      3300.351          47.687    20632627.680    84487165.357 7      2571.702          47.812    20632629.400    84487173.361 8      2571.702          48.375
R21  19062677.700   102008247.109 8      2106.772          48.250    19062678.340   102008247.129 7      2106.772          46.750    19062686.340    79339777.874 8      1638.601          49.937    19062685.760    79339774.871 8      1638.601          49.125
> 2024 05 10 09 15 18.0000000  0 14
R10  20831387.800   111043020.992 7       893.925          45.312    20831387.040   111043021.012 7       893.925          43.500
R12  23448664.260   125258548.379 6      5841.180          40.875    23448664.900   125258548.388 6      5841.180          41.125    23448676.680    97423369.108 7      4543.140          43.500    23448677.460    97423373.111 7      4543.140          44.312
R22  20797102.320   111016346.396 7      5877.794          44.875    20797102.280   111016346.394 7      5877.794          46.875    20797109.940    86346076.497 8      4571.617          48.750    20797109.900    86346077.499 8      4571.617          49.750
R11  19836753.760   106001594.086 8      4163.032          48.875    19836754.040   106001594.082 7      4163.032          47.500    19836759.740    82445715.940 8      3237.914          51.000    19836759.680    82445714.943 8      3237.914          50.937
G29  23924729.980   125725298.985 7      -569.086          43.125    23924729.480   125725298.982 6      -569.086          38.687    23924734.580    97967790.124 6      -443.444          38.687    23924735.620    97967796.128 6      -443.444          40.687
G25  25034957.100   131559577.780 5       -54.891          34.250    25034954.300   131559577.777 4       -54.891          24.250    25034970.620   102513958.036 3       -42.772          23.875    25034973.120   102514026.049 5       -42.772          35.437
G04  24245882.220   127412969.958 6      2730.663          40.250    24245881.880   127412969.971 3      2730.663          21.625    24245890.200    99282864.631 3      2127.789          21.750    24245890.840    99282874.629 6      2127.789          39.375
G16  22277295.560   117067974.473 7      4432.352          44.437    22277293.720   117067974.480 5      4432.352          32.062    22277297.860    91221813.450 5      3453.781          32.062
G31  20292184.100   106636142.845 8      2026.598          48.125    20292183.020   106636142.844 8      2026.598          48.875    20292184.380    83093100.907 8      1579.167          49.250    20292185.100    83093106.908 8      1579.167          50.812
G28  20959244.400   110141572.314 7       186.477          47.437    20959243.820   110141572.325 6       186.477          38.312    20959246.240    85824609.197 6       145.307          38.187    20959246.880    85824611.199 8       145.307          50.812
G18  21285027.960   111853577.008 7      2204.430          45.437    21285026.900   111853577.016 6      2204.430          38.625    21285030.640    87158639.711 6      1717.738          38.250    21285031.020    87158643.715 8      1717.738          50.312
G27  22149325.700   116395488.086 7      4657.074          44.875    22149324.400   116395488.085 5      4657.074          35.875    22149330.220    90697803.916 5      3628.889          35.437    22149330.960    90697807.921 8      3628.889          48.750
G26  20631997.040   108421875.092 7      3300.043          47.937    20631994.720   108421875.100 7      3300.043          47.937    20631999.640    84484593.798 7      2571.462          47.812    20632001.220    84484601.804 7      2571.462          47.812
R21  19062284.200   102006140.761 8      2105.950          48.187    19062284.780   102006140.770 7      2105.950          47.687    19062292.620    79338139.593 8      1637.961          49.812    19062292.080    79338136.594 8      1637.961          48.875
> 2024 05 10 09 15 19.0000000  0 14
R10  20831220.080   111042127.089 7       893.520          44.687    20831219.560   111042127.106 7       893.520          43.812
R12  23447570.380   125252707.066 6      5841.121          41.375    23447571.240   125252707.086 6      5841.121          41.000    23447583.420    97418825.873 7      4543.094          43.375    23447583.580    97418829.874 7      4543.094          44.625
R22  20796001.240   111010468.836 7      5877.110          44.312    20796001.300   111010468.837 7      5877.110          46.562    20796008.980    86341505.070 8      4571.086          49.250    20796008.760    86341506.070 8      4571.086          49.062
R11  19835974.960   105997431.130 8      4162.680          48.000    19835974.960   105997431.123 7      4162.680          47.187    19835980.840    82442478.085 8      3237.640          50.375    19835980.660    82442477.086 8      3237.640          51.812
G29  23924838.240   125725868.105 7      -569.174          43.750    23924837.680   125725868.102 6      -569.174          38.500    23924843.000    97968233.585 6      -443.512          38.375    23924843.500    97968239.586 6      -443.512          40.687
G25  25034967.300   131559632.563 5       -55.216          34.250    25034964.720   131559632.560 4       -55.216          24.250    25034981.000   102514000.725 3       -43.025          23.875    25034983.000   102514068.724 5       -43.025          35.437
G04  24245362.800   127410239.421 6      2730.098          39.937    24245362.280   127410239.431 3      2730.098          21.625    24245370.760    99280736.936 3      2127.349          21.750    24245370.800    99280746.925 6      2127.349          39.375
G16  22276452.360   117063542.061 7      4432.248          44.062    22276450.240   117063542.071 5      4432.248          32.062    22276454.600    91218359.620 5      3453.700          32.000
G31  20291798.560   106634116.411 8      2025.942          48.625    20291797.380   106634116.416 8      2025.942          49.437    20291798.800    83091521.869 8      1578.656          49.750    20291799.440    83091527.875 8      1578.656          50.500
G28  20959209.220   110141386.008 7       185.948          46.437    20959208.460   110141386.023 6       185.948          38.625    20959210.820    85824464.023 6       144.894          38.812    20959211.400    85824466.023 8       144.894          50.437
G18  21284608.740   111851372.726 7      2203.837          45.875    21284607.440   111851372.733 6      2203.837          38.750    21284611.180    87156922.088 6      1717.276          38.625    21284611.700    87156926.089 8      1717.276          50.375
G27  22148439.400   116390831.029 7      4656.709          45.062    22148438.320   116390831.026 5      4656.709          35.875    22148444.100    90694175.038 5      3628.605          35.562    22148444.780    90694179.045 8      3628.605          49.125
G26  20631369.220   108418575.033 7      3299.790          47.062    20631366.700   108418575.043 7      3299.790          47.812    20631371.720    84482022.325 7      2571.265          47.750    20631373.100    84482030.328 8      2571.265          48.062
R21  19061890.860   102004035.181 8      2105.044          48.125    19061890.960   102004035.195 7      2105.044          47.187    19061899.240    79336501.921 8      1637.257          49.562    19061898.640    79336498.919 8      1637.257          49.062
> 2024 05 10 09 15 20.0000000  0 14
R10  20831052.920   111041233.916 7       892.976          45.250    20831052.140   111041233.925 7       892.976          44.187
R12  23446477.420   125246865.885 6      5841.263          41.375    23446477.740   125246865.888 6      5841.263          41.437    23446490.080    97414282.723 7      4543.204          43.500    23446490.100    97414286.731 7      4543.204          44.687
R22  20794900.380   111004592.066 7      5876.424          46.125    20794900.320   111004592.065 7      5876.424          46.125    20794907.880    86336934.249 8      4570.552          49.500    20794907.940    86336935.249 8      4570.552          49.687
R11  19835196.140   105993268.788 8      4162.180          48.500    19835195.960   105993268.787 7      4162.180          47.250    19835201.820    82439240.710 8      3237.251          50.750    19835201.840    82439239.714 8      3237.251          51.375
G29  23924946.660   125726437.446 7      -569.368          43.375    23924946.080   125726437.443 6      -569.368          38.437    23924951.360    97968677.223 6      -443.663          38.687    23924951.960    97968683.220 6      -443.663          40.750
G25  25034978.520   131559687.618 5       -55.017          35.312    25034975.320   131559687.610 4       -55.017          24.250    25034991.420   102514043.614 3       -42.870          23.875    25034994.360   102514111.607 5       -42.870          35.437
G04  24244843.620   127407509.645 6      2729.442          39.437    24244842.800   127407509.650 3      2729.442          21.625    24244851.180    99278609.842 3      2126.838          21.750    24244851.100    99278619.842 6      2126.838          39.375
G16  22275608.920   117059109.985 7      4431.986          43.812    22275606.840   117059109.997 5      4431.986          31.937    22275611.080    91214906.056 5      3453.496          32.000
G31  20291412.980   106632090.845 8      2025.213          48.437    20291411.880   106632090.847 8      2025.213          48.750    20291413.220    83089943.506 8      1578.088          49.250    20291413.920    83089949.509 8      1578.088          50.812
G28  20959173.640   110141200.481 7       185.147          45.875    20959173.160   110141200.497 6       185.147          38.812    20959175.500    85824319.457 6       144.271          38.687    20959176.080    85824321.461 8       144.271          50.250
G18  21284189.340   111849169.342 7      2203.100          45.750    21284188.180   111849169.349 6      2203.100          38.187    21284192.000    87155205.163 6      1716.702          38.500    21284192.400    87155209.170 8      1716.702          50.625
G27  22147553.440   116386174.550 7      4656.317          44.187    22147552.120   116386174.549 5      4656.317          35.812    22147557.800    90690546.617 5      3628.299          35.625    22147558.520    90690550.622 8      3628.299          48.937
G26  20630741.220   108415275.456 7      3299.418          47.187    20630738.860   108415275.461 7      3299.418          47.500    20630743.800    84479451.224 7      2570.975          47.437    20630745.660    84479459.230 8      2570.975          48.250
R21  19061497.340   102001930.732 7      2103.999          47.875    19061497.700   102001930.742 7      2103.999          47.625    19061506.000    79334865.130 8      1636.444          49.375    19061505.220    79334862.136 8      1636.444          49.562
> 2024 05 10 09 15 21.0000000  0 14
R10  20830885.000   111040341.228 7       892.416          45.125    20830885.000   111040341.237 7       892.416          44.187
R12  23445383.860   125241024.596 6      5841.259          40.625    23445384.280   125241024.586 6      5841.259          41.437    23445396.460    97409739.494 7      4543.201          43.500    23445396.700    97409743.502 7      4543.201          44.000
R22  20793799.580   110998715.820 7      5875.899          45.437    20793799.600   110998715.815 7      5875.899          46.375    20793807.320    86332363.840 8      4570.143          48.187    20793807.120    86332364.841 8      4570.143          48.750
R11  19834416.940   105989106.802 8      4161.765          48.750    19834417.140   105989106.792 7      4161.765          47.437    19834423.000    82436003.602 8      3236.929          49.687    19834422.780    82436002.605 8      3236.929          49.687
G29  23925055.000   125727006.782 7      -569.393          42.312    23925054.380   125727006.776 6      -569.393          38.000    23925059.880    97969120.853 6      -443.683          38.625    23925060.900    97969126.852 6      -443.683          40.750
G25  25034987.940   131559742.825 5       -55.346          35.312    25034986.000   131559742.816 4       -55.346          24.250    25035001.920   102514086.628 4       -43.127          24.375    25035004.900   102514154.631 5       -43.127          35.437
G04  24244324.380   127404780.427 6      2728.822          39.812    24244323.400   127404780.434 3      2728.822          21.625    24244331.840    99276483.180 3      2126.355          21.750    24244332.000    99276493.178 6      2126.355          39.875
G16  22274765.440   117054677.988 7      4431.863          44.625    22274763.420   117054677.998 5      4431.863          31.937    22274767.720    91211452.554 5      3453.400          32.125
G31  20291027.540   106630065.903 8      2024.509          48.562    20291026.520   106630065.900 8      2024.509          48.937    20291027.920    83088365.625 8      1577.540          48.687    20291028.580    83088371.629 8      1577.540          50.125
G28  20959138.440   110141015.425 7       184.791          46.750    20959137.960   110141015.438 6       184.791          38.687    20959140.320    85824175.251 6       143.993          38.062    20959140.720    85824177.251 8       143.993          50.562
G18  21283770.260   111846966.628 7      2202.284          46.000    21283768.880   111846966.636 6      2202.284          38.187    21283772.900    87153488.763 6      1716.065          37.687    21283773.300    87153492.768 8      1716.065          49.500
G27  22146667.260   116381518.428 7      4655.904          43.937    22146666.040   116381518.433 5      4655.904          35.625    22146671.820    90686918.475 5      3627.977          35.625    22146672.320    90686922.482 8      3627.977          48.250
G26  20630113.200   108411976.077 7      3299.186          47.250    20630110.980   108411976.079 7      3299.186          47.125    20630116.000    84476880.280 7      2570.794          47.437    20630117.780    84476888.283 7      2570.794          47.812
R21  19061104.200   101999827.126 7      2103.034          47.812    19061104.620   101999827.152 7      2103.034          47.000    19061112.760    79333229.001 8      1635.693          49.187    19061112.000    79333226.004 8      1635.693          48.937
> 2024 05 10 09 15 22.0000000  0 14
R10  20830718.100   111039449.129 7       891.889          45.312    20830717.980   111039449.148 7       891.889          43.937
R12  23444290.720   125235183.262 6      5841.383          40.625    23444290.640   125235183.268 6      5841.383          41.375    23444302.860    97405196.251 7      4543.298          43.312    23444303.260    97405200.259 7      4543.298          44.312
R22  20792698.840   110992840.243 7      5875.341          45.875    20792699.020   110992840.244 7      5875.341          46.625    20792706.680    86327793.953 8      4569.709          49.500    20792706.520    86327794.954 8      4569.709          50.125
R11  19833638.120   105984945.270 8      4161.388          48.500    19833638.300   105984945.263 7      4161.388          47.250    19833644.180    82432766.859 8      3236.635          50.312    19833643.980    82432765.864 8      3236.635          51.187
G29  23925163.140   125727576.215 7      -569.445          42.937    23925162.700   125727576.215 6      -569.445          38.625    23925168.260    97969564.565 6      -443.723          38.562    23925169.220    97969570.560 6      -443.723          40.687
G25  25034998.880   131559798.263 5       -55.565          35.312    25034996.560   131559798.254 4       -55.565          24.250    25035012.500   102514129.827 4       -43.297          24.375    25035014.760   102514197.840 5       -43.297          35.375
G04  24243804.980   127402051.886 6      2728.117          39.750    24243804.220   127402051.896 3      2728.117          21.625    24243812.600    99274357.045 3      2125.805          21.750    24243813.060    99274367.053 6      2125.805          39.875
G16  22273922.300   117050246.180 7      4431.827          43.937    22273920.120   117050246.187 5      4431.827          32.062    22273924.420    91207999.199 5      3453.372          32.125
G31  20290642.420   106628041.669 8      2023.942          48.562    20290641.380   106628041.671 8      2023.942          48.937    20290642.760    83086788.304 8      1577.098          49.312    20290643.360    83086794.309 8      1577.098          51.000
G28  20959103.580   110140831.026 7       184.220          46.562    20959102.840   110140831.039 6       184.220          38.875    20959105.280    85824031.559 6       143.548          38.500    20959105.620    85824033.560 8       143.548          50.625
G18  21283351.160   111844764.660 7      2201.647          46.000    21283349.980   111844764.671 6      2201.647          37.625    21283353.700    87151772.948 6      1715.569          38.187    21283354.280    87151776.955 8      1715.569          50.312
G27  22145781.280   116376862.787 7      4655.570          43.812    22145779.900   116376862.789 5      4655.570          35.625    22145785.960    90683290.700 5      3627.717          35.312    22145786.240    90683294.710 8      3627.717          48.687
G26  20629485.400   108408677.023 7      3299.019          47.750    20629483.260   108408677.031 7      3299.019          47.500    20629488.220    84474309.595 7      2570.664          47.500    20629489.900    84474317.598 8      2570.664          48.437
R21  19060711.360   101997724.532 7      2102.201          46.687    19060711.940   101997724.552 7      2102.201          47.937    19060719.840    79331593.648 8      1635.045          49.812    19060719.160    79331590.647 8      1635.045          49.187
> 2024 05 10 09 15 23.0000000  0 14
R10  20830550.520   111038557.552 7       891.224          45.437    20830550.600   111038557.572 7       891.224          44.125
R12  23443197.100   125229341.807 6      5841.523          41.187    23443197.260   125229341.819 6      5841.523          41.375    23443209.360    97400652.906 7      4543.407          44.000    23443209.540    97400656.910 7      4543.407          43.625
R22  20791598.220   110986965.219 7      5874.638          46.062    20791598.620   110986965.217 7      5874.638          46.812    20791606.060    86323224.488 8      4569.163          50.000    20791606.020    86323225.489 8      4569.163          49.937
R11  19832859.480   105980784.096 8      4160.988          48.687    19832859.440   105980784.091 7      4160.988          47.500    19832865.360    82429530.400 8      3236.324          50.625    19832865.440    82429529.405 8      3236.324          51.000
G29  23925271.340   125728145.645 6      -569.374          41.312    23925270.960   125728145.642 6      -569.374          38.687    23925276.680    97970008.267 6      -443.668          38.312    23925277.360    97970014.260 6      -443.668          40.687
G25  25035009.860   131559853.774 5       -55.662          34.562    25035007.240   131559853.766 4       -55.662          24.250    25035023.200   102514173.072 4       -43.373          24.375    25035024.840   102514241.065 5       -43.373          35.375
G04  24243285.920   127399323.858 6      2727.760          39.687    24243285.000   127399323.866 3      2727.760          21.625    24243293.300    99272231.309 3      2125.527          21.750    24243293.720    99272241.304 6      2125.527          39.937
G16  22273078.860   117045814.480 7      4431.573          43.250    22273076.940   117045814.492 5      4431.573          32.062    22273081.100    91204545.933 5      3453.174          32.125
G31  20290257.420   106626018.073 8      2023.232          48.250    20290256.340   106626018.081 8      2023.232          49.000    20290257.600    83085211.476 8      1576.544          49.437    20290258.200    83085217.481 8      1576.544          50.750
G28  20959068.480   110140647.137 7       183.569          46.875    20959067.820   110140647.149 6       183.569          38.937    20959070.320    85823888.273 6       143.041          38.562    20959070.760    85823890.277 8       143.041          50.625
G18  21282932.220   111842563.352 7      2200.973          46.000    21282931.000   111842563.357 6      2200.973          38.187    21282934.800    87150057.641 6      1715.044          37.687    21282935.300    87150061.642 8      1715.044          50.625
G27  22144895.420   116372207.501 7      4655.060          43.937    22144894.100   116372207.503 5      4655.060          35.875    22144900.220    90679663.207 5      3627.320          35.687    22144900.580    90679667.216 8      3627.320          48.875
G26  20628857.800   108405378.204 7      3298.745          47.125    20628855.560   108405378.217 7      3298.745          47.812    20628860.620    84471739.088 7      2570.450          47.937    20628862.420    84471747.089 8      2570.450          48.250
R21  19060318.720   101995622.802 8      2101.303          48.562    19060319.260   101995622.822 7      2101.303          47.375    19060327.140    79329958.969 8      1634.346          49.687    19060326.260    79329955.970 8      1634.346          49.562
> 2024 05 10 09 15 24.0000000  0 14
R10  20830383.460   111037666.338 7       891.106          45.750    20830383.760   111037666.355 7       891.106          44.062
R12  23442103.680   125223500.110 6      5842.020          41.187    23442103.540   125223500.119 6      5842.020          41.312    23442116.100    97396109.363 7      4543.793          43.875    23442116.240    97396113.371 7      4543.793          44.812
R22  20790497.400   110981090.601 7      5874.500          46.562    20790497.840   110981090.601 7      5874.500          47.125    20790505.420    86318655.346 8      4569.055          49.625    20790505.460    86318656.346 8      4569.055          50.000
R11  19832080.640   105976623.181 8      4160.830          49.500    19832080.680   105976623.184 7      4160.830          47.375    19832086.820    82426294.137 8      3236.201          50.312    19832086.680    82426293.140 8      3236.201          51.625
G29  23925379.760   125728714.952 6      -569.022          41.937    23925379.220   125728714.944 6      -569.022          38.437    23925385.000    97970451.868 6      -443.393          38.437    23925385.560    97970457.869 6      -443.393          41.000
G25  25035020.280   131559909.325 5       -55.602          34.562    25035018.020   131559909.319 4       -55.602          24.250    25035033.800   102514216.348 4       -43.326          24.375    25035035.540   102514284.327 5       -43.326          35.375
G04  24242766.880   127396596.279 6      2727.462          40.125    24242765.960   127396596.289 3      2727.462          21.000    24242774.200    99270105.924 3      2125.295          21.750    24242775.100    99270115.928 6      2125.295          39.937
G16  22272235.500   117041382.716 7      4432.042          44.625    22272233.500   117041382.724 5      4432.042          32.062    22272237.680    91201092.611 5      3453.539          32.000
G31  20289872.440   106623994.966 8      2022.968          48.375    20289871.300   106623994.973 8      2022.968          49.125    20289872.620    83083635.029 8      1576.339          49.250    20289873.400    83083641.030 8      1576.339          50.500
G28  20959033.680   110140463.639 7       183.432          45.750    20959032.900   110140463.649 6       183.432          38.562    20959035.460    85823745.281 6       142.934          38.500    20959035.720    85823747.278 8       142.934          50.875
G18  21282513.300   111840362.583 7      2200.615          46.000    21282512.280   111840362.590 6      2200.615          38.062    21282516.120    87148342.760 6      1714.765          38.000    21282516.340    87148346.761 8      1714.765          50.750
G27  22144009.680   116367552.443 7      4655.086          42.750    22144008.440   116367552.448 5      4655.086          35.625    22144014.240    90676035.893 5      3627.340          35.437    22144014.640    90676039.890 8      3627.340          48.500
G26  20628230.040   108402079.489 7      3298.791          47.687    20628227.700   108402079.497 7      3298.791          47.750    20628232.760    84469168.659 8      2570.487          48.250    20628234.580    84469176.660 8      2570.487          48.500
R21  19059925.860   101993521.805 7      2100.764          47.437    19059926.480   101993521.820 7      2100.764          47.437    19059934.380    79328324.858 8      1633.927          49.250    19059933.800    79328321.857 8      1633.927          49.187
> 2024 05 10 09 15 25.0000000  0 14
R10  20830216.260   111036775.782 7       890.051          45.250    20830216.960   111036775.804 7       890.051          44.062
R12  23441010.140   125217658.463 6      5841.694          41.937    23441010.100   125217658.459 6      5841.694          41.312    23441022.480    97391565.858 7      4543.540          43.875    23441022.500    97391569.862 7      4543.540          44.812
R22  20789397.200   110975216.679 7      5873.582          46.375    20789397.440   110975216.674 7      5873.582          47.000    20789405.300    86314086.734 8      4568.342          49.750    20789404.860    86314087.733 8      4568.342          49.687
R11  19831302.200   105972462.776 8      4159.979          48.937    19831302.260   105972462.780 7      4159.979          47.875    19831308.240    82423058.267 8      3235.539          50.875    19831308.360    82423057.270 8      3235.539          51.187
G29  23925488.040   125729284.414 7      -569.499          43.062    23925487.660   125729284.403 6      -569.499          38.375    23925493.300    97970895.594 6      -443.766          38.625    23925493.820    97970901.596 6      -443.766          41.000
G25  25035030.940   131559965.052 5       -55.889          35.187    25035028.660   131559965.041 4       -55.889          24.250    25035044.460   102514259.758 4       -43.550          24.375    25035046.560   102514327.732 5       -43.550          35.375
G04  24242247.980   127393869.376 6      2726.645          38.812    24242247.160   127393869.383 3      2726.645          21.000    24242255.240    99267981.065 3      2124.659          21.000    24242255.480    99267991.068 6      2124.659          39.687
G16  22271392.100   117036951.213 7      4431.349          44.312    22271390.400   117036951.223 5      4431.349          32.000    22271394.400    91197639.493 5      3452.999          32.000
G31  20289487.500   106621972.634 8      2021.927          48.562    20289486.600   106621972.636 8      2021.927          49.625    20289487.840    83082059.182 8      1575.527          49.437    20289488.600    83082065.187 8      1575.527          50.687
G28  20958998.780   110140280.800 7       182.444          46.437    20958998.120   110140280.818 6       182.444          39.000    20959000.600    85823602.814 6       142.164          38.687    20959001.100    85823604.814 8       142.164          50.562
G18  21282094.560   111838162.607 7      2199.554          46.562    21282093.540   111838162.614 6      2199.554          38.312    21282097.380    87146628.493 6      1713.938          38.625    21282097.700    87146632.498 8      1713.938          50.437
G27  22143123.640   116362897.906 7      4654.120          44.250    22143122.800   116362897.906 6      4654.120          36.250    22143128.500    90672408.981 5      3626.587          35.750    22143128.920    90672412.992 8      3626.587          48.437
G26  20627602.360   108398781.145 8      3298.053          48.812    20627600.180   108398781.155 7      3298.053          47.750    20627605.180    84466598.525 8      2569.911          48.000    20627606.920    84466606.526 8      2569.911          48.437
R21  19059533.660   101991421.854 8      2099.343          48.000    19059534.220   101991421.867 7      2099.343          47.625    19059541.980    79326691.563 8      1632.822          49.375    19059541.480    79326688.562 8      1632.822          49.562
> 2024 05 10 09 15 26.0000000  0 14
R10  20830049.600   111035885.768 7       889.763          45.500    20830049.760   111035885.782 7       889.763          44.562
R12  23439917.000   125211816.753 6      5841.708          41.937    23439916.540   125211816.751 6      5841.708          41.562    23439928.620    97387022.314 7      4543.551          43.812    23439929.060    97387026.316 7      4543.551          44.250
R22  20788297.060   110969343.357 7      5873.126          45.437    20788297.100   110969343.356 7      5873.126          47.062    20788305.040    86309518.595 8      4567.987          49.375    20788304.860    86309519.597 8      4567.987          49.937
R11  19830523.700   105968302.748 8      4159.883          48.625    19830523.600   105968302.749 8      4159.883          48.437    19830529.760    82419822.698 8      3235.465          51.000    19830529.660    82419821.701 8      3235.465          51.500
G29  23925596.940   125729853.881 7      -569.344          42.562    23925596.060   125729853.873 6      -569.344          38.625    23925601.620    97971339.335 6      -443.645          38.625    23925602.680    97971345.336 6      -443.645          40.812
G25  25035042.020   131560020.926 5       -55.914          35.187    25035039.140   131560020.910 4       -55.914          24.125    25035055.080   102514303.286 4       -43.569          24.375    25035057.020   102514371.270 5       -43.569          35.375
G04  24241729.460   127391143.108 6      2725.920          38.625    24241728.260   127391143.121 3      2725.920          21.000    24241736.280    99265856.700 3      2124.094          21.000    24241736.700    99265866.712 6      2124.094          39.687
G16  22270548.760   117032519.842 7      4431.423          44.687    22270547.080   117032519.846 5      4431.423          32.000    22270551.320    91194186.479 5      3453.057          32.000
G31  20289102.980   106619950.961 8      2021.409          48.875    20289101.820   106619950.964 8      2021.409          49.312    20289103.180    83080483.852 8      1575.124          49.187    20289103.720    83080489.856 8      1575.124          50.500
G28  20958964.020   110140098.521 7       182.114          46.312    20958963.500   110140098.537 6       182.114          38.250    20958965.880    85823460.772 6       141.907          38.250    20958966.540    85823462.773 8       141.907          50.312
G18  21281676.280   111835963.338 7      2199.028          46.000    21281675.080   111835963.348 6      2199.028          37.937    21281678.800    87144914.773 6      1713.528          38.000    21281679.220    87144918.780 8      1713.528          50.250
G27  22142238.060   116358243.734 7      4654.085          42.562    22142237.100   116358243.736 6      4654.085          36.062    22142242.800    90668782.358 5      3626.560          35.625    22142243.380    90668786.367 8      3626.560          48.187
G26  20626974.560   108395483.064 7      3298.012          47.312    20626972.600   108395483.066 7      3298.012          47.562    20626977.500    84464028.583 7      2569.880          47.437    20626979.140    84464036.587 8      2569.880          48.500
R21  19059141.540   101989322.789 8      2098.639          48.187    19059141.940   101989322.807 7      2098.639          47.687    19059149.560    79325058.959 8      1632.275          49.875    19059149.200    79325055.958 8      1632.275          49.187
> 2024 05 10 09 15 27.0000000  0 14
R10  20829882.600   111034996.281 7       889.261          45.250    20829882.600   111034996.303 7       889.261          44.375
R12  23438823.500   125205974.919 6      5841.881          41.812    23438822.940   125205974.920 6      5841.881          41.562    23438834.840    97382478.668 7      4543.685          43.812    23438835.300    97382482.671 7      4543.685          44.625
R22  20787196.800   110963470.610 7      5872.498          46.500    20787197.020   110963470.613 7      5872.498          46.125    20787204.980    86304950.913 8      4567.498          49.187    20787204.600    86304951.917 8      4567.498          50.312
R11  19829745.540   105964143.164 8      4159.394          48.875    19829745.220   105964143.162 7      4159.394          47.750    19829751.340    82416587.464 8      3235.084          50.750    19829751.500    82416586.467 8      3235.084          51.625
G29  23925705.300   125730423.406 7      -569.430          42.437    23925704.500   125730423.401 6      -569.430          38.500    23925709.940    97971783.117 6      -443.712          38.625    23925711.320    97971789.108 6      -443.712          41.062
G25  25035052.380   131560076.963 5       -55.946          35.312    25035049.780   131560076.952 4       -55.946          24.125    25035065.920   102514346.943 4       -43.594          24.375    25035068.620   102514414.942 5       -43.594          35.437
G04  24241210.600   127388417.405 6      2725.353          38.625    24241209.640   127388417.418 3      2725.353          21.000    24241217.580    99263732.780 3      2123.652          21.000    24241218.260    99263742.788 6      2123.652          39.562
G16  22269705.620   117028088.575 7      4431.229          43.437    22269703.880   117028088.582 5      4431.229          31.750    22269707.900    91190733.546 5      3452.906          31.750
G31  20288718.360   106617929.946 8      2020.643          48.062    20288717.200   106617929.948 8      2020.643          49.500    20288718.560    83078909.037 8      1574.527          49.625    20288719.260    83078915.038 8      1574.527          50.625
G28  20958929.360   110139916.802 7       181.445          47.062    20958928.840   110139916.812 6       181.445          38.687    20958931.340    85823319.167 6       141.386          38.875    20958931.780    85823321.163 8       141.386          50.875
G18  21281257.720   111833764.765 7      2198.246          46.000    21281256.840   111833764.770 6      2198.246          38.312    21281260.440    87143201.597 6      1712.919          37.750    21281260.560    87143205.602 8      1712.919          50.312
G27  22141352.720   116353589.980 7      4653.650          44.000    22141351.400   116353589.982 5      4653.650          35.750    22141357.300    90665156.058 5      3626.221          35.625    22141357.840    90665160.061 8      3626.221          48.937
G26  20626347.180   108392185.232 7      3297.734          47.125    20626344.980   108392185.240 7      3297.734          47.687    20626349.980    84461458.850 7      2569.663          47.562    20626351.680    84461466.852 8      2569.663          49.187
R21  19058749.040   101987224.618 8      2097.712          48.000    19058749.820   101987224.635 7      2097.712          47.750    19058757.360    79323427.052 8      1631.554          49.500    19058756.780    79323424.053 8      1631.554          49.375
> 2024 05 10 09 15 28.0000000  0 14
R10  20829715.460   111034107.241 7       888.786          45.250    20829715.980   111034107.266 7       888.786          44.125
R12  23437730.180   125200132.898 6      5841.973          41.187    23437729.620   125200132.902 6      5841.973          41.562    23437741.480    97377934.880 7      4543.757          43.875    23437741.620    97377938.888 7      4543.757          44.187
R22  20786096.640   110957598.351 7      5871.908          45.500    20786096.920   110957598.346 7      5871.908          46.687    20786104.940    86300383.603 8      4567.040          49.625    20786104.680    86300384.604 8      4567.040          49.875
R11  19828967.100   105959983.865 8      4159.027          48.062    19828966.960   105959983.869 7      4159.027          46.875    19828973.000    82413352.458 8      3234.799          51.000    19828973.060    82413351.463 8      3234.799          51.500
G29  23925813.820   125730992.860 7      -569.552          42.687    23925812.900   125730992.857 6      -569.552          38.437    23925818.300    97972226.843 6      -443.806          38.562    23925819.620    97972232.848 6      -443.806          41.062
G25  25035063.560   131560133.069 5       -56.342          35.312    25035060.440   131560133.055 4       -56.342          24.125    25035076.680   102514390.653 4       -43.903          24.375    25035079.340   102514458.656 5       -43.903          35.437
G04  24240691.620   127385692.170 6      2724.791          39.312    24240690.960   127385692.178 3      2724.791          21.000    24240698.940    99261609.222 3      2123.214          21.000    24240698.940    99261619.228 6      2123.214          39.562
G16  22268862.460   117023657.308 7      4431.219          44.750    22268860.580   117023657.316 5      4431.219          31.750    22268864.640    91187280.615 5      3452.898          31.750
G31  20288333.780   106615909.474 8      2020.069          48.937    20288332.780   106615909.476 8      2020.069          49.125    20288334.020    83077334.645 8      1574.080          49.312    20288334.720    83077340.649 8      1574.080          50.750
G28  20958894.940   110139735.517 7       180.939          47.312    20958894.340   110139735.529 6       180.939          38.687    20958896.880    85823177.909 6       140.991          38.375    20958897.400    85823179.906 8       140.991          50.937
G18  21280839.540   111831566.765 7      2197.620          46.562    21280838.520   111831566.770 6      2197.620          38.250    21280842.100    87141488.872 6      1712.431          38.125    21280842.380    87141492.879 8      1712.431          49.562
G27  22140466.940   116348936.514 7      4653.232          43.250    22140465.900   116348936.514 5      4653.232          35.750    22140471.840    90661529.981 5      3625.895          35.625    22140472.200    90661533.984 8      3625.895          48.562
G26  20625719.660   108388887.564 7      3297.508          47.875    20625717.520   108388887.563 7      3297.508          47.437    20625722.480    84458889.238 7      2569.487          47.250    20625724.180    84458897.242 8      2569.487          48.312
R21  19058357.540   101985127.270 7      2096.866          47.312    19058357.820   101985127.285 7      2096.866          46.937    19058365.440    79321795.779 8      1630.895          49.625    19058364.860    79321792.781 8      1630.895          49.000
> 2024 05 10 09 15 29.0000000  0 14
R10  20829549.340   111033218.733 7       888.186          45.250    20829549.200   111033218.754 7       888.186          43.875
R12  23436636.160   125194290.806 6      5842.011          41.187    23436635.040   125194290.804 6      5842.011          41.562    23436647.760    97373391.032 7      4543.786          44.187    23436648.200    97373395.042 7      4543.786          44.687
R22  20784996.700   110951726.650 7      5871.380          44.500    20784997.260   110951726.653 7      5871.380          46.500    20785005.040    86295816.724 8      4566.629          49.687    20785004.700    86295817.727 8      4566.629          49.625
R11  19828188.920   105955824.970 8      4158.633          48.437    19828188.520   105955824.969 7      4158.633          47.000    19828194.620    82410117.760 8      3234.493          50.250    19828194.840    82410116.761 8      3234.493          51.875
G29  23925921.900   125731562.333 7      -569.649          42.937    23925921.380   125731562.330 6      -569.649          38.562    23925926.800    97972670.580 6      -443.882          38.625    23925927.920    97972676.585 6      -443.882          40.687
G25  25035074.320   131560189.258 5       -56.488          35.312    25035071.140   131560189.245 4       -56.488          24.125    25035087.240   102514434.431 4       -44.017          24.000    25035090.740   102514502.430 5       -44.017          35.437
G04  24240173.100   127382967.500 6      2724.363          39.437    24240172.360   127382967.507 3      2724.363          21.000    24240180.400    99259486.100 3      2122.880          21.000    24240180.060    99259496.104 6      2122.880          39.562
G16  22268019.080   117019226.186 7      4430.988          44.250    22268017.400   117019226.199 5      4430.988          31.750    22268021.320    91183827.798 5      3452.718          31.875
G31  20287949.460   106613889.648 8      2019.442          48.437    20287948.400   106613889.651 8      2019.442          49.062    20287949.720    83075760.753 8      1573.591          49.312    20287950.280    83075766.755 8      1573.591          50.437
G28  20958860.680   110139554.783 7       180.337          47.250    20958859.940   110139554.796 6       180.337          39.375    20958862.540    85823037.074 6       140.522          38.625    20958862.940    85823039.074 8       140.522          50.437
G18  21280421.380   111829369.459 7      2196.883          46.687    21280420.400   111829369.463 6      2196.883          38.125    21280424.060    87139776.683 6      1711.857          38.375    21280424.500    87139780.690 8      1711.857          50.187
G27  22139581.440   116344283.435 7      4652.781          44.250    22139580.420   116344283.432 6      4652.781          36.062    22139586.400    90657904.207 5      3625.544          35.562    22139586.900    90657908.212 8      3625.544          48.687
G26  20625092.120   108385590.126 7      3297.247          47.812    20625090.080   108385590.136 7      3297.247          47.500    20625095.180    84456319.811 7      2569.283          47.187    20625096.780    84456327.812 8      2569.283          48.812
R21  19057965.520   101983030.827 8      2095.930          48.125    19057966.480   101983030.842 7      2095.930          47.312    19057973.600    79320165.210 8      1630.168          49.062    19057973.100    79320162.212 8      1630.168          49.250
> 2024 05 10 09 15 30.0000000  0 14
R10  20829382.460   111032330.752 7       887.781          45.062    20829382.580   111032330.773 7       887.781          43.687
R12  23435542.460   125188448.633 6      5842.251          41.625    23435542.260   125188448.639 6      5842.251          41.250    23435554.220    97368847.128 7      4543.973          44.000    23435554.300    97368851.132 7      4543.973          44.187
R22  20783897.120   110945855.544 7      5870.939          46.562    20783897.240   110945855.547 7      5870.939          46.500    20783905.020    86291250.314 8      4566.286          49.437    20783904.540    86291251.318 8      4566.286          49.750
R11  19827410.680   105951666.476 8      4158.329          48.812    19827410.500   105951666.469 7      4158.329          47.062    19827416.620    82406883.373 8      3234.256          50.812    19827416.700    82406882.374 8      3234.256          51.312
G29  23926030.340   125732131.813 7      -569.430          42.312    23926029.780   125732131.810 6      -569.430          38.375    23926035.180    97973114.324 6      -443.711          38.937    23926035.920    97973120.330 6      -443.711          40.687
G25  25035084.380   131560245.571 5       -56.084          34.687    25035081.920   131560245.555 4       -56.084          24.125    25035097.860   102514478.305 4       -43.702          24.000    25035100.500   102514546.292 5       -43.702          35.437
G04  24239654.660   127380243.421 6      2723.910          39.625    24239653.900   127380243.428 3      2723.910          21.000    24239662.060    99257363.444 3      2122.528          21.000    24239661.920    99257373.454 6      2122.528          39.187
G16  22267176.000   117014795.203 7      4430.970          44.250    22267174.320   117014795.214 5      4430.970          31.937    22267178.140    91180375.089 5      3452.704          31.875
G31  20287565.120   106611870.488 8      2018.916          48.687    20287564.140   106611870.493 8      2018.916          49.375    20287565.400    83074187.386 8      1573.181          49.250    20287566.260    83074193.385 8      1573.181          50.750
G28  20958826.220   110139374.588 7       180.069          46.687    20958825.580   110139374.598 6       180.069          39.000    20958828.260    85822896.660 6       140.314          39.187    20958828.420    85822898.658 8       140.314          50.500
G18  21280003.320   111827172.854 7      2196.192          46.437    21280002.440   111827172.859 6      2196.192          38.312    21280006.100    87138065.045 6      1711.319          38.062    21280006.340    87138069.050 8      1711.319          50.187
G27  22138695.920   116339630.753 7      4652.496          43.750    22138695.080   116339630.753 5      4652.496          35.625    22138700.880    90654278.742 5      3625.322          35.312    22138701.500    90654282.747 8      3625.322          48.687
G26  20624464.760   108382292.967 8      3297.081          48.250    20624462.640   108382292.975 7      3297.081          47.875    20624467.680    84453750.598 7      2569.154          47.687    20624469.560    84453758.597 8      2569.154          48.750
R21  19057574.020   101980935.318 7      2095.117          46.562    19057574.640   101980935.330 7      2095.117          47.500    19057581.940    79318535.368 8      1629.536          49.812    19057581.320    79318532.371 8      1629.536          48.937
> 2024 05 10 09 15 31.0000000  0 14
R10  20829216.060   111031443.378 7       887.067          45.250    20829215.980   111031443.397 7       887.067          44.312
R12  23434448.720   125182606.431 6      5842.399          41.625    23434448.140   125182606.437 6      5842.399          41.687    23434460.380    97364303.195 7      4544.088          44.125    23434460.520    97364307.201 7      4544.088          44.562
R22  20782797.300   110939985.078 7      5870.222          47.125    20782797.480   110939985.082 7      5870.222          47.312    20782805.100    86286684.401 8      4565.728          50.125    20782804.980    86286685.406 8      4565.728          49.937
R11  19826632.540   105947508.428 8      4157.898          48.625    19826632.100   105947508.424 8      4157.898          48.375    19826638.240    82403649.338 8      3233.921          50.500    19826638.440    82403648.337 8      3233.921          51.625
G29  23926138.940   125732701.420 7      -569.515          42.250    23926138.020   125732701.417 6      -569.515          39.000    23926143.520    97973558.169 6      -443.778          38.375    23926144.200    97973564.175 6      -443.778          40.687
G25  25035095.160   131560302.160 5       -56.717          34.687    25035092.660   131560302.147 4       -56.717          24.125    25035108.720   102514522.400 4       -44.195          24.000    25035110.980   102514590.389 5       -44.195          35.437
G04  24239136.500   127377520.028 6      2723.087          39.062    24239135.600   127377520.035 3      2723.087          21.000    24239143.920    99255241.321 3      2121.886          21.000    24239143.480    99255251.329 6      2121.886          39.187
G16  22266332.600   117010364.386 7      4430.714          44.250    22266331.100   117010364.394 5      4430.714          31.937    22266334.760    91176922.502 5      3452.504          31.875
G31  20287181.240   106609852.052 7      2018.119          47.937    20287180.080   106609852.057 8      2018.119          49.625    20287181.300    83072614.579 8      1572.560          49.312    20287182.080    83072620.578 8      1572.560          50.625
G28  20958792.240   110139195.026 7       179.373          46.812    20958791.500   110139195.041 6       179.373          38.812    20958793.980    85822756.741 6       139.771          38.437    20958794.620    85822758.742 8       139.771          51.000
G18  21279585.640   111824976.979 7      2195.542          46.812    21279584.420   111824976.984 6      2195.542          38.500    21279588.300    87136353.976 6      1710.812          38.250    21279588.320    87136357.983 8      1710.812          50.312
G27  22137810.720   116334978.523 7      4651.925          43.125    22137809.840   116334978.520 5      4651.925          35.812    22137815.620    90650653.630 5      3624.877          35.312    22137816.040    90650657.635 8      3624.877          48.625
G26  20623837.220   108378996.129 7      3296.778          47.500    20623835.260   108378996.136 7      3296.778          47.562    20623840.340    84451181.633 7      2568.918          47.687    20623841.980    84451189.628 8      2568.918          48.500
R21  19057182.660   101978840.793 8      2094.154          48.562    19057183.240   101978840.811 8      2094.154          48.000    19057190.560    79316906.297 8      1628.786          49.312    19057190.280    79316903.297 8      1628.786          48.937
> 2024 05 10 09 15 32.0000000  0 14
R10  21128842.220   112628619.757 7       886.471          45.062    21128842.440   112628619.771 7       886.471          43.687
R12  23733148.080   126778207.359 7      5842.180          42.375    23733147.880   126778207.360 6      5842.180          41.687    23733160.200    98605326.137 7      4543.918          43.812    23733159.980    98605330.139 7      4543.918          44.937
R22  21081491.120   112534433.422 7      5869.388          45.937    21081491.380   112534433.426 7      5869.388          47.250    21081499.120    87526810.895 8      4565.080          49.875    21081499.140    87526811.898 8      4565.080          49.937
R11  20125647.540   107545354.775 8      4157.330          48.687    20125647.340   107545354.774 8      4157.330          48.500    20125653.560    83646418.725 8      3233.479          50.687    20125653.580    83646417.726 8      3233.479          51.375
G29  24226039.220   127308690.325 7      -569.706          42.500    24226038.780   127308690.316 6      -569.706          38.875    24226044.240    99201601.460 6      -443.927          38.437    24226044.740    99201607.457 6      -443.927          40.687
G25  25334898.120   133135778.633 5       -57.175          34.687    25334895.840   133135778.625 4       -57.175          24.125    25334911.880   103742166.405 4       -44.552          24.000    25334914.700   103742234.419 5       -44.552          35.375
G04  24538411.080   128950219.780 6      2722.378          38.375    24538410.520   128950219.787 3      2722.378          20.750    24538418.620   100480721.647 3      2121.334          21.000    24538418.900   100480731.649 6      2121.334          39.125
G16  22565282.860   118581357.983 7      4430.482          44.812    22565281.100   118581357.993 5      4430.482          31.750    22565284.960    92401073.364 5      3452.323          31.750
G31  20586590.040   108183256.129 8      2017.338          48.187    20586588.940   108183256.131 8      2017.338          49.125    20586590.180    84298643.729 8      1571.952          49.500    20586590.880    84298649.728 8      1571.952          50.875
G28  21258550.460   111714436.060 7       178.572          46.437    21258549.880   111714436.070 6       178.572          39.000    21258552.380    87050217.284 6       139.147          38.500    21258552.860    87050219.276 8       139.147          51.062
G18  21578960.580   113398203.861 7      2194.726          46.312    21578959.720   113398203.866 6      2194.726          38.437    21578963.280    88362245.055 6      1710.176          37.875    21578963.660    88362249.054 8      1710.176          50.187
G27  22436719.060   117905751.169 7      4651.639          44.187    22436717.720   117905751.174 5      4651.639          35.500    22436723.740    91874632.319 5      3624.654          35.250    22436724.220    91874636.328 8      3624.654          49.250
G26  20923003.280   109951122.703 7      3296.233          47.625    20923000.940   109951122.711 8      3296.233          48.125    20923006.140    85676215.333 8      2568.493          48.000    20923007.600    85676223.329 8      2568.493          48.625
R21  19356584.200   103580999.121 8      2093.116          48.500    19356584.920   103580999.136 8      2093.116          48.000    19356592.040    80563029.441 8      1627.979          49.750    19356591.740    80563026.444 8      1627.979          48.937
> 2024 05 10 09 15 33.0000000  0 14
R10  21128676.260   112627733.303 7       886.276          45.000    21128675.540   112627733.317 7       886.276          44.000
R12  23732054.820   126772364.924 7      5842.286          42.375    23732054.420   126772364.909 6      5842.286          41.937    23732066.680    98600782.015 7      4544.000          43.687    23732066.560    98600786.023 7      4544.000          44.437
R22  21080391.560   112528563.998 7      5869.134          46.500    21080391.980   112528564.009 7      5869.134          47.000    21080399.580    87522245.789 8      4564.882          49.187    21080399.380    87522246.793 8      4564.882          49.687
R11  20124869.640   107541197.416 8      4157.200          48.125    20124869.460   107541197.423 7      4157.200          47.750    20124875.580    83643185.226 8      3233.378          49.875    20124875.740    83643184.227 8      3233.378          50.937
G29  24226147.440   127309259.863 6      -569.472          41.625    24226147.240   127309259.862 6      -569.472          38.250    24226152.680    99202045.253 6      -443.745          37.875    24226153.620    99202051.259 6      -443.745          40.937
G25  25334909.600   133135835.330 5       -56.651          34.375    25334906.480   133135835.322 4       -56.651          24.125    25334922.640   103742210.578 4       -44.143          24.000    25334924.760   103742278.565 5       -44.143          35.375
G04  24537893.100   128947497.414 6      2722.103          38.750    24537892.400   128947497.424 3      2722.103          20.750    24537900.600   100478600.325 3      2121.120          20.687    24537901.220   100478610.333 6      2121.120          39.125
G16  22564439.720   118576927.315 7      4430.628          44.062    22564437.840   118576927.323 5      4430.628          31.750    22564441.880    92397620.898 5      3452.438          31.750
G31  20586206.120   108181238.889 8      2016.960          48.187    20586205.060   108181238.891 8      2016.960          48.687    20586206.300    84297071.852 8      1571.657          48.937    20586206.940    84297077.851 8      1571.657          50.250
G28  21258516.420   111714257.494 7       178.260          45.812    21258515.880   111714257.504 6       178.260          38.437    21258518.500    87050078.137 6       138.904          38.375    21258519.020    87050080.134 8       138.904          51.062
G18  21578543.260   113396009.264 7      2194.299          46.312    21578542.040   113396009.271 6      2194.299          38.125    21578545.740    88360534.979 6      1709.843          38.125    21578546.020    88360538.984 8      1709.843          49.625
G27  22435833.680   117901099.643 7      4651.349          43.687    22435832.580   117901099.642 5      4651.349          35.500    22435838.640    91871007.753 5      3624.428          35.250    22435839.500    91871011.754 8      3624.428          48.500
G26  20922375.860   109947826.264 8      3296.351          48.000    20922373.740   109947826.272 7      3296.351          47.562    20922378.880    85673646.678 7      2568.585          47.937    20922380.420    85673654.677 8      2568.585          48.562
R21  19356192.880   103578906.266 7      2092.386          46.875    19356193.660   103578906.286 7      2092.386          47.062    19356200.800    80561401.667 8      1627.411          49.625    19356200.580    80561398.672 8      1627.411          48.562
> 2024 05 10 09 15 34.0000000  0 14
R10  21128509.960   112626847.444 7       885.310          44.750    21128509.340   112626847.455 7       885.310          43.687
R12  23730961.180   126766522.410 7      5842.127          42.062    23730960.300   126766522.411 6      5842.127          41.937    23730972.820    98596237.856 7      4543.876          44.125    23730972.800    98596241.864 7      4543.876          44.625
R22  21079292.080   112522695.206 7      5868.220          46.062    21079292.500   112522695.209 7      5868.220          46.312    21079300.120    87517681.171 8      4564.171          49.562    21079300.060    87517682.175 8      4564.171          49.937
R11  20124091.720   107537040.496 8      4156.420          48.000    20124091.400   107537040.497 7      4156.420          47.187    20124097.600    83639952.070 8      3232.771          50.625    20124097.780    83639951.069 8      3232.771          51.500
G29  24226256.120   127309829.490 7      -570.013          43.000    24226255.640   127309829.490 6      -570.013          38.187    24226261.020    99202489.115 6      -444.166          37.812    24226261.960    99202495.120 6      -444.166          40.875
G25  25334919.700   133135892.258 5       -57.455          34.375    25334917.460   133135892.252 3       -57.455          23.500    25334933.520   103742254.934 4       -44.770          24.000    25334935.420   103742322.918 5       -44.770          35.375
G04  24537375.440   128944775.699 6      2721.053          39.125    24537374.480   128944775.704 3      2721.053          20.750    24537382.800   100476479.511 3      2120.301          20.687    24537382.860   100476489.519 6      2120.301          39.125
G16  22563596.980   118572496.795 7      4430.182          43.437    22563594.660   118572496.800 5      4430.182          31.750    22563598.620    92394168.543 5      3452.090          31.500
G31  20585822.420   108179222.342 8      2015.887          48.187    20585821.320   108179222.345 8      2015.887          48.937    20585822.580    84295500.517 8      1570.821          49.125    20585823.120    84295506.514 8      1570.821          50.437
G28  21258482.740   111714079.501 7       177.409          46.562    21258481.920   111714079.514 6       177.409          38.562    21258484.660    87049939.441 6       138.241          38.312    21258484.840    87049941.438 8       138.241          51.000
G18  21578125.920   113393815.421 7      2193.146          46.062    21578124.580   113393815.428 6      2193.146          38.625    21578128.300    88358825.491 6      1708.945          38.687    21578128.640    88358829.491 8      1708.945          50.187
G27  22434948.640   117896448.498 7      4650.670          43.125    22434947.420   117896448.500 5      4650.670          35.562    22434953.600    91867383.487 5      3623.899          35.187    22434953.980    91867387.494 8      3623.899          48.937
G26  20921748.600   109944530.140 7      3295.586          47.875    20921746.480   109944530.153 8      3295.586          48.062    20921751.660    85671078.274 7      2567.989          47.562    20921753.480    85671086.277 8      2567.989          49.062
R21  19355802.120   103576814.344 7      2091.117          47.500    19355802.860   103576814.362 7      2091.117          46.812    19355809.740    80559774.617 8      1626.424          49.812    19355809.800    80559771.618 8      1626.424          48.937
> 2024 05 10 09 15 35.0000000  0 14
R10  21128344.220   112625962.371 7       884.799          44.875    21128343.140   112625962.384 7       884.799          43.625
R12  23729867.200   126760680.090 6      5842.259          41.312    23729866.660   126760680.099 6      5842.259          41.750    23729879.120    98591693.840 7      4543.979          44.375    23729879.220    98591697.846 7      4543.979          44.875
R22  21078192.720   112516827.241 7      5867.686          43.875    21078193.280   112516827.245 7      5867.686          47.250    21078200.900    87513117.203 8      4563.756          49.750    21078200.760    87513118.204 8      4563.756          50.062
R11  20123313.860   107532884.214 7      4156.018          47.875    20123313.580   107532884.215 8      4156.018          48.062    20123319.780    83636719.412 8      3232.459          50.812    20123319.960    83636718.413 8      3232.459          51.375
G29  24226364.920   127310399.357 7      -569.883          42.937    24226364.080   127310399.356 6      -569.883          38.000    24226369.500    99202933.159 6      -444.065          38.187    24226370.580    99202939.156 6      -444.065          40.875
G25  25334931.000   133135949.509 5       -57.137          34.375    25334928.480   133135949.500 3       -57.137          23.500    25334944.400   103742299.528 4       -44.522          24.000    25334946.820   103742367.515 5       -44.522          35.375
G04  24536858.060   128942054.779 6      2720.546          39.125    24536856.700   128942054.784 3      2720.546          20.750    24536864.900   100474359.315 3      2119.906          20.687    24536865.240   100474369.319 6      2119.906          39.000
G16  22562753.720   118568066.650 7      4430.077          43.375    22562751.540   118568066.658 5      4430.077          31.437    22562755.660    92390716.490 5      3452.008          31.500
G31  20585438.880   108177206.679 7      2015.383          47.875    20585437.680   108177206.681 8      2015.383          49.187    20585438.980    84293929.868 8      1570.429          49.250    20585439.800    84293935.865 8      1570.429          50.687
G28  21258448.880   111713902.306 7       176.918          46.062    21258448.260   111713902.319 6       176.918          38.625    21258450.940    87049801.363 6       137.858          38.562    21258451.280    87049803.362 8       137.858          50.750
G18  21577708.520   113391622.486 7      2192.589          46.187    21577707.380   113391622.491 6      2192.589          37.750    21577711.040    88357116.709 6      1708.511          38.000    21577711.320    88357120.712 8      1708.511          49.625
G27  22434063.500   117891798.009 7      4650.339          43.812    22434062.400   117891798.014 5      4650.339          35.500    22434068.560    91863759.733 5      3623.641          35.187    22434069.160    91863763.734 8      3623.641          49.062
G26  20921121.540   109941234.505 8      3295.461          48.187    20921119.300   109941234.508 7      3295.461          47.875    20921124.520    85668510.238 8      2567.892          48.125    20921126.440    85668518.242 8      2567.892          48.812
R21  19355411.260   103574723.598 8      2090.251          48.437    19355411.920   103574723.618 7      2090.251          47.062    19355419.100    80558148.480 8      1625.751          49.625    19355418.900    80558145.482 8      1625.751          48.437
> 2024 05 10 09 15 36.0000000  0 14
R10  21128178.120   112625077.729 7       884.172          44.937    21128177.160   112625077.740 7       884.172          43.625
R12  23728773.260   126754837.535 6      5842.441          41.312    23728773.200   126754837.536 7      5842.441          42.000    23728785.320    98587149.622 7      4544.121          44.500    23728785.580    98587153.630 7      4544.121          44.875
R22  21077093.680   112510959.776 7      5866.932          46.375    21077093.940   112510959.779 7      5866.932          46.812    21077101.640    87508553.621 8      4563.169          49.875    21077101.640    87508554.620 8      4563.169          49.875
R11  20122536.140   107528728.231 8      4155.578          48.875    20122535.800   107528728.230 8      4155.578          48.000    20122542.200    83633486.973 8      3232.116          50.500    20122542.300    83633485.972 8      3232.116          51.750
G29  24226472.900   127310969.163 7      -569.893          42.687    24226472.520   127310969.160 6      -569.893          38.375    24226477.940    99203377.155 6      -444.072          38.125    24226479.500    99203383.150 6      -444.072          41.000
G25  25334943.200   133136006.841 5       -57.401          34.750    25334939.300   133136006.830 3       -57.401          23.500    25334955.300   103742344.191 4       -44.728          24.000    25334957.920   103742412.175 5       -44.728          35.375
G04  24536340.360   128939334.360 6      2719.944          39.437    24536339.100   128939334.362 3      2719.944          20.750    24536347.060   100472239.510 3      2119.437          20.687    24536347.820   100472249.518 6      2119.437          39.000
G16  22561910.600   118563636.527 7      4429.842          44.937    22561908.660   118563636.534 5      4429.842          31.437    22561912.820    92387264.450 5      3451.825          31.500
G31  20585055.400   108175191.591 8      2014.553          48.000    20585054.260   108175191.596 8      2014.553          49.000    20585055.520    84292359.672 8      1569.782          49.375    20585056.280    84292365.671 8      1569.782          50.437
G28  21258415.360   111713725.566 7       176.291          46.687    21258414.700   111713725.574 6       176.291          38.562    21258417.240    87049663.642 6       137.369          38.125    21258417.740    87049665.638 8       137.369          51.062
G18  21577291.140   113389430.154 7      2191.760          45.687    21577290.160   113389430.161 6      2191.760          38.312    21577293.880    88355408.402 6      1707.865          37.812    21577293.940    88355412.398 8      1707.865          49.875
G27  22433178.580   117887147.826 7      4649.744          43.625    22433177.520   117887147.828 5      4649.744          35.875    22433183.540    91860136.214 5      3623.177          35.250    22433184.160    91860140.215 8      3623.177          48.500
G26  20920494.460   109937939.020 8      3295.150          48.062    20920492.220   109937939.025 8      3295.150          48.312    20920497.520    85665942.332 8      2567.649          48.062    20920499.220    85665950.335 8      2567.649          48.500
R21  19355020.500   103572633.694 7      2089.188          47.250    19355021.340   103572633.703 7      2089.188          47.812    19355028.500    80556522.993 8      1624.924          49.562    19355028.280    80556519.995 8      1624.924          48.375
> 2024 05 10 09 15 37.0000000  0 14
R10  21128012.140   112624193.738 7       883.809          44.625    21128011.200   112624193.752 7       883.809          43.562
R12  23727679.860   126748995.018 7      5842.530          42.125    23727679.620   126748995.027 7      5842.530          42.000    23727691.460    98582605.453 7      4544.190          44.250    23727691.780    98582609.459 7      4544.190          45.250
R22  21075995.200   112505093.004 7      5866.489          46.687    21075994.960   112505093.002 7      5866.489          46.625    21076002.780    87503990.576 8      4562.824          49.687    21076002.500    87503991.575 8      4562.824          49.875
R11  20121758.520   107524572.780 8      4155.260          48.625    20121758.100   107524572.781 8      4155.260          48.000    20121764.580    83630254.962 8      3231.869          50.812    20121764.720    83630253.963 8      3231.869          51.562
G29  24226581.280   127311539.129 7      -569.838          42.875    24226581.040   127311539.126 6      -569.838          38.500    24226586.320    99203821.279 6      -444.030          38.000    24226587.700    99203827.278 6      -444.030          41.000
G25  25334954.540   133136064.413 5       -57.568          34.750    25334950.400   133136064.404 3       -57.568          23.500    25334966.200   103742389.042 3       -44.859          23.000    25334968.680   103742457.026 5       -44.859          35.375
G04  24535822.580   128936614.632 6      2719.469          38.875    24535821.440   128936614.634 3      2719.469          20.750    24535829.480   100470120.242 3      2119.067          20.687    24535830.620   100470130.254 6      2119.067          39.187
G16  22561067.460   118559206.653 7      4429.740          44.250    22561065.800   118559206.663 5      4429.740          31.687    22561069.720    92383812.602 5      3451.745          31.625
G31  20584672.160   108173177.265 8      2014.097          48.625    20584671.000   108173177.264 8      2014.097          49.250    20584672.140    84290790.065 8      1569.426          49.437    20584672.740    84290796.062 8      1569.426          50.937
G28  21258381.800   111713549.496 7       175.868          46.250    21258381.000   111713549.506 6       175.868          38.250    21258383.720    87049526.444 6       137.040          38.000    21258384.260    87049528.437 8       137.040          50.687
G18  21576873.980   113387238.623 7      2191.221          46.125    21576873.100   113387238.630 6      2191.221          37.687    21576876.800    88353700.715 6      1707.445          38.312    21576876.860    88353704.716 8      1707.445          49.937
G27  22432293.680   117882498.134 7      4649.540          43.375    22432292.800   117882498.136 5      4649.540          35.875    22432298.820    91856513.077 5      3623.018          35.250    22432299.260    91856517.084 8      3623.018          49.000
G26  20919867.140   109934643.910 7      3295.014          47.437    20919865.180   109934643.918 7      3295.014          47.687    20919870.440    85663374.720 7      2567.543          47.625    20919872.360    85663382.719 8      2567.543          48.937
R21  19354630.340   103570544.788 7      2088.551          47.562    19354630.960   103570544.803 7      2088.551          47.437    19354637.980    80554898.293 8      1624.429          49.125    19354638.000    80554895.292 8      1624.429          48.125
> 2024 05 10 09 15 38.0000000  0 14
R10  21127846.400   112623310.208 7       883.439          45.187    21127845.660   112623310.232 7       883.439          43.812
R12  23726586.240   126743152.372 7      5842.703          42.125    23726585.840   126743152.379 6      5842.703          41.875    23726598.060    98578061.177 7      4544.325          44.062    23726598.060    98578065.183 7      4544.325          44.812
R22  21074896.160   112499226.748 7      5866.132          45.562    21074896.020   112499226.741 7      5866.132          47.187    21074903.800    87499427.932 8      4562.547          49.750    21074903.680    87499428.932 8      4562.547          50.125
R11  20120980.920   107520417.655 8      4155.125          48.187    20120980.660   107520417.662 7      4155.125          47.562    20120986.800    83627023.200 8      3231.764          50.937    20120987.160    83627022.199 8      3231.764          51.312
G29  24226689.640   127312109.035 7      -569.655          42.750    24226689.560   127312109.035 6      -569.655          38.375    24226694.900    99204265.359 6      -443.887          38.500    24226695.920    99204271.362 6      -443.887          41.000
G25  25334964.940   133136122.060 5       -57.659          35.437    25334961.440   133136122.055 3       -57.659          23.500    25334977.100   103742433.960 3       -44.929          23.000    25334980.600   103742501.965 5       -44.929          33.875
G04  24535304.840   128933895.409 6      2719.136          39.125    24535304.080   128933895.413 3      2719.136          20.750    24535311.860   100468001.368 3      2118.807          20.687    24535313.020   100468011.395 6      2118.807          39.187
G16  22560224.560   118554776.805 7      4429.965          43.312    22560222.820   118554776.812 5      4429.965          31.687    22560226.780    92380360.773 5      3451.921          31.625
G31  20584288.880   108171163.530 8      2013.579          48.187    20584287.760   108171163.535 8      2013.579          49.250    20584288.960    84289220.923 8      1569.022          49.687    20584289.700    84289226.922 8      1569.022          50.687
G28  21258348.420   111713373.905 7       175.512          46.437    21258347.580   111713373.912 6       175.512          38.937    21258350.200    87049389.614 6       136.763          37.750    21258350.640    87049391.608 8       136.763          50.625
G18  21576457.180   113385047.725 7      2190.755          45.937    21576456.200   113385047.732 6      2190.755          38.187    21576459.860    88351993.520 6      1707.082          38.125    21576460.140    88351997.515 8      1707.082          50.562
G27  22431408.700   117877848.765 7      4649.379          43.437    22431408.020   117877848.772 5      4649.379          35.437    22431413.980    91852890.196 5      3622.893          35.125    22431414.660    91852894.201 8      3622.893          48.750
G26  20919240.400   109931349.003 7      3294.966          47.187    20919238.160   109931349.008 7      3294.966          47.750    20919243.580    85660807.251 7      2567.506          47.625    20919245.100    85660815.255 8      2567.506          48.937
R21  19354240.180   103568456.735 8      2087.744          48.437    19354240.700   103568456.750 7      2087.744          47.687    19354247.880    80553274.252 8      1623.801          49.750    19354247.680    80553271.254 8      1623.801          48.437
> 2024 05 10 09 15 39.0000000  0 14
R10  21127680.440   112622426.997 7       883.083          44.687    21127679.940   112622427.014 7       883.083          43.562
R12  23725492.460   126737309.422 7      5842.929          42.062    23725491.840   126737309.429 6      5842.929          41.875    23725503.980    98573516.662 7      4544.500          44.812    23725504.120    98573520.668 7      4544.500          45.000
R22  21073797.120   112493360.849 7      5865.633          46.250    21073796.920   112493360.845 7      5865.633          46.812    21073804.860    87494865.569 8      4562.159          49.875    21073804.840    87494866.568 8      4562.159          50.187
R11  20120203.200   107516262.730 8      4154.780          48.812    20120203.120   107516262.734 7      4154.780          47.687    20120209.260    83623791.600 8      3231.496          50.875    20120209.480    83623790.601 8      3231.496          51.062
G29  24226798.080   127312678.794 7      -569.745          42.250    24226797.940   127312678.796 6      -569.745          38.500    24226803.340    99204709.323 6      -443.957          38.437    24226803.900    99204715.316 6      -443.957          41.000
G25  25334975.240   133136179.645 5       -57.663          35.437    25334972.520   133136179.645 3       -57.663          23.500    25334988.320   103742478.823 3       -44.932          23.000    25334990.000   103742546.812 5       -44.932          33.875
G04  24534786.700   128931176.587 6      2718.579          39.125    24534786.520   128931176.595 3      2718.579          20.750    24534794.520   100465882.810 3      2118.374          20.687    24534795.380   100465892.820 6      2118.374          39.187
G16  22559381.640   118550346.889 7      4429.924          44.812    22559380.020   118550346.899 5      4429.924          31.687    22559383.840    92376908.892 5      3451.889          31.625
G31  20583905.860   108169150.250 7      2012.954          47.625    20583904.640   108169150.255 8      2012.954          48.625    20583905.760    84287652.135 8      1568.536          48.937    20583906.520    84287658.132 8      1568.536          50.375
G28  21258315.220   111713198.660 7       175.041          46.312    21258314.360   111713198.667 6       175.041          38.437    21258316.760    87049253.057 6       136.395          38.437    21258317.340    87049255.051 8       136.395          51.062
G18  21576040.340   113382857.300 7      2190.180          46.375    21576039.520   113382857.305 6      2190.180          38.562    21576043.000    88350286.693 6      1706.634          38.187    21576043.280    88350290.692 8      1706.634          50.500
G27  22430524.300   117873199.606 7      4648.895          43.687    22430523.260   117873199.616 5      4648.895          35.312    22430529.380    91849267.477 5      3622.515          35.062    22430529.820    91849271.488 8      3622.515          48.812
G26  20918613.320   109928054.138 7      3294.778          47.250    20918611.140   109928054.143 8      3294.778          48.125    20918616.580    85658239.828 8      2567.359          48.250    20918618.060    85658247.830 8      2567.359          49.187
R21  19353850.220   103566369.376 7      2086.987          47.250    19353850.520   103566369.391 7      2086.987          47.375    19353857.720    80551650.748 8      1623.212          49.125    19353857.680    80551647.750 8      1623.212          48.375
> 2024 05 10 09 15 40.0000000  0 14
R10  21127514.700   112621544.360 7       882.130          44.750    21127514.140   112621544.379 7       882.130          43.562
R12  23724398.340   126731466.419 6      5842.968          41.312    23724397.680   126731466.414 6      5842.968          41.625    23724410.320    98568972.108 7      4544.531          44.687    23724410.240    98568976.114 7      4544.531          45.250
R22  21072698.500   112487495.556 7      5864.780          46.250    21072698.260   112487495.557 7      5864.780          46.062    21072706.220    87490303.680 8      4561.495          49.437    21072705.960    87490304.682 8      4561.495          50.125
R11  20119425.640   107512108.212 8      4154.125          48.625    20119425.560   107512108.216 7      4154.125          47.125    20119431.800    83620560.310 8      3230.986          50.312    20119431.840    83620559.311 8      3230.986          51.312
G29  24226906.460   127313248.603 7      -570.070          43.000    24226906.420   127313248.602 6      -570.070          38.375    24226911.900    99205153.320 6      -444.210          38.062    24226912.720    99205159.313 6      -444.210          41.187
G25  25334985.740   133136237.393 5       -58.030          35.437    25334983.520   133136237.392 3       -58.030          23.500    25334999.340   103742523.807 3       -45.218          23.000    25335001.100   103742591.779 5       -45.218          33.875
G04  24534270.100   128928458.381 6      2717.626          38.250    24534269.180   128928458.391 3      2717.626          20.250    24534277.380   100463764.729 3      2117.631          20.687    24534277.800   100463774.739 6      2117.631          38.937
G16  22558538.540   118545917.141 7      4429.550          44.937    22558536.960   118545917.151 5      4429.550          31.625    22558540.780    92373457.142 5      3451.598          31.500
G31  20583522.700   108167137.637 8      2012.056          48.312    20583521.660   108167137.642 8      2012.056          49.062    20583522.820    84286083.865 8      1567.836          49.187    20583523.720    84286089.863 8      1567.836          50.625
G28  21258281.740   111713023.998 7       174.091          46.062    21258281.040   111713024.008 6       174.091          38.437    21258283.500    87049116.959 6       135.655          38.125    21258284.060    87049118.958 8       135.655          50.562
G18  21575623.600   113380667.611 7      2189.101          46.625    21575622.800   113380667.616 6      2189.101          37.937    21575626.320    88348580.442 6      1705.793          37.937    21575626.680    88348584.443 8      1705.793          50.500
G27  22429639.860   117868550.836 7      4648.391          43.437    22429638.680   117868550.843 5      4648.391          35.250    22429644.600    91845645.061 5      3622.123          34.687    22429645.600    91845649.068 8      3622.123          48.437
G26  20917986.300   109924759.570 7      3294.185          47.875    20917984.320   109924759.575 7      3294.185          47.812    20917989.560    85655672.636 8      2566.898          48.062    20917991.440    85655680.634 8      2566.898          48.812
R21  19353460.420   103564282.980 7      2085.784          45.500    19353460.640   103564282.989 7      2085.784          47.312    19353467.740    80550027.991 8      1622.277          49.062    19353467.640    80550024.995 8      1622.277          48.250
> 2024 05 10 09 15 41.0000000  0 14
R10  21127349.260   112620662.280 7       881.834          45.125    21127348.880   112620662.302 7       881.834          43.937
R12  23723304.200   126725623.389 6      5843.248          41.312    23723303.780   126725623.403 6      5843.248          41.812    23723316.260    98564427.540 7      4544.748          45.062    23723316.460    98564431.548 7      4544.748          44.750
R22  21071599.640   112481630.899 7      5864.529          45.687    21071599.480   112481630.894 7      5864.529          46.750    21071607.580    87485742.276 8      4561.300          49.500    21071607.420    87485743.279 8      4561.300          50.000
R11  20118648.460   107507954.158 8      4153.913          48.687    20118648.140   107507954.159 7      4153.913          47.187    20118654.420    83617329.377 8      3230.821          50.687    20118654.540    83617328.379 8      3230.821          51.062
G29  24227014.900   127313818.467 7      -569.752          42.875    24227014.800   127313818.464 6      -569.752          38.625    24227020.340    99205597.363 6      -443.962          38.250    24227021.500    99205603.360 6      -443.962          41.312
G25  25334996.360   133136295.327 5       -57.861          33.687    25334994.300   133136295.332 3       -57.861          23.500    25335010.240   103742568.936 3       -45.086          23.000    25335011.060   103742636.896 5       -45.086          33.875
G04  24533753.060   128925740.810 6      2717.222          37.937    24533752.060   128925740.823 3      2717.222          20.250    24533760.300   100461647.142 3      2117.316          20.687    24533760.640   100461657.144 6      2117.316          38.937
G16  22557695.620   118541487.551 7      4429.638          44.500    22557693.920   118541487.556 5      4429.638          31.625    22557697.840    92370005.512 5      3451.666          31.500
G31  20583139.700   108165125.728 8      2011.701          49.125    20583138.840   108165125.733 8      2011.701          48.812    20583139.980    84284516.146 8      1567.559          49.250    20583140.780    84284522.146 8      1567.559          50.875
G28  21258248.700   111712849.912 7       173.931          46.250    21258247.980   111712849.925 6       173.931          38.812    21258250.400    87048981.308 6       135.531          38.562    21258251.100    87048983.300 8       135.531          50.437
G18  21575206.980   113378478.623 7      2188.838          47.375    21575206.240   113378478.633 6      2188.838          38.250    21575209.840    88346874.741 6      1705.588          37.562    21575210.080    88346878.746 8      1705.588          50.375
G27  22428755.040   117863902.505 7      4648.351          43.812    22428753.900   117863902.504 5      4648.351          35.250    22428760.100    91842022.983 5      3622.092          35.000    22428760.920    91842026.990 8      3622.092          48.687
G26  20917359.600   109921465.283 7      3294.228          47.750    20917357.520   109921465.290 8      3294.228          48.500    20917362.700    85653105.661 8      2566.931          48.312    20917364.380    85653113.665 8      2566.931          48.937
R21  19353070.880   103562197.525 7      2085.084          47.750    19353070.900   103562197.538 7      2085.084          47.687    19353078.160    80548405.976 8      1621.732          49.062    19353077.880    80548402.975 8      1621.732          48.437
> 2024 05 10 09 15 42.0000000  0 14
R10  21127183.640   112619780.711 7       881.282          44.875    21127183.200   112619780.720 7       881.282          43.937
R12  23722210.040   126719780.233 7      5843.293          42.125    23722210.160   126719780.229 6      5843.293          41.812    23722222.260    98559882.865 7      4544.783          44.625    23722222.520    98559886.869 7      4544.783          44.812
R22  21070501.380   112475766.815 7      5863.834          46.875    21070501.000   112475766.808 7      5863.834          46.937    21070509.040    87481181.330 8      4560.760          49.687    21070508.880    87481182.329 8      4560.760          50.375
R11  20117871.020   107503800.444 8      4153.562          48.937    20117870.860   107503800.445 7      4153.562          47.687    20117877.220    83614098.713 8      3230.548          50.687    20117877.240    83614097.716 8      3230.548          51.437
G29  24227123.280   127314388.346 7      -569.802          42.125    24227123.180   127314388.346 6      -569.802          38.187    24227128.820    99206041.421 6      -444.002          38.687    24227130.200    99206047.429 6      -444.002          41.312
G25  25335007.300   133136353.358 5       -57.977          33.687    25335005.220   133136353.358 3       -57.977          23.500    25335021.320   103742614.143 3       -45.177          23.000    25335022.520   103742682.119 5       -45.177          33.875
G04  24533236.080   128923023.765 6      2716.744          37.750    24533235.040   128923023.775 3      2716.744          20.250    24533243.020   100459529.962 3      2116.943          20.250    24533243.440   100459539.964 6      2116.943          38.750
G16  22556852.820   118537058.055 7      4429.494          44.562    22556851.020   118537058.060 5      4429.494          31.625    22556854.860    92366553.963 5      3451.554          31.500
G31  20582757.000   108163114.458 8      2011.012          49.250    20582756.120   108163114.460 8      2011.012          49.250    20582757.300    84282948.919 8      1567.023          49.000    20582758.000    84282954.918 8      1567.023          50.250
G28  21258215.480   111712676.370 7       173.288          45.875    21258214.920   111712676.380 6       173.288          38.562    21258217.280    87048846.076 6       135.030          38.250    21258218.020    87048848.076 8       135.030          50.375
G18  21574790.700   113376290.329 7      2188.060          46.937    21574789.860   113376290.339 6      2188.060          38.312    21574793.500    88345169.581 6      1704.982          37.937    21574793.820    88345173.584 8      1704.982          50.437
G27  22427870.700   117859254.563 7      4647.860          43.312    22427869.420   117859254.565 5      4647.860          35.437    22427875.560    91838401.212 5      3621.709          35.000    22427876.540    91838405.213 8      3621.709          48.562
G26  20916732.680   109918171.242 8      3293.983          48.250    20916730.720   109918171.247 8      3293.983          48.062    20916735.900    85650538.875 7      2566.740          47.937    20916737.480    85650546.878 8      2566.740          48.812
R21  19352681.180   103560112.949 7      2084.106          47.125    19352681.480   103560112.961 7      2084.106          47.437    19352688.620    80546784.634 8      1620.971          49.062    19352688.280    80546781.633 8      1620.971          48.000
> 2024 05 10 09 15 43.0000000  0 14
R10  21127018.380   112618899.516 7       880.821          44.750    21127018.460   112618899.522 7       880.821          43.500
R12  23721116.400   126713936.855 7      5843.255          42.125    23721116.160   126713936.870 6      5843.255          41.750    23721128.640    98555338.030 7      4544.754          44.937    23721128.820    98555342.032 7      4544.754          44.625
R22  21069402.780   112469903.153 7      5863.279          45.437    21069402.600   112469903.148 7      5863.279          47.062    21069410.700    87476620.708 8      4560.328          49.625    21069410.280    87476621.708 8      4560.328          49.937
R11  20117093.740   107499647.008 8      4153.161          48.375    20117093.340   107499647.011 7      4153.161          47.562    20117099.800    83610868.264 8      3230.237          50.812    20117099.860    83610867.268 8      3230.237          50.875
G29  24227232.160   127314958.108 7      -569.667          42.562    24227231.560   127314958.102 6      -569.667          38.187    24227237.380    99206485.377 6      -443.896          38.187    24227238.760    99206491.376 6      -443.896          41.125
G25  25335018.440   133136411.411 5       -58.344          33.687    25335016.140   133136411.413 3       -58.344          21.187    25335032.240   103742659.370 3       -45.463          23.000    25335035.060   103742727.355 5       -45.463          33.875
G04  24532719.420   128920307.169 6      2716.186          37.750    24532718.120   128920307.177 3      2716.186          20.250    24532725.960   100457413.138 3      2116.509          20.250    24532726.360   100457423.154 6      2116.509          38.750
G16  22556009.980   118532628.536 7      4429.430          44.187    22556008.160   118532628.543 5      4429.430          31.875    22556011.980    92363102.393 5      3451.504          31.937
G31  20582374.420   108161103.703 8      2010.396          49.062    20582373.520   108161103.702 8      2010.396          49.500    20582374.620    84281382.094 8      1566.542          49.437    20582375.440    84281388.094 8      1566.542          50.312
G28  21258182.680   111712503.227 7       172.847          46.250    21258181.960   111712503.239 6       172.847          38.375    21258184.400    87048711.159 6       134.686          38.062    21258185.160    87048713.156 8       134.686          51.000
G18  21574374.280   113374102.598 7      2187.316          47.125    21574373.640   113374102.608 6      2187.316          38.812    21574377.140    88343464.851 6      1704.402          38.187    21574377.480    88343468.854 8      1704.402          50.187
G27  22426986.340   117854606.862 7      4647.488          43.562    22426985.040   117854606.864 5      4647.488          34.937    22426991.300    91834779.631 5      3621.419          34.625    22426992.040    91834783.638 8      3621.419          48.187
G26  20916105.820   109914877.328 7      3293.698          47.500    20916103.940   109914877.336 7      3293.698          47.875    20916109.100    85647972.190 7      2566.518          47.875    20916110.640    85647980.194 8      2566.518          48.875
R21  19352291.700   103558029.105 8      2083.327          48.250    19352291.960   103558029.117 8      2083.327          48.125    19352299.060    80545163.873 8      1620.366          49.375    19352298.700    80545160.874 7      1620.366          47.937
> 2024 05 10 09 15 44.0000000  0 14
R10  21126853.200   112618018.889 7       880.556          44.750    21126852.980   112618018.897 7       880.556          44.062
R12  23720022.460   126708093.451 7      5843.619          42.062    23720022.620   126708093.452 6      5843.619          41.750    23720034.600    98550793.154 7      4545.037          44.312    23720034.840    98550797.158 7      4545.037          44.625
R22  21068304.460   112464040.118 7      5862.951          46.250    21068304.180   112464040.116 7      5862.951          47.000    21068312.340    87472060.572 8      4560.073          49.937    21068312.080    87472061.573 8      4560.073          49.937
R11  20116316.580   107495494.023 8      4152.877          48.687    20116316.240   107495494.024 7      4152.877          47.437    20116322.680    83607638.169 8      3230.015          50.562    20116322.860    83607637.172 8      3230.015          51.250
G29  24227340.520   127315527.951 7      -569.648          43.687    24227340.000   127315527.950 6      -569.648          38.687    24227345.740    99206929.410 6      -443.881          38.437    24227347.120    99206935.416 6      -443.881          41.375
G25  25335029.560   133136469.584 5       -57.759          33.687    25335027.220   133136469.583 3       -57.759          21.187    25335043.240   103742704.692 3       -45.007          23.000    25335044.860   103742772.662 5       -45.007          33.875
G04  24532201.920   128917591.230 6      2715.711          38.562    24532201.240   128917591.240 3      2715.711          20.250    24532209.080   100455296.822 3      2116.138          20.250    24532209.760   100455306.830 6      2116.138          38.750
G16  22555167.140   118528199.192 7      4429.518          44.187    22555165.160   118528199.203 5      4429.518          31.875    22555169.200    92359650.961 5      3451.573          31.937
G31  20581991.960   108159093.636 8      2009.891          48.562    20581990.980   108159093.638 8      2009.891          49.187    20581992.080    84279815.813 8      1566.149          49.312    20581992.900    84279821.812 8      1566.149          50.500
G28  21258149.700   111712330.675 7       172.495          46.562    21258149.220   111712330.688 6       172.495          38.562    21258151.420    87048576.705 6       134.412          37.937    21258152.300    87048578.702 8       134.412          50.125
G18  21573958.160   113371915.586 7      2186.792          47.812    21573957.380   113371915.596 6      2186.792          38.500    21573961.020    88341760.686 6      1703.994          38.062    21573961.260    88341764.687 8      1703.994          50.062
G27  22426102.180   117849959.611 7      4647.199          43.812    22426100.680   117849959.613 5      4647.199          34.937    22426106.920    91831158.396 5      3621.194          34.437    22426107.780    91831162.407 8      3621.194          48.750
G26  20915479.080   109911583.701 7      3293.643          47.312    20915477.120   109911583.708 8      3293.643          48.312    20915482.380    85645405.729 8      2566.475          48.312    20915484.200    85645413.733 8      2566.475          49.812
R21  19351902.160   103555946.206 7      2082.620          47.937    19351902.880   103555946.223 7      2082.620          46.937    19351909.960    80543543.844 8      1619.816          49.312    19351909.720    80543540.844 8      1619.816          48.312
> 2024 05 10 09 15 45.0000000  0 14
R10  21126688.320   112617138.727 7       880.001          45.312    21126688.000   112617138.736 7       880.001          43.750
R12  23718929.140   126702249.898 6      5843.623          40.937    23718928.320   126702249.912 7      5843.623          42.000    23718941.120    98546248.185 7      4545.040          44.625    23718941.020    98546252.191 7      4545.040          44.750
R22  21067206.240   112458177.614 7      5862.293          46.625    21067205.740   112458177.612 7      5862.293          46.000    21067214.020    87467500.853 8      4559.561          49.750    21067213.820    87467501.852 8      4559.561          49.000
R11  20115539.620   107491341.361 8      4152.561          48.187    20115539.060   107491341.360 7      4152.561          46.500    20115545.600    83604408.317 8      3229.770          49.375    20115545.740    83604407.320 8      3229.770          51.312
G29  24227448.860   127316097.783 7      -569.807          42.500    24227448.460   127316097.783 6      -569.807          38.312    24227454.100    99207373.429 6      -444.005          38.250    24227455.080    99207379.418 6      -444.005          41.375
G25  25335040.200   133136527.915 5       -58.028          33.312    25335038.280   133136527.912 3       -58.028          21.187    25335054.460   103742750.134 3       -45.216          23.000    25335056.560   103742818.111 5       -45.216          33.562
G04  24531685.760   128914875.759 6      2715.256          38.812    24531684.620   128914875.766 3      2715.256          20.250    24531692.320   100453180.872 3      2115.784          20.250    24531692.480   100453190.907 6      2115.784          38.750
G16  22554324.120   118523769.902 7      4429.374          44.000    22554322.240   118523769.912 5      4429.374          31.812    22554326.280    92356199.570 5      3451.460          31.875
G31  20581609.580   108157084.158 8      2009.268          48.000    20581608.580   108157084.160 8      2009.268          48.187    20581609.740    84278249.983 8      1565.663          48.750    20581610.320    84278255.985 8      1565.663          49.562
G28  21258117.040   111712158.620 7       171.883          45.875    21258116.300   111712158.638 6       171.883          37.875    21258118.660    87048442.636 6       133.935          37.875    21258119.620    87048444.635 8       133.935          49.937
G18  21573542.160   113369729.197 7      2186.154          47.250    21573541.300   113369729.202 6      2186.154          38.062    21573545.040    88340057.004 6      1703.497          38.125    21573545.300    88340061.003 8      1703.497          49.687
G27  22425217.820   117845312.680 7      4646.741          43.375    22425216.460   117845312.680 5      4646.741          34.812    22425222.500    91827537.413 5      3620.837          34.437    22425223.520    91827541.420 7      3620.837          47.937
G26  20914852.460   109908290.268 7      3293.410          47.562    20914850.380   109908290.272 7      3293.410          47.312    20914855.580    85642839.418 7      2566.293          47.375    20914857.280    85642847.419 8      2566.293          48.375
R21  19351512.820   103553864.192 7      2081.635          47.875    19351513.780   103553864.212 7      2081.635          47.125    19351520.880    80541924.502 8      1619.049          48.562    19351520.520    80541921.506 7      1619.049          47.937
> 2024 05 10 09 15 46.0000000  0 14
R10  21126523.340   112616259.001 7       879.211          45.187    21126523.320   112616259.014 7       879.211          43.562
R12  23717835.000   126696406.144 6      5843.532          40.937    23717834.580   126696406.155 6      5843.532          41.062    23717846.940    98541703.045 7      4544.970          44.562    23717846.740    98541707.045 7      4544.970          45.500
R22  21066108.160   112452315.578 7      5861.587          45.750    21066107.640   112452315.573 7      5861.587          46.187    21066115.960    87462941.491 8      4559.012          49.062    21066115.840    87462942.489 8      4559.012          50.437
R11  20114762.640   107487188.993 7      4151.954          47.875    20114762.000   107487188.995 7      4151.954          46.937    20114768.480    83601178.700 8      3229.297          50.312    20114768.740    83601177.705 8      3229.297          51.437
G29  24227557.180   127316667.508 7      -569.994          42.500    24227556.900   127316667.502 6      -569.994          38.437    24227562.600    99207817.361 6      -444.151          38.437    24227563.700    99207823.349 6      -444.151          41.437
G25  25335051.020   133136586.282 5       -58.682          33.312    25335049.440   133136586.277 3       -58.682          21.187    25335065.720   103742795.607 3       -45.727          21.187    25335065.680   103742863.569 5       -45.727          33.562
G04  24531169.280   128912160.800 6      2714.476          38.687    24531167.980   128912160.805 3      2714.476          20.250    24531175.560   100451065.322 3      2115.176          20.250    24531175.780   100451075.346 6      2115.176          38.750
G16  22553481.360   118519340.640 7      4429.107          43.312    22553479.460   118519340.647 5      4429.107          31.812    22553483.460    92352748.197 5      3451.252          31.875
G31  20581227.280   108155075.257 8      2008.310          48.312    20581226.340   108155075.257 8      2008.310          48.812    20581227.400    84276684.605 8      1564.917          49.187    20581228.160    84276690.604 8      1564.917          50.312
G28  21258084.400   111711987.017 7       171.105          46.000    21258083.660   111711987.027 6       171.105          38.687    21258086.220    87048308.918 6       133.329          37.875    21258086.860    87048310.914 8       133.329          50.687
G18  21573126.200   113367543.388 7      2185.303          47.375    21573125.380   113367543.393 6      2185.303          38.312    21573128.880    88338353.775 6      1702.833          38.187    21573129.400    88338357.780 8      1702.833          50.375
G27  22424333.740   117840666.044 7      4646.149          42.750    22424332.020   117840666.044 5      4646.149          35.000    22424338.340    91823916.656 5      3620.376          34.687    22424338.980    91823920.667 8      3620.376          48.937
G26  20914225.640   109904996.997 7      3292.952          47.062    20914223.780   109904997.002 7      3292.952          47.875    20914229.000    85640273.235 8      2565.937          48.250    20914230.320    85640281.235 8      2565.937          48.750
R21  19351124.160   103551783.008 7      2080.545          47.812    19351124.880   103551783.028 7      2080.545          46.625    19351131.880    80540305.802 8      1618.202          48.687    19351131.720    80540302.801 7      1618.202          47.687
> 2024 05 10 09 15 47.0000000  0 14
R10  21126358.620   112615379.951 7       878.747          45.000    21126358.080   112615379.954 7       878.747          43.750
R12  23716740.820   126690562.467 6      5843.458          41.500    23716740.980   126690562.476 6      5843.458          41.062    23716753.040    98537157.965 7      4544.912          44.937    23716752.940    98537161.969 7      4544.912          45.437
R22  21065010.000   112446454.286 7      5860.862          46.750    21065009.460   112446454.278 7      5860.862          46.375    21065018.040    87458382.713 8      4558.448          49.375    21065017.900    87458383.714 8      4558.448          50.000
R11  20113985.740   107483037.187 7      4151.439          47.812    20113985.300   107483037.185 7      4151.439          47.062    20113991.560    83597949.523 8      3228.897          50.937    20113991.660    83597948.526 8      3228.897          51.375
G29  24227665.720   127317237.416 7      -570.134          43.437    24227665.400   127317237.413 6      -570.134          38.875    24227671.000    99208261.439 6      -444.261          38.687    24227672.280    99208267.440 6      -444.261          41.437
G25  25335062.840   133136644.897 5       -58.929          33.312    25335060.640   133136644.889 3       -58.929          21.187    25335076.980   103742841.273 3       -45.919          21.187    25335078.220   103742909.243 5       -45.919          33.562
G04  24530652.680   128909446.574 6      2713.762          38.625    24530651.600   128909446.579 3      2713.762          20.250    24530659.000   100448950.343 3      2114.619          20.250    24530659.920   100448960.384 6      2114.619          38.750
G16  22552638.600   118514911.641 7      4428.933          44.187    22552636.580   118514911.651 5      4428.933          31.812    22552640.540    92349297.033 5      3451.117          31.875
G31  20580845.020   108153067.137 8      2007.637          48.812    20580844.260   108153067.134 8      2007.637          48.937    20580845.240    84275119.836 8      1564.392          49.500    20580845.980    84275125.835 8      1564.392          50.937
G28  21258051.860   111711816.097 7       170.498          46.500    21258051.160   111711816.112 6       170.498          38.625    21258053.720    87048175.733 6       132.856          38.500    21258054.420    87048177.734 8       132.856          50.625
G18  21572710.500   113365358.431 7      2184.450          47.125    21572709.640   113365358.441 6      2184.450          37.750    21572713.180    88336651.215 6      1702.169          37.812    21572713.440    88336655.218 8      1702.169          50.312
G27  22423449.660   117836019.923 7      4645.708          42.500    22423447.980   117836019.930 5      4645.708          35.000    22423454.060    91820296.314 5      3620.032          34.375    22423454.840    91820300.325 8      3620.032          48.375
G26  20913599.240   109901704.134 7      3292.595          47.875    20913597.120   109901704.142 7      3292.595          47.625    20913602.420    85637707.370 8      2565.658          48.000    20913603.700    85637715.376 8      2565.658          48.812
R21  19350735.460   103549702.865 8      2079.593          48.312    19350736.240   103549702.885 7      2079.593          46.687    19350743.020    80538687.914 8      1617.461          49.125    19350742.880    80538684.918 8      1617.461          48.062
> 2024 05 10 09 15 48.0000000  0 14
R10  21126193.800   112614501.506 7       878.150          45.000    21126193.340   112614501.523 7       878.150          43.750
R12  23715646.440   126684718.743 6      5843.773          41.500    23715646.260   126684718.744 6      5843.773          41.875    23715659.000    98532612.846 7      4545.157          45.000    23715658.960    98532616.850 7      4545.157          45.437
R22  21063912.300   112440593.629 7      5860.255          47.187    21063911.480   112440593.624 7      5860.255          46.500    21063920.040    87453824.435 8      4557.976          49.500    21063919.960    87453825.434 8      4557.976          50.062
R11  20113208.740   107478885.829 8      4151.154          48.812    20113208.180   107478885.833 7      4151.154          47.625    20113214.620    83594720.700 8      3228.675          50.437    20113214.420    83594719.705 8      3228.675          51.000
G29  24227774.260   127317807.399 7      -570.038          43.187    24227773.900   127317807.396 6      -570.038          38.625    24227779.500    99208705.577 6      -444.185          38.437    24227780.880    99208711.574 6      -444.185          41.250
G25  25335073.800   133136703.685 5       -58.821          33.312    25335071.960   133136703.679 3       -58.821          21.187    25335088.160   103742887.078 3       -45.834          21.187    25335089.220   103742955.093 5       -45.834          33.562
G04  24530136.320   128906732.982 6      2713.309          38.625    24530135.120   128906732.986 3      2713.309          19.687    24530142.640   100446835.859 3      2114.267          20.250    24530143.880   100446845.879 6      2114.267          38.875
G16  22551795.440   118510482.834 7      4428.763          43.562    22551793.800   118510482.844 5      4428.763          31.812    22551797.920    92345846.020 5      3450.984          31.437
G31  20580463.140   108151059.722 8      2007.086          48.750    20580462.280   108151059.724 8      2007.086          49.625    20580463.280    84273555.620 8      1563.963          49.500    20580464.240    84273561.619 8      1563.963          51.000
G28  21258019.440   111711645.784 7       170.008          45.875    21258018.780   111711645.796 6       170.008          38.625    21258021.460    87048043.018 6       132.474          38.312    21258022.040    87048045.018 8       132.474          51.062
G18  21572294.940   113363174.213 7      2183.849          47.750    21572293.960   113363174.217 6      2183.849          38.375    21572297.640    88334949.225 6      1701.701          37.875    21572297.860    88334953.228 8      1701.701          51.062
G27  22422565.480   117831374.279 7      4645.365          43.000    22422563.940   117831374.287 5      4645.365          34.750    22422570.060    91816676.330 5      3619.765          34.375    22422570.800    91816680.335 8      3619.765          48.875
G26  20912972.680   109898411.565 7      3292.459          47.562    20912970.520   109898411.570 8      3292.459          48.000    20912975.960    85635141.730 7      2565.553          47.875    20912976.940    85635149.731 8      2565.553          48.500
R21  19350346.800   103547623.652 7      2078.760          47.937    19350347.520   103547623.673 7      2078.760          47.687    19350354.720    80537070.754 8      1616.814          49.312    19350354.340    80537067.755 8      1616.814          48.500
> 2024 05 10 09 15 49.0000000  0 14
R10  21126029.320   112613623.546 7       877.893          45.000    21126028.720   112613623.563 7       877.893          43.875
R12  23714552.800   126678874.946 7      5844.067          42.125    23714552.660   126678874.942 6      5844.067          41.875    23714564.700    98528067.667 7      4545.386          45.125    23714565.040    98528071.668 7      4545.386          45.437
R22  21062814.340   112434733.498 7      5860.048          46.375    21062813.740   112434733.493 7      5860.048          46.625    21062822.120    87449266.557 8      4557.815          49.687    21062822.220    87449267.554 8      4557.815          49.812
R11  20112431.540   107474734.821 8      4151.046          48.937    20112431.380   107474734.825 7      4151.046          47.687    20112437.800    83591492.138 8      3228.591          50.687    20112437.840    83591491.143 8      3228.591          51.250
G29  24227883.180   127318377.352 7      -569.714          43.062    24227882.320   127318377.354 6      -569.714          38.125    24227887.880    99209149.694 6      -443.933          38.375    24227889.160    99209155.691 6      -443.933          41.625
G25  25335085.440   133136762.633 5       -58.823          32.875    25335083.260   133136762.630 3       -58.823          21.187    25335099.440   103742933.001 3       -45.836          21.187    25335101.260   103743000.980 5       -45.836          33.562
G04  24529620.300   128904019.917 6      2713.121          38.687    24529618.920   128904019.922 3      2713.121          19.687    24529626.640   100444721.783 3      2114.120          20.250    24529628.060   100444731.814 6      2114.120          38.875
G16  22550952.700   118506054.089 7      4428.917          44.062    22550951.060   118506054.105 5      4428.917          31.812    22550955.180    92342395.059 5      3451.104          31.437
G31  20580081.280   108149052.934 8      2006.701          48.062    20580080.400   108149052.936 8      2006.701          49.500    20580081.360    84271991.889 8      1563.663          49.812    20580082.280    84271997.890 8      1563.663          50.937
G28  21257987.200   111711475.983 7       169.679          45.687    21257986.460   111711475.998 6       169.679          38.562    21257989.180    87047910.705 6       132.218          37.937    21257989.720    87047912.708 8       132.218          50.687
G18  21571879.640   113360990.635 7      2183.452          47.875    21571878.420   113360990.645 6      2183.452          38.062    21571882.220    88333247.742 6      1701.392          38.125    21571882.500    88333251.745 8      1701.392          51.062
G27  22421681.540   117826728.975 7      4645.233          42.562    22421679.980   117826728.980 5      4645.233          34.875    22421686.120    91813056.612 5      3619.662          34.562    22421686.560    91813060.617 8      3619.662          48.437
G26  20912346.160   109895119.225 8      3292.497          48.687    20912344.080   109895119.228 7      3292.497          47.937    20912349.360    85632576.272 7      2565.582          47.875    20912350.920    85632584.276 8      2565.582          49.250
R21  19349958.900   103545545.304 8      2078.113          48.875    19349959.200   103545545.325 8      2078.113          48.000    19349966.260    80535454.261 8      1616.310          49.500    19349966.040    80535451.262 8      1616.310          48.437
> 2024 05 10 09 15 50.0000000  0 14
R10  21125864.900   112612746.112 7       877.158          44.750    21125863.680   112612746.126 7       877.158          43.687
R12  23713458.800   126673031.029 7      5843.880          42.125    23713458.660   126673031.022 6      5843.880          41.750    23713470.860    98523522.404 7      4545.240          44.937    23713471.080    98523526.414 7      4545.240          45.312
R22  21061716.260   112428873.943 7      5859.246          46.187    21061716.040   112428873.944 7      5859.246          46.312    21061724.520    87444709.126 8      4557.192          50.000    21061724.440    87444710.125 8      4557.192          50.125
R11  20111654.700   107470584.225 7      4150.402          47.375    20111654.660   107470584.224 7      4150.402          46.875    20111661.160    83588263.893 8      3228.090          50.437    20111661.160    83588262.898 8      3228.090          51.062
G29  24227991.040   127318947.355 7      -570.031          42.937    24227990.680   127318947.352 6      -570.031          38.187    24227996.440    99209593.842 6      -444.180          38.062    24227997.560    99209599.837 6      -444.180          41.625
G25  25335096.600   133136821.679 5       -59.066          32.875    25335094.680   133136821.671 3       -59.066          21.187    25335110.680   103742979.002 3       -46.026          21.187    25335113.020   103743046.989 5       -46.026          33.562
G04  24529104.200   128901307.439 6      2712.367          39.312    24529102.620   128901307.441 3      2712.367          19.687    24529110.460   100442608.163 3      2113.533          20.250    24529111.400   100442618.182 6      2113.533          38.750
G16  22550110.020   118501625.450 7      4428.734          43.625    22550108.420   118501625.460 5      4428.734          31.625    22550112.260    92338944.165 5      3450.962          31.375
G31  20579699.500   108147046.785 8      2005.816          48.500    20579698.640   108147046.787 8      2005.816          49.125    20579699.620    84270428.658 8      1562.973          49.437    20579700.400    84270434.657 8      1562.973          51.000
G28  21257954.840   111711306.713 7       168.940          46.250    21257954.260   111711306.726 6       168.940          38.312    21257957.000    87047778.803 6       131.642          38.062    21257957.640    87047780.801 8       131.642          51.000
G18  21571463.980   113358807.735 7      2182.594          47.312    21571463.080   113358807.745 6      2182.594          38.125    21571466.800    88331546.781 6      1700.722          38.250    21571466.980    88331550.784 8      1700.722          50.625
G27  22420797.560   117822084.034 7      4644.660          42.937    22420796.120   117822084.036 5      4644.660          34.875    22420802.420    91809437.180 5      3619.215          34.187    22420802.560    91809441.189 8      3619.215          48.375
G26  20911719.520   109891827.137 8      3291.961          48.625    20911717.580   109891827.145 8      3291.961          48.062    20911722.860    85630011.011 8      2565.165          48.312    20911724.380    85630019.012 8      2565.165          49.062
R21  19349570.520   103543467.866 7      2076.975          47.812    19349571.020   103543467.886 7      2076.975          47.437    19349578.180    80533838.473 8      1615.425          49.375    19349577.900    80533835.475 8      1615.425          48.187
> 2024 05 10 09 15 51.0000000  0 14
R10  21125700.160   112611869.162 7       876.737          44.875    21125699.080   112611869.168 7       876.737          43.750
R12  23712364.600   126667186.962 6      5844.000          41.437    23712364.440   126667186.969 6      5844.000          41.750    23712376.880    98518977.032 7      4545.333          45.062    23712377.060    98518981.035 7      4545.333          45.000
R22  21060618.860   112423014.925 7      5858.800          45.437    21060618.700   112423014.929 7      5858.800          46.687    21060626.980    87440152.118 8      4556.844          49.000    21060626.800    87440153.117 8      4556.844          50.562
R11  20110878.340   107466433.973 7      4150.015          47.875    20110877.840   107466433.969 7      4150.015          47.312    20110884.500    83585035.917 8      3227.789          50.687    20110884.620    83585034.920 8      3227.789          51.250
G29  24228099.380   127319517.316 7      -569.982          42.437    24228099.080   127319517.316 6      -569.982          38.250    24228104.820    99210037.968 6      -444.142          38.187    24228106.060    99210043.963 6      -444.142          41.437
G25  25335108.660   133136880.817 5       -59.202          32.875    25335105.900   133136880.814 3       -59.202          21.187    25335121.940   103743025.078 3       -46.131          21.187    25335124.220   103743093.081 5       -46.131          35.187
G04  24528587.840   128898595.514 6      2711.668          39.062    24528586.680   128898595.519 3      2711.668          19.687    24528594.400   100440494.976 3      2112.988          19.812    24528595.880   100440504.988 6      2112.988          38.750
G16  22549267.400   118497196.906 7      4428.558          44.312    22549265.760   118497196.916 5      4428.558          31.625    22549269.620    92335493.355 5      3450.824          31.375
G31  20579317.840   108145041.251 8      2005.222          48.875    20579316.940   108145041.255 8      2005.222          49.187    20579318.000    84268865.906 8      1562.511          49.500    20579318.780    84268871.905 8      1562.511          51.062
G28  21257922.900   111711137.947 7       168.495          46.437    21257922.160   111711137.958 6       168.495          38.375    21257924.760    87047647.295 6       131.295          37.812    21257925.400    87047649.291 8       131.295          51.125
G18  21571048.680   113356625.493 7      2181.924          47.562    21571047.820   113356625.508 6      2181.924          38.187    21571051.580    88329846.334 6      1700.201          37.875    21571051.760    88329850.341 8      1700.201          50.375
G27  22419913.680   117817439.465 7      4644.283          43.125    22419912.140   117817439.470 5      4644.283          34.937    22419918.520    91805818.039 5      3618.922          34.625    22419919.100    91805822.046 8      3618.922          48.375
G26  20911093.080   109888535.254 8      3291.805          48.250    20911091.240   109888535.262 8      3291.805          48.062    20911096.580    85627445.909 8      2565.043          48.375    20911098.100    85627453.913 8      2565.043          49.000
R21  19349182.300   103541391.321 8      2076.090          48.312    19349183.020   103541391.334 7      2076.090          47.437    19349190.040    80532223.379 8      1614.737          49.000    19349189.880    80532220.378 8      1614.737          48.687
> 2024 05 10 09 15 52.0000000  0 14
R10  21125535.480   112610992.727 7       876.203          44.750    21125534.940   112610992.744 7       876.203          43.875
R12  23711271.000   126661342.781 7      5844.161          42.125    23711270.360   126661342.788 6      5844.161          41.750    23711283.000    98514431.561 7      4545.458          45.000    23711283.020    98514435.569 7      4545.458          44.937
R22  21059521.520   112417156.476 7      5858.315          46.312    21059521.160   112417156.474 7      5858.315          46.625    21059529.460    87435595.542 8      4556.467          49.500    21059529.280    87435596.541 8      4556.467          50.312
R11  20110101.620   107462284.053 7      4149.785          47.812    20110101.180   107462284.049 7      4149.785          46.937    20110107.720    83581808.203 8      3227.611          51.187    20110107.840    83581807.213 8      3227.611          51.062
G29  24228207.940   127320087.296 7      -569.964          42.875    24228207.480   127320087.295 6      -569.964          37.937    24228213.380    99210482.098 6      -444.128          37.562    24228214.600    99210488.093 6      -444.128          41.250
G25  25335120.400   133136940.054 5       -59.114          33.250    25335117.120   133136940.048 3       -59.114          22.625    25335133.200   103743071.228 3       -46.063          21.187    25335135.120   103743139.209 5       -46.063          35.187
G04  24528072.560   128895884.113 6      2711.242          39.062    24528070.880   128895884.123 3      2711.242          19.687    24528078.360   100438382.198 3      2112.656          19.812    24528078.940   100438392.230 6      2112.656          38.750
G16  22548424.620   118492768.464 7      4428.379          44.812    22548423.000   118492768.474 5      4428.379          31.625    22548426.920    92332042.619 5      3450.685          31.375
G31  20578936.360   108143036.344 8      2004.660          49.312    20578935.500   108143036.346 8      2004.660          49.187    20578936.480    84267303.639 8      1562.072          49.250    20578937.380    84267309.637 8      1562.072          51.000
G28  21257891.020   111710969.684 7       168.143          46.437    21257890.060   111710969.694 6       168.143          38.562    21257892.940    87047516.178 6       131.021          38.312    21257893.400    87047518.181 8       131.021          50.937
G18  21570633.520   113354443.917 7      2181.282          47.375    21570632.680   113354443.927 6      2181.282          38.312    21570636.340    88328146.403 6      1699.700          38.312    21570636.680    88328150.406 8      1699.700          50.375
G27  22419029.980   117812795.243 7      4644.120          42.750    22419028.420   117812795.243 5      4644.120          34.937    22419034.780    91802199.163 5      3618.795          34.625    22419035.380    91802203.160 8      3618.795          48.562
G26  20910466.820   109885243.603 8      3291.645          48.062    20910464.860   109885243.610 7      3291.645          47.812    20910470.140    85624880.986 7      2564.918          47.625    20910471.700    85624888.989 8      2564.918          49.125
R21  19348794.200   103539315.633 8      2075.263          48.000    19348795.100   103539315.651 7      2075.263          47.687    19348802.220    80530608.959 8      1614.094          49.187    19348801.940    80530605.962 7      1614.094          47.937
> 2024 05 10 09 15 53.0000000  0 14
R10  21125370.940   112610116.716 7       875.619          44.625    21125370.100   112610116.740 7       875.619          43.375
R12  23710177.180   126655498.434 7      5844.272          42.125    23710176.480   126655498.435 7      5844.272          42.062    23710188.920    98509885.960 7      4545.545          45.250    23710189.040    98509889.968 7      4545.545          45.187
R22  21058424.080   112411298.518 7      5857.577          46.562    21058423.660   112411298.516 7      5857.577          46.875    21058431.900    87431039.354 8      4555.894          49.687    21058431.940    87431040.354 8      4555.894          50.375
R11  20109325.380   107458134.451 8      4149.296          48.625    20109324.660   107458134.452 7      4149.296          47.125    20109331.260    83578580.737 8      3227.230          51.125    20109331.420    83578579.742 8      3227.230          51.375
G29  24228316.420   127320657.194 7      -570.052          42.875    24228315.820   127320657.196 6      -570.052          38.750    24228321.880    99210926.172 6      -444.197          38.500    24228322.820    99210932.173 6      -444.197          41.250
G25  25335131.440   133136999.362 5       -59.428          33.250    25335128.340   133136999.354 3       -59.428          22.625    25335144.380   103743117.437 3       -46.307          21.187    25335147.620   103743185.440 5       -46.307          35.187
G04  24527556.440   128893173.238 6      2710.364          38.812    24527555.180   128893173.253 3      2710.364          19.687    24527562.420   100436269.833 3      2111.972          19.812    24527563.040   100436279.864 6      2111.972          38.937
G16  22547581.880   118488340.035 7      4428.243          43.875    22547580.440   118488340.048 5      4428.243          32.062    22547584.120    92328591.900 5      3450.579          32.000
G31  20578555.100   108141032.008 8      2003.851          48.437    20578554.040   108141032.015 8      2003.851          49.562    20578555.060    84265741.821 8      1561.443          49.375    20578555.800    84265747.820 8      1561.443          50.562
G28  21257859.100   111710801.922 7       167.320          45.875    21257858.140   111710801.932 6       167.320          38.750    21257861.140    87047385.451 6       130.379          38.312    21257861.660    87047387.455 8       130.379          51.187
G18  21570218.220   113352262.928 7      2180.546          47.312    21570217.680   113352262.935 6      2180.546          38.687    21570221.300    88326446.929 6      1699.127          38.250    21570221.580    88326450.932 8      1699.127          50.562
G27  22418146.180   117808151.337 7      4643.522          43.375    22418144.640   117808151.337 5      4643.522          34.937    22418151.020    91798580.539 5      3618.329          34.812    22418151.600    91798584.544 8      3618.329          48.187
G26  20909840.460   109881952.122 8      3291.270          48.250    20909838.520   109881952.127 8      3291.270          48.000    20909843.760    85622316.195 7      2564.626          47.812    20909845.300    85622324.197 8      2564.626          49.000
R21  19348406.540   103537240.737 7      2074.360          47.937    19348407.200   103537240.759 7      2074.360          47.062    19348414.360    80528995.148 8      1613.391          49.375    19348414.260    80528992.152 7      1613.391          47.812
> 2024 05 10 09 15 54.0000000  0 14
R10  21125206.600   112609241.416 7       874.963          44.437    21125206.220   112609241.443 7       874.963          43.375
R12  23709082.980   126649654.210 7      5844.036          42.250    23709082.020   126649654.222 7      5844.036          42.562    23709094.700    98505340.463 7      4545.361          45.375    23709094.900    98505344.469 7      4545.361          45.687
R22  21057326.680   112405441.317 7      5856.788          46.250    21057326.580   112405441.313 7      5856.788          47.000    21057334.560    87426483.756 8      4555.280          49.812    21057334.700    87426484.755 8      4555.280          49.750
R11  20108549.020   107453985.442 7      4148.677          47.312    20108548.260   107453985.437 7      4148.677          47.562    20108554.840    83575353.732 8      3226.749          50.625    20108554.900    83575352.739 8      3226.749          51.312
G29  24228425.100   127321227.323 7      -570.320          42.062    24228424.320   127321227.323 6      -570.320          38.062    24228430.520    99211370.418 6      -444.405          38.125    24228431.820    99211376.411 6      -444.405          41.437
G25  25335142.920   133137058.957 5       -59.673          33.250    25335139.580   133137058.949 3       -59.673          22.625    25335155.620   103743163.870 3       -46.498          21.187    25335158.880   103743231.871 5       -46.498          35.187
G04  24527040.420   128890463.105 6      2709.636          38.812    24527039.520   128890463.121 3      2709.636          19.687    24527046.760   100434158.044 3      2111.405          19.812    24527047.940   100434168.062 6      2111.405          38.937
G16  22546739.320   118483911.919 7      4427.831          44.500    22546737.820   118483911.929 5      4427.831          32.062    22546741.560    92325141.422 5      3450.258          32.000
G31  20578173.620   108139028.502 8      2002.984          49.187    20578172.800   108139028.504 8      2002.984          49.562    20578173.860    84264180.644 8      1560.767          49.875    20578174.740    84264186.641 8      1560.767          51.125
G28  21257827.300   111710634.854 7       166.570          46.000    21257826.440   111710634.872 6       166.570          38.375    21257829.340    87047255.272 6       129.795          38.687    21257829.620    87047257.273 8       129.795          51.312
G18  21569803.580   113350082.818 7      2179.625          47.250    21569802.820   113350082.823 6      2179.625          38.375    21569806.480    88324748.140 6      1698.409          38.312    21569806.840    88324752.143 8      1698.409          50.500
G27  22417262.780   117803508.017 7      4642.851          42.625    22417261.120   117803508.016 5      4642.851          34.437    22417267.360    91794962.365 5      3617.806          34.562    22417267.860    91794966.370 8      3617.806          48.250
G26  20909214.340   109878661.087 7      3290.733          47.687    20909212.300   109878661.084 7      3290.733          47.875    20909217.560    85619751.751 8      2564.207          48.062    20909219.160    85619759.751 8      2564.207          49.250
R21  19348019.000   103535166.926 7      2073.240          47.000    19348019.700   103535166.949 8      2073.240          48.000    19348026.880    80527382.189 8      1612.520          49.062    19348026.580    80527379.192 7      1612.520          47.937
> 2024 05 10 09 15 55.0000000  0 14
R10  21125042.300   112608366.772 7       874.436          44.562    21125041.860   112608366.783 7       874.436          43.625
R12  23707988.880   126643810.013 7      5844.215          42.875    23707988.080   126643810.008 7      5844.215          42.562    23708000.480    98500794.966 7      4545.501          45.625    23708000.500    98500798.976 7      4545.501          45.750
R22  21056229.380   112399584.814 7      5856.161          46.000    21056229.300   112399584.809 7      5856.161          46.375    21056237.480    87421928.702 8      4554.792          49.562    21056237.420    87421929.701 8      4554.792          50.187
R11  20107772.540   107449836.937 8      4148.307          48.562    20107772.020   107449836.936 7      4148.307          47.187    20107778.640    83572127.126 8      3226.461          50.625    20107778.440    83572126.131 8      3226.461          51.500
G29  24228533.480   127321797.555 7      -570.136          42.625    24228532.960   127321797.552 6      -570.136          38.187    24228539.000    99211814.742 6      -444.262          38.562    24228539.780    99211820.744 6      -444.262          41.437
G25  25335153.620   133137118.875 5       -59.933          33.250    25335150.880   133137118.867 3       -59.933          22.625    25335167.140   103743210.551 3       -46.701          23.125    25335169.420   103743278.521 5       -46.701          35.187
G04  24526525.200   128887753.659 6      2709.061          37.750    24526523.840   128887753.674 3      2709.061          19.687    24526531.200   100432046.785 3      2110.957          19.812    24526531.920   100432056.815 6      2110.957          39.187
G16  22545896.700   118479484.023 7      4427.804          44.062    22545895.000   118479484.036 5      4427.804          31.875    22545898.960    92321691.115 5      3450.237          32.000
G31  20577792.520   108137025.740 8      2002.435          49.562    20577791.680   108137025.742 8      2002.435          48.937    20577792.780    84262620.049 8      1560.339          49.125    20577793.500    84262626.051 8      1560.339          50.687
G28  21257795.760   111710468.438 7       166.179          46.750    21257794.680   111710468.453 6       166.179          38.750    21257797.660    87047125.593 6       129.490          38.437    21257797.980    87047127.591 8       129.490          50.937
G18  21569388.780   113347903.484 7      2178.999          47.625    21569388.180   113347903.492 6      2178.999          37.937    21569391.820    88323049.960 6      1697.921          38.125    21569392.120    88323053.963 8      1697.921          51.125
G27  22416379.300   117798865.145 7      4642.699          42.125    22416377.600   117798865.145 5      4642.699          35.187    22416383.840    91791344.544 5      3617.687          34.562    22416384.320    91791348.548 8      3617.687          48.312
G26  20908588.040   109875370.397 8      3290.539          48.500    20908586.000   109875370.405 8      3290.539          48.187    20908591.320    85617187.581 8      2564.056          48.250    20908592.780    85617195.583 8      2564.056          48.875
R21  19347631.900   103533094.162 8      2072.319          49.125    19347632.520   103533094.183 7      2072.319          47.750    19347639.500    80525770.037 8      1611.804          48.812    19347639.220    80525767.041 8      1611.804          48.375
> 2024 05 10 09 15 56.0000000  0 14
R10  21124878.500   112607492.600 7       873.835          44.312    21124877.700   112607492.606 7       873.835          43.812
R12  23706894.640   126637965.650 7      5844.312          42.875    23706893.900   126637965.654 7      5844.312          42.500    23706906.740    98496249.363 7      4545.576          45.750    23706906.540    98496253.369 7      4545.576          46.125
R22  21055132.460   112393728.801 7      5855.931          45.000    21055132.260   112393728.791 7      5855.931          46.812    21055140.240    87417374.025 8      4554.613          49.687    21055140.280    87417375.025 8      4554.613          49.437
R11  20106996.300   107445688.794 7      4147.918          47.625    20106995.420   107445688.798 7      4147.918          46.812    20107002.460    83568900.796 8      3226.158          50.937    20107002.340    83568899.799 8      3226.158          51.250
G29  24228642.120   127322367.789 7      -570.433          42.375    24228641.460   127322367.794 6      -570.433          38.062    24228647.500    99212259.081 6      -444.493          38.125    24228648.240    99212265.084 6      -444.493          41.437
G25  25335164.460   133137178.811 5       -59.946          33.125    25335162.240   133137178.803 3       -59.946          22.625    25335178.660   103743257.248 3       -46.711          23.125    25335180.240   103743325.237 5       -46.711          35.250
G04  24526009.800   128885044.738 6      2708.653          38.687    24526008.320   128885044.751 3      2708.653          19.687    24526015.820   100429935.935 3      2110.639          19.812    24526016.220   100429945.964 6      2110.639          39.187
G16  22545053.920   118475056.209 7      4427.665          42.500    22545052.460   118475056.219 5      4427.665          31.875    22545056.420    92318240.869 5      3450.129          32.000
G31  20577411.440   108135023.595 8      2001.756          48.812    20577410.760   108135023.600 8      2001.756          49.750    20577411.600    84261059.937 8      1559.810          49.625    20577412.540    84261065.934 8      1559.810          50.687
G28  21257763.940   111710302.533 7       165.609          46.312    21257763.100   111710302.546 6       165.609          38.875    21257766.120    87046996.315 6       129.046          38.437    21257766.480    87046998.319 8       129.046          51.062
G18  21568974.080   113345724.796 7      2178.351          46.437    21568973.500   113345724.807 6      2178.351          38.375    21568977.160    88321352.281 6      1697.416          38.000    21568977.440    88321356.290 8      1697.416          50.625
G27  22415495.720   117794222.640 7      4642.208          42.375    22415494.060   117794222.642 5      4642.208          35.187    22415500.420    91787727.015 5      3617.305          34.562    22415500.780    91787731.018 8      3617.305          48.187
G26  20907961.860   109872079.928 7      3290.269          46.937    20907959.800   109872079.933 8      3290.269          48.312    20907965.300    85614623.577 8      2563.846          48.312    20907966.700    85614631.579 8      2563.846          49.562
R21  19347244.360   103531022.271 8      2071.412          48.187    19347245.300   103531022.286 7      2071.412          47.500    19347252.320    80524158.559 8      1611.098          49.375    19347252.160    80524155.559 7      1611.098          47.750
> 2024 05 10 09 15 57.0000000  0 14
R10  21124714.880   112606618.883 7       873.449          44.375    21124713.680   112606618.894 7       873.449          43.062
R12  23705800.800   126632121.140 7      5844.551          42.000    23705800.020   126632121.144 7      5844.551          42.500    23705812.640    98491703.639 7      4545.762          45.500    23705812.680    98491707.649 7      4545.762          45.750
R22  21054035.600   112387873.415 7      5855.044          46.437    21054035.620   112387873.400 7      5855.044          46.437    21054043.460    87412819.835 8      4553.923          49.062    21054043.380    87412820.834 8      4553.923          49.250
R11  20106220.060   107441541.016 7      4147.538          47.375    20106219.400   107441541.020 7      4147.538          46.562    20106226.160    83565674.749 8      3225.863          50.250    20106226.120    83565673.750 8      3225.863          51.375
G29  24228750.660   127322937.987 7      -570.199          42.500    24228749.860   127322937.994 6      -570.199          38.062    24228755.920    99212703.385 6      -444.311          37.812    24228756.360    99212709.380 6      -444.311          41.250
G25  25335176.360   133137238.876 5       -60.172          33.125    25335173.720   133137238.871 3       -60.172          22.625    25335190.240   103743304.046 3       -46.888          23.125    25335192.000   103743372.053 5       -46.888          35.250
G04  24525494.140   128882336.387 6      2708.042          38.687    24525492.900   128882336.403 3      2708.042          20.062    24525500.360   100427825.536 3      2110.162          19.812    24525501.280   100427835.555 6      2110.162          39.187
G16  22544211.680   118470628.468 7      4427.673          44.250    22544209.900   118470628.476 5      4427.673          31.875    22544213.800    92314790.685 5      3450.135          32.000
G31  20577030.540   108133022.070 8      2001.171          48.625    20577029.920   108133022.075 8      2001.171          48.750    20577030.820    84259500.309 8      1559.354          49.312    20577031.700    84259506.308 8      1559.354          51.000
G28  21257732.460   111710137.150 7       165.121          46.500    21257731.660   111710137.162 6       165.121          39.062    21257734.620    87046867.440 6       128.666          38.125    21257735.140    87046869.439 8       128.666          50.500
G18  21568559.720   113343546.771 7      2177.716          46.625    21568558.980   113343546.784 6      2177.716          37.750    21568562.640    88319655.120 6      1696.922          37.500    21568563.200    88319659.125 8      1696.922          50.125
G27  22414612.060   117789580.488 7      4641.906          42.437    22414610.780   117789580.491 5      4641.906          34.562    22414617.080    91784109.754 5      3617.070          34.312    22414617.500    91784113.763 8      3617.070          48.000
G26  20907335.740   109868789.661 7      3290.190          47.062    20907333.720   109868789.661 7      3290.190          47.625    20907339.140    85612059.733 7      2563.784          47.625    20907340.720    85612067.732 8      2563.784          48.625
R21  19346857.740   103528951.232 7      2070.611          47.750    19346858.160   103528951.247 7      2070.611          47.812    19346865.220    80522547.752 8      1610.475          48.500    19346865.240    80522544.758 7      1610.475          47.750
> 2024 05 10 09 15 58.0000000  0 14
R10  21124551.020   112605745.665 7       872.962          44.000    21124550.060   112605745.671 7       872.962          43.500
R12  23704706.720   126626276.539 7      5844.664          42.125    23704705.780   126626276.540 6      5844.664          41.687    23704718.140    98487157.841 7      4545.850          44.937    23704718.880    98487161.847 7      4545.850          45.500
R22  21052938.900   112382018.508 7      5854.639          46.562    21052938.840   112382018.493 7      5854.639          47.187    21052946.380    87408266.024 8      4553.608          49.437    21052946.540    87408267.021 8      4553.608          49.750
R11  20105443.780   107437393.597 7      4147.241          47.875    20105443.180   107437393.596 7      4147.241          47.187    20105450.040    83562448.972 8      3225.632          50.812    20105449.980    83562447.975 8      3225.632          51.500
G29  24228858.940   127323508.174 7      -570.099          42.437    24228858.360   127323508.179 6      -570.099          37.437    24228864.360    99213147.680 6      -444.233          37.375    24228865.060    99213153.675 6      -444.233          41.250
G25  25335187.580   133137298.994 5       -59.955          33.125    25335185.060   133137298.993 3       -59.955          22.625    25335201.680   103743350.887 3       -46.718          23.125    25335203.180   103743418.882 5       -46.718          35.250
G04  24524978.140   128879628.546 6      2707.579          38.750    24524977.460   128879628.559 3      2707.579          20.062    24524985.220   100425715.532 3      2109.802          19.812    24524985.940   100425725.553 6      2109.802          38.687
G16  22543369.100   118466200.791 7      4427.624          44.812    22543367.360   118466200.799 5      4427.624          31.750    22543371.220    92311340.547 5      3450.097          31.750
G31  20576649.740   108131021.131 8      2000.650          48.562    20576649.140   108131021.133 8      2000.650          49.500    20576650.000    84257941.134 8      1558.948          50.000    20576650.940    84257947.131 8      1558.948          50.875
G28  21257701.200   111709972.233 7       164.680          46.375    21257700.420   111709972.244 6       164.680          38.562    21257703.200    87046738.932 6       128.322          38.312    21257703.640    87046740.931 8       128.322          51.062
G18  21568145.620   113341369.384 7      2177.014          46.625    21568144.560   113341369.394 6      2177.014          38.000    21568148.340    88317958.455 6      1696.374          38.250    21568148.800    88317962.462 8      1696.374          50.562
G27  22413728.700   117784938.668 7      4641.562          42.812    22413727.380   117784938.673 5      4641.562          34.750    22413733.740    91780492.757 5      3616.801          34.312    22413734.440    91780496.766 7      3616.801          47.687
G26  20906709.640   109865499.625 7      3289.824          47.937    20906707.680   109865499.630 7      3289.824          47.937    20906713.100    85609496.072 7      2563.499          47.875    20906714.520    85609504.072 8      2563.499          49.125
R21  19346471.060   103526881.037 8      2069.727          48.312    19346471.340   103526881.057 7      2069.727          46.937    19346478.320    80520937.604 8      1609.787          48.625    19346478.460    80520934.606 7      1609.787          47.937
> 2024 05 10 09 15 59.0000000  0 14
R10  21124387.280   112604872.969 7       872.328          44.187    21124386.240   112604872.988 7       872.328          43.687
R12  23703612.020   126620431.877 7      5844.753          42.125    23703611.680   126620431.881 6      5844.753          41.687    23703624.080    98482611.994 7      4545.919          45.250    23703624.460    98482616.004 7      4545.919          45.937
R22  21051842.240   112376164.209 7      5853.900          46.875    21051842.340   112376164.199 7      5853.900          47.000    21051849.880    87403712.680 8      4553.033          49.062    21051849.900    87403713.679 8      4553.033          49.750
R11  20104667.960   107433246.584 8      4146.715          48.250    20104667.040   107433246.585 7      4146.715          47.125    20104674.080    83559223.524 8      3225.223          50.750    20104674.140    83559222.527 8      3225.223          51.062
G29  24228967.560   127324078.429 7      -570.397          42.250    24228966.980   127324078.440 6      -570.397          37.812    24228973.040    99213592.027 6      -444.465          37.562    24228973.560    99213598.028 6      -444.465          41.125
G25  25335199.380   133137359.340 5       -60.741          33.125    25335196.620   133137359.337 3       -60.741          22.625    25335213.200   103743397.904 3       -47.331          23.125    25335214.900   103743465.913 5       -47.331          35.250
G04  24524463.320   128876921.305 6      2706.971          38.125    24524462.360   128876921.315 3      2706.971          20.062    24524469.900   100423605.993 3      2109.328          20.125    24524470.800   100423616.001 6      2109.328          38.687
G16  22542526.560   118461773.271 7      4427.405          44.187    22542524.720   118461773.279 5      4427.405          31.750    22542528.660    92307890.534 5      3449.926          31.750
G31  20576269.080   108129020.878 8      1999.928          49.125    20576268.480   108129020.878 8      1999.928          49.562    20576269.380    84256382.495 8      1558.386          49.687    20576270.100    84256388.492 8      1558.386          50.937
G28  21257669.880   111709807.895 7       164.064          45.625    21257669.240   111709807.905 6       164.064          38.062    21257671.940    87046610.874 6       127.842          37.750    21257672.340    87046612.877 8       127.842          51.062
G18  21567731.360   113339192.693 7      2176.314          46.187    21567730.280   113339192.705 6      2176.314          38.375    21567734.020    88316262.332 6      1695.829          38.062    21567734.700    88316266.341 8      1695.829          51.125
G27  22412845.660   117780297.266 7      4641.186          42.687    22412844.180   117780297.268 5      4641.186          34.750    22412850.600    91776876.082 5      3616.509          34.312    22412851.120    91776880.087 8      3616.509          48.312
G26  20906083.800   109862209.842 8      3289.595          48.750    20906081.640   109862209.841 8      3289.595          48.187    20906087.100    85606932.605 8      2563.321          48.000    20906088.340    85606940.602 8      2563.321          48.812
R21  19346084.160   103524811.754 7      2068.790          47.687    19346084.860   103524811.766 7      2068.790          47.375    19346091.560    80519328.155 8      1609.059          48.500    19346091.660    80519325.159 7      1609.059          47.812
> 2024 05 10 09 16  0.0000000  0 14
R10  21124223.700   112604000.788 7       871.962          44.125    21124223.080   112604000.802 7       871.962          43.687
R12  23702518.240   126614587.114 7      5844.908          42.750    23702517.820   126614587.107 6      5844.908          41.687    23702529.840    98478066.069 7      4546.040          45.312    23702530.360    98478070.079 7      4546.040          46.062
R22  21050745.480   112370310.473 8      5853.354          48.125    21050745.820   112370310.468 7      5853.354          47.187    21050753.040    87399159.778 8      4552.609          49.250    21050753.220    87399160.778 8      4552.609          50.062
R11  20103891.480   107429099.926 7      4146.403          47.437    20103890.720   107429099.932 7      4146.403          47.062    20103898.080    83555998.345 8      3224.980          50.937    20103898.000    83555997.348 8      3224.980          51.625
G29  24229076.060   127324648.656 7      -570.267          42.250    24229075.480   127324648.658 6      -570.267          37.500    24229081.560    99214036.353 6      -444.364          37.437    24229081.940    99214042.350 6      -444.364          41.062
G25  25335211.220   133137419.744 5       -60.705          31.687    25335208.120   133137419.741 3       -60.705          22.875    25335224.820   103743444.960 3       -47.302          23.125    25335226.800   103743512.953 5       -47.302          35.250
G04  24523948.100   128874214.643 6      2706.284          38.625    24523947.460   128874214.654 3      2706.284          20.062    24523954.860   100421496.911 3      2108.792          20.125    24523955.480   100421506.921 6      2108.792          38.687
G16  22541684.000   118457345.841 7      4427.352          43.937    22541682.260   118457345.846 5      4427.352          32.062    22541686.180    92304440.588 5      3449.885          31.750
G31  20575888.800   108127021.253 8      1999.292          48.875    20575888.000   108127021.258 8      1999.292          49.562    20575888.860    84254824.348 8      1557.890          49.937    20575889.720    84254830.343 8      1557.890          50.687
G28  21257638.740   111709644.088 7       163.511          46.375    21257637.840   111709644.098 6       163.511          38.562    21257640.740    87046483.232 6       127.411          38.000    21257641.200    87046485.233 8       127.411          51.062
G18  21567317.480   113337016.680 7      2175.623          46.250    21567316.240   113337016.690 6      2175.623          38.312    21567319.880    88314566.740 6      1695.291          38.125    21567320.300    88314570.745 8      1695.291          50.437
G27  22411962.740   117775656.242 7      4640.797          42.500    22411961.120   117775656.241 5      4640.797          34.562    22411967.460    91773259.696 5      3616.205          34.125    22411967.980    91773263.703 7      3616.205          47.750
G26  20905457.860   109858920.308 8      3289.335          48.187    20905455.660   109858920.310 7      3289.335          47.875    20905461.160    85604369.329 8      2563.118          48.250    20905462.300    85604377.329 8      2563.118          49.062
R21  19345697.840   103522743.348 8      2067.861          48.312    19345698.320   103522743.363 7      2067.861          47.500    19345705.000    80517719.406 8      1608.336          49.000    19345705.060    80517716.410 8      1608.336          48.000
> 2024 05 10 09 16  1.0000000  0 14
R10  21124060.320   112603129.153 7       871.240          44.125    21124059.440   112603129.154 7       871.240          43.500
R12  23701424.020   126608742.243 7      5844.741          43.375    23701423.300   126608742.244 7      5844.741          42.500    23701435.940    98473520.071 7      4545.910          45.312    23701436.000    98473524.079 7      4545.910          45.812
R22  21049649.040   112364457.311 7      5852.656          46.312    21049649.260   112364457.301 7      5852.656          47.625    21049656.600    87394607.321 8      4552.065          49.250    21049656.700    87394608.318 8      4552.065          49.687
R11  20103115.660   107424953.687 8      4145.873          48.500    20103115.200   107424953.694 7      4145.873          47.750    20103122.180    83552773.499 8      3224.568          50.687    20103122.200    83552772.504 8      3224.568          51.312
G29  24229184.480   127325218.919 7      -570.442          42.375    24229183.940   127325218.924 6      -570.442          37.750    24229190.200    99214480.706 6      -444.500          37.500    24229190.440    99214486.703 6      -444.500          41.062
G25  25335222.420   133137480.253 5       -60.452          31.687    25335219.480   133137480.245 3       -60.452          22.875    25335236.440   103743492.103 3       -47.105          23.125    25335238.360   103743560.070 5       -47.105          34.750
G04  24523433.940   128871508.539 6      2705.649          38.625    24523432.400   128871508.549 3      2705.649          20.062    24523440.000   100419388.260 3      2108.298          20.125    24523440.560   100419398.274 6      2108.298          38.625
G16  22540841.500   118452918.539 7      4427.039          43.812    22540839.760   118452918.544 5      4427.039          32.062    22540843.800    92300990.749 5      3449.641          32.000
G31  20575508.500   108125022.277 8      1998.508          48.875    20575507.540   108125022.282 8      1998.508          49.625    20575508.480    84253266.704 8      1557.279          49.437    20575509.500    84253272.703 8      1557.279          51.000
G28  21257607.640   111709480.814 7       162.888          46.187    21257606.840   111709480.822 6       162.888          38.125    21257609.700    87046356.002 6       126.925          37.812    21257610.100    87046358.002 8       126.925          51.187
G18  21566903.520   113334841.337 7      2174.839          46.250    21566902.400   113334841.344 6      2174.839          38.187    21566905.900    88312871.665 6      1694.680          38.250    21566906.320    88312875.674 8      1694.680          50.125
G27  22411079.900   117771015.591 7      4640.366          42.750    22411077.920   117771015.591 5      4640.366          34.687    22411084.280    91769643.606 5      3615.869          34.125    22411084.680    91769647.611 8      3615.869          48.125
G26  20904831.800   109855631.002 8      3289.042          48.000    20904829.700   109855631.004 8      3289.042          48.687    20904835.160    85601806.240 8      2562.890          48.437    20904836.640    85601814.238 8      2562.890          49.125
R21  19345311.700   103520675.877 8      2066.916          48.500    19345311.900   103520675.892 8      2066.916          48.562    19345318.680    80516111.372 8      1607.602          48.937    19345318.560    80516108.374 8      1607.602          48.812
