     3.05           OBSERVATION DATA    MIXED               RINEX VERSION / TYPE
TPS2RIN 1.0.29.3920 TPS-USER            20240511 200040 UTC PGM / RUN BY / DATE
Win64 build Feb 23, 2024 (c) Topcon Positioning Systems     COMMENT
SRC: 20240510_MI03.tps                                      COMMENT
OPT: -S -v 3.05                                             COMMENT
Observer            Agency                                  OBSERVER / AGENCY
O0M3X53SBGM         TPS HIPER_SR        4.8 HSR Jul,08,2022 REC # / TYPE / VERS
FW: 4.8 HSR Jul,08,2022 p3                                  COMMENT
SN: HiPer SR 1212-12575                                     COMMENT
000                 TPSHIPER_SR     NONE                    ANT # / TYPE
        1.8000        0.0000        0.0000                  ANTENNA: DELTA H/E/N
MI03                                                        MARKER NAME
  5384157.7654 -1586662.0537  3020697.5226                  APPROX POSITION XYZ
  2024     5    10    10    11   40.0000000     GPS         TIME OF FIRST OBS
  2024     5    10    10    26   40.0000000     GPS         TIME OF LAST OBS
     1.000                                                  INTERVAL
   901 EPOCHS                                               COMMENT
G   16 C1C L1C D1C S1C C1W L1W D1W S1W C2W L2W D2W S2W C2X  SYS / # / OBS TYPES
       L2X D2X S2X                                          SYS / # / OBS TYPES
R   16 C1C L1C D1C S1C C1P L1P D1P S1P C2P L2P D2P S2P C2C  SYS / # / OBS TYPES
       L2C D2C S2C                                          SYS / # / OBS TYPES
    16                                                      # OF SATELLITES
   G04   901   901   901   901   901   901   901   901   901PRN / # OF OBS
         901   901   901   901   901   901   901            PRN / # OF OBS
   G08   901   901   901   901   901   901   901   901   901PRN / # OF OBS
         901   901   901   901   901   901   901            PRN / # OF OBS
   G10   859   859   859   859   856   856   856   856   856PRN / # OF OBS
         856   856   856   852   852   852   852            PRN / # OF OBS
   G16   901   901   901   901   901   901   901   901   901PRN / # OF OBS
         901   901   901     0     0     0     0            PRN / # OF OBS
   G18   901   901   901   901   901   901   901   901   901PRN / # OF OBS
         901   901   901   901   901   901   901            PRN / # OF OBS
   G23   901   901   901   901   901   901   901   901   901PRN / # OF OBS
         901   901   901   901   901   901   901            PRN / # OF OBS
   G26   901   901   901   901   901   901   901   901   901PRN / # OF OBS
         901   901   901   901   901   901   901            PRN / # OF OBS
   G27   901   901   901   901   901   901   901   901   901PRN / # OF OBS
         901   901   901   901   901   901   901            PRN / # OF OBS
   G28   901   901   901   901   901   901   901   901   901PRN / # OF OBS
         901   901   901   901   901   901   901            PRN / # OF OBS
   G31   901   901   901   901   901   901   901   901   901PRN / # OF OBS
         901   901   901   901   901   901   901            PRN / # OF OBS
   R10   815   815   815   815   809   809   809   809     0PRN / # OF OBS
           0     0     0     0     0     0     0            PRN / # OF OBS
   R11   901   901   901   901   901   901   901   901   901PRN / # OF OBS
         901   901   901   901   901   901   901            PRN / # OF OBS
   R12   901   901   901   901   901   901   901   901   901PRN / # OF OBS
         901   901   901   901   901   901   901            PRN / # OF OBS
   R21   901   901   901   901   901   901   901   901   901PRN / # OF OBS
         901   901   901   901   901   901   901            PRN / # OF OBS
   R22   901   901   901   901   901   901   901   901   901PRN / # OF OBS
         901   901   901   901   901   901   901            PRN / # OF OBS
   R23   901   901   901   901   901   901   901   901     0PRN / # OF OBS
           0     0     0     0     0     0     0            PRN / # OF OBS
G L1C                                                       SYS / PHASE SHIFT
G L1W -0.25000                                              SYS / PHASE SHIFT
G L2W  0.00000                                              SYS / PHASE SHIFT
G L2X  0.25000                                              SYS / PHASE SHIFT
R L1C                                                       SYS / PHASE SHIFT
R L1P -0.25000                                              SYS / PHASE SHIFT
R L2P -0.25000                                              SYS / PHASE SHIFT
R L2C                                                       SYS / PHASE SHIFT
  6 R10 -7 R11  0 R12 -1 R21  4 R22 -3 R23  3               GLONASS SLOT / FRQ #
                                                            GLONASS COD/PHS/BIS
    18    18  1929     7GPS                                 LEAP SECONDS
                                                            END OF HEADER
> 2024 05 10 10 11 40.0000000  0 16
G04  24824713.900   130454755.904 6      1186.421          38.500    24824711.080   130454755.917 3      1186.421          22.625    24824720.420   101653095.974 3       924.484          22.437    24824720.820   101653082.965 6       924.484          40.562
G23  24013818.100   126193469.057 7      4293.001          43.187    24013817.880   126193469.067 5      4293.001          30.875    24013828.800    98332619.473 5      3345.196          30.812    24013826.100    98332612.477 7      3345.196          46.625
G27  21332036.380   112100607.812 7      3500.708          47.437    21332034.980   112100607.822 6      3500.708          40.125    21332039.820    87351139.731 6      2727.824          39.937    21332040.580    87351141.743 8      2727.824          49.000
G31  21427772.980   112603705.695 7       130.444          47.375    21427771.960   112603705.695 7       130.444          46.500    21427774.520    87743154.701 7       101.645          46.750    21427775.520    87743157.700 8       101.645          48.437
R23  23085355.440   123491076.991 7      6165.063          42.062    23085355.340   123491076.990 6      6165.063          41.125
G28  23095021.080   121365151.260 6     -1046.961          41.812    23095019.460   121365151.275 5     -1046.961          31.312    23095025.920    94570263.357 5      -815.814          30.875    23095026.620    94570272.349 7      -815.814          47.750
G10  24633186.340   129448263.112 6      4821.387          38.937    24633186.520   129448263.104 5      4821.387          31.750    24633200.740   100868824.918 5      3756.925          31.687    24633201.240   100868830.925 6      3756.925          38.562
G26  20596280.880   108234188.707 7      2334.524          47.250    20596279.900   108234188.710 8      2334.524          48.375    20596285.260    84338347.011 8      1819.109          48.000    20596286.180    84338351.010 8      1819.109          49.125
R10  22589514.360   120414830.824 5      -704.732          35.000    22589511.280   120414830.816 5      -704.732          33.687
R22  19564402.780   104436107.821 8      3573.593          49.500    19564403.340   104436107.825 8      3573.593          49.750    19564408.700    81228111.646 8      2779.461          51.562    19564408.900    81228113.644 8      2779.461          51.937
G16  21345587.680   112171821.212 7      3999.638          47.125    21345584.760   112171821.217 6      3999.638          37.687    21345588.180    87406613.332 6      3116.601          37.437
G18  22340159.840   117398329.190 7       224.019          45.000    22340158.260   117398329.198 6       224.019          36.500    22340162.680    91479225.427 6       174.560          36.312    22340164.280    91479235.429 8       174.560          49.625
R11  19514118.280   104277532.009 8      2368.542          50.437    19514117.560   104277532.013 8      2368.542          48.937    19514124.220    81104769.397 8      1842.199          52.062    19514123.840    81104770.399 8      1842.199          53.437
R21  20350994.740   108902278.521 7      -250.137          44.937    20350993.780   108902278.522 7      -250.137          45.437    20351004.660    84701814.573 8      -194.551          50.062    20351004.160    84701813.574 8      -194.551          49.750
G08  23726347.940   124682797.119 6      4646.651          41.187    23726346.600   124682797.108 4      4646.651          28.062    23726355.880    97155439.149 4      3620.767          28.000    23726355.740    97155463.157 7      3620.767          44.937
R12  21508631.000   114895247.052 7      5802.752          45.625    21508631.680   114895247.050 7      5802.752          46.062    21508640.360    89363012.622 7      4513.252          46.875    21508640.920    89363012.623 7      4513.252          47.500
> 2024 05 10 10 11 41.0000000  0 16
G04  24824487.820   130453569.766 6      1185.932          38.500    24824485.600   130453569.776 3      1185.932          22.625    24824494.660   101652171.708 3       924.103          22.437    24824495.840   101652158.701 6       924.103          40.562
G23  24013001.280   126189176.329 7      4292.661          44.375    24013001.040   126189176.339 5      4292.661          30.875    24013011.900    98329274.490 5      3344.931          30.687    24013009.100    98329267.496 7      3344.931          46.562
G27  21331370.100   112097107.338 7      3500.258          47.625    21331368.780   112097107.343 6      3500.258          39.562    21331373.540    87348412.087 6      2727.474          39.562    21331374.560    87348414.100 8      2727.474          49.250
G31  21427748.320   112603575.570 7       129.885          47.750    21427747.260   112603575.570 7       129.885          46.437    21427749.840    87743053.300 7       101.209          46.562    21427750.720    87743056.298 8       101.209          48.625
R23  23084203.040   123484912.190 7      6164.534          42.062    23084202.240   123484912.197 6      6164.534          41.125
G28  23095220.040   121366198.363 7     -1047.259          42.312    23095218.720   121366198.378 5     -1047.259          31.312    23095224.980    94571079.273 5      -816.046          30.875    23095225.820    94571088.261 7      -816.046          47.500
G10  24632268.640   129443441.851 6      4821.214          40.062    24632268.880   129443441.843 5      4821.214          31.750    24632283.360   100865068.095 5      3756.790          31.625    24632284.280   100865074.094 6      3756.790          38.562
G26  20595836.660   108231854.497 8      2333.953          48.687    20595835.660   108231854.504 8      2333.953          48.750    20595841.080    84336528.146 8      1818.665          48.687    20595841.860    84336532.147 8      1818.665          49.750
R10  22589646.580   120415535.876 5      -705.217          32.625    22589643.080   120415535.895 5      -705.217          33.687
R22  19563733.400   104432534.756 8      3572.637          50.062    19563734.000   104432534.760 8      3572.637          49.875    19563739.420    81225332.594 8      2778.717          52.125    19563739.400    81225334.594 8      2778.717          51.687
G16  21344826.660   112167821.820 7      3999.264          47.000    21344823.520   112167821.828 6      3999.264          37.437    21344827.220    87403496.925 6      3116.309          37.437
G18  22340117.180   117398105.468 7       223.412          44.937    22340115.760   117398105.475 5       223.412          35.812    22340120.060    91479051.096 6       174.087          36.062    22340121.760    91479061.100 8       174.087          49.875
R11  19513674.960   104275164.001 8      2367.567          49.812    19513674.300   104275164.007 8      2367.567          49.437    19513681.020    81102927.610 8      1841.441          53.062    19513680.900    81102928.615 8      1841.441          52.875
R21  20351041.800   108902528.978 7      -250.709          45.750    20351040.560   108902528.983 7      -250.709          45.437    20351051.600    84702009.378 8      -194.996          49.937    20351050.960    84702008.379 8      -194.996          49.625
G08  23725463.700   124678150.787 6      4646.160          40.500    23725462.420   124678150.779 4      4646.160          28.062    23725471.720    97151818.633 4      3620.384          28.000    23725471.880    97151842.654 7      3620.384          45.125
R12  21507544.680   114889444.547 7      5802.373          47.187    21507545.280   114889444.548 7      5802.373          45.812    21507554.360    89358499.570 7      4512.956          46.875    21507554.580    89358499.572 7      4512.956          47.125
> 2024 05 10 10 11 42.0000000  0 16
G04  24824261.640   130452384.146 6      1185.174          37.875    24824259.880   130452384.159 3      1185.174          22.625    24824269.020   101651247.849 3       923.512          22.437    24824269.680   101651234.844 6       923.512          40.562
G23  24012184.560   126184884.063 7      4291.860          44.562    24012184.320   126184884.071 5      4291.860          30.875    24012194.900    98325929.873 5      3344.306          30.687    24012192.260    98325922.884 7      3344.306          46.312
G27  21330704.180   112093607.369 7      3499.603          47.562    21330702.760   112093607.377 6      3499.603          39.812    21330707.560    87345684.842 6      2726.964          39.562    21330708.280    87345686.851 8      2726.964          49.500
G31  21427723.620   112603446.102 7       129.057          47.750    21427722.560   112603446.104 7       129.057          46.937    21427725.160    87742952.418 7       100.564          46.687    21427726.120    87742955.418 8       100.564          48.625
R23  23083050.640   123478747.940 7      6163.868          42.062    23083050.020   123478747.941 6      6163.868          41.312
G28  23095419.460   121367245.867 7     -1047.814          42.375    23095418.040   121367245.880 5     -1047.814          31.312    23095424.580    94571895.498 5      -816.478          30.875    23095425.320    94571904.490 7      -816.478          47.687
G10  24631351.360   129438620.679 6      4821.061          40.062    24631351.360   129438620.676 5      4821.061          31.750    24631366.180   100861311.344 5      3756.671          31.625    24631366.980   100861317.353 6      3756.671          38.500
G26  20595392.700   108229520.812 8      2333.364          48.437    20595391.500   108229520.819 8      2333.364          48.437    20595397.000    84334709.690 8      1818.206          48.187    20595398.000    84334713.691 8      1818.206          49.437
R10  22589778.220   120416241.621 5      -706.132          32.625    22589776.580   120416241.616 5      -706.132          33.687
R22  19563064.320   104428962.641 8      3571.543          50.250    19563064.840   104428962.642 8      3571.543          49.312    19563070.380    81222554.284 8      2777.867          51.625    19563070.360    81222556.282 8      2777.867          51.937
G16  21344065.680   112163822.801 7      3998.773          46.312    21344062.540   112163822.806 6      3998.773          37.375    21344066.100    87400380.808 6      3115.927          36.937
G18  22340074.960   117397882.412 7       222.594          45.625    22340073.360   117397882.420 6       222.594          36.625    22340077.560    91478877.285 6       173.450          36.062    22340079.160    91478887.288 8       173.450          49.875
R11  19513232.100   104272796.868 8      2366.639          49.812    19513231.600   104272796.875 8      2366.639          48.937    19513238.100    81101086.506 8      1840.719          52.437    19513237.580    81101087.508 8      1840.719          52.875
R21  20351089.060   108902780.108 7      -251.532          45.937    20351087.920   108902780.112 7      -251.532          45.250    20351098.640    84702204.692 8      -195.636          49.937    20351097.840    84702203.691 8      -195.636          49.750
G08  23724579.540   124673504.871 6      4645.548          40.312    23724578.280   124673504.865 4      4645.548          28.062    23724587.520    97148198.439 4      3619.907          28.000    23724587.860    97148222.451 7      3619.907          45.000
R12  21506458.820   114883642.427 7      5801.815          46.750    21506459.540   114883642.420 7      5801.815          46.312    21506467.960    89353986.804 7      4512.522          47.125    21506468.700    89353986.808 7      4512.522          47.687
> 2024 05 10 10 11 43.0000000  0 16
G04  24824036.460   130451198.773 6      1185.426          38.250    24824034.080   130451198.786 3      1185.426          22.625    24824043.460   101650324.179 3       923.709          22.437    24824044.360   101650311.176 6       923.709          40.562
G23  24011367.460   126180591.963 7      4292.069          43.562    24011367.560   126180591.970 5      4292.069          31.062    24011378.200    98322585.386 5      3344.469          30.687    24011375.240    98322578.382 7      3344.469          46.312
G27  21330038.140   112090107.639 7      3499.802          47.125    21330036.800   112090107.644 6      3499.802          39.437    21330041.700    87342957.774 6      2727.119          39.250    21330042.180    87342959.782 8      2727.119          49.000
G31  21427699.020   112603317.025 7       129.032          47.125    21427698.100   112603317.033 7       129.032          46.312    21427700.600    87742851.835 7       100.545          46.437    21427701.500    87742854.834 8       100.545          48.125
R23  23081898.340   123472583.979 6      6163.929          41.437    23081898.300   123472583.980 6      6163.929          41.312
G28  23095618.740   121368293.501 6     -1047.599          41.687    23095617.540   121368293.513 5     -1047.599          31.687    23095623.940    94572711.827 5      -816.311          31.500    23095624.500    94572720.820 7      -816.311          47.375
G10  24630433.540   129433799.384 6      4821.585          39.812    24630433.720   129433799.383 5      4821.585          31.437    24630448.560   100857554.492 5      3757.079          31.625    24630448.960   100857560.508 6      3757.079          38.500
G26  20594948.580   108227187.432 8      2333.441          48.812    20594947.540   108227187.436 8      2333.441          48.500    20594952.940    84332891.468 8      1818.266          48.625    20594953.880    84332895.470 8      1818.266          49.312
R10  22589911.380   120416947.670 5      -706.223          32.625    22589909.600   120416947.660 5      -706.223          33.687
R22  19562395.300   104425391.202 8      3571.248          51.375    19562395.880   104425391.202 8      3571.248          49.875    19562401.300    81219776.502 8      2777.637          51.937    19562401.420    81219778.498 8      2777.637          51.812
G16  21343304.520   112159823.922 7      3998.920          46.937    21343301.680   112159823.927 6      3998.920          37.250    21343305.100    87397264.798 6      3116.041          37.125
G18  22340032.340   117397659.764 7       222.568          45.062    22340030.860   117397659.772 6       222.568          36.562    22340035.400    91478703.789 6       173.429          36.062    22340036.840    91478713.790 8       173.429          49.625
R11  19512789.140   104270430.351 8      2366.290          50.312    19512788.740   104270430.360 8      2366.290          49.125    19512795.280    81099245.885 8      1840.448          52.312    19512794.940    81099246.889 8      1840.448          53.187
R21  20351135.800   108903031.662 7      -251.677          45.000    20351135.200   108903031.669 7      -251.677          45.687    20351145.680    84702400.346 8      -195.749          50.187    20351144.840    84702399.345 8      -195.749          49.937
G08  23723695.460   124668859.073 6      4645.813          40.437    23723694.100   124668859.070 4      4645.813          28.062    23723703.400    97144578.336 4      3620.114          28.000    23723703.900    97144602.357 7      3620.114          44.812
R12  21505372.740   114877840.430 7      5802.064          46.875    21505373.300   114877840.421 7      5802.064          46.562    21505381.660    89349474.139 7      4512.716          46.812    21505382.200    89349474.142 8      4512.716          48.000
> 2024 05 10 10 11 44.0000000  0 16
G04  24823810.820   130450013.750 6      1184.865          38.562    24823808.680   130450013.760 3      1184.865          22.625    24823818.100   101649400.784 3       923.271          22.437    24823818.600   101649387.783 6       923.271          40.625
G23  24010550.740   126176300.105 7      4291.743          43.500    24010550.840   126176300.107 5      4291.743          31.062    24010561.340    98319241.080 5      3344.215          30.812    24010558.800    98319234.085 7      3344.215          46.000
G27  21329372.280   112086608.224 7      3499.301          46.500    21329370.860   112086608.232 6      3499.301          39.562    21329375.720    87340230.961 6      2726.728          39.562    21329376.080    87340232.970 8      2726.728          48.812
G31  21427674.500   112603188.411 7       128.430          47.500    21427673.700   112603188.416 7       128.430          46.812    21427676.120    87742751.616 7       100.075          46.875    21427676.980    87742754.613 8       100.075          48.250
R23  23080745.560   123466420.355 7      6163.473          42.562    23080745.880   123466420.361 6      6163.473          41.375
G28  23095818.020   121369341.368 7     -1048.141          42.187    23095816.920   121369341.381 5     -1048.141          31.687    23095823.260    94573528.341 5      -816.733          31.500    23095823.940    94573537.325 7      -816.733          47.562
G10  24629515.940   129428978.075 6      4821.384          39.250    24629516.340   129428978.078 5      4821.384          31.437    24629530.820   100853797.630 5      3756.923          31.687    24629531.360   100853803.636 6      3756.923          38.500
G26  20594504.780   108224854.419 7      2332.882          47.562    20594503.540   108224854.421 8      2332.882          48.187    20594509.060    84331073.534 8      1817.830          48.312    20594509.860    84331077.533 8      1817.830          49.562
R10  22590044.120   120417654.066 5      -706.455          32.625    22590042.200   120417654.064 5      -706.455          32.125
R22  19561726.460   104421820.528 8      3570.330          49.312    19561726.760   104421820.529 8      3570.330          49.250    19561732.440    81216999.311 8      2776.923          51.750    19561732.560    81217001.311 8      2776.923          52.562
G16  21342543.780   112155825.237 7      3998.540          47.000    21342540.800   112155825.244 6      3998.540          37.500    21342544.300    87394148.939 6      3115.746          37.687
G18  22339989.980   117397437.603 7       221.907          45.000    22339988.500   117397437.607 6       221.907          36.312    22339993.080    91478530.671 6       172.914          36.187    22339994.520    91478540.679 8       172.914          49.312
R11  19512346.520   104268064.491 8      2365.587          50.187    19512346.260   104268064.500 8      2365.587          49.437    19512352.420    81097405.763 8      1839.901          51.937    19512352.240    81097406.765 8      1839.901          52.687
R21  20351182.840   108903283.709 7      -252.284          45.875    20351182.260   108903283.716 7      -252.284          45.625    20351192.780    84702596.380 8      -196.221          50.062    20351191.900    84702595.377 8      -196.221          49.812
G08  23722811.580   124664213.511 6      4645.388          40.250    23722810.100   124664213.505 4      4645.388          28.062    23722819.420    97140958.416 4      3619.783          28.000    23722819.700    97140982.432 7      3619.783          45.125
R12  21504286.660   114872038.604 7      5801.692          46.500    21504287.360   114872038.600 7      5801.692          46.375    21504295.680    89344961.612 7      4512.427          46.875    21504296.240    89344961.615 7      4512.427          47.000
> 2024 05 10 10 11 45.0000000  0 16
G04  24823585.260   130448829.173 6      1184.461          38.562    24823583.440   130448829.180 3      1184.461          22.125    24823592.700   101648477.735 3       922.956          22.437    24823592.960   101648464.734 6       922.956          40.625
G23  24009734.280   126172008.614 7      4291.427          43.062    24009734.280   126172008.616 5      4291.427          31.062    24009744.560    98315897.068 5      3343.969          30.812    24009742.100    98315890.078 7      3343.969          45.750
G27  21328706.320   112083109.259 7      3498.888          47.500    21328705.040   112083109.266 6      3498.888          39.312    21328709.860    87337504.494 6      2726.406          39.312    21328710.220    87337506.501 8      2726.406          49.125
G31  21427650.140   112603060.390 7       127.880          47.375    21427649.380   112603060.393 7       127.880          46.750    21427651.760    87742651.859 7        99.646          46.625    21427652.400    87742654.855 8        99.646          48.125
R23  23079593.360   123460257.204 7      6163.102          42.562    23079593.800   123460257.213 6      6163.102          41.375
G28  23096017.500   121370389.495 7     -1048.143          42.062    23096016.620   121370389.508 5     -1048.143          31.687    23096022.840    94574345.049 5      -816.735          31.500    23096023.400    94574354.034 7      -816.735          47.437
G10  24628598.840   129424156.812 6      4821.348          38.062    24628598.700   129424156.809 5      4821.348          31.437    24628613.100   100850040.799 5      3756.894          31.687    24628613.420   100850046.813 6      3756.894          38.500
G26  20594060.880   108222521.877 7      2332.374          47.375    20594059.780   108222521.877 8      2332.374          48.437    20594065.200    84329255.971 8      1817.434          48.625    20594065.940    84329259.967 8      1817.434          49.500
R10  22590178.020   120418361.069 5      -707.169          32.625    22590175.000   120418361.021 5      -707.169          32.125
R22  19561057.880   104418250.735 8      3569.484          49.062    19561058.180   104418250.736 8      3569.484          49.875    19561063.660    81214222.808 8      2776.266          51.562    19561063.520    81214224.806 8      2776.266          52.000
G16  21341782.880   112151826.851 7      3998.367          45.812    21341779.820   112151826.856 6      3998.367          36.937    21341783.380    87391033.316 6      3115.611          37.312
G18  22339948.040   117397216.008 7       221.498          45.375    22339946.520   117397216.013 6       221.498          36.250    22339950.900    91478358.000 6       172.596          36.187    22339952.340    91478368.006 8       172.596          49.500
R11  19511903.980   104265699.450 8      2364.743          49.687    19511903.380   104265699.462 8      2364.743          49.375    19511909.880    81095566.294 8      1839.245          52.312    19511909.700    81095567.296 8      1839.245          53.125
R21  20351230.100   108903536.331 7      -252.766          45.687    20351229.620   108903536.341 7      -252.766          45.500    20351240.080    84702792.866 8      -196.596          49.750    20351239.340    84702791.865 8      -196.596          49.812
G08  23721927.440   124659568.251 6      4645.172          39.187    23721926.080   124659568.246 4      4645.172          28.062    23721935.580    97137338.733 4      3619.615          28.312    23721935.680    97137362.752 7      3619.615          45.125
R12  21503200.500   114866237.056 7      5801.490          46.562    21503201.560   114866237.046 7      5801.490          46.375    21503209.540    89340449.301 7      4512.270          47.312    21503210.180    89340449.302 7      4512.270          47.562
> 2024 05 10 10 11 46.0000000  0 16
G04  24823359.660   130447644.819 6      1184.418          38.312    24823358.140   130447644.829 3      1184.418          22.125    24823367.360   101647554.862 3       922.923          22.437    24823368.340   101647541.849 6       922.923          40.687
G23  24008917.880   126167717.284 7      4291.297          43.500    24008917.700   126167717.286 5      4291.297          30.875    24008927.980    98312553.176 5      3343.868          30.812    24008925.040    98312546.176 7      3343.868          45.687
G27  21328040.640   112079610.488 7      3498.722          47.125    21328039.200   112079610.498 6      3498.722          39.312    21328044.080    87334778.181 6      2726.277          38.875    21328044.700    87334780.186 8      2726.277          49.062
G31  21427625.840   112602932.727 7       127.566          47.500    21427625.100   112602932.724 7       127.566          46.562    21427627.500    87742552.371 7        99.402          46.812    21427628.080    87742555.373 8        99.402          48.250
R23  23078440.940   123454094.331 6      6162.681          41.625    23078441.420   123454094.352 6      6162.681          41.312
G28  23096217.280   121371437.762 6     -1048.287          41.812    23096216.120   121371437.774 5     -1048.287          31.500    23096222.400    94575161.870 5      -816.847          31.312    23096223.160    94575170.857 7      -816.847          47.500
G10  24627681.260   129419335.359 6      4821.628          38.375    24627680.880   129419335.361 5      4821.628          31.875    24627695.760   100846283.833 5      3757.113          31.687    24627696.100   100846289.855 6      3757.113          38.500
G26  20593617.040   108220189.598 7      2332.082          47.500    20593615.860   108220189.603 8      2332.082          48.062    20593621.400    84327438.608 8      1817.207          48.062    20593622.400    84327442.607 8      1817.207          49.687
R10  22590310.520   120419068.328 5      -707.330          32.625    22590307.600   120419068.291 5      -707.330          32.125
R22  19560389.100   104414681.612 8      3568.847          49.500    19560389.440   104414681.610 8      3568.847          49.437    19560395.160    81211446.821 8      2775.770          51.875    19560394.780    81211448.819 8      2775.770          52.062
G16  21341021.940   112147828.581 7      3998.145          46.875    21341019.020   112147828.591 6      3998.145          37.750    21341022.420    87387917.785 6      3115.438          37.312
G18  22339905.840   117396994.832 7       220.999          45.375    22339904.280   117396994.836 6       220.999          36.125    22339908.660    91478185.653 5       172.207          35.875    22339910.200    91478195.653 8       172.207          49.187
R11  19511461.120   104263334.980 8      2364.195          49.812    19511460.800   104263334.986 8      2364.195          48.937    19511467.400    81093727.250 8      1838.818          52.937    19511467.380    81093728.255 8      1838.818          52.812
R21  20351277.480   108903789.307 7      -253.195          46.437    20351277.040   108903789.322 7      -253.195          45.250    20351287.180    84702989.621 8      -196.930          49.812    20351286.480    84702988.622 8      -196.930          49.687
G08  23721043.340   124654923.099 6      4645.162          39.562    23721042.180   124654923.096 4      4645.162          28.062    23721051.780    97133719.136 4      3619.607          28.312    23721051.960    97133743.145 7      3619.607          45.062
R12  21502114.460   114860435.625 7      5801.368          46.875    21502115.600   114860435.626 7      5801.368          46.312    21502123.600    89335937.083 7      4512.175          47.437    21502123.840    89335937.084 8      4512.175          48.000
> 2024 05 10 10 11 47.0000000  0 16
G04  24823134.420   130446460.775 6      1184.011          38.437    24823132.940   130446460.788 3      1184.011          22.125    24823141.940   101646632.229 3       922.606          22.437    24823143.480   101646619.214 6       922.606          40.687
G23  24008101.480   126163426.169 7      4291.009          43.437    24008101.140   126163426.174 5      4291.009          30.875    24008111.580    98309209.455 5      3343.643          30.812    24008108.480    98309202.455 7      3343.643          45.937
G27  21327374.700   112076112.008 7      3498.298          46.812    21327373.420   112076112.013 6      3498.298          39.000    21327378.520    87332052.091 6      2725.946          39.312    21327379.060    87332054.100 8      2725.946          49.750
G31  21427601.660   112602805.492 7       126.960          47.187    21427600.900   112602805.497 7       126.960          47.062    21427603.220    87742453.231 7        98.930          46.875    21427603.760    87742456.233 7        98.930          47.312
R23  23077289.500   123447931.745 6      6162.483          41.625    23077289.620   123447931.768 6      6162.483          41.312
G28  23096416.880   121372486.170 7     -1048.442          42.000    23096415.680   121372486.183 5     -1048.442          31.500    23096421.760    94575978.802 5      -816.968          31.312    23096422.600    94575987.796 8      -816.968          48.125
G10  24626763.480   129414513.850 6      4821.501          39.000    24626763.240   129414513.847 5      4821.501          31.875    24626778.160   100842526.814 5      3757.014          31.562    24626778.240   100842532.823 6      3757.014          38.500
G26  20593173.080   108217857.618 7      2331.794          47.937    20593172.200   108217857.620 8      2331.794          48.875    20593177.640    84325621.477 8      1816.982          48.375    20593178.760    84325625.480 8      1816.982          49.312
R10  22590443.080   120419775.963 5      -707.920          32.625    22590440.140   120419775.945 5      -707.920          32.125
R22  19559720.460   104411113.186 8      3568.066          48.312    19559720.980   104411113.189 8      3568.066          49.187    19559726.580    81208671.382 8      2775.163          51.937    19559726.700    81208673.382 8      2775.163          51.812
G16  21340261.140   112143830.453 7      3998.025          46.750    21340258.320   112143830.460 6      3998.025          37.500    21340261.740    87384802.356 6      3115.344          37.625
G18  22339863.820   117396774.065 7       220.534          45.062    22339862.180   117396774.067 6       220.534          36.125    22339866.640    91478013.625 5       171.845          35.937    22339868.260    91478023.629 8       171.845          49.687
R11  19511018.960   104260971.144 8      2363.423          50.312    19511018.560   104260971.151 8      2363.423          49.312    19511025.140    81091888.712 8      1838.218          52.500    19511024.800    81091889.714 8      1838.218          53.875
R21  20351324.960   108904042.694 7      -253.628          46.187    20351324.500   108904042.701 7      -253.628          45.375    20351334.600    84703186.695 8      -197.267          50.250    20351333.900    84703185.693 8      -197.267          50.250
G08  23720159.780   124650278.121 6      4644.865          40.062    23720158.160   124650278.118 4      4644.865          28.062    23720167.840    97130099.675 4      3619.375          28.312    23720168.020    97130123.693 7      3619.375          45.250
R12  21501028.660   114854634.400 7      5801.130          46.937    21501029.400   114854634.399 7      5801.130          46.125    21501037.740    89331425.021 7      4511.990          47.000    21501038.280    89331425.020 7      4511.990          47.812
> 2024 05 10 10 11 48.0000000  0 16
G04  24822909.520   130445277.152 6      1183.412          39.125    24822907.780   130445277.165 3      1183.412          22.125    24822916.880   101645709.921 3       922.139          22.437    24822917.860   101645696.918 6       922.139          40.875
G23  24007284.720   126159135.364 7      4290.746          43.187    24007284.540   126159135.366 5      4290.746          30.875    24007294.940    98305865.972 5      3343.438          30.687    24007292.060    98305858.968 7      3343.438          45.812
G27  21326709.300   112072613.894 7      3498.042          47.687    21326707.780   112072613.896 6      3498.042          39.625    21326712.720    87329326.286 6      2725.747          39.250    21326713.380    87329328.288 8      2725.747          49.625
G31  21427577.520   112602678.783 7       126.500          47.625    21427576.900   112602678.782 7       126.500          46.750    21427579.100    87742354.488 7        98.571          46.500    21427579.640    87742357.490 8        98.571          48.062
R23  23076137.420   123441769.624 6      6162.024          41.937    23076137.880   123441769.636 6      6162.024          41.562
G28  23096616.360   121373534.857 7     -1048.742          42.187    23096615.380   121373534.870 5     -1048.742          31.437    23096621.340    94576795.952 5      -817.201          31.312    23096622.020    94576804.951 7      -817.201          47.500
G10  24625846.000   129409692.311 6      4821.695          38.312    24625845.780   129409692.308 5      4821.695          31.500    24625860.680   100838769.774 5      3757.165          31.562    24625860.740   100838775.788 6      3757.165          38.375
G26  20592729.580   108215526.056 8      2331.449          48.312    20592728.580   108215526.063 8      2331.449          49.000    20592733.880    84323804.679 8      1816.713          48.812    20592735.000    84323808.680 8      1816.713          49.687
R10  22590574.660   120420484.008 5      -707.875          32.625    22590573.440   120420483.990 5      -707.875          32.125
R22  19559052.140   104407545.581 8      3567.346          48.937    19559052.760   104407545.588 8      3567.346          50.000    19559058.280    81205896.585 8      2774.603          51.937    19559058.320    81205898.590 8      2774.603          52.312
G16  21339500.220   112139832.577 7      3997.843          46.625    21339497.520   112139832.587 6      3997.843          37.312    21339501.020    87381687.132 6      3115.203          37.500
G18  22339821.920   117396553.840 7       220.114          44.625    22339820.060   117396553.839 6       220.114          36.125    22339824.660    91477842.017 5       171.517          35.875    22339826.240    91477852.021 8       171.517          48.875
R11  19510576.920   104258608.055 8      2362.803          49.875    19510576.280   104258608.053 8      2362.803          49.062    19510582.900    81090050.755 8      1837.736          52.500    19510582.700    81090051.756 8      1837.736          53.250
R21  20351372.220   108904296.641 7      -254.045          46.375    20351372.020   108904296.645 7      -254.045          46.000    20351382.100    84703384.205 8      -197.591          49.937    20351381.240    84703383.205 8      -197.591          49.812
G08  23719275.760   124645633.411 6      4644.775          40.000    23719274.300   124645633.408 4      4644.775          28.250    23719283.940    97126480.416 4      3619.305          28.312    23719284.520    97126504.436 7      3619.305          45.312
R12  21499942.480   114848833.394 7      5801.033          47.437    21499943.620   114848833.387 7      5801.033          46.375    21499951.920    89326913.126 7      4511.914          47.500    21499952.160    89326913.128 7      4511.914          47.750
> 2024 05 10 10 11 49.0000000  0 16
G04  24822684.080   130444093.737 6      1183.195          39.000    24822682.720   130444093.749 3      1183.195          22.125    24822691.660   101644787.779 3       921.970          22.187    24822692.840   101644774.772 6       921.970          40.875
G23  24006468.060   126154844.717 7      4290.591          43.437    24006468.000   126154844.717 5      4290.591          30.875    24006478.420    98302522.613 5      3343.318          30.687    24006475.100    98302515.613 7      3343.318          45.687
G27  21326043.640   112069116.003 7      3497.713          47.562    21326042.160   112069116.005 6      3497.713          39.562    21326047.200    87326600.659 6      2725.491          39.437    21326047.720    87326602.665 8      2725.491          49.375
G31  21427553.320   112602552.433 8       126.101          48.187    21427552.900   112602552.436 7       126.101          46.812    21427555.120    87742256.038 7        98.261          46.812    21427555.720    87742259.034 7        98.261          47.875
R23  23074985.720   123435607.755 6      6161.683          41.937    23074985.720   123435607.764 6      6161.683          41.562
G28  23096815.240   121374583.649 7     -1048.904          42.625    23096814.920   121374583.662 5     -1048.904          31.437    23096821.020    94577613.187 5      -817.328          31.312    23096821.300    94577622.181 7      -817.328          47.250
G10  24624928.740   129404870.640 6      4821.649          37.937    24624928.340   129404870.639 5      4821.649          31.500    24624943.380   100835012.636 5      3757.129          31.562    24624943.880   100835018.660 6      3757.129          38.375
G26  20592285.940   108213194.775 8      2331.129          48.375    20592284.860   108213194.777 8      2331.129          48.562    20592290.220    84321988.093 8      1816.464          48.312    20592291.280    84321992.089 8      1816.464          49.625
R10  22590708.000   120421192.448 5      -708.262          32.625    22590705.880   120421192.454 5      -708.262          32.125
R22  19558384.160   104403978.647 8      3566.578          49.562    19558384.440   104403978.648 8      3566.578          49.625    19558390.140    81203122.295 8      2774.005          51.500    19558390.000    81203124.299 8      2774.005          51.937
G16  21338739.400   112135834.832 7      3997.571          46.062    21338736.700   112135834.842 6      3997.571          37.437    21338740.240    87378572.009 6      3114.991          37.375
G18  22339780.200   117396334.014 7       219.526          44.750    22339778.100   117396334.011 6       219.526          36.062    22339782.680    91477670.722 5       171.060          35.750    22339784.480    91477680.730 8       171.060          49.375
R11  19510134.520   104256245.566 8      2362.084          49.812    19510134.080   104256245.570 8      2362.084          49.375    19510140.640    81088213.262 8      1837.176          52.437    19510140.680    81088214.263 8      1837.176          53.125
R21  20351419.640   108904551.008 7      -254.614          45.937    20351419.360   108904551.009 7      -254.614          46.125    20351429.540    84703582.046 8      -198.033          49.625    20351428.560    84703581.045 8      -198.033          49.750
G08  23718391.960   124640988.826 6      4644.444          39.875    23718390.580   124640988.826 4      4644.444          28.250    23718399.860    97122861.265 4      3619.047          28.312    23718400.680    97122885.288 7      3619.047          45.250
R12  21498856.240   114843032.457 7      5800.808          46.750    21498857.420   114843032.456 7      5800.808          46.500    21498865.840    89322401.292 7      4511.739          46.937    21498866.440    89322401.297 8      4511.739          48.062
> 2024 05 10 10 11 50.0000000  0 16
G04  24822459.100   130442910.605 6      1183.213          39.000    24822457.580   130442910.620 3      1183.213          22.125    24822466.680   101643865.856 3       921.984          22.187    24822467.100   101643852.849 6       921.984          40.875
G23  24005651.760   126150554.272 7      4290.637          42.687    24005651.300   126150554.274 5      4290.637          30.875    24005662.040    98299179.413 5      3343.353          30.687    24005658.840    98299172.411 7      3343.353          45.812
G27  21325378.080   112065618.399 8      3497.606          48.312    21325376.620   112065618.401 6      3497.606          39.812    21325381.520    87323875.251 6      2725.407          39.375    21325382.300    87323877.255 8      2725.407          49.250
G31  21427529.400   112602426.525 7       125.796          47.437    21427528.840   112602426.528 7       125.796          46.812    21427531.100    87742157.926 7        98.023          46.625    21427531.580    87742160.924 8        98.023          48.000
R23  23073833.840   123429446.211 7      6161.534          42.187    23073834.100   123429446.215 6      6161.534          41.500
G28  23097014.820   121375632.604 7     -1048.861          42.937    23097014.600   121375632.622 5     -1048.861          31.437    23097020.760    94578430.546 5      -817.295          31.312    23097021.220    94578439.543 7      -817.295          47.625
G10  24624010.960   129400048.895 6      4821.924          37.937    24624010.760   129400048.895 5      4821.924          31.500    24624025.980   100831255.438 5      3757.343          31.750    24624026.480   100831261.431 6      3757.343          38.375
G26  20591842.480   108210863.825 7      2330.887          47.625    20591841.380   108210863.825 8      2330.887          48.375    20591846.700    84320171.766 8      1816.276          48.187    20591847.620    84320175.769 8      1816.276          49.625
R10  22590840.660   120421901.325 5      -709.087          32.625    22590839.800   120421901.320 5      -709.087          32.125
R22  19557716.120   104400412.447 8      3565.947          49.687    19557716.300   104400412.448 8      3565.947          49.875    19557722.020    81200348.585 8      2773.515          52.000    19557722.000    81200350.590 8      2773.515          52.250
G16  21337978.880   112131837.232 7      3997.621          46.125    21337976.140   112131837.239 6      3997.621          37.500    21337979.360    87375456.996 6      3115.029          37.625
G18  22339738.480   117396114.624 7       219.241          44.562    22339736.300   117396114.621 6       219.241          36.375    22339741.040    91477499.766 5       170.837          35.562    22339742.760    91477509.772 8       170.837          49.437
R11  19509692.800   104253883.746 8      2361.548          49.812    19509692.020   104253883.742 8      2361.548          48.812    19509698.820    81086376.283 8      1836.760          52.375    19509698.700    81086377.279 8      1836.760          53.125
R21  20351467.140   108904805.824 7      -254.906          46.312    20351466.820   108904805.823 7      -254.906          45.750    20351477.180    84703780.234 8      -198.260          49.937    20351476.380    84703779.236 8      -198.260          50.250
G08  23717508.320   124636344.439 6      4644.387          39.500    23717506.860   124636344.434 4      4644.387          28.250    23717516.060    97119242.262 4      3619.003          27.875    23717516.700    97119266.273 7      3619.003          45.625
R12  21497770.560   114837231.694 7      5800.783          47.000    21497771.740   114837231.688 7      5800.783          46.375    21497779.740    89317889.584 7      4511.720          47.375    21497780.380    89317889.584 7      4511.720          47.437
> 2024 05 10 10 11 51.0000000  0 16
G04  24822233.760   130441727.578 6      1182.812          39.062    24822232.360   130441727.591 3      1182.812          22.125    24822241.560   101642944.013 3       921.672          22.187    24822241.280   101642931.006 6       921.672          41.000
G23  24004835.100   126146263.869 7      4290.127          42.312    24004834.840   126146263.872 5      4290.127          30.875    24004845.640    98295836.246 5      3342.956          30.625    24004842.180    98295829.242 7      3342.956          45.562
G27  21324712.200   112062120.828 7      3497.396          46.750    21324711.020   112062120.833 6      3497.396          39.250    21324715.940    87321149.873 6      2725.243          39.000    21324716.740    87321151.878 8      2725.243          49.250
G31  21427505.640   112602300.812 7       125.393          47.312    21427504.880   112602300.814 7       125.393          45.875    21427507.340    87742059.959 7        97.709          45.625    21427507.880    87742062.961 8        97.709          48.250
R23  23072682.100   123423284.751 7      6161.240          42.187    23072681.920   123423284.750 6      6161.240          41.500
G28  23097214.320   121376681.515 7     -1049.097          43.437    23097214.460   121376681.530 5     -1049.097          31.437    23097220.340    94579247.871 5      -817.478          31.312    23097220.540    94579256.861 7      -817.478          47.500
G10  24623093.300   129395226.806 6      4822.101          38.625    24623092.920   129395226.806 5      4822.101          31.750    24623108.240   100827497.971 5      3757.481          31.750    24623109.140   100827503.974 6      3757.481          38.375
G26  20591398.740   108208532.946 7      2330.638          47.937    20591397.740   108208532.951 7      2330.638          47.500    20591403.080    84318355.499 7      1816.081          47.250    20591404.080    84318359.500 8      1816.081          49.500
R10  22590973.560   120422610.276 5      -709.435          32.625    22590973.560   120422610.269 5      -709.435          32.125
R22  19557048.200   104396846.724 8      3565.262          49.500    19557048.360   104396846.725 8      3565.262          49.437    19557054.080    81197575.242 8      2772.981          49.437    19557054.240    81197577.246 8      2772.981          51.312
G16  21337217.920   112127839.556 7      3997.493          46.937    21337215.420   112127839.566 6      3997.493          37.125    21337218.660    87372341.923 6      3114.930          37.125
G18  22339696.920   117395895.452 7       218.704          44.187    22339694.640   117395895.454 5       218.704          35.937    22339699.360    91477328.983 6       170.419          36.312    22339701.060    91477338.991 8       170.419          48.750
R11  19509250.700   104251522.308 8      2360.978          50.125    19509250.360   104251522.306 8      2360.978          48.875    19509256.920    81084539.610 8      1836.317          50.437    19509256.660    81084540.606 8      1836.317          50.375
R21  20351514.580   108905060.819 7      -255.391          47.000    20351514.480   108905060.826 7      -255.391          45.250    20351524.860    84703978.566 8      -198.638          49.062    20351524.080    84703977.566 8      -198.638          48.687
G08  23716624.420   124631699.963 6      4644.309          39.812    23716622.720   124631699.954 4      4644.309          28.250    23716632.160    97115623.192 4      3618.942          27.875    23716633.060    97115647.202 7      3618.942          44.875
R12  21496684.840   114831430.854 7      5800.685          46.875    21496685.660   114831430.839 7      5800.685          46.375    21496694.120    89313377.821 7      4511.644          46.125    21496694.600    89313377.822 7      4511.644          46.750
> 2024 05 10 10 11 52.0000000  0 16
G04  24822008.640   130440545.108 6      1182.223          38.312    24822007.220   130440545.124 3      1182.223          22.125    24822016.560   101642022.608 3       921.213          22.187    24822016.260   101642009.603 6       921.213          41.000
G23  24004018.720   126141973.903 7      4289.975          42.875    24004018.380   126141973.902 5      4289.975          30.625    24004029.220    98292493.417 5      3342.838          30.625    24004026.160    98292486.411 7      3342.838          45.812
G27  21324046.900   112058623.820 7      3497.004          47.500    21324045.540   112058623.825 6      3497.004          39.625    21324050.540    87318424.932 6      2724.938          39.562    21324051.240    87318426.936 8      2724.938          48.937
G31  21427481.840   112602175.789 7       124.871          47.562    21427481.060   112602175.797 7       124.871          46.937    21427483.420    87741962.545 7        97.302          47.000    21427484.080    87741965.545 8        97.302          48.000
R23  23071530.240   123417123.884 7      6160.794          42.187    23071530.560   123417123.894 6      6160.794          41.687
G28  23097414.140   121377730.843 7     -1049.302          42.812    23097413.980   121377730.856 5     -1049.302          31.437    23097419.920    94580065.519 5      -817.638          31.312    23097420.580    94580074.507 7      -817.638          47.375
G10  24622176.000   129390404.898 6      4822.101          38.312    24622175.260   129390404.901 5      4822.101          31.750    24622190.580   100823740.650 5      3757.481          31.750    24622191.380   100823746.654 6      3757.481          38.687
G26  20590955.360   108206202.680 8      2330.151          48.250    20590954.260   108206202.682 7      2330.151          47.937    20590959.700    84316539.705 7      1815.702          47.875    20590960.760    84316543.706 8      1815.702          49.250
R10  22591106.780   120423319.822 5      -709.646          33.500    22591104.520   120423319.857 5      -709.646          32.125
R22  19556380.240   104393281.984 8      3564.453          49.562    19556380.540   104393281.987 8      3564.453          49.937    19556386.200    81194802.674 8      2772.353          52.000    19556386.460    81194804.676 8      2772.353          51.875
G16  21336457.240   112123842.321 7      3997.246          46.437    21336454.840   112123842.328 6      3997.246          37.437    21336458.000    87369227.193 6      3114.737          37.312
G18  22339655.280   117395676.948 7       218.407          44.687    22339653.040   117395676.950 6       218.407          36.125    22339657.820    91477158.718 6       170.188          36.312    22339659.480    91477168.722 8       170.188          49.312
R11  19508809.100   104249161.786 8      2360.273          49.562    19508808.500   104249161.787 8      2360.273          49.250    19508815.180    81082703.653 8      1835.768          52.500    19508814.860    81082704.651 8      1835.768          53.125
R21  20351562.540   108905316.494 7      -255.788          47.187    20351561.880   108905316.504 7      -255.788          46.000    20351572.440    84704177.427 8      -198.947          50.000    20351571.740    84704176.428 8      -198.947          50.062
G08  23715740.120   124627055.938 6      4644.026          40.062    23715738.920   124627055.930 4      4644.026          28.250    23715748.340    97112004.471 4      3618.722          27.875    23715749.220    97112028.479 7      3618.722          45.562
R12  21495598.620   114825630.454 7      5800.479          46.312    21495599.440   114825630.447 7      5800.479          46.687    21495608.420    89308866.403 7      4511.484          47.562    21495608.620    89308866.406 8      4511.484          48.000
> 2024 05 10 10 11 53.0000000  0 16
G04  24821783.860   130439362.904 6      1182.083          38.437    24821782.340   130439362.917 3      1182.083          22.125    24821791.560   101641101.408 3       921.104          22.187    24821791.540   101641088.395 6       921.104          40.687
G23  24003202.320   126137684.144 7      4289.668          42.750    24003201.960   126137684.143 5      4289.668          30.625    24003213.180    98289150.754 5      3342.598          30.625    24003209.720    98289143.760 7      3342.598          45.625
G27  21323381.640   112055127.075 7      3496.757          47.312    21323380.140   112055127.083 6      3496.757          39.750    21323385.100    87315700.195 6      2724.746          39.437    21323385.900    87315702.198 8      2724.746          49.312
G31  21427457.960   112602051.197 8       124.446          48.312    21427457.280   112602051.202 7       124.446          46.500    21427459.820    87741865.453 7        96.971          46.500    21427460.340    87741868.455 8        96.971          48.437
R23  23070378.900   123410963.320 7      6160.419          42.312    23070378.760   123410963.332 6      6160.419          41.687
G28  23097614.120   121378780.344 7     -1049.590          42.562    23097613.820   121378780.360 5     -1049.590          31.437    23097619.560    94580883.302 5      -817.862          31.312    23097620.420    94580892.294 7      -817.862          47.375
G10  24621258.100   129385582.894 6      4822.143          39.312    24621257.460   129385582.893 5      4822.143          31.750    24621272.860   100819983.248 5      3757.514          31.375    24621273.780   100819989.241 6      3757.514          38.687
G26  20590512.000   108203872.723 8      2329.821          48.875    20590510.920   108203872.725 8      2329.821          48.125    20590516.320    84314724.148 8      1815.445          48.375    20590517.100    84314728.149 8      1815.445          49.062
R10  22591239.640   120424029.797 5      -709.714          33.500    22591238.880   120424029.808 5      -709.714          32.125
R22  19555712.300   104389717.993 8      3563.607          49.625    19555712.980   104389718.000 8      3563.607          49.500    19555718.660    81192030.677 8      2771.694          52.125    19555718.720    81192032.679 8      2771.694          51.875
G16  21335696.900   112119845.238 7      3997.062          46.312    21335694.280   112119845.246 6      3997.062          37.562    21335697.280    87366112.581 6      3114.594          37.500
G18  22339613.520   117395458.927 7       217.847          44.812    22339611.500   117395458.929 6       217.847          36.125    22339616.240    91476988.830 5       169.751          35.625    22339618.060    91476998.829 8       169.751          49.000
R11  19508367.760   104246801.905 8      2359.649          49.625    19508366.960   104246801.909 8      2359.649          49.312    19508373.500    81080868.190 8      1835.282          52.437    19508373.480    81080869.188 8      1835.282          52.937
R21  20351610.540   108905572.646 7      -256.325          46.125    20351609.800   108905572.653 7      -256.325          45.812    20351620.420    84704376.649 8      -199.364          49.750    20351619.780    84704375.651 8      -199.364          49.937
G08  23714856.380   124622412.076 6      4644.072          39.312    23714855.260   124622412.068 4      4644.072          27.750    23714864.600    97108385.878 4      3618.757          27.875    23714865.580    97108409.876 7      3618.757          45.250
R12  21494512.960   114819830.225 7      5800.184          46.812    21494513.860   114819830.224 7      5800.184          46.875    21494522.340    89304355.116 7      4511.254          47.062    21494522.740    89304355.117 7      4511.254          47.937
> 2024 05 10 10 11 54.0000000  0 15
G04  24821558.780   130438180.949 6      1181.600          38.562    24821557.460   130438180.960 3      1181.600          22.125    24821566.560   101640180.400 3       920.728          22.187    24821566.320   101640167.389 6       920.728          40.687
G23  24002386.060   126133394.532 7      4289.471          42.625    24002385.620   126133394.532 5      4289.471          30.625    24002396.860    98285808.202 5      3342.445          30.875    24002393.480    98285801.208 7      3342.445          45.687
G27  21322716.140   112051630.532 7      3496.440          46.750    21322714.660   112051630.537 6      3496.440          39.125    21322719.760    87312975.614 6      2724.499          39.062    21322720.900    87312977.619 8      2724.499          49.812
G31  21427434.440   112601926.942 8       124.002          48.125    21427433.700   112601926.947 7       124.002          46.687    21427436.160    87741768.630 7        96.625          46.750    21427436.860    87741771.634 8        96.625          48.687
R23  23069227.100   123404803.005 7      6160.084          42.312    23069226.940   123404803.014 6      6160.084          41.250
G28  23097813.900   121379829.901 7     -1049.595          42.500    23097813.660   121379829.916 5     -1049.595          31.562    23097819.240    94581701.128 5      -817.866          31.312    23097820.060    94581710.114 7      -817.866          47.250
G10  24620340.540   129380760.710 6      4822.164          39.562    24620340.020   129380760.705 5      4822.164          31.500    24620355.240   100816225.703 5      3757.531          31.375    24620354.900   100816231.722 6      3757.531          38.687
G26  20590068.720   108201543.006 8      2329.476          48.312    20590067.500   108201543.005 7      2329.476          47.937    20590073.020    84312908.782 7      1815.176          47.875    20590073.880    84312912.782 8      1815.176          49.437
R22  19555044.820   104386154.622 8      3562.912          48.812    19555045.280   104386154.620 8      3562.912          49.375    19555051.040    81189259.166 8      2771.154          51.687    19555051.160    81189261.166 8      2771.154          52.000
G16  21334936.280   112115848.224 7      3996.860          47.000    21334933.520   112115848.234 6      3996.860          37.312    21334936.680    87362998.031 6      3114.437          37.437
G18  22339572.260   117395241.255 7       217.337          43.812    22339569.980   117395241.255 6       217.337          36.000    22339574.940    91476819.211 5       169.353          35.875    22339576.500    91476829.211 8       169.353          49.750
R11  19507925.960   104244442.601 8      2358.863          50.437    19507925.500   104244442.605 8      2358.863          49.187    19507932.040    81079033.180 8      1834.672          52.875    19507931.960    81079034.179 8      1834.672          52.937
R21  20351657.980   108905829.110 7      -256.755          45.437    20351657.480   108905829.117 7      -256.755          45.812    20351668.240    84704576.122 8      -199.698          49.750    20351667.720    84704575.127 8      -199.698          49.937
G08  23713972.860   124617768.322 6      4643.625          39.375    23713971.540   124617768.304 4      4643.625          27.750    23713980.820    97104767.360 4      3618.409          27.875    23713981.820    97104791.374 7      3618.409          45.312
R12  21493426.980   114814030.037 7      5800.053          45.562    21493428.140   114814030.024 7      5800.053          46.437    21493436.840    89299843.852 7      4511.152          47.312    21493437.120    89299843.855 8      4511.152          48.000
> 2024 05 10 10 11 55.0000000  0 16
G04  24821334.200   130436999.242 6      1181.469          38.562    24821332.480   130436999.249 3      1181.469          22.125    24821341.680   101639259.583 3       920.625          22.187    24821342.200   101639246.565 6       920.625          40.937
G23  24001569.940   126129105.107 7      4289.262          43.625    24001569.360   126129105.106 5      4289.262          30.625    24001580.520    98282465.798 5      3342.282          30.875    24001577.540    98282458.805 7      3342.282          45.500
G27  21322050.920   112048134.257 7      3496.079          47.062    21322049.340   112048134.265 6      3496.079          39.250    21322054.580    87310251.246 6      2724.217          39.187    21322055.240    87310253.251 8      2724.217          49.312
G31  21427410.920   112601803.089 7       123.697          47.437    21427410.040   112601803.091 7       123.697          46.562    21427412.580    87741672.117 7        96.387          46.625    21427413.440    87741675.117 8        96.387          49.000
R23  23068075.960   123398642.972 6      6159.885          41.875    23068075.780   123398642.979 6      6159.885          41.250
G28  23098014.000   121380879.613 7     -1049.754          43.187    23098013.480   121380879.628 5     -1049.754          31.562    23098018.980    94582519.081 5      -817.990          31.312    23098019.640    94582528.067 7      -817.990          47.625
G10  24619423.060   129375938.409 6      4822.376          40.000    24619422.620   129375938.408 5      4822.376          31.500    24619437.500   100812468.079 5      3757.695          31.375    24619436.840   100812474.083 6      3757.695          37.750
G26  20589625.440   108199213.577 8      2329.227          48.062    20589624.220   108199213.577 8      2329.227          48.125    20589629.760    84311093.643 7      1814.982          47.687    20589630.640    84311097.643 8      1814.982          49.125
R10  22591505.760   120425450.779 5      -710.910          33.500    22591503.300   120425450.792 5      -710.910          32.125
R22  19554377.420   104382591.945 8      3562.263          49.687    19554377.780   104382591.946 8      3562.263          49.875    19554383.700    81186488.193 8      2770.649          51.687    19554383.700    81186490.193 8      2770.649          52.062
G16  21334175.780   112111851.339 7      3996.817          46.937    21334172.960   112111851.352 6      3996.817          37.125    21334176.120    87359883.575 6      3114.403          37.062
G18  22339530.960   117395023.965 7       217.091          44.500    22339528.400   117395023.964 5       217.091          35.875    22339533.620    91476649.890 5       169.162          35.812    22339535.160    91476659.894 8       169.162          49.250
R11  19507484.660   104242083.910 8      2358.298          50.250    19507484.060   104242083.916 8      2358.298          49.750    19507490.600    81077198.647 8      1834.232          52.937    19507490.520    81077199.647 8      1834.232          52.875
R21  20351705.840   108906085.989 7      -257.111          46.375    20351705.480   108906085.993 7      -257.111          45.187    20351716.020    84704775.908 8      -199.975          50.000    20351715.680    84704774.912 8      -199.975          49.437
G08  23713089.640   124613124.708 6      4643.535          39.250    23713087.860   124613124.697 4      4643.535          27.750    23713097.160    97101148.963 4      3618.339          27.500    23713098.260    97101172.975 7      3618.339          45.437
R12  21492341.280   114808229.960 7      5799.981          46.875    21492342.340   114808229.950 7      5799.981          46.687    21492351.040    89295332.683 7      4511.096          47.625    21492351.280    89295332.686 8      4511.096          48.062
> 2024 05 10 10 11 56.0000000  0 15
G04  24821109.220   130435817.941 6      1181.037          38.312    24821107.820   130435817.949 3      1181.037          22.125    24821116.820   101638339.085 3       920.289          22.187    24821116.980   101638326.078 6       920.289          40.937
G23  24000753.720   126124816.023 7      4288.911          43.812    24000753.260   126124816.025 5      4288.911          30.875    24000764.320    98279123.661 5      3342.009          30.875    24000761.240    98279116.674 7      3342.009          45.875
G27  21321385.600   112044638.363 7      3495.692          46.687    21321384.080   112044638.371 6      3495.692          39.187    21321389.260    87307527.173 6      2723.916          39.187    21321390.120    87307529.182 8      2723.916          49.625
G31  21427387.480   112601679.795 7       123.015          47.625    21427386.660   112601679.805 7       123.015          46.750    21427389.140    87741576.046 7        95.856          46.750    21427389.800    87741579.048 8        95.856          48.187
R23  23066924.160   123392483.411 6      6159.252          41.875    23066924.060   123392483.413 6      6159.252          41.750
G28  23098213.880   121381929.632 6     -1050.182          41.875    23098213.220   121381929.645 5     -1050.182          31.562    23098218.760    94583337.274 5      -818.324          31.312    23098219.180    94583346.262 7      -818.324          47.812
G10  24618505.540   129371116.167 6      4822.213          40.000    24618505.100   129371116.164 5      4822.213          31.500    24618519.760   100808710.491 5      3757.568          31.937    24618519.040   100808716.510 6      3757.568          37.750
G26  20589182.200   108196884.611 7      2328.671          47.500    20589181.040   108196884.616 7      2328.671          47.812    20589186.520    84309278.870 7      1814.548          47.812    20589187.420    84309282.869 8      1814.548          49.312
R22  19553710.320   104379030.124 8      3561.310          48.875    19553710.640   104379030.131 8      3561.310          49.437    19553716.500    81183717.907 8      2769.908          51.812    19553716.540    81183719.907 8      2769.908          51.875
G16  21333415.100   112107854.766 7      3996.417          46.437    21333412.540   112107854.776 6      3996.417          37.500    21333415.700    87356769.362 6      3114.091          37.437
G18  22339489.820   117394807.279 7       216.333          44.812    22339487.080   117394807.281 5       216.333          35.562    22339492.320    91476481.044 5       168.571          35.500    22339493.920    91476491.056 8       168.571          49.125
R11  19507043.200   104239725.995 8      2357.522          50.125    19507042.880   104239726.002 8      2357.522          49.125    19507049.420    81075364.705 8      1833.628          52.750    19507049.380    81075365.705 8      1833.628          53.187
R21  20351754.480   108906343.473 7      -257.813          45.187    20351753.060   108906343.475 7      -257.813          45.062    20351764.180    84704976.175 8      -200.521          49.937    20351763.580    84704975.181 8      -200.521          49.750
G08  23712205.660   124608481.411 6      4643.107          39.562    23712204.320   124608481.405 4      4643.107          27.750    23712213.580    97097530.814 4      3618.005          27.500    23712214.480    97097554.824 7      3618.005          45.312
R12  21491255.700   114802430.193 7      5799.680          45.937    21491256.660   114802430.184 7      5799.680          46.437    21491265.040    89290821.760 7      4510.862          47.125    21491265.460    89290821.765 7      4510.862          47.812
> 2024 05 10 10 11 57.0000000  0 15
G04  24820884.520   130434637.040 6      1180.616          37.812    24820883.100   130434637.048 3      1180.616          22.125    24820892.060   101637418.902 3       919.960          22.250    24820892.820   101637405.893 6       919.960          40.937
G23  23999937.680   126120527.249 7      4288.620          43.250    23999937.100   126120527.249 5      4288.620          30.875    23999947.940    98275781.764 5      3341.782          30.875    23999944.840    98275774.762 7      3341.782          45.500
G27  21320720.580   112041142.848 7      3495.251          46.812    21320718.920   112041142.855 6      3495.251          39.625    21320724.060    87304803.397 6      2723.572          39.562    21320724.880    87304805.405 8      2723.572          49.812
G31  21427364.140   112601557.019 7       122.441          47.062    21427363.360   112601557.024 7       122.441          46.687    21427365.740    87741480.373 7        95.409          46.312    21427366.420    87741483.368 8        95.409          48.375
R23  23065772.600   123386324.222 7      6158.846          42.562    23065772.540   123386324.228 6      6158.846          41.750
G28  23098413.560   121382979.914 6     -1050.557          41.562    23098413.160   121382979.921 5     -1050.557          31.375    23098418.580    94584155.661 5      -818.616          31.312    23098419.240    94584164.641 7      -818.616          47.687
G10  24617588.120   129366293.897 6      4822.084          40.250    24617587.460   129366293.902 5      4822.084          32.187    24617601.960   100804952.886 5      3757.468          31.937    24617601.420   100804958.901 6      3757.468          37.750
G26  20588739.140   108194556.047 7      2328.255          46.500    20588737.820   108194556.049 8      2328.255          48.000    20588743.460    84307464.400 8      1814.225          48.125    20588744.280    84307468.401 8      1814.225          49.312
R22  19553043.140   104375469.118 8      3560.470          49.312    19553043.520   104375469.124 8      3560.470          49.375    19553049.500    81180948.225 8      2769.254          51.937    19553049.420    81180950.227 8      2769.254          52.000
G16  21332654.720   112103858.433 7      3996.100          45.625    21332652.060   112103858.440 6      3996.100          37.437    21332655.060    87353655.334 6      3113.844          36.875
G18  22339448.620   117394591.092 7       215.847          44.812    22339446.160   117394591.097 6       215.847          36.187    22339451.180    91476312.588 5       168.192          35.937    22339452.940    91476322.603 8       168.192          49.375
R11  19506602.380   104237368.832 8      2356.618          49.562    19506601.780   104237368.838 8      2356.618          49.062    19506608.320    81073531.362 8      1832.925          52.562    19506608.220    81073532.360 8      1832.925          53.125
R21  20351802.460   108906601.476 7      -258.431          45.250    20351801.520   108906601.472 7      -258.431          45.250    20351812.400    84705176.842 8      -201.002          49.437    20351811.900    84705175.848 8      -201.002          49.562
G08  23711322.000   124603838.372 6      4642.715          39.437    23711320.680   124603838.361 4      4642.715          27.750    23711330.040    97093912.857 4      3617.700          27.500    23711331.000    97093936.863 7      3617.700          45.000
R12  21490169.920   114796630.694 7      5799.288          46.625    21490170.820   114796630.687 7      5799.288          46.312    21490179.420    89286311.048 7      4510.557          46.937    21490179.600    89286311.051 8      4510.557          48.000
> 2024 05 10 10 11 58.0000000  0 15
G04  24820659.700   130433456.560 6      1180.367          37.937    24820658.440   130433456.564 3      1180.367          22.125    24820667.320   101636499.049 3       919.767          22.250    24820668.700   101636486.038 6       919.767          40.937
G23  23999121.500   126116238.825 7      4288.292          43.000    23999121.120   126116238.827 5      4288.292          30.875    23999131.820    98272440.137 5      3341.526          30.500    23999129.260    98272433.139 7      3341.526          45.312
G27  21320055.480   112037647.710 7      3495.037          47.375    21320053.820   112037647.715 6      3495.037          39.937    21320059.140    87302079.915 6      2723.405          39.937    21320059.920    87302081.924 8      2723.405          49.187
G31  21427340.760   112601434.784 7       122.040          47.500    21427340.100   112601434.784 7       122.040          46.750    21427342.520    87741385.115 7        95.096          46.812    21427343.260    87741388.112 8        95.096          48.500
R23  23064621.100   123380165.489 7      6158.572          42.500    23064621.420   123380165.496 6      6158.572          41.625
G28  23098613.560   121384030.440 7     -1050.687          42.375    23098613.060   121384030.450 5     -1050.687          31.375    23098618.520    94584974.240 5      -818.717          31.187    23098619.260    94584983.231 7      -818.717          47.250
G10  24616670.620   129361471.648 6      4822.319          40.375    24616669.840   129361471.653 5      4822.319          32.187    24616684.260   100801195.303 5      3757.651          31.937    24616682.800   100801201.323 6      3757.651          37.750
G26  20588296.020   108192227.927 7      2327.871          47.437    20588294.860   108192227.935 8      2327.871          48.187    20588300.380    84305650.283 7      1813.926          47.937    20588301.460    84305654.284 8      1813.926          49.187
R22  19552376.280   104371908.950 8      3559.856          48.437    19552376.640   104371908.945 8      3559.856          49.437    19552382.560    81178179.201 8      2768.777          51.812    19552382.400    81178181.199 8      2768.777          52.437
G16  21331894.220   112099862.359 7      3996.065          47.062    21331891.700   112099862.361 6      3996.065          37.437    21331894.660    87350541.506 6      3113.817          37.562
G18  22339407.520   117394375.467 7       215.468          45.250    22339405.080   117394375.475 6       215.468          36.187    22339410.140    91476144.573 5       167.897          35.375    22339411.700    91476154.579 8       167.897          49.312
R11  19506161.200   104235012.417 8      2356.039          50.187    19506160.920   104235012.420 8      2356.039          49.250    19506167.360    81071698.588 8      1832.475          52.375    19506167.320    81071699.588 8      1832.475          53.250
R21  20351850.880   108906860.003 7      -258.813          46.437    20351849.820   108906860.002 7      -258.813          45.687    20351860.680    84705377.919 8      -201.299          50.000    20351860.100    84705376.923 8      -201.299          49.312
G08  23710438.640   124599195.600 6      4642.625          38.750    23710437.260   124599195.587 4      4642.625          27.500    23710446.520    97090295.115 4      3617.630          27.500    23710447.720    97090319.119 7      3617.630          45.875
R12  21489084.460   114790831.458 7      5799.180          44.875    21489085.520   114790831.446 7      5799.180          46.250    21489093.900    89281800.528 7      4510.473          47.125    21489094.120    89281800.533 8      4510.473          48.375
> 2024 05 10 10 11 59.0000000  0 15
G04  24820434.960   130432276.302 6      1180.101          37.937    24820433.860   130432276.310 3      1180.101          22.125    24820442.800   101635579.370 3       919.560          22.250    24820444.380   101635566.365 6       919.560          40.687
G23  23998305.440   126111950.537 7      4288.238          43.250    23998305.080   126111950.539 5      4288.238          30.500    23998315.680    98269098.622 5      3341.484          30.500    23998313.080    98269091.634 7      3341.484          45.562
G27  21319390.420   112034152.833 7      3494.755          47.312    21319388.840   112034152.836 6      3494.755          39.750    21319394.100    87299356.634 6      2723.186          39.750    21319395.060    87299358.639 8      2723.186          50.000
G31  21427317.620   112601312.925 8       121.717          48.062    21427316.820   112601312.928 7       121.717          47.000    21427319.300    87741290.162 7        94.844          46.687    21427320.300    87741293.163 8        94.844          48.250
R23  23063470.060   123374007.017 7      6158.422          42.500    23063469.620   123374007.026 6      6158.422          41.625
G28  23098813.220   121385081.106 6     -1050.712          41.875    23098812.940   121385081.116 5     -1050.712          31.375    23098818.420    94585792.931 5      -818.737          31.187    23098819.340    94585801.911 7      -818.737          47.187
G10  24615752.860   129356649.281 6      4822.413          40.500    24615752.240   129356649.285 5      4822.413          32.312    24615766.600   100797437.625 5      3757.725          32.187    24615765.100   100797443.630 6      3757.725          36.625
G26  20587853.120   108189900.088 7      2327.632          47.937    20587851.820   108189900.091 8      2327.632          48.312    20587857.500    84303836.374 8      1813.739          48.000    20587858.520    84303840.375 8      1813.739          49.187
R22  19551709.480   104368349.462 8      3559.192          48.062    19551709.880   104368349.458 8      3559.192          49.312    19551715.780    81175410.708 8      2768.261          51.750    19551715.480    81175412.704 8      2768.261          52.125
G16  21331134.000   112095866.420 7      3995.860          47.437    21331131.240   112095866.424 6      3995.860          37.312    21331134.140    87347427.793 6      3113.657          37.500
G18  22339366.640   117394160.268 7       215.011          45.062    22339364.020   117394160.270 5       215.011          35.375    22339369.320    91475976.880 5       167.541          35.875    22339370.960    91475986.877 8       167.541          49.625
R11  19505720.520   104232656.610 8      2355.499          50.375    19505720.180   104232656.614 8      2355.499          49.625    19505726.460    81069866.297 8      1832.055          52.875    19505726.420    81069867.295 8      1832.055          53.375
R21  20351899.160   108907118.929 7      -259.080          46.187    20351898.180   108907118.925 7      -259.080          45.750    20351909.040    84705579.298 8      -201.507          49.812    20351908.280    84705578.303 8      -201.507          49.562
G08  23709554.800   124594552.981 6      4642.390          38.812    23709553.740   124594552.970 4      4642.390          27.500    23709563.180    97086677.492 4      3617.446          27.500    23709564.180    97086701.496 7      3617.446          45.187
R12  21487999.060   114785032.325 7      5799.061          46.375    21487999.760   114785032.315 7      5799.061          46.375    21488008.360    89277290.092 7      4510.380          47.062    21488008.680    89277290.095 7      4510.380          47.625
> 2024 05 10 10 12  0.0000000  0 15
G04  24820210.260   130431096.544 6      1179.482          38.000    24820209.420   130431096.554 3      1179.482          22.125    24820218.120   101634660.078 3       919.077          22.250    24820219.400   101634647.055 6       919.077          41.375
G23  23997489.180   126107662.657 7      4287.674          42.687    23997488.920   126107662.662 5      4287.674          30.500    23997499.500    98265757.425 5      3341.044          30.500    23997497.000    98265750.423 7      3341.044          45.812
G27  21318725.440   112030658.387 7      3494.036          46.937    21318723.740   112030658.392 6      3494.036          39.812    21318729.220    87296633.689 6      2722.626          39.687    21318730.340    87296635.694 8      2722.626          49.750
G31  21427294.380   112601191.663 7       120.925          47.500    21427293.860   112601191.665 7       120.925          46.687    21427296.220    87741195.667 7        94.227          46.937    21427297.040    87741198.667 8        94.227          48.437
R23  23062319.020   123367849.049 7      6157.647          42.562    23062318.820   123367849.059 6      6157.647          41.812
G28  23099013.440   121386132.097 6     -1051.272          41.750    23099012.900   121386132.104 5     -1051.272          31.312    23099018.480    94586611.866 5      -819.173          31.187    23099019.440    94586620.857 7      -819.173          47.062
G10  24614835.580   129351826.987 6      4822.198          40.000    24614834.660   129351826.992 5      4822.198          32.312    24614848.840   100793679.999 5      3757.557          32.187    24614847.640   100793686.003 6      3757.557          36.625
G26  20587410.100   108187572.722 7      2327.018          47.750    20587408.940   108187572.727 8      2327.018          48.000    20587414.640    84302022.845 8      1813.261          48.062    20587415.500    84302026.845 8      1813.261          49.375
R22  19551042.400   104364790.858 8      3558.028          49.000    19551043.240   104364790.856 8      3558.028          49.437    19551049.200    81172642.907 8      2767.355          51.812    19551048.920    81172644.905 8      2767.355          52.000
G16  21330373.580   112091870.795 7      3995.355          47.625    21330370.820   112091870.803 6      3995.355          37.375    21330373.860    87344314.320 6      3113.263          37.500
G18  22339325.940   117393945.658 7       214.157          45.000    22339323.160   117393945.660 6       214.157          36.250    22339328.640    91475809.647 6       166.876          36.000    22339330.080    91475819.646 8       166.876          49.875
R11  19505279.260   104230301.617 8      2354.468          49.937    19505279.540   104230301.623 8      2354.468          49.437    19505285.880    81068034.631 8      1831.253          52.625    19505285.860    81068035.633 8      1831.253          52.812
R21  20351947.560   108907378.478 7      -259.867          46.687    20351946.380   108907378.483 7      -259.867          45.250    20351957.560    84705781.167 8      -202.119          49.187    20351956.500    84705780.173 8      -202.119          48.875
G08  23708671.420   124589910.686 6      4641.924          38.625    23708670.540   124589910.672 4      4641.924          27.500    23708679.700    97083060.117 4      3617.084          27.500    23708681.000    97083084.106 7      3617.084          44.937
R12  21486913.680   114779233.501 7      5798.503          45.375    21486914.040   114779233.496 7      5798.503          45.750    21486922.700    89272779.900 7      4509.947          47.187    21486923.180    89272779.905 7      4509.947          47.875
> 2024 05 10 10 12  1.0000000  0 15
G04  24819986.260   130429917.230 6      1179.534          38.500    24819985.100   130429917.243 3      1179.534          22.375    24819993.980   101633741.130 3       919.117          22.250    24819995.020   101633728.096 6       919.117          41.375
G23  23996673.720   126103375.186 7      4287.464          43.000    23996673.120   126103375.189 5      4287.464          30.500    23996683.580    98262416.537 5      3340.881          30.437    23996681.060    98262409.530 7      3340.881          45.687
G27  21318060.560   112027164.380 7      3494.072          47.500    21318058.860   112027164.385 6      3494.072          39.750    21318064.360    87293911.082 6      2722.654          39.812    21318065.360    87293913.087 8      2722.654          49.812
G31  21427271.560   112601070.997 7       120.660          47.750    21427270.740   112601071.002 7       120.660          46.750    21427273.280    87741101.640 7        94.021          46.187    21427274.160    87741104.639 8        94.021          48.437
R23  23061167.780   123361691.561 7      6157.550          42.562    23061167.820   123361691.570 6      6157.550          41.812
G28  23099213.040   121387183.422 7     -1051.284          42.500    23099212.940   121387183.427 5     -1051.284          31.312    23099218.340    94587431.075 5      -819.182          30.875    23099219.220    94587440.067 7      -819.182          47.187
G10  24613917.820   129347004.761 6      4822.460          41.250    24613917.100   129347004.771 5      4822.460          32.312    24613931.160   100789922.431 5      3757.761          32.250    24613930.940   100789928.455 6      3757.761          36.625
G26  20586967.340   108185245.851 8      2326.983          48.125    20586966.160   108185245.855 8      2326.983          48.437    20586971.760    84300209.698 8      1813.234          48.000    20586972.660    84300213.696 8      1813.234          49.750
R22  19550376.440   104361233.134 8      3557.631          50.875    19550376.900   104361233.135 8      3557.631          50.250    19550382.580    81169875.791 8      2767.046          51.562    19550382.660    81169877.793 8      2767.046          52.250
G16  21329613.220   112087875.505 7      3995.443          47.250    21329610.460   112087875.510 6      3995.443          37.375    21329613.740    87341201.107 6      3113.333          37.125
G18  22339285.440   117393731.649 7       213.929          44.812    22339282.500   117393731.651 6       213.929          36.062    22339287.900    91475642.883 6       166.698          36.000    22339289.240    91475652.886 8       166.698          49.562
R11  19504839.340   104227947.462 8      2354.034          51.500    19504838.940   104227947.465 8      2354.034          50.000    19504845.460    81066203.617 8      1830.915          52.187    19504845.300    81066204.619 8      1830.915          53.250
R21  20351996.220   108907638.632 7      -260.098          45.000    20351995.420   108907638.637 7      -260.098          45.750    20352006.100    84705983.513 8      -202.299          49.562    20352005.260    84705982.517 8      -202.299          49.437
G08  23707788.440   124585268.724 6      4641.826          38.625    23707787.180   124585268.710 4      4641.826          27.500    23707796.340    97079443.003 4      3617.007          27.500    23707797.680    97079467.020 7      3617.007          45.000
R12  21485827.820   114773435.003 7      5798.670          45.687    21485828.660   114773434.996 7      5798.670          47.500    21485837.280    89268269.959 7      4510.077          47.062    21485837.300    89268269.958 8      4510.077          48.250
> 2024 05 10 10 12  2.0000000  0 15
G04  24819761.600   130428738.026 6      1179.146          38.500    24819760.800   130428738.037 3      1179.146          22.375    24819769.600   101632822.270 3       918.815          22.250    24819770.800   101632809.238 6       918.815          41.625
G23  23995858.120   126099087.719 6      4287.142          41.500    23995857.100   126099087.721 5      4287.142          30.625    23995867.800    98259075.655 5      3340.630          30.437    23995865.080    98259068.655 7      3340.630          45.375
G27  21317395.660   112023670.467 8      3493.729          48.125    21317393.900   112023670.472 6      3493.729          39.750    21317399.420    87291188.553 6      2722.386          39.687    21317399.900    87291190.559 8      2722.386          49.437
G31  21427248.500   112600950.564 7       120.157          47.812    21427247.960   112600950.567 7       120.157          47.125    21427250.380    87741007.792 7        93.629          46.687    21427251.320    87741010.790 8        93.629          48.437
R23  23060016.540   123355534.214 7      6157.060          43.187    23060016.980   123355534.226 7      6157.060          42.500
G28  23099413.300   121388234.729 6     -1051.457          41.875    23099412.920   121388234.736 5     -1051.457          31.312    23099418.280    94588250.268 5      -819.317          30.875    23099419.100    94588259.251 7      -819.317          47.000
G10  24613000.060   129342182.257 6      4822.619          40.562    24612999.360   129342182.262 5      4822.619          32.000    24613013.520   100786164.636 5      3757.885          32.250    24613014.300   100786170.643 6      3757.885          36.625
G26  20586524.620   108182919.118 7      2326.602          47.812    20586523.420   108182919.125 8      2326.602          48.750    20586529.060    84298396.659 8      1812.937          48.125    20586529.920    84298400.662 8      1812.937          48.937
R22  19549710.140   104357675.968 8      3556.789          51.000    19549710.500   104357675.972 8      3556.789          50.250    19549716.240    81167109.107 8      2766.392          51.937    19549716.340    81167111.104 8      2766.392          52.312
G16  21328852.680   112083880.183 7      3995.220          47.250    21328850.160   112083880.190 6      3995.220          37.437    21328853.420    87338087.873 6      3113.158          37.375
G18  22339244.480   117393517.877 7       213.508          45.125    22339241.840   117393517.882 6       213.508          36.062    22339247.300    91475476.309 5       166.370          35.500    22339248.760    91475486.317 8       166.370          49.375
R11  19504398.540   104225593.731 8      2353.369          51.500    19504398.600   104225593.738 8      2353.369          50.625    19504404.880    81064372.942 8      1830.398          52.750    19504404.720    81064373.944 8      1830.398          53.375
R21  20352044.760   108907899.014 7      -260.667          47.562    20352044.040   108907899.018 7      -260.667          46.875    20352055.020    84706186.030 8      -202.741          49.625    20352054.420    84706185.036 8      -202.741          49.500
G08  23706905.500   124580626.720 6      4641.965          39.437    23706903.700   124580626.709 4      4641.965          27.500    23706913.100    97075825.859 4      3617.116          27.500    23706914.760    97075849.872 7      3617.116          44.875
R12  21484742.260   114767636.491 7      5798.384          47.437    21484742.980   114767636.487 7      5798.384          47.687    21484751.860    89263760.010 7      4509.854          47.437    21484752.180    89263760.013 7      4509.854          47.750
> 2024 05 10 10 12  3.0000000  0 15
G04  24819537.680   130427559.351 6      1178.307          38.000    24819536.300   130427559.361 3      1178.307          22.375    24819545.340   101631903.817 3       918.162          22.250    24819546.520   101631890.798 6       918.162          41.875
G23  23995042.300   126094800.655 6      4286.785          41.750    23995041.200   126094800.658 5      4286.785          30.625    23995052.040    98255735.086 5      3340.352          30.437    23995049.540    98255728.088 7      3340.352          45.312
G27  21316730.880   112020177.051 7      3493.105          47.437    21316729.160   112020177.056 6      3493.105          39.437    21316734.660    87288466.412 6      2721.900          39.125    21316735.280    87288468.415 8      2721.900          49.812
G31  21427225.760   112600830.765 8       119.435          48.000    21427225.180   112600830.768 7       119.435          46.625    21427227.560    87740914.440 7        93.066          46.625    21427228.240    87740917.438 8        93.066          48.312
R23  23058865.380   123349377.403 7      6156.490          44.625    23058865.700   123349377.407 7      6156.490          42.500
G28  23099613.200   121389286.414 6     -1052.052          41.937    23099612.900   121389286.424 5     -1052.052          31.062    23099618.320    94589069.757 5      -819.780          30.875    23099619.100    94589078.741 7      -819.780          47.000
G10  24612082.280   129337359.887 6      4822.374          41.625    24612081.760   129337359.887 5      4822.374          32.000    24612095.820   100782406.949 5      3757.694          32.250    24612095.440   100782412.963 6      3757.694          36.312
G26  20586081.980   108180592.940 8      2325.877          48.125    20586080.800   108180592.942 8      2325.877          48.375    20586086.340    84296584.047 8      1812.372          48.187    20586087.280    84296588.048 8      1812.372          49.562
R22  19549043.580   104354119.729 8      3555.712          51.250    19549044.240   104354119.730 8      3555.712          50.250    19549050.120    81164343.140 8      2765.554          49.812    19549050.000    81164345.138 8      2765.554          50.687
G16  21328092.560   112079885.242 7      3994.759          46.312    21328089.940   112079885.247 6      3994.759          37.500    21328093.120    87334974.930 6      3112.800          37.687
G18  22339204.000   117393304.788 7       212.730          46.312    22339201.380   117393304.793 5       212.730          35.812    22339206.780    91475310.263 5       165.764          35.812    22339208.360    91475320.259 8       165.764          49.625
R11  19503958.320   104223240.859 8      2352.405          51.875    19503958.200   104223240.868 8      2352.405          50.750    19503964.620    81062542.928 8      1829.648          50.937    19503964.300    81062543.930 8      1829.648          53.250
R21  20352093.640   108908160.064 7      -261.421          47.375    20352092.800   108908160.066 7      -261.421          46.562    20352103.760    84706389.063 8      -203.327          48.750    20352102.840    84706388.065 8      -203.327          48.562
G08  23706022.700   124575985.186 6      4641.071          38.937    23706020.340   124575985.178 4      4641.071          27.250    23706029.700    97072209.082 4      3616.419          27.500    23706031.240    97072233.100 7      3616.419          44.687
R12  21483657.000   114761838.340 7      5797.822          46.750    21483657.680   114761838.341 7      5797.822          47.187    21483666.540    89259250.343 7      4509.417          47.437    21483666.940    89259250.344 8      4509.417          48.500
> 2024 05 10 10 12  4.0000000  0 15
G04  24819313.600   130426380.925 6      1178.294          38.250    24819312.120   130426380.938 3      1178.294          22.375    24819321.180   101630985.563 3       918.151          22.250    24819322.500   101630972.528 6       918.151          41.875
G23  23994226.780   126090513.795 7      4286.932          42.937    23994225.360   126090513.794 5      4286.932          30.625    23994236.220    98252394.675 5      3340.466          30.437    23994233.600    98252387.681 7      3340.466          45.312
G27  21316066.040   112016683.876 7      3493.181          47.250    21316064.420   112016683.881 6      3493.181          39.812    21316069.960    87285744.454 6      2721.959          39.500    21316070.660    87285746.461 8      2721.959          49.812
G31  21427203.100   112600711.363 7       119.355          46.875    21427202.520   112600711.365 7       119.355          46.437    21427204.780    87740821.399 7        93.004          46.500    21427205.620    87740824.399 8        93.004          48.937
R23  23057714.720   123343220.882 7      6156.479          44.625    23057715.040   123343220.894 7      6156.479          42.937
G28  23099813.220   121390338.201 6     -1051.777          41.937    23099813.000   121390338.214 5     -1051.777          31.062    23099818.520    94589889.326 5      -819.566          31.187    23099819.580    94589898.316 7      -819.566          46.875
G10  24611164.620   129332537.404 6      4822.533          40.562    24611164.040   129332537.412 5      4822.533          32.000    24611178.180   100778649.178 5      3757.818          31.937    24611178.060   100778655.194 6      3757.818          36.312
G26  20585639.460   108178267.027 7      2325.916          47.187    20585638.240   108178267.026 8      2325.916          48.375    20585643.800    84294771.647 8      1812.402          48.250    20585644.620    84294775.648 8      1812.402          49.375
R22  19548377.660   104350564.173 8      3555.324          48.812    19548378.100   104350564.179 8      3555.324          50.437    19548384.000    81161577.712 8      2765.252          51.687    19548384.080    81161579.710 8      2765.252          52.375
G16  21327332.560   112075890.419 7      3994.891          46.125    21327329.780   112075890.429 6      3994.891          37.687    21327332.780    87331862.085 6      3112.902          37.500
G18  22339163.380   117393092.074 7       212.688          46.187    22339161.140   117393092.077 6       212.688          36.375    22339166.240    91475144.509 6       165.731          36.000    22339168.120    91475154.513 8       165.731          49.687
R11  19503517.960   104220888.598 8      2352.111          50.812    19503517.980   104220888.605 8      2352.111          50.125    19503524.420    81060713.394 8      1829.420          53.187    19503524.240    81060714.396 8      1829.420          53.500
R21  20352142.580   108908421.543 7      -261.584          46.875    20352142.000   108908421.550 7      -261.584          46.312    20352152.720    84706592.437 8      -203.454          49.812    20352152.060    84706591.439 8      -203.454          49.500
G08  23705139.160   124571343.723 6      4641.399          38.875    23705137.060   124571343.715 4      4641.399          27.250    23705146.440    97068592.360 4      3616.674          27.500    23705147.880    97068616.384 7      3616.674          45.250
R12  21482571.540   114756040.294 7      5798.063          45.750    21482571.980   114756040.297 7      5798.063          46.250    21482581.100    89254740.760 7      4509.605          47.375    21482581.540    89254740.758 8      4509.605          48.562
> 2024 05 10 10 12  5.0000000  0 15
G04  24819089.400   130425202.859 6      1177.672          37.562    24819087.940   130425202.869 3      1177.672          22.375    24819097.060   101630067.584 3       917.667          22.187    24819097.780   101630054.552 6       917.667          41.500
G23  23993410.900   126086227.223 7      4286.264          42.812    23993409.600   126086227.222 5      4286.264          30.562    23993420.420    98249054.495 5      3339.946          30.562    23993417.860    98249047.503 7      3339.946          45.250
G27  21315401.500   112013191.043 7      3492.504          47.937    21315399.900   112013191.051 6      3492.504          40.062    21315405.200    87283022.770 6      2721.432          39.875    21315405.900    87283024.775 8      2721.432          49.750
G31  21427180.240   112600592.463 8       118.552          48.375    21427179.840   112600592.462 7       118.552          46.687    21427182.200    87740728.744 7        92.378          46.625    21427183.120    87740731.741 8        92.378          48.000
R23  23056563.940   123337064.771 7      6155.785          43.250    23056564.240   123337064.783 7      6155.785          42.937
G28  23100013.580   121391390.233 6     -1052.255          41.937    23100013.100   121391390.243 5     -1052.255          31.062    23100018.780    94590709.082 5      -819.939          31.187    23100019.600    94590718.073 7      -819.939          47.250
G10  24610246.700   129327714.887 6      4822.351          40.125    24610246.240   129327714.895 5      4822.351          32.000    24610260.380   100774891.381 5      3757.676          31.937    24610259.020   100774897.395 6      3757.676          36.312
G26  20585196.820   108175941.508 8      2325.198          48.000    20585195.640   108175941.510 8      2325.198          48.812    20585201.240    84292959.555 8      1811.842          48.812    20585202.020    84292963.557 8      1811.842          49.625
R22  19547711.560   104347009.393 8      3554.283          50.187    19547712.280   104347009.407 8      3554.283          50.375    19547718.140    81158812.892 8      2764.442          51.750    19547718.180    81158814.890 8      2764.442          52.812
G16  21326572.440   112071895.833 7      3994.315          47.375    21326569.740   112071895.843 6      3994.315          37.625    21326572.580    87328749.424 6      3112.453          37.375
G18  22339123.200   117392879.894 7       211.827          45.750    22339120.780   117392879.899 6       211.827          36.812    22339125.720    91474979.176 6       165.060          36.750    22339127.580    91474989.173 8       165.060          49.812
R11  19503078.140   104218537.083 8      2351.050          50.625    19503078.120   104218537.087 8      2351.050          50.000    19503084.440    81058884.434 8      1828.594          52.875    19503084.260    81058885.436 8      1828.594          52.812
R21  20352191.600   108908683.559 7      -262.439          45.937    20352191.100   108908683.563 7      -262.439          46.062    20352201.620    84706796.219 8      -204.119          50.125    20352200.960    84706795.219 8      -204.119          50.062
G08  23704255.680   124566702.523 6      4640.920          38.875    23704254.000   124566702.515 4      4640.920          27.250    23704263.260    97064975.850 4      3616.301          27.500    23704264.420    97064999.851 7      3616.301          44.750
R12  21481486.080   114750242.517 7      5797.661          46.062    21481486.740   114750242.512 7      5797.661          46.187    21481495.820    89250231.367 7      4509.292          47.500    21481496.140    89250231.366 7      4509.292          47.875
> 2024 05 10 10 12  6.0000000  0 15
G04  24818865.320   130424025.232 6      1177.535          38.750    24818863.720   130424025.239 3      1177.535          22.375    24818873.060   101629149.950 3       917.560          22.187    24818873.840   101629136.925 6       917.560          41.500
G23  23992595.140   126081941.011 7      4286.207          42.312    23992594.020   126081941.013 5      4286.207          30.562    23992604.840    98245714.594 5      3339.901          30.562    23992601.840    98245707.598 7      3339.901          45.312
G27  21314736.840   112009698.660 7      3492.224          47.625    21314735.420   112009698.662 6      3492.224          40.187    21314740.700    87280301.432 6      2721.214          39.937    21314741.360    87280303.441 8      2721.214          49.500
G31  21427157.880   112600474.148 7       118.128          47.500    21427157.340   112600474.148 7       118.128          47.000    21427159.760    87740636.550 7        92.048          46.687    21427160.360    87740639.552 8        92.048          48.812
R23  23055412.860   123330909.166 7      6155.318          42.875    23055414.000   123330909.173 7      6155.318          42.250
G28  23100213.920   121392442.606 6     -1052.321          41.312    23100213.220   121392442.616 5     -1052.321          31.125    23100219.220    94591529.099 5      -819.990          31.187    23100219.640    94591538.079 7      -819.990          46.812
G10  24609328.780   129322892.420 6      4822.586          40.375    24609328.520   129322892.425 5      4822.586          32.000    24609342.900   100771133.616 5      3757.859          31.937    24609342.080   100771139.632 6      3757.859          36.312
G26  20584754.400   108173616.468 8      2324.985          48.062    20584753.140   108173616.472 8      2324.985          48.187    20584758.800    84291147.837 7      1811.677          47.937    20584759.680    84291151.836 8      1811.677          48.750
R22  19547045.660   104343455.540 8      3553.544          49.437    19547046.600   104343455.541 8      3553.544          49.812    19547052.340    81156048.779 8      2763.868          51.937    19547052.420    81156050.777 8      2763.868          52.625
G16  21325812.360   112067901.564 7      3994.206          45.937    21325809.540   112067901.577 6      3994.206          37.125    21325812.560    87325637.007 6      3112.368          37.750
G18  22339082.840   117392668.322 7       211.328          45.437    22339080.460   117392668.326 6       211.328          36.000    22339085.620    91474814.310 5       164.671          35.750    22339087.080    91474824.307 8       164.671          49.812
R11  19502638.560   104216186.367 8      2350.469          50.750    19502638.160   104216186.371 8      2350.469          49.812    19502644.460    81057056.103 8      1828.142          52.562    19502644.180    81057057.107 8      1828.142          53.437
R21  20352240.700   108908946.145 7      -262.788          46.625    20352240.340   108908946.152 7      -262.788          45.687    20352250.780    84707000.457 8      -204.391          49.687    20352250.100    84706999.457 8      -204.391          49.437
G08  23703372.860   124562061.680 6      4640.584          39.500    23703370.900   124562061.680 4      4640.584          27.250    23703380.140    97061359.609 4      3616.039          26.875    23703381.040    97061383.618 7      3616.039          44.750
R12  21480401.120   114744445.066 7      5797.378          46.750    21480401.100   114744445.059 7      5797.378          46.312    21480410.540    89245722.247 7      4509.072          47.750    21480410.760    89245722.246 8      4509.072          48.000
> 2024 05 10 10 12  7.0000000  0 15
G04  24818641.380   130422847.957 6      1177.034          39.937    24818639.700   130422847.964 3      1177.034          22.375    24818649.160   101628232.591 3       917.169          22.187    24818650.440   101628219.572 6       917.169          41.687
G23  23991779.360   126077655.088 7      4285.733          42.375    23991778.400   126077655.095 5      4285.733          30.562    23991789.380    98242374.922 5      3339.532          30.562    23991785.860    98242367.926 7      3339.532          44.937
G27  21314072.500   112006206.591 7      3491.770          47.062    21314070.700   112006206.596 6      3491.770          39.875    21314076.160    87277580.344 6      2720.859          40.000    21314076.760    87277582.347 8      2720.859          49.625
G31  21427135.580   112600356.307 7       117.537          47.437    21427134.940   112600356.309 7       117.537          46.250    21427137.360    87740544.726 7        91.587          46.125    21427138.040    87740547.726 8        91.587          48.312
R23  23054262.440   123324753.876 7      6155.026          42.875    23054262.920   123324753.891 7      6155.026          42.250
G28  23100414.480   121393495.200 6     -1052.815          41.062    23100413.360   121393495.208 5     -1052.815          31.125    23100419.680    94592349.292 5      -820.375          30.500    23100419.840    94592358.277 7      -820.375          47.375
G10  24608411.240   129318069.937 6      4822.386          40.500    24608410.700   129318069.939 5      4822.386          32.062    24608425.220   100767375.846 5      3757.703          31.937    24608424.340   100767381.865 6      3757.703          37.125
G26  20584311.980   108171291.826 8      2324.350          48.187    20584310.880   108171291.826 8      2324.350          48.000    20584316.380    84289336.424 8      1811.182          48.000    20584317.020    84289340.423 8      1811.182          49.812
R22  19546380.140   104339902.428 8      3552.663          49.625    19546380.840   104339902.429 8      3552.663          49.500    19546386.740    81153285.244 8      2763.182          51.625    19546386.920    81153287.244 8      2763.182          52.312
G16  21325052.320   112063907.509 7      3993.866          47.437    21325049.500   112063907.522 6      3993.866          37.562    21325052.520    87322524.756 6      3112.103          37.187
G18  22339042.920   117392457.211 7       210.757          46.062    22339040.420   117392457.218 6       210.757          36.375    22339045.520    91474649.804 6       164.226          36.250    22339046.920    91474659.812 8       164.226          49.937
R11  19502198.620   104213836.367 8      2349.535          50.437    19502198.480   104213836.368 8      2349.535          49.937    19502204.640    81055228.323 8      1827.416          53.375    19502204.460    81055229.325 8      1827.416          53.437
R21  20352289.800   108909209.192 7      -263.372          46.312    20352289.300   108909209.198 7      -263.372          45.750    20352299.840    84707205.045 8      -204.845          49.687    20352299.120    84707204.042 8      -204.845          49.562
G08  23702489.560   124557421.024 6      4640.465          39.437    23702487.800   124557421.019 4      4640.465          27.250    23702497.080    97057743.514 4      3615.947          26.875    23702498.380    97057767.516 7      3615.947          44.750
R12  21479315.920   114738647.788 7      5797.067          45.875    21479316.040   114738647.781 7      5797.067          46.437    21479325.260    89241213.256 7      4508.830          47.062    21479325.580    89241213.254 8      4508.830          48.062
> 2024 05 10 10 12  8.0000000  0 15
G04  24818417.920   130421671.021 6      1176.762          39.250    24818415.760   130421671.031 3      1176.762          22.375    24818425.300   101627315.496 3       916.958          22.187    24818426.040   101627302.485 6       916.958          41.687
G23  23990963.860   126073369.402 7      4285.583          42.687    23990962.860   126073369.406 5      4285.583          30.562    23990973.900    98239035.430 5      3339.415          30.375    23990970.580    98239028.434 7      3339.415          45.125
G27  21313407.940   112002714.828 7      3491.571          47.812    21313406.360   112002714.830 6      3491.571          39.437    21313411.740    87274859.489 6      2720.704          39.437    21313412.360    87274861.494 8      2720.704          50.062
G31  21427113.340   112600238.917 7       117.144          46.812    21427112.760   112600238.917 7       117.144          46.500    21427114.980    87740453.249 7        91.281          46.562    21427115.960    87740456.249 8        91.281          48.312
R23  23053111.440   123318598.977 7      6154.690          42.875    23053111.720   123318598.991 6      6154.690          41.812
G28  23100614.660   121394547.963 6     -1052.860          41.062    23100613.840   121394547.973 5     -1052.860          31.125    23100619.920    94593169.620 5      -820.410          30.500    23100620.440    94593178.609 7      -820.410          47.000
G10  24607493.480   129313247.373 6      4822.583          40.375    24607493.000   129313247.370 5      4822.583          32.062    24607507.700   100763618.007 5      3757.857          31.937    24607506.640   100763624.027 6      3757.857          37.125
G26  20583869.800   108168967.519 7      2324.089          47.375    20583868.520   108168967.519 8      2324.089          48.500    20583874.080    84287525.279 8      1810.978          48.250    20583874.820    84287529.276 8      1810.978          48.562
R22  19545714.640   104336350.083 8      3551.927          49.375    19545715.580   104336350.084 8      3551.927          49.500    19545721.280    81150522.309 8      2762.610          51.750    19545721.540    81150524.307 8      2762.610          52.562
G16  21324292.220   112059913.643 7      3993.742          46.500    21324289.720   112059913.653 6      3993.742          37.062    21324292.440    87319412.653 6      3112.006          37.187
G18  22339002.760   117392246.571 7       210.342          45.937    22339000.480   117392246.578 6       210.342          36.562    22339005.360    91474485.671 6       163.903          36.562    22339007.040    91474495.679 8       163.903          49.750
R11  19501758.820   104211487.043 8      2348.961          50.625    19501758.740   104211487.046 8      2348.961          49.812    19501765.020    81053401.073 8      1826.969          52.000    19501764.520    81053402.075 8      1826.969          52.875
R21  20352339.520   108909472.693 7      -263.782          45.875    20352338.780   108909472.697 7      -263.782          45.875    20352349.040    84707409.988 8      -205.164          50.000    20352348.280    84707408.985 8      -205.164          49.875
G08  23701606.320   124552780.581 6      4640.275          39.875    23701604.840   124552780.575 4      4640.275          27.250    23701614.080    97054127.584 4      3615.799          26.875    23701615.660    97054151.594 7      3615.799          44.687
R12  21478230.340   114732850.690 7      5796.971          46.125    21478230.880   114732850.685 7      5796.971          46.125    21478240.040    89236704.407 8      4508.755          48.312    21478240.500    89236704.404 8      4508.755          48.562
> 2024 05 10 10 12  9.0000000  0 15
G04  24818193.780   130420494.418 6      1176.339          39.500    24818192.000   130420494.426 3      1176.339          22.437    24818201.500   101626398.663 3       916.628          22.187    24818202.000   101626385.635 6       916.628          41.687
G23  23990148.360   126069083.970 7      4285.241          43.437    23990147.360   126069083.978 5      4285.241          30.562    23990158.160    98235696.139 5      3339.149          30.375    23990155.400    98235689.139 7      3339.149          45.312
G27  21312743.500   111999223.361 7      3491.330          47.375    21312741.780   111999223.366 6      3491.330          39.562    21312747.360    87272138.864 6      2720.517          39.125    21312747.720    87272140.869 8      2720.517          50.125
G31  21427091.120   112600121.982 7       116.660          47.250    21427090.480   112600121.982 7       116.660          46.625    21427092.720    87740362.131 7        90.904          46.562    21427093.680    87740365.131 8        90.904          48.125
R23  23051961.120   123312444.417 7      6154.294          42.625    23051961.100   123312444.429 6      6154.294          41.812
G28  23100815.100   121395600.914 6     -1053.078          41.125    23100814.280   121395600.922 5     -1053.078          30.875    23100820.280    94593990.094 5      -820.580          30.500    23100820.740    94593999.084 7      -820.580          46.562
G10  24606575.700   129308424.766 6      4822.524          41.500    24606575.260   129308424.766 5      4822.524          32.312    24606589.980   100759860.138 5      3757.811          32.437    24606588.660   100759866.160 6      3757.811          37.125
G26  20583427.520   108166643.540 7      2323.788          46.687    20583426.240   108166643.545 8      2323.788          48.250    20583431.880    84285714.391 8      1810.744          48.000    20583432.600    84285718.390 8      1810.744          49.500
R22  19545049.240   104332798.463 8      3551.267          49.375    19545050.060   104332798.462 8      3551.267          49.500    19545055.880    81147759.936 8      2762.097          51.750    19545056.000    81147761.934 8      2762.097          52.437
G16  21323532.280   112055919.950 7      3993.614          46.437    21323529.720   112055919.957 6      3993.614          37.187    21323532.440    87316300.688 6      3111.907          37.312
G18  22338962.460   117392036.401 7       209.905          46.125    22338960.500   117392036.408 6       209.905          36.625    22338965.380    91474321.900 5       163.562          35.687    22338966.840    91474331.902 8       163.562          50.125
R11  19501319.280   104209138.360 8      2348.361          50.312    19501319.060   104209138.363 8      2348.361          49.750    19501325.480    81051574.315 8      1826.503          52.687    19501325.220    81051575.320 8      1826.503          53.125
R21  20352388.560   108909736.641 7      -264.210          46.562    20352388.120   108909736.650 7      -264.210          45.625    20352398.300    84707615.279 8      -205.496          49.375    20352397.760    84707614.278 8      -205.496          49.062
G08  23700723.460   124548140.343 6      4640.120          40.312    23700721.800   124548140.340 4      4640.120          27.062    23700731.020    97050511.814 4      3615.678          26.875    23700732.460    97050535.810 7      3615.678          45.062
R12  21477145.260   114727053.773 7      5796.789          46.937    21477145.480   114727053.776 7      5796.789          45.625    21477154.960    89232195.694 7      4508.614          47.812    21477155.100    89232195.695 8      4508.614          48.312
> 2024 05 10 10 12 10.0000000  0 15
G04  24817970.060   130419318.144 6      1175.892          39.500    24817968.200   130419318.149 3      1175.892          22.437    24817977.560   101625482.084 3       916.279          22.187    24817978.500   101625469.056 6       916.279          41.375
G23  23989332.900   126064798.812 7      4284.848          42.812    23989331.940   126064798.817 5      4284.848          30.562    23989342.720    98232357.059 5      3338.843          30.375    23989339.900    98232350.059 7      3338.843          45.312
G27  21312079.240   111995732.257 7      3490.820          47.562    21312077.560   111995732.260 6      3490.820          39.687    21312082.960    87269418.521 6      2720.119          39.437    21312083.620    87269420.526 8      2720.119          50.062
G31  21427068.960   112600005.546 7       115.948          47.875    21427068.300   112600005.551 7       115.948          46.500    21427070.680    87740271.400 7        90.349          46.562    21427071.460    87740274.402 8        90.349          48.562
R23  23050810.840   123306290.226 7      6153.854          42.625    23050811.160   123306290.225 6      6153.854          41.812
G28  23101015.500   121396654.105 6     -1053.428          41.937    23101014.580   121396654.112 5     -1053.428          30.875    23101020.700    94594810.754 5      -820.853          30.500    23101021.080    94594819.740 7      -820.853          47.000
G10  24605657.900   129303602.086 6      4822.659          41.250    24605657.540   129303602.083 5      4822.659          32.312    24605672.300   100756102.214 5      3757.916          32.437    24605671.960   100756108.236 6      3757.916          37.125
G26  20582985.400   108164319.971 8      2323.202          48.062    20582984.080   108164319.978 8      2323.202          48.375    20582989.620    84283903.817 8      1810.287          48.187    20582990.500    84283907.818 8      1810.287          49.500
R22  19544383.920   104329247.653 8      3550.264          49.375    19544384.880   104329247.656 8      3550.264          49.312    19544390.680    81144998.194 8      2761.316          51.750    19544390.700    81145000.194 8      2761.316          51.750
G16  21322772.540   112051926.496 7      3993.212          46.875    21322769.720   112051926.503 6      3993.212          37.187    21322772.500    87313188.906 6      3111.594          37.312
G18  22338922.480   117391826.728 7       209.312          45.312    22338920.480   117391826.735 6       209.312          36.312    22338925.600    91474158.514 6       163.100          36.062    22338926.780    91474168.516 8       163.100          50.000
R11  19500879.900   104206790.398 8      2347.495          50.625    19500879.820   104206790.402 8      2347.495          50.000    19500886.060    81049748.121 8      1825.830          52.687    19500885.760    81049749.125 8      1825.830          53.437
R21  20352437.980   108910001.124 7      -264.852          46.062    20352437.460   108910001.133 7      -264.852          45.500    20352447.640    84707820.986 8      -205.996          49.937    20352447.180    84707819.985 8      -205.996          49.062
G08  23699840.540   124543500.354 6      4639.754          40.437    23699838.820   124543500.348 4      4639.754          27.062    23699848.060    97046896.236 4      3615.393          26.875    23699849.100    97046920.234 7      3615.393          45.000
R12  21476060.320   114721257.099 7      5796.423          46.500    21476060.460   114721257.094 7      5796.423          46.062    21476069.680    89227687.166 7      4508.329          47.875    21476069.780    89227687.165 8      4508.329          48.250
> 2024 05 10 10 12 11.0000000  0 15
G04  24817745.960   130418142.390 6      1175.625          39.250    24817744.600   130418142.398 3      1175.625          22.437    24817753.780   101624565.908 3       916.072          22.187    24817754.980   101624552.890 6       916.072          41.437
G23  23988517.300   126060514.124 7      4284.508          43.125    23988516.760   126060514.131 5      4284.508          30.562    23988527.520    98229018.345 5      3338.577          30.375    23988524.420    98229011.355 7      3338.577          45.125
G27  21311414.820   111992241.679 7      3490.398          47.375    21311413.320   111992241.684 6      3490.398          39.687    21311418.600    87266698.590 6      2719.791          39.625    21311419.260    87266700.593 8      2719.791          49.312
G31  21427046.960   112599889.765 7       115.493          47.375    21427046.220   112599889.769 7       115.493          47.000    21427048.600    87740181.180 7        89.995          46.937    21427049.460    87740184.184 8        89.995          48.250
R23  23049660.700   123300136.608 7      6153.341          42.500    23049661.020   123300136.615 7      6153.341          42.125
G28  23101215.700   121397707.692 6     -1053.625          41.312    23101214.880   121397707.702 5     -1053.625          30.875    23101221.200    94595631.727 5      -821.007          30.812    23101221.960    94595640.713 7      -821.007          47.062
G10  24604740.540   129298779.619 6      4822.414          39.562    24604739.740   129298779.621 5      4822.414          32.375    24604754.700   100752344.458 5      3757.726          32.437    24604754.040   100752350.471 6      3757.726          37.687
G26  20582543.340   108161996.975 8      2322.799          48.437    20582542.080   108161996.982 8      2322.799          48.187    20582547.680    84282093.686 7      1809.974          47.812    20582548.420    84282097.683 8      1809.974          49.562
R22  19543719.180   104325697.806 8      3549.387          49.875    19543719.940   104325697.809 8      3549.387          49.812    19543725.600    81142237.208 8      2760.635          51.562    19543725.660    81142239.206 8      2760.635          52.250
G16  21322012.640   112047933.446 7      3992.967          46.375    21322009.880   112047933.457 6      3992.967          37.312    21322012.760    87310077.441 6      3111.403          37.125
G18  22338882.640   117391617.764 7       208.697          45.062    22338880.840   117391617.769 6       208.697          36.062    22338885.640    91473995.683 6       162.621          36.000    22338886.900    91474005.685 8       162.621          50.062
R11  19500440.760   104204443.339 8      2346.718          50.750    19500440.500   104204443.346 8      2346.718          49.937    19500446.740    81047922.631 8      1825.225          52.375    19500446.600    81047923.635 8      1825.225          53.625
R21  20352487.560   108910266.284 7      -265.325          46.812    20352487.080   108910266.288 7      -265.325          45.812    20352497.200    84708027.219 8      -206.364          49.500    20352496.600    84708026.219 8      -206.364          49.375
G08  23698957.420   124538860.759 6      4639.472          40.687    23698956.140   124538860.748 4      4639.472          27.062    23698965.280    97043280.970 4      3615.173          27.187    23698966.400    97043304.976 7      3615.173          44.812
R12  21474975.400   114715460.815 7      5796.100          46.062    21474975.320   114715460.813 7      5796.100          46.125    21474984.660    89223178.951 7      4508.078          47.625    21474984.700    89223178.950 8      4508.078          48.625
> 2024 05 10 10 12 12.0000000  0 15
G04  24817522.860   130416967.149 6      1175.121          38.625    24817520.960   130416967.156 3      1175.121          22.437    24817529.980   101623650.135 3       915.678          22.187    24817531.000   101623637.122 6       915.678          41.437
G23  23987702.280   126056229.796 7      4284.342          43.687    23987701.640   126056229.804 5      4284.342          30.625    23987712.400    98225679.910 5      3338.448          30.625    23987709.620    98225672.918 7      3338.448          45.812
G27  21310750.600   111988751.518 7      3490.117          47.062    21310749.200   111988751.526 6      3490.117          39.250    21310754.540    87263978.986 6      2719.571          39.000    21310755.100    87263980.991 8      2719.571          49.687
G31  21427024.860   112599774.587 7       115.068          47.812    21427024.420   112599774.590 7       115.068          47.000    21427026.680    87740091.426 7        89.663          46.562    21427027.440    87740094.426 8        89.663          48.812
R23  23048510.240   123293983.471 7      6153.046          42.750    23048510.260   123293983.467 7      6153.046          42.125
G28  23101416.300   121398761.610 6     -1053.907          41.687    23101415.400   121398761.626 5     -1053.907          31.062    23101421.680    94596452.958 5      -821.226          30.812    23101422.420    94596461.950 7      -821.226          46.562
G10  24603822.600   129293957.173 6      4822.625          39.875    24603821.940   129293957.177 5      4822.625          32.375    24603837.020   100748586.717 5      3757.889          32.500    24603836.720   100748592.735 6      3757.889          37.687
G26  20582101.500   108159674.454 8      2322.422          48.062    20582100.140   108159674.461 8      2322.422          48.187    20582105.800    84280283.930 8      1809.680          48.187    20582106.540    84280287.931 8      1809.680          49.375
R22  19543054.160   104322148.834 8      3548.644          50.437    19543054.960   104322148.840 8      3548.644          49.687    19543060.740    81139476.903 8      2760.057          52.000    19543060.680    81139478.901 8      2760.057          51.937
G16  21321252.800   112043940.720 7      3992.715          45.750    21321249.960   112043940.728 6      3992.715          37.125    21321252.980    87306966.226 6      3111.206          37.125
G18  22338843.120   117391409.381 7       208.248          45.750    22338841.180   117391409.385 6       208.248          36.250    22338845.860    91473833.300 6       162.271          36.000    22338847.380    91473843.302 8       162.271          49.062
R11  19500001.380   104202097.085 8      2346.012          50.312    19500001.280   104202097.089 8      2346.012          49.000    19500007.760    81046097.764 8      1824.676          52.687    19500007.760    81046098.769 8      1824.676          53.062
R21  20352537.400   108910532.019 7      -265.836          47.000    20352537.060   108910532.021 7      -265.836          46.000    20352546.760    84708233.900 8      -206.761          49.437    20352546.280    84708232.900 8      -206.761          49.125
G08  23698074.820   124534221.527 6      4639.154          39.687    23698073.380   124534221.516 4      4639.154          27.062    23698082.540    97039665.988 4      3614.925          27.187    23698083.340    97039689.996 7      3614.925          45.250
R12  21473890.360   114709664.825 7      5796.027          45.687    21473890.220   114709664.820 7      5796.027          45.687    21473899.500    89218670.961 7      4508.021          47.875    21473899.940    89218670.960 8      4508.021          48.062
> 2024 05 10 10 12 13.0000000  0 15
G04  24817298.900   130415792.183 6      1174.850          38.375    24817297.300   130415792.194 3      1174.850          22.437    24817306.440   101622734.580 3       915.467          22.187    24817307.660   101622721.562 6       915.467          41.437
G23  23986887.080   126051945.723 7      4284.030          43.937    23986886.380   126051945.730 5      4284.030          30.625    23986897.180    98222341.677 5      3338.205          30.625    23986894.500    98222334.693 7      3338.205          45.750
G27  21310086.540   111985261.670 7      3489.757          46.187    21310085.060   111985261.672 6      3489.757          39.125    21310090.400    87261259.616 6      2719.291          39.062    21310091.020    87261261.621 8      2719.291          49.312
G31  21427003.020   112599659.836 7       114.645          47.875    21427002.560   112599659.841 7       114.645          46.687    21427004.800    87740002.009 7        89.334          46.625    21427005.620    87740005.011 8        89.334          48.000
R23  23047360.220   123287830.664 7      6152.795          42.750    23047359.880   123287830.657 6      6152.795          41.687
G28  23101616.940   121399815.726 6     -1054.134          41.250    23101616.080   121399815.739 5     -1054.134          31.062    23101622.180    94597274.334 5      -821.403          30.812    23101622.780    94597283.322 7      -821.403          47.312
G10  24602904.540   129289134.671 6      4822.689          39.812    24602904.280   129289134.679 5      4822.689          32.375    24602919.500   100744828.932 5      3757.939          32.500    24602919.500   100744834.936 6      3757.939          37.687
G26  20581659.420   108157352.285 8      2322.057          48.000    20581658.260   108157352.290 8      2322.057          48.437    20581663.900    84278474.444 8      1809.395          48.250    20581664.880    84278478.445 8      1809.395          48.875
R22  19542389.580   104318600.615 8      3547.896          49.437    19542390.380   104318600.618 8      3547.896          49.812    19542396.040    81136717.175 8      2759.475          51.625    19542395.980    81136719.171 8      2759.475          52.437
G16  21320493.300   112039948.173 7      3992.525          45.625    21320490.240   112039948.178 6      3992.525          37.437    21320493.200    87303855.148 6      3111.058          37.437
G18  22338803.460   117391201.460 7       207.704          45.625    22338801.640   117391201.465 6       207.704          36.250    22338806.280    91473671.282 5       161.847          35.875    22338807.760    91473681.282 8       161.847          49.625
R11  19499562.580   104199751.496 8      2345.304          50.937    19499562.360   104199751.497 8      2345.304          49.562    19499568.720    81044273.415 8      1824.126          52.750    19499568.560    81044274.416 8      1824.126          53.062
R21  20352586.940   108910798.183 7      -266.334          46.500    20352586.520   108910798.187 7      -266.334          46.000    20352596.500    84708440.912 8      -207.149          50.062    20352595.980    84708439.914 8      -207.149          49.437
G08  23697191.780   124529582.453 6      4639.040          39.312    23697190.580   124529582.442 4      4639.040          27.062    23697199.860    97036051.127 4      3614.836          27.187    23697200.680    97036075.135 7      3614.836          45.375
R12  21472805.120   114703869.035 7      5795.771          46.187    21472804.900   114703869.033 7      5795.771          46.187    21472814.600    89214163.131 7      4507.822          47.937    21472814.780    89214163.132 7      4507.822          47.937
> 2024 05 10 10 12 14.0000000  0 15
G04  24817075.320   130414617.475 6      1174.415          39.000    24817073.700   130414617.488 3      1174.415          22.437    24817082.920   101621819.223 3       915.129          22.500    24817084.400   101621806.206 6       915.129          41.437
G23  23986072.080   126047661.815 7      4283.695          44.062    23986071.420   126047661.823 5      4283.695          30.625    23986082.020    98219003.569 5      3337.944          30.625    23986079.420    98218996.582 7      3337.944          45.187
G27  21309422.460   111981772.032 7      3489.365          46.937    21309420.980   111981772.035 6      3489.365          40.062    21309426.500    87258540.424 6      2718.986          40.000    21309426.900    87258542.428 8      2718.986          49.500
G31  21426981.300   112599545.481 7       114.022          47.062    21426980.800   112599545.481 7       114.022          46.687    21426983.040    87739912.893 7        88.849          46.437    21426983.780    87739915.895 8        88.849          48.687
R23  23046210.000   123281678.131 7      6152.292          43.000    23046210.100   123281678.127 6      6152.292          41.687
G28  23101817.660   121400869.952 6     -1054.473          41.562    23101816.820   121400869.962 5     -1054.473          31.062    23101822.780    94598095.798 5      -821.667          30.875    23101823.560    94598104.773 7      -821.667          47.250
G10  24601986.820   129284312.052 6      4822.660          40.062    24601986.580   129284312.056 5      4822.660          32.500    24602002.020   100741071.053 5      3757.917          32.625    24602001.160   100741077.048 6      3757.917          37.750
G26  20581217.640   108155030.379 7      2321.652          47.125    20581216.380   108155030.376 8      2321.652          48.125    20581221.900    84276665.162 8      1809.080          48.375    20581223.040    84276669.161 8      1809.080          48.812
R22  19541725.140   104315053.074 8      3547.059          50.687    19541725.880   104315053.075 8      3547.059          49.750    19541731.340    81133957.974 8      2758.823          51.937    19541731.320    81133959.970 8      2758.823          51.687
G16  21319733.420   112035955.733 7      3992.243          46.187    21319730.540   112035955.738 6      3992.243          37.250    21319733.480    87300744.154 6      3110.839          37.187
G18  22338763.940   117390993.912 7       207.236          45.562    22338762.160   117390993.920 6       207.236          36.062    22338766.700    91473509.557 5       161.482          35.875    22338768.120    91473519.554 8       161.482          49.125
R11  19499123.820   104197406.487 8      2344.569          50.812    19499123.460   104197406.488 8      2344.569          48.562    19499129.860    81042449.524 8      1823.554          52.687    19499129.920    81042450.526 8      1823.554          52.687
R21  20352636.720   108911064.753 7      -266.919          46.250    20352636.480   108911064.760 7      -266.919          45.500    20352646.240    84708648.249 8      -207.604          49.687    20352646.020    84708647.248 8      -207.604          48.812
G08  23696309.000   124524943.515 6      4638.805          40.312    23696307.820   124524943.507 4      4638.805          27.437    23696317.060    97032436.370 4      3614.653          27.187    23696317.820    97032460.370 7      3614.653          45.375
R12  21471720.160   114698073.376 7      5795.492          44.937    21471720.360   114698073.369 7      5795.492          46.250    21471729.640    89209655.398 7      4507.605          47.750    21471729.900    89209655.401 8      4507.605          48.562
> 2024 05 10 10 12 15.0000000  0 15
G04  24816851.640   130413443.133 6      1173.875          39.125    24816850.100   130413443.145 3      1173.875          22.437    24816859.480   101620904.146 3       914.708          22.500    24816860.480   101620891.125 6       914.708          41.750
G23  23985257.000   126043378.168 7      4283.324          43.875    23985256.380   126043378.175 5      4283.324          31.250    23985266.960    98215665.668 5      3337.655          30.937    23985264.400    98215658.679 7      3337.655          45.562
G27  21308758.420   111978282.726 7      3488.947          46.812    21308757.040   111978282.730 6      3488.947          40.187    21308762.440    87255821.488 6      2718.660          39.687    21308762.940    87255823.490 8      2718.660          49.687
G31  21426959.680   112599431.583 7       113.482          47.062    21426959.200   112599431.583 7       113.482          46.125    21426961.360    87739824.138 7        88.428          46.187    21426961.960    87739827.139 8        88.428          48.375
R23  23045060.000   123275525.960 7      6151.844          42.937    23045060.180   123275525.969 7      6151.844          42.125
G28  23102018.460   121401924.374 6     -1054.734          41.375    23102017.420   121401924.390 5     -1054.734          31.125    23102023.640    94598917.414 5      -821.870          30.875    23102024.480    94598926.390 7      -821.870          47.250
G10  24601069.540   129279489.377 6      4822.528          40.437    24601068.740   129279489.382 5      4822.528          32.500    24601084.440   100737313.131 5      3757.814          32.625    24601083.920   100737319.144 6      3757.814          37.750
G26  20580775.800   108152708.836 7      2321.224          47.812    20580774.500   108152708.838 8      2321.224          48.062    20580780.180    84274856.165 7      1808.746          47.500    20580781.100    84274860.166 8      1808.746          49.375
R22  19541060.820   104311506.306 8      3546.176          49.750    19541061.500   104311506.307 8      3546.176          49.437    19541066.840    81131199.376 8      2758.137          51.187    19541067.000    81131201.374 8      2758.137          50.250
G16  21318973.780   112031963.501 7      3991.970          46.125    21318970.860   112031963.509 6      3991.970          37.062    21318973.880    87297633.326 6      3110.626          37.125
G18  22338724.660   117390786.869 7       206.574          46.187    22338722.800   117390786.871 6       206.574          36.312    22338727.180    91473348.216 5       160.967          35.750    22338728.580    91473358.218 8       160.967          49.562
R11  19498685.040   104195062.175 8      2343.780          50.687    19498684.720   104195062.176 8      2343.780          49.562    19498691.220    81040626.172 8      1822.940          51.000    19498690.960    81040627.172 8      1822.940          51.750
R21  20352686.720   108911331.847 7      -267.589          46.937    20352686.060   108911331.854 7      -267.589          46.250    20352696.120    84708855.989 8      -208.125          49.812    20352695.560    84708854.986 8      -208.125          49.000
G08  23695426.720   124520304.798 6      4638.555          40.500    23695425.140   124520304.787 4      4638.555          27.437    23695434.280    97028821.781 4      3614.458          27.187    23695434.960    97028845.779 7      3614.458          44.875
R12  21470635.040   114692277.925 7      5795.195          46.875    21470635.420   114692277.919 7      5795.195          45.937    21470644.700    89205147.826 7      4507.374          47.312    21470645.000    89205147.830 8      4507.374          48.125
> 2024 05 10 10 12 16.0000000  0 15
G04  24816628.480   130412269.105 6      1174.003          39.125    24816626.560   130412269.118 3      1174.003          22.437    24816636.040   101619989.316 3       914.808          22.500    24816637.200   101619976.303 6       914.808          41.812
G23  23984441.900   126039094.841 7      4283.329          43.437    23984441.220   126039094.846 5      4283.329          31.250    23984451.960    98212328.015 5      3337.659          30.937    23984449.640    98212321.034 7      3337.659          45.875
G27  21308094.540   111974793.789 7      3488.936          47.187    21308093.180   111974793.794 6      3488.936          40.125    21308098.400    87253102.834 6      2718.652          39.625    21308098.820    87253104.840 8      2718.652          49.937
G31  21426937.920   112599318.206 7       113.279          47.125    21426937.560   112599318.208 7       113.279          46.312    21426939.760    87739735.792 7        88.269          46.062    21426940.380    87739738.795 8        88.269          48.750
R23  23043910.100   123269374.222 7      6151.766          42.937    23043909.960   123269374.226 7      6151.766          42.125
G28  23102219.240   121402979.060 7     -1054.773          42.375    23102218.240   121402979.070 5     -1054.773          31.125    23102224.280    94599739.237 5      -821.901          30.875    23102225.260    94599748.221 7      -821.901          47.750
G10  24600151.780   129274666.684 6      4822.964          40.187    24600150.920   129274666.699 5      4822.964          32.812    24600166.680   100733555.204 5      3758.154          32.625    24600166.800   100733561.220 6      3758.154          37.750
G26  20580334.180   108150387.724 7      2321.087          47.562    20580332.820   108150387.729 8      2321.087          48.187    20580338.620    84273047.509 8      1808.639          48.375    20580339.340    84273051.511 8      1808.639          49.125
R22  19540396.600   104307960.337 8      3545.724          50.312    19540397.240   104307960.341 8      3545.724          50.125    19540402.660    81128441.404 8      2757.785          52.187    19540402.600    81128443.402 8      2757.785          51.625
G16  21318214.060   112027971.519 7      3992.058          46.250    21318211.220   112027971.529 6      3992.058          37.437    21318214.200    87294522.694 6      3110.695          37.312
G18  22338685.380   117390580.336 7       206.473          45.187    22338683.680   117390580.338 6       206.473          36.187    22338687.860    91473187.281 5       160.888          35.937    22338689.320    91473197.285 8       160.888          49.375
R11  19498246.300   104192718.595 8      2343.435          50.875    19498246.220   104192718.596 8      2343.435          49.562    19498252.640    81038803.381 8      1822.672          52.375    19498252.680    81038804.382 8      1822.672          52.812
R21  20352736.500   108911599.472 7      -267.758          46.000    20352735.640   108911599.473 7      -267.758          45.750    20352746.340    84709064.135 8      -208.256          49.750    20352745.480    84709063.132 8      -208.256          48.937
G08  23694543.840   124515666.360 6      4638.441          40.125    23694542.660   124515666.346 4      4638.441          27.437    23694551.560    97025207.411 4      3614.370          27.187    23694552.560    97025231.424 7      3614.370          45.000
R12  21469550.100   114686482.697 7      5795.264          46.250    21469550.520   114686482.695 7      5795.264          45.687    21469559.840    89200640.436 7      4507.428          47.625    21469560.100    89200640.439 8      4507.428          48.375
> 2024 05 10 10 12 17.0000000  0 15
G04  24816404.880   130411095.432 6      1173.565          38.312    24816403.220   130411095.448 3      1173.565          22.187    24816412.840   101619074.763 3       914.466          22.500    24816413.420   101619061.752 6       914.466          41.812
G23  23983626.760   126034811.706 7      4283.114          44.062    23983626.220   126034811.714 5      4283.114          31.250    23983636.900    98208990.511 5      3337.492          30.937    23983634.460    98208983.532 7      3337.492          45.937
G27  21307430.660   111971305.134 7      3488.596          47.125    21307429.220   111971305.136 6      3488.596          39.312    21307434.540    87250384.399 6      2718.386          39.125    21307435.020    87250386.408 8      2718.386          49.687
G31  21426916.420   112599205.249 7       112.826          47.375    21426916.040   112599205.251 7       112.826          46.250    21426918.240    87739647.775 7        87.916          46.187    21426918.960    87739650.775 8        87.916          48.062
R23  23042759.840   123263222.818 7      6151.309          43.375    23042760.280   123263222.815 7      6151.309          42.000
G28  23102420.080   121404033.880 6     -1054.794          41.562    23102418.840   121404033.890 5     -1054.794          31.125    23102425.020    94600561.166 5      -821.917          30.750    23102426.100    94600570.151 7      -821.917          47.187
G10  24599233.900   129269843.943 6      4822.790          40.625    24599233.040   129269843.948 5      4822.790          32.812    24599249.080   100729797.225 5      3758.018          32.625    24599249.340   100729803.228 6      3758.018          38.687
G26  20579892.700   108148066.919 7      2320.787          47.625    20579891.180   108148066.918 8      2320.787          48.312    20579896.820    84271239.085 8      1808.405          48.250    20579897.740    84271243.090 8      1808.405          48.937
R22  19539732.520   104304415.084 8      3544.927          50.312    19539733.040   104304415.090 8      3544.927          49.750    19539738.340    81125683.986 8      2757.165          51.687    19539738.380    81125685.984 8      2757.165          52.187
G16  21317454.300   112023979.713 7      3991.812          46.125    21317451.520   112023979.723 6      3991.812          37.625    21317454.500    87291412.196 6      3110.503          37.750
G18  22338646.160   117390374.262 7       205.868          44.750    22338644.460   117390374.267 6       205.868          36.250    22338648.640    91473026.704 6       160.416          36.062    22338650.380    91473036.706 8       160.416          49.250
R11  19497808.060   104190375.686 8      2342.628          50.312    19497807.620   104190375.687 8      2342.628          49.437    19497813.980    81036981.123 8      1822.044          52.250    19497814.000    81036982.123 8      1822.044          52.625
R21  20352786.620   108911867.522 7      -268.267          46.687    20352785.400   108911867.523 7      -268.267          46.187    20352796.280    84709272.618 8      -208.652          49.625    20352795.920    84709271.617 8      -208.652          48.625
G08  23693661.580   124511028.076 6      4638.306          40.375    23693660.140   124511028.060 4      4638.306          27.437    23693668.820    97021593.167 4      3614.265          27.437    23693669.840    97021617.175 7      3614.265          45.312
R12  21468465.520   114680687.620 7      5795.089          45.375    21468465.380   114680687.621 7      5795.089          45.687    21468474.920    89196133.156 8      4507.292          48.062    21468475.100    89196133.161 8      4507.292          48.625
> 2024 05 10 10 12 18.0000000  0 15
G04  24816181.900   130409922.086 6      1172.923          38.250    24816179.800   130409922.098 3      1172.923          22.187    24816189.500   101618160.465 3       913.966          22.500    24816190.520   101618147.462 6       913.966          41.500
G23  23982811.580   126030528.878 7      4282.448          43.937    23982811.160   126030528.889 5      4282.448          31.000    23982821.900    98205653.249 5      3336.973          30.875    23982819.800    98205646.266 7      3336.973          45.937
G27  21306766.820   111967816.810 7      3487.946          47.500    21306765.380   111967816.815 6      3487.946          39.125    21306770.860    87247666.227 6      2717.880          39.187    21306771.240    87247668.233 8      2717.880          49.187
G31  21426895.080   112599092.794 7       111.916          47.625    21426894.660   112599092.793 7       111.916          45.875    21426896.920    87739560.140 7        87.207          45.625    21426897.680    87739563.141 8        87.207          48.375
R23  23041610.120   123257071.765 7      6150.603          42.812    23041610.300   123257071.769 7      6150.603          42.000
G28  23102620.980   121405088.967 7     -1055.503          42.375    23102619.460   121405088.975 5     -1055.503          30.812    23102625.960    94601383.300 5      -822.470          30.750    23102626.660    94601392.278 7      -822.470          47.125
G10  24598316.100   129265021.147 6      4822.616          39.937    24598315.260   129265021.150 5      4822.616          33.125    24598331.300   100726039.206 5      3757.882          32.625    24598330.920   100726045.216 6      3757.882          38.687
G26  20579450.720   108145746.516 7      2319.949          47.625    20579449.740   108145746.521 8      2319.949          48.000    20579455.360    84269430.983 8      1807.752          48.375    20579456.040    84269434.982 8      1807.752          48.750
R22  19539068.480   104300870.628 8      3543.796          50.125    19539069.160   104300870.629 8      3543.796          49.562    19539074.340    81122927.183 8      2756.286          51.875    19539074.440    81122929.181 8      2756.286          51.375
G16  21316694.860   112019988.135 7      3991.197          46.500    21316691.720   112019988.142 6      3991.197          37.312    21316694.960    87288301.874 6      3110.024          37.062
G18  22338607.240   117390168.680 7       205.009          44.937    22338605.540   117390168.679 5       205.009          35.937    22338609.600    91472866.510 5       159.747          35.875    22338611.280    91472876.510 8       159.747          49.500
R11  19497369.760   104188033.488 8      2341.630          49.687    19497369.480   104188033.489 8      2341.630          49.750    19497375.660    81035159.409 8      1821.268          52.312    19497375.600    81035160.405 8      1821.268          52.687
R21  20352836.700   108912136.037 7      -269.072          45.375    20352835.900   108912136.049 7      -269.072          45.562    20352846.360    84709481.465 8      -209.278          49.500    20352845.840    84709480.467 8      -209.278          48.937
G08  23692778.760   124506390.050 6      4637.639          40.062    23692777.540   124506390.037 4      4637.639          27.437    23692786.380    97017979.120 4      3613.744          27.437    23692787.700    97018003.129 7      3613.744          45.125
R12  21467380.540   114674892.792 7      5794.483          46.062    21467380.920   114674892.790 7      5794.483          46.187    21467390.020    89191626.071 7      4506.820          47.687    21467390.540    89191626.074 8      4506.820          48.250
> 2024 05 10 10 12 19.0000000  0 15
G04  24815958.680   130408749.093 6      1172.757          37.750    24815956.640   130408749.109 3      1172.757          22.187    24815966.420   101617246.447 3       913.837          22.500    24815966.740   101617233.436 6       913.837          41.437
G23  23981996.800   126026246.293 7      4282.511          43.812    23981996.260   126026246.303 5      4282.511          31.000    23982006.820    98202316.173 5      3337.022          30.875    23982004.860    98202309.182 7      3337.022          46.062
G27  21306103.060   111964328.817 7      3487.814          47.250    21306101.700   111964328.819 6      3487.814          39.687    21306107.040    87244948.310 6      2717.777          39.937    21306107.600    87244950.315 8      2717.777          49.625
G31  21426873.800   112598980.762 7       111.863          47.500    21426873.300   112598980.767 7       111.863          46.625    21426875.520    87739472.844 7        87.166          46.625    21426876.180    87739475.846 8        87.166          48.375
R23  23040460.340   123250921.108 7      6150.303          42.812    23040460.420   123250921.115 7      6150.303          42.187
G28  23102821.740   121406144.226 7     -1055.376          42.562    23102820.340   121406144.233 5     -1055.376          30.812    23102826.580    94602205.567 5      -822.371          30.750    23102827.140    94602214.539 7      -822.371          47.125
G10  24597397.960   129260198.325 6      4822.846          39.250    24597397.620   129260198.325 5      4822.846          33.125    24597413.740   100722281.165 5      3758.062          33.312    24597413.360   100722287.173 6      3758.062          38.687
G26  20579009.280   108143426.454 8      2319.884          48.562    20579008.140   108143426.462 8      2319.884          48.437    20579013.720    84267623.143 8      1807.702          48.187    20579014.520    84267627.144 8      1807.702          49.000
R22  19538404.280   104297326.922 8      3543.338          50.062    19538405.240   104297326.920 8      3543.338          49.812    19538410.560    81120170.966 8      2755.929          51.562    19538410.300    81120172.968 8      2755.929          51.437
G16  21315935.420   112015996.730 7      3991.270          46.562    21315932.220   112015996.738 6      3991.270          37.000    21315935.360    87285191.692 6      3110.080          37.000
G18  22338568.400   117389963.560 7       204.887          45.875    22338566.540   117389963.562 6       204.887          36.562    22338570.600    91472706.674 6       159.652          36.312    22338572.240    91472716.672 8       159.652          49.375
R11  19496931.520   104185691.979 8      2341.170          49.937    19496931.220   104185691.980 8      2341.170          49.375    19496937.580    81033338.237 8      1820.910          52.375    19496937.580    81033339.237 8      1820.910          53.000
R21  20352886.740   108912405.026 7      -269.229          46.250    20352886.220   108912405.030 7      -269.229          45.687    20352896.840    84709690.669 8      -209.400          49.375    20352896.000    84709689.666 8      -209.400          49.000
G08  23691896.520   124501752.190 6      4637.791          40.125    23691894.960   124501752.173 4      4637.791          27.875    23691903.880    97014365.205 4      3613.863          27.437    23691905.100    97014389.213 7      3613.863          45.125
R12  21466296.040   114669098.161 7      5794.451          45.937    21466295.920   114669098.162 7      5794.451          46.000    21466305.420    89187119.137 7      4506.795          47.500    21466305.720    89187119.139 8      4506.795          48.312
> 2024 05 10 10 12 20.0000000  0 15
G04  24815736.080   130407576.269 6      1172.591          38.937    24815733.420   130407576.282 3      1172.591          22.187    24815743.160   101616332.554 3       913.707          22.500    24815743.520   101616319.531 6       913.707          41.437
G23  23981181.780   126021963.817 7      4282.204          43.937    23981181.400   126021963.824 5      4282.204          31.000    23981191.760    98198979.182 5      3336.782          30.875    23981189.740    98198972.204 7      3336.782          45.562
G27  21305439.520   111960840.971 7      3487.629          47.000    21305438.040   111960840.971 6      3487.629          39.875    21305443.320    87242230.506 6      2717.633          39.750    21305444.080    87242232.511 8      2717.633          49.625
G31  21426852.780   112598869.066 7       111.423          47.750    21426852.020   112598869.071 7       111.423          46.062    21426854.260    87739385.806 7        86.823          46.125    21426855.300    87739388.808 8        86.823          48.062
R23  23039310.580   123244770.622 6      6150.216          41.875    23039310.200   123244770.620 7      6150.216          42.187
G28  23103022.240   121407199.521 6     -1055.443          41.875    23103021.180   121407199.531 5     -1055.443          30.812    23103027.480    94603027.863 5      -822.423          30.812    23103027.860    94603036.853 7      -822.423          47.187
G10  24596480.320   129255375.264 6      4823.012          39.437    24596479.880   129255375.272 5      4823.012          33.562    24596495.860   100718522.944 5      3758.191          33.312    24596495.320   100718528.958 6      3758.191          39.375
G26  20578568.040   108141106.601 8      2319.686          48.000    20578566.720   108141106.603 8      2319.686          48.312    20578572.400    84265815.458 8      1807.548          48.250    20578572.920    84265819.459 8      1807.548          49.125
R22  19537740.980   104293783.814 8      3542.751          50.250    19537741.460   104293783.815 8      3542.751          49.937    19537746.720    81117415.221 8      2755.473          51.625    19537746.480    81117417.219 8      2755.473          51.750
G16  21315175.640   112012005.379 7      3991.201          46.875    21315172.720   112012005.386 6      3991.201          37.125    21315175.780    87282081.548 6      3110.027          36.562
G18  22338529.560   117389758.756 7       204.620          45.437    22338527.700   117389758.752 6       204.620          36.937    22338531.740    91472547.082 6       159.444          36.312    22338533.200    91472557.084 8       159.444          49.187
R11  19496493.540   104183350.983 8      2340.619          49.437    19496493.060   104183350.986 8      2340.619          49.500    19496499.460    81031517.463 8      1820.482          52.625    19496499.160    81031518.461 8      1820.482          52.500
R21  20352937.100   108912674.338 7      -269.608          45.812    20352936.720   108912674.345 7      -269.608          45.125    20352947.260    84709900.134 8      -209.695          49.812    20352946.700    84709899.135 8      -209.695          48.812
G08  23691013.380   124497114.424 6      4637.631          39.500    23691012.500   124497114.413 4      4637.631          27.875    23691021.500    97010751.364 4      3613.738          27.437    23691022.540    97010775.372 7      3613.738          45.250
R12  21465211.180   114663303.547 7      5794.416          46.375    21465211.080   114663303.548 7      5794.416          45.562    21465220.600    89182612.216 7      4506.768          47.500    21465220.740    89182612.217 7      4506.768          47.750
> 2024 05 10 10 12 21.0000000  0 15
G04  24815512.300   130406403.687 6      1172.352          38.750    24815510.380   130406403.705 3      1172.352          22.187    24815519.980   101615418.850 3       913.521          22.500    24815520.460   101615405.830 6       913.521          41.250
G23  23980366.980   126017681.504 7      4282.066          43.437    23980366.400   126017681.514 5      4282.066          30.750    23980376.780    98195642.319 5      3336.675          30.875    23980374.560    98195635.335 7      3336.675          45.562
G27  21304775.960   111957353.354 7      3487.433          46.937    21304774.360   111957353.356 6      3487.433          39.500    21304779.740    87239512.884 6      2717.480          39.500    21304780.180    87239514.885 8      2717.480          49.625
G31  21426831.400   112598757.762 7       110.966          46.875    21426830.860   112598757.764 7       110.966          46.437    21426833.120    87739299.072 7        86.467          46.375    21426834.020    87739302.067 8        86.467          48.000
R23  23038160.800   123238620.440 7      6149.855          42.312    23038160.400   123238620.439 6      6149.855          41.937
G28  23103223.060   121408254.947 6     -1055.610          41.062    23103221.900   121408254.963 5     -1055.610          30.750    23103228.460    94603850.263 5      -822.553          30.812    23103228.800    94603859.251 7      -822.553          46.875
G10  24595562.460   129250552.069 6      4823.161          39.250    24595562.080   129250552.069 5      4823.161          33.562    24595578.060   100714764.612 5      3758.307          33.312    24595577.560   100714770.628 6      3758.307          39.375
G26  20578126.360   108138787.059 7      2319.185          47.625    20578125.360   108138787.064 8      2319.185          48.250    20578130.940    84264008.022 8      1807.157          48.187    20578131.400    84264012.023 8      1807.157          49.250
R22  19537077.220   104290241.422 8      3541.904          49.937    19537077.840   104290241.423 8      3541.904          49.812    19537083.160    81114660.025 8      2754.814          51.750    19537083.180    81114662.025 8      2754.814          51.937
G16  21314415.980   112008014.150 7      3991.025          46.562    21314413.240   112008014.160 6      3991.025          37.250    21314416.220    87278971.504 6      3109.889          37.625
G18  22338490.560   117389554.385 7       204.031          45.375    22338488.600   117389554.384 6       204.031          36.312    22338492.760    91472387.830 5       158.985          35.812    22338494.220    91472397.828 8       158.985          49.500
R11  19496055.460   104181010.614 8      2339.879          49.937    19496055.180   104181010.618 8      2339.879          49.875    19496061.580    81029697.172 8      1819.906          52.562    19496061.360    81029698.172 8      1819.906          53.312
R21  20352987.300   108912944.068 7      -270.131          46.125    20352986.940   108912944.075 7      -270.131          45.687    20352997.700    84710109.924 8      -210.102          49.562    20352996.960    84710108.921 8      -210.102          48.437
G08  23690131.100   124492476.789 6      4637.431          40.375    23690129.980   124492476.776 4      4637.431          27.875    23690138.960    97007137.623 4      3613.582          27.437    23690139.940    97007161.618 7      3613.582          45.000
R12  21464126.300   114657509.036 7      5794.330          46.187    21464126.400   114657509.037 7      5794.330          46.375    21464135.900    89178105.375 8      4506.701          48.000    21464136.020    89178105.375 8      4506.701          48.250
> 2024 05 10 10 12 22.0000000  0 15
G04  24815289.900   130405231.436 6      1172.265          39.250    24815287.360   130405231.446 3      1172.265          22.187    24815296.800   101614505.405 3       913.453          21.937    24815297.240   101614492.402 6       913.453          41.250
G23  23979552.380   126013399.462 7      4282.009          44.562    23979551.440   126013399.475 5      4282.009          30.750    23979561.800    98192305.667 5      3336.630          31.062    23979559.640    98192298.671 7      3336.630          45.500
G27  21304112.360   111953866.065 7      3487.204          47.000    21304110.780   111953866.067 6      3487.204          39.937    21304116.100    87236795.518 6      2717.302          39.812    21304116.820    87236797.521 8      2717.302          49.937
G31  21426810.240   112598646.917 7       110.643          46.375    21426809.680   112598646.922 7       110.643          45.750    21426812.020    87739212.701 7        86.215          45.812    21426813.000    87739215.701 8        86.215          48.250
R23  23037011.080   123232470.620 7      6149.772          42.312    23037010.880   123232470.622 6      6149.772          41.937
G28  23103424.080   121409310.576 7     -1055.656          42.062    23103422.880   121409310.589 5     -1055.656          30.750    23103429.400    94604672.827 5      -822.589          30.812    23103430.220    94604681.823 7      -822.589          47.125
G10  24594644.760   129245728.859 6      4823.270          39.500    24594644.360   129245728.861 5      4823.270          33.562    24594660.220   100711006.277 5      3758.392          33.312    24594659.980   100711012.294 6      3758.392          40.000
G26  20577685.100   108136467.852 7      2319.056          47.625    20577684.100   108136467.857 7      2319.056          47.875    20577689.520    84262200.853 7      1807.057          47.875    20577690.260    84262204.850 8      1807.057          49.000
R22  19536413.780   104286699.776 8      3541.338          49.375    19536414.360   104286699.772 8      3541.338          49.687    19536419.660    81111905.408 8      2754.374          52.000    19536419.700    81111907.408 8      2754.374          51.562
G16  21313656.560   112004023.129 7      3990.944          46.500    21313653.700   112004023.137 6      3990.944          37.562    21313656.720    87275861.622 6      3109.826          37.375
G18  22338451.640   117389350.481 7       203.677          44.250    22338449.800   117389350.478 5       203.677          35.812    22338453.960    91472228.941 5       158.709          35.125    22338455.420    91472238.936 8       158.709          48.687
R11  19495617.780   104178670.903 8      2339.390          49.937    19495617.300   104178670.905 8      2339.390          49.250    19495623.640    81027877.395 8      1819.526          52.687    19495623.600    81027878.393 8      1819.526          53.500
R21  20353037.900   108913214.269 7      -270.364          45.937    20353037.520   108913214.271 7      -270.364          45.937    20353048.180    84710320.070 8      -210.283          49.250    20353047.540    84710319.069 8      -210.283          48.750
G08  23689248.720   124487839.341 6      4637.408          40.125    23689247.460   124487839.328 4      4637.408          27.875    23689256.660    97003524.031 4      3613.564          27.750    23689257.480    97003548.043 7      3613.564          45.125
R12  21463041.780   114651714.737 7      5794.275          45.937    21463041.580   114651714.738 7      5794.275          45.875    21463050.880    89173598.702 7      4506.658          47.187    21463051.320    89173598.702 8      4506.658          48.000
> 2024 05 10 10 12 23.0000000  0 15
G04  24815066.920   130404059.599 6      1171.764          39.250    24815064.200   130404059.610 3      1171.764          22.187    24815073.880   101613592.286 3       913.063          21.937    24815073.860   101613579.269 6       913.063          40.937
G23  23978737.280   126009117.738 7      4281.680          44.125    23978736.760   126009117.746 5      4281.680          30.750    23978747.040    98188969.260 5      3336.374          31.062    23978744.660    98188962.262 7      3336.374          45.500
G27  21303448.940   111950379.139 7      3486.893          46.875    21303447.280   111950379.141 6      3486.893          39.937    21303452.480    87234078.431 6      2717.059          39.562    21303453.260    87234080.433 8      2717.059          50.062
G31  21426789.300   112598536.575 7       110.170          46.187    21426788.660   112598536.579 7       110.170          46.187    21426791.040    87739126.718 7        85.847          46.187    21426792.000    87739129.718 8        85.847          48.000
R23  23035861.440   123226321.231 7      6149.215          43.000    23035861.520   123226321.240 6      6149.215          41.875
G28  23103625.280   121410366.484 6     -1055.991          41.875    23103623.920   121410366.497 5     -1055.991          30.750    23103630.320    94605495.604 5      -822.850          30.937    23103630.700    94605504.580 7      -822.850          47.375
G10  24593727.120   129240905.621 6      4823.186          39.875    24593726.580   129240905.626 5      4823.186          33.562    24593742.420   100707247.918 5      3758.327          33.562    24593742.680   100707253.946 6      3758.327          40.000
G26  20577243.980   108134149.070 8      2318.603          48.562    20577242.820   108134149.072 8      2318.603          48.000    20577248.400    84260394.004 7      1806.704          47.562    20577248.980    84260398.003 8      1806.704          48.937
R22  19535750.720   104283158.924 8      3540.558          50.125    19535751.100   104283158.925 8      3540.558          49.500    19535756.200    81109151.418 8      2753.768          51.687    19535756.160    81109153.413 8      2753.768          52.062
G16  21312897.240   112000032.348 7      3990.752          45.750    21312894.260   112000032.355 6      3990.752          37.375    21312897.540    87272751.918 6      3109.677          37.312
G18  22338412.660   117389147.085 7       203.221          45.375    22338411.140   117389147.087 6       203.221          36.000    22338415.080    91472070.450 5       158.354          35.875    22338416.680    91472080.442 8       158.354          49.000
R11  19495179.940   104176331.925 8      2338.651          50.937    19495179.720   104176331.939 8      2338.651          49.375    19495185.960    81026058.193 8      1818.951          52.375    19495185.720    81026059.193 8      1818.951          53.000
R21  20353088.280   108913484.962 7      -270.822          45.250    20353088.080   108913484.967 7      -270.822          45.687    20353098.840    84710530.611 8      -210.639          49.437    20353098.060    84710529.612 8      -210.639          49.000
G08  23688366.080   124483202.164 6      4637.224          39.437    23688365.080   124483202.156 4      4637.224          27.875    23688374.280    96999910.650 4      3613.422          27.750    23688374.720    96999934.662 7      3613.422          44.812
R12  21461956.800   114645920.718 7      5793.964          46.812    21461957.200   114645920.721 7      5793.964          46.187    21461966.440    89169092.251 7      4506.417          47.250    21461966.720    89169092.253 8      4506.417          48.000
> 2024 05 10 10 12 24.0000000  0 15
G04  24814843.460   130402888.252 6      1171.110          39.000    24814841.400   130402888.262 3      1171.110          22.187    24814850.960   101612679.544 3       912.553          21.937    24814851.620   101612666.528 6       912.553          40.937
G23  23977922.460   126004836.445 7      4281.023          44.500    23977922.100   126004836.453 5      4281.023          31.125    23977932.400    98185633.192 5      3335.862          31.062    23977929.960    98185626.194 7      3335.862          45.437
G27  21302785.460   111946892.738 7      3486.052          46.875    21302783.880   111946892.740 6      3486.052          40.187    21302789.080    87231361.759 6      2716.404          40.062    21302789.740    87231363.760 8      2716.404          49.687
G31  21426768.480   112598426.894 7       109.363          46.625    21426767.700   112598426.894 7       109.363          46.812    21426770.120    87739041.247 7        85.218          46.437    21426771.060    87739044.244 8        85.218          48.437
R23  23034711.820   123220172.357 7      6148.665          43.000    23034711.720   123220172.372 6      6148.665          41.875
G28  23103826.280   121411422.746 6     -1056.469          41.562    23103824.960   121411422.761 5     -1056.469          31.562    23103831.200    94606318.655 5      -823.223          30.937    23103831.920    94606327.645 7      -823.223          47.812
G10  24592809.040   129236082.516 6      4823.021          40.375    24592808.660   129236082.521 5      4823.021          33.750    24592824.380   100703489.654 5      3758.198          33.562    24592824.780   100703495.680 6      3758.198          40.312
G26  20576802.960   108131830.819 7      2318.017          47.437    20576801.520   108131830.824 8      2318.017          48.437    20576807.180    84258587.577 8      1806.247          48.375    20576807.800    84258591.576 8      1806.247          49.312
R22  19535087.560   104279619.040 8      3539.425          50.250    19535087.840   104279619.041 8      3539.425          49.750    19535093.300    81106398.171 8      2752.886          51.125    19535093.380    81106400.169 8      2752.886          51.812
G16  21312137.740   111996041.945 7      3990.276          46.437    21312135.000   111996041.952 6      3990.276          37.062    21312138.280    87269642.511 6      3109.306          37.250
G18  22338374.340   117388944.367 7       202.368          45.437    22338372.280   117388944.369 6       202.368          36.000    22338376.560    91471912.482 5       157.690          35.875    22338378.220    91471922.477 8       157.690          49.312
R11  19494742.480   104173993.852 8      2337.624          50.187    19494742.040   104173993.858 8      2337.624          49.750    19494748.460    81024239.688 8      1818.152          52.312    19494748.340    81024240.688 8      1818.152          52.937
R21  20353139.280   108913756.303 7      -271.757          46.875    20353138.940   108913756.310 7      -271.757          45.687    20353149.560    84710741.652 8      -211.367          49.500    20353148.720    84710740.653 8      -211.367          49.187
G08  23687483.640   124478565.399 6      4636.548          39.937    23687482.800   124478565.391 4      4636.548          27.937    23687491.940    96996297.589 4      3612.894          27.750    23687492.460    96996321.605 7      3612.894          45.312
R12  21460872.340   114640127.067 7      5793.558          46.437    21460872.620   114640127.063 7      5793.558          46.125    21460881.840    89164586.072 7      4506.101          47.562    21460882.000    89164586.077 8      4506.101          48.250
> 2024 05 10 10 12 25.0000000  0 15
G04  24814620.780   130401717.367 6      1170.809          39.437    24814618.860   130401717.377 3      1170.809          22.125    24814627.960   101611767.162 3       912.319          21.937    24814628.960   101611754.128 6       912.319          40.562
G23  23977107.840   126000555.501 7      4280.947          44.062    23977107.480   126000555.512 5      4280.947          31.125    23977117.800    98182297.398 5      3335.803          31.062    23977115.220    98182290.414 7      3335.803          45.312
G27  21302121.980   111943406.729 7      3485.900          47.375    21302120.460   111943406.734 6      3485.900          40.000    21302125.880    87228645.384 6      2716.286          39.437    21302126.460    87228647.387 8      2716.286          50.250
G31  21426747.680   112598317.773 7       109.039          46.187    21426746.860   112598317.778 7       109.039          46.500    21426749.400    87738956.209 7        84.965          46.375    21426750.120    87738959.211 8        84.965          48.187
R23  23033562.380   123214023.987 7      6148.361          42.125    23033562.560   123214023.994 6      6148.361          41.562
G28  23104027.460   121412479.323 6     -1056.574          41.812    23104026.080   121412479.336 5     -1056.574          31.562    23104032.320    94607141.952 5      -823.304          30.937    23104032.900    94607150.942 7      -823.304          47.312
G10  24591891.400   129231259.468 6      4823.353          40.125    24591890.900   129231259.467 5      4823.353          33.750    24591906.560   100699731.437 5      3758.457          33.437    24591907.200   100699737.444 6      3758.457          40.312
G26  20576361.840   108129513.057 7      2317.720          47.375    20576360.400   108129513.064 7      2317.720          47.750    20576366.040    84256781.526 7      1806.016          47.937    20576366.920    84256785.525 8      1806.016          48.750
R22  19534424.400   104276080.008 8      3538.764          49.750    19534424.860   104276080.012 8      3538.764          49.812    19534430.240    81103645.613 8      2752.372          51.500    19534430.200    81103647.609 8      2752.372          51.875
G16  21311378.480   111992051.859 7      3990.160          47.437    21311375.580   111992051.869 6      3990.160          37.187    21311378.800    87266533.359 6      3109.216          36.875
G18  22338336.000   117388742.211 7       202.062          45.187    22338333.760   117388742.213 5       202.062          35.875    22338338.120    91471754.958 5       157.451          35.437    22338339.800    91471764.953 8       157.451          49.250
R11  19494305.180   104171656.551 8      2337.126          49.937    19494304.720   104171656.554 8      2337.126          49.875    19494311.060    81022421.783 8      1817.765          51.812    19494310.860    81022422.785 8      1817.765          52.437
R21  20353190.340   108914028.219 7      -272.133          46.250    20353189.540   108914028.234 7      -272.133          45.812    20353200.300    84710953.146 8      -211.659          49.500    20353199.620    84710952.148 8      -211.659          48.750
G08  23686601.520   124473928.924 6      4636.640          39.437    23686600.480   124473928.913 4      4636.640          27.937    23686609.560    96992684.742 4      3612.966          27.750    23686610.260    96992708.757 7      3612.966          45.187
R12  21459787.900   114634333.719 7      5793.357          46.375    21459787.960   114634333.712 7      5793.357          45.687    21459797.520    89160080.138 7      4505.944          47.437    21459797.420    89160080.135 7      4505.944          47.750
> 2024 05 10 10 12 26.0000000  0 15
G04  24814398.200   130400546.711 6      1170.388          39.437    24814396.260   130400546.721 3      1170.388          22.125    24814405.120   101610854.958 3       911.991          21.937    24814405.860   101610841.945 6       911.991          40.687
G23  23976293.340   125996274.755 7      4280.640          43.937    23976292.860   125996274.765 5      4280.640          30.875    23976303.120    98178961.755 5      3335.563          31.062    23976300.960    98178954.767 7      3335.563          44.812
G27  21301458.860   111939920.967 7      3485.543          47.250    21301457.200   111939920.969 6      3485.543          39.500    21301462.440    87225929.208 6      2716.008          39.437    21301463.000    87225931.208 8      2716.008          49.875
G31  21426727.240   112598209.039 7       108.483          46.187    21426726.220   112598209.041 7       108.483          46.062    21426728.720    87738871.483 7        84.532          46.125    21426729.400    87738874.487 8        84.532          48.375
R23  23032413.220   123207875.878 7      6147.873          42.750    23032412.780   123207875.882 6      6147.873          41.562
G28  23104228.640   121413536.016 7     -1056.787          42.875    23104227.160   121413536.027 5     -1056.787          32.062    23104233.520    94607965.341 5      -823.471          31.750    23104234.140    94607974.327 8      -823.471          48.125
G10  24590973.860   129226436.315 6      4823.024          39.375    24590973.120   129226436.314 5      4823.024          33.500    24590988.620   100695973.142 5      3758.200          33.437    24590989.580   100695979.172 6      3758.200          39.937
G26  20575920.840   108127195.557 7      2317.339          47.812    20575919.520   108127195.562 8      2317.339          48.187    20575925.200    84254975.685 8      1805.718          48.250    20575926.060    84254979.681 8      1805.718          49.187
R22  19533761.820   104272541.659 8      3538.044          49.562    19533761.920   104272541.660 8      3538.044          49.687    19533767.540    81100893.562 8      2751.812          51.562    19533767.600    81100895.557 8      2751.812          52.062
G16  21310619.020   111988061.897 7      3989.837          46.437    21310616.280   111988061.910 6      3989.837          37.000    21310619.580    87263424.300 6      3108.964          36.875
G18  22338297.400   117388540.460 7       201.493          45.187    22338295.400   117388540.459 5       201.493          35.750    22338299.600    91471597.751 5       157.008          35.687    22338301.280    91471607.749 8       157.008          49.687
R11  19493868.020   104169319.875 8      2336.310          50.187    19493867.560   104169319.879 8      2336.310          49.750    19493873.780    81020604.373 8      1817.130          52.375    19493873.700    81020605.375 8      1817.130          53.125
R21  20353241.440   108914300.566 7      -272.627          45.125    20353240.740   108914300.583 7      -272.627          45.750    20353250.940    84711164.967 8      -212.043          49.375    20353250.140    84711163.973 8      -212.043          49.062
G08  23685718.700   124469292.637 6      4636.228          39.375    23685718.260   124469292.629 4      4636.228          27.937    23685727.420    96989072.057 4      3612.645          27.750    23685728.320    96989096.060 7      3612.645          45.312
R12  21458703.440   114628540.472 7      5793.164          46.187    21458703.260   114628540.462 7      5793.164          45.937    21458712.740    89155574.284 7      4505.794          47.500    21458712.780    89155574.286 7      4505.794          47.250
> 2024 05 10 10 12 27.0000000  0 15
G04  24814175.060   130399376.364 6      1170.357          39.187    24814173.420   130399376.372 3      1170.357          22.125    24814182.560   101609943.000 3       911.967          21.937    24814182.540   101609930.003 6       911.967          40.687
G23  23975478.860   125991994.258 7      4280.519          43.437    23975478.440   125991994.265 5      4280.519          30.875    23975488.500    98175626.309 5      3335.469          31.062    23975486.060    98175619.311 7      3335.469          44.437
G27  21300795.460   111936435.517 7      3485.348          47.875    21300793.960   111936435.522 6      3485.348          40.812    21300799.100    87223213.269 6      2715.856          40.375    21300799.600    87223215.272 8      2715.856          49.750
G31  21426706.560   112598100.769 7       108.163          47.187    21426705.580   112598100.769 7       108.163          46.062    21426708.020    87738787.119 7        84.283          45.625    21426708.740    87738790.123 8        84.283          48.625
R23  23031263.980   123201728.118 7      6147.645          42.750    23031264.340   123201728.127 6      6147.645          41.187
G28  23104429.620   121414592.914 6     -1056.869          41.812    23104428.340   121414592.925 5     -1056.869          32.062    23104434.740    94608788.883 5      -823.534          31.750    23104435.340    94608797.867 7      -823.534          47.500
G10  24590056.280   129221613.075 6      4823.409          40.625    24590055.140   129221613.077 5      4823.409          33.500    24590070.480   100692214.782 5      3758.501          33.250    24590071.440   100692220.805 6      3758.501          39.937
G26  20575479.880   108124878.447 7      2316.993          47.687    20575478.680   108124878.452 7      2316.993          47.687    20575484.240    84253170.142 7      1805.449          47.500    20575485.280    84253174.141 8      1805.449          49.750
R22  19533098.680   104269004.087 8      3537.247          49.812    19533099.240   104269004.088 8      3537.247          49.750    19533104.760    81098142.114 8      2751.192          51.937    19533104.760    81098144.110 8      2751.192          52.375
G16  21309860.140   111984072.140 7      3989.758          45.812    21309857.040   111984072.150 6      3989.758          36.937    21309860.260    87260315.397 6      3108.902          36.937
G18  22338259.040   117388339.189 7       201.197          44.812    22338256.960   117388339.194 5       201.197          35.625    22338261.380    91471440.915 5       156.777          35.437    22338262.900    91471450.908 8       156.777          48.750
R11  19493430.640   104166983.889 8      2335.666          50.312    19493430.440   104166983.900 8      2335.666          49.312    19493436.700    81018787.496 8      1816.629          52.375    19493436.580    81018788.496 8      1816.629          51.062
R21  20353292.300   108914573.429 7      -272.978          44.625    20353291.700   108914573.436 7      -272.978          45.875    20353301.860    84711377.184 8      -212.316          49.875    20353301.520    84711376.187 8      -212.316          49.062
G08  23684836.680   124464656.529 6      4636.079          40.000    23684836.040   124464656.523 4      4636.079          27.937    23684845.120    96985459.504 4      3612.529          27.625    23684845.920    96985483.506 7      3612.529          46.562
R12  21457619.020   114622747.460 7      5793.042          46.812    21457618.720   114622747.450 7      5793.042          45.625    21457628.360    89151068.606 7      4505.699          46.937    21457628.440    89151068.604 7      4505.699          46.812
> 2024 05 10 10 12 28.0000000  0 15
G04  24813952.880   130398206.512 6      1169.416          39.687    24813950.880   130398206.525 3      1169.416          22.125    24813959.860   101609031.428 3       911.234          21.937    24813959.980   101609018.419 6       911.234          40.937
G23  23974664.260   125987714.142 7      4279.730          43.750    23974663.880   125987714.152 5      4279.730          30.875    23974674.040    98172291.154 5      3334.854          30.812    23974671.180    98172284.164 7      3334.854          45.062
G27  21300132.200   111932950.517 7      3484.453          47.750    21300130.860   111932950.519 6      3484.453          40.687    21300135.860    87220497.684 6      2715.158          40.437    21300136.460    87220499.691 8      2715.158          49.250
G31  21426685.860   112597993.088 7       107.137          46.875    21426685.160   112597993.088 7       107.137          46.312    21426687.520    87738703.212 7        83.483          45.937    21426688.240    87738706.214 8        83.483          48.187
R23  23030115.040   123195580.820 6      6146.966          41.562    23030115.180   123195580.824 6      6146.966          41.187
G28  23104630.520   121415650.136 7     -1057.651          42.500    23104629.600   121415650.146 5     -1057.651          32.062    23104635.880    94609612.686 5      -824.143          32.125    23104636.840    94609621.672 7      -824.143          47.375
G10  24589137.880   129216789.951 6      4822.844          41.187    24589137.280   129216789.956 5      4822.844          33.125    24589152.460   100688456.509 5      3758.060          33.250    24589153.200   100688462.519 6      3758.060          39.625
G26  20575038.980   108122561.798 7      2316.189          47.750    20575037.900   108122561.803 8      2316.189          48.500    20575043.420    84251364.959 8      1804.823          48.125    20575044.340    84251368.962 8      1804.823          49.375
R22  19532436.160   104265467.395 8      3535.963          49.562    19532436.680   104265467.393 8      3535.963          49.750    19532442.140    81095391.354 8      2750.193          51.625    19532442.120    81095393.352 8      2750.193          51.812
G16  21309100.800   111980082.704 7      3989.040          45.812    21309097.940   111980082.711 6      3989.040          36.625    21309101.220    87257206.745 6      3108.343          36.625
G18  22338220.980   117388138.520 7       200.114          45.562    22338218.880   117388138.528 6       200.114          36.500    22338223.060    91471284.551 6       155.933          36.000    22338224.760    91471294.545 8       155.933          48.562
R11  19492993.420   104164648.714 8      2334.505          50.437    19492993.580   104164648.718 8      2334.505          49.062    19492999.740    81016971.237 8      1815.726          52.062    19492999.420    81016972.240 8      1815.726          52.812
R21  20353343.760   108914846.838 7      -273.907          46.375    20353342.980   108914846.845 7      -273.907          45.750    20353352.840    84711589.827 8      -213.039          49.812    20353352.400    84711588.828 8      -213.039          49.187
G08  23683954.700   124460020.789 6      4635.214          39.750    23683953.760   124460020.770 4      4635.214          27.937    23683963.060    96981847.229 4      3611.855          27.625    23683963.900    96981871.231 7      3611.855          46.250
R12  21456534.520   114616954.773 7      5792.280          46.812    21456534.380   114616954.775 7      5792.280          46.687    21456543.860    89146563.191 7      4505.107          46.500    21456544.000    89146563.194 7      4505.107          47.937
> 2024 05 10 10 12 29.0000000  0 15
G04  24813730.360   130397037.190 6      1169.157          38.937    24813728.420   130397037.203 3      1169.157          22.125    24813737.360   101608120.265 3       911.032          21.937    24813737.300   101608107.251 6       911.032          40.937
G23  23973850.140   125983434.509 7      4279.426          44.562    23973849.680   125983434.519 5      4279.426          31.125    23973859.820    98168956.381 5      3334.617          30.812    23973857.060    98168949.387 7      3334.617          44.687
G27  21299469.080   111929466.013 7      3484.317          47.937    21299467.780   111929466.018 6      3484.317          40.125    21299472.760    87217782.489 6      2715.053          40.000    21299473.520    87217784.489 8      2715.053          49.562
G31  21426665.540   112597886.072 7       106.746          46.437    21426664.740   112597886.074 7       106.746          46.187    21426667.200    87738619.819 7        83.179          46.125    21426668.040    87738622.820 8        83.179          48.187
R23  23028965.940   123189434.132 6      6146.561          41.562    23028965.700   123189434.133 6      6146.561          41.125
G28  23104831.880   121416707.759 7     -1057.709          42.062    23104831.040   121416707.769 5     -1057.709          32.062    23104837.080    94610436.795 5      -824.189          32.125    23104838.040    94610445.782 7      -824.189          47.812
G10  24588220.140   129211966.935 6      4823.146          40.500    24588219.600   129211966.934 5      4823.146          33.125    24588234.680   100684698.319 5      3758.296          33.187    24588235.620   100684704.326 6      3758.296          39.625
G26  20574598.320   108120245.715 7      2315.916          47.875    20574597.160   108120245.725 8      2315.916          48.000    20574602.620    84249560.217 8      1804.610          48.312    20574603.640    84249564.220 8      1804.610          49.250
R22  19531773.660   104261931.654 8      3535.343          49.812    19531774.200   104261931.655 8      3535.343          49.437    19531779.700    81092641.333 8      2749.711          51.500    19531779.680    81092643.333 8      2749.711          51.937
G16  21308341.480   111976093.675 7      3988.872          45.312    21308338.800   111976093.682 6      3988.872          36.937    21308342.200    87254098.411 6      3108.212          36.937
G18  22338182.860   117387938.529 7       199.750          45.500    22338180.800   117387938.534 6       199.750          36.500    22338185.140    91471128.706 5       155.649          35.812    22338186.700    91471138.700 8       155.649          48.937
R11  19492556.520   104162314.446 8      2333.875          50.437    19492556.700   104162314.450 8      2333.875          49.937    19492562.920    81015155.697 8      1815.236          52.062    19492562.800    81015156.700 8      1815.236          53.187
R21  20353394.480   108915120.911 7      -274.388          45.812    20353394.040   108915120.915 7      -274.388          45.625    20353404.100    84711802.992 8      -213.413          49.375    20353403.660    84711801.989 8      -213.413          48.500
G08  23683072.660   124455385.388 6      4635.335          38.937    23683071.600   124455385.382 4      4635.335          28.250    23683081.100    96978235.238 4      3611.949          27.625    23683081.700    96978259.244 7      3611.949          46.312
R12  21455450.080   114611162.480 7      5792.203          46.125    21455450.080   114611162.484 7      5792.203          45.625    21455459.520    89142058.076 7      4505.047          47.750    21455459.660    89142058.077 7      4505.047          47.937
> 2024 05 10 10 12 30.0000000  0 15
G04  24813507.660   130395868.216 6      1168.666          37.812    24813506.040   130395868.228 3      1168.666          22.125    24813514.720   101607209.373 3       910.649          22.500    24813514.920   101607196.362 6       910.649          40.687
G23  23973035.700   125979155.131 7      4279.157          44.750    23973035.500   125979155.139 5      4279.157          31.125    23973045.480    98165621.803 5      3334.408          30.812    23973042.780    98165614.807 7      3334.408          44.937
G27  21298806.020   111925981.854 8      3483.950          48.062    21298804.820   111925981.859 6      3483.950          40.062    21298809.720    87215067.555 6      2714.766          40.312    21298810.440    87215069.560 8      2714.766          49.375
G31  21426645.380   112597779.526 7       106.259          46.687    21426644.520   112597779.531 7       106.259          46.375    21426646.980    87738536.796 7        82.799          46.437    21426647.500    87738539.798 7        82.799          47.937
R23  23027817.140   123183287.791 6      6146.148          41.750    23027817.080   123183287.801 6      6146.148          41.125
G28  23105033.360   121417765.600 7     -1058.018          42.312    23105032.360   121417765.608 5     -1058.018          32.062    23105038.380    94611261.077 5      -824.430          32.125    23105039.200    94611270.065 7      -824.430          47.812
G10  24587302.420   129207143.931 6      4822.958          40.125    24587301.880   129207143.931 5      4822.958          33.375    24587317.020   100680940.134 5      3758.149          33.187    24587317.920   100680946.158 6      3758.149          39.625
G26  20574157.700   108117930.031 7      2315.424          47.312    20574156.520   108117930.039 8      2315.424          48.187    20574161.980    84247755.788 8      1804.226          48.062    20574162.760    84247759.791 8      1804.226          49.375
R22  19531111.820   104258396.692 8      3534.520          49.500    19531111.960   104258396.695 8      3534.520          49.500    19531117.640    81089891.922 8      2749.071          51.750    19531117.760    81089893.922 8      2749.071          52.125
G16  21307582.700   111972104.848 7      3988.676          46.062    21307579.860   111972104.858 6      3988.676          37.125    21307583.000    87250990.238 6      3108.060          37.375
G18  22338145.000   117387739.027 7       199.209          45.875    22338142.740   117387739.035 5       199.209          35.562    22338147.160    91470973.246 5       155.228          35.812    22338148.760    91470983.241 8       155.228          48.562
R11  19492120.040   104159980.859 8      2333.122          50.875    19492120.080   104159980.860 8      2333.122          49.500    19492126.220    81013340.679 8      1814.650          52.625    19492125.900    81013341.679 8      1814.650          52.812
R21  20353445.940   108915395.470 7      -274.910          46.687    20353445.100   108915395.469 7      -274.910          45.687    20353455.360    84712016.532 8      -213.819          49.125    20353454.700    84712015.532 8      -213.819          48.812
G08  23682190.780   124450750.286 6      4634.898          39.187    23682189.440   124450750.283 4      4634.898          28.250    23682199.120    96974623.471 4      3611.609          27.625    23682199.760    96974647.479 7      3611.609          46.625
R12  21454365.820   114605370.397 7      5791.945          47.750    21454365.580   114605370.393 7      5791.945          46.125    21454375.260    89137553.123 7      4504.846          47.125    21454375.320    89137553.124 7      4504.846          47.937
> 2024 05 10 10 12 31.0000000  0 15
G04  24813285.060   130394699.583 6      1168.383          38.812    24813283.600   130394699.590 3      1168.383          22.125    24813292.500   101606298.752 3       910.428          22.500    24813292.540   101606285.739 6       910.428          40.687
G23  23972221.380   125974876.040 7      4278.836          44.187    23972221.280   125974876.048 5      4278.836          31.125    23972231.220    98162287.448 5      3334.158          31.187    23972228.240    98162280.457 7      3334.158          45.062
G27  21298143.320   111922498.046 8      3483.542          48.187    21298141.860   111922498.051 6      3483.542          40.625    21298146.740    87212352.902 6      2714.448          40.125    21298147.500    87212354.909 8      2714.448          49.875
G31  21426625.200   112597673.493 7       105.712          47.687    21426624.280   112597673.498 7       105.712          46.437    21426626.780    87738454.170 7        82.373          46.000    21426627.360    87738457.170 7        82.373          47.875
R23  23026668.340   123177141.849 6      6145.785          41.750    23026668.160   123177141.845 6      6145.785          41.312
G28  23105234.640   121418823.667 7     -1058.248          42.562    23105233.740   121418823.680 5     -1058.248          32.312    23105239.660    94612085.537 5      -824.609          32.062    23105240.500    94612094.523 7      -824.609          47.687
G10  24586385.000   129202320.841 6      4823.052          39.562    24586383.920   129202320.859 5      4823.052          33.375    24586399.180   100677181.903 5      3758.222          33.250    24586399.700   100677187.931 6      3758.222          39.437
G26  20573717.160   108115614.726 7      2314.994          47.375    20573715.880   108115614.731 8      2314.994          48.250    20573721.480    84245951.652 8      1803.891          48.125    20573722.360    84245955.652 8      1803.891          49.375
R22  19530449.740   104254862.531 8      3533.699          49.812    19530449.800   104254862.534 8      3533.699          50.125    19530455.520    81087143.132 8      2748.433          51.937    19530455.700    81087145.130 8      2748.433          52.375
G16  21306823.660   111968116.279 7      3988.361          46.437    21306820.720   111968116.289 6      3988.361          37.187    21306823.900    87247882.262 6      3107.814          37.125
G18  22338106.840   117387540.045 7       198.540          45.812    22338104.880   117387540.053 6       198.540          36.125    22338109.280    91470818.193 5       154.707          35.750    22338110.920    91470828.191 8       154.707          49.000
R11  19491683.160   104157647.969 8      2332.489          51.062    19491683.360   104157647.973 8      2332.489          49.500    19491689.700    81011526.215 8      1814.158          52.312    19491689.580    81011527.218 8      1814.158          53.000
R21  20353497.620   108915670.541 7      -275.366          45.937    20353496.560   108915670.547 7      -275.366          45.750    20353506.520    84712230.482 8      -214.173          49.000    20353505.980    84712229.479 8      -214.173          49.187
G08  23681308.640   124446115.419 6      4634.554          39.937    23681307.540   124446115.413 4      4634.554          28.250    23681317.180    96971011.883 4      3611.340          28.562    23681317.780    96971035.883 7      3611.340          46.312
R12  21453281.280   114599578.531 7      5791.702          47.187    21453281.380   114599578.527 7      5791.702          46.437    21453291.000    89133048.338 7      4504.657          47.312    21453291.020    89133048.341 7      4504.657          47.687
> 2024 05 10 10 12 32.0000000  0 15
G04  24813062.560   130393531.299 6      1168.132          38.812    24813061.280   130393531.309 3      1168.132          22.562    24813070.200   101605388.401 3       910.232          22.500    24813070.380   101605375.392 6       910.232          40.437
G23  23971407.320   125970597.222 7      4278.761          44.125    23971407.100   125970597.230 5      4278.761          31.062    23971417.060    98158953.308 5      3334.100          31.187    23971414.060    98158946.313 7      3334.100          44.937
G27  21297480.120   111919014.565 8      3483.340          48.250    21297478.920   111919014.567 6      3483.340          40.125    21297483.900    87209638.501 6      2714.291          40.000    21297484.500    87209640.506 8      2714.291          49.125
G31  21426605.120   112597567.914 7       105.375          47.562    21426604.220   112597567.919 7       105.375          46.500    21426606.560    87738371.899 7        82.111          46.000    21426607.440    87738374.901 7        82.111          47.750
R23  23025519.680   123170996.282 7      6145.444          42.562    23025519.080   123170996.280 6      6145.444          41.312
G28  23105435.940   121419881.950 7     -1058.382          42.750    23105435.160   121419881.968 5     -1058.382          32.312    23105440.920    94612910.165 5      -824.713          32.062    23105442.040    94612919.155 8      -824.713          48.000
G10  24585467.340   129197497.780 6      4823.189          38.250    24585466.060   129197497.788 5      4823.189          33.187    24585481.300   100673423.669 5      3758.329          33.250    24585481.360   100673429.685 6      3758.329          39.437
G26  20573276.640   108113299.791 7      2314.771          47.125    20573275.360   108113299.798 8      2314.771          48.500    20573280.960    84244147.804 8      1803.718          48.562    20573281.960    84244151.809 8      1803.718          49.187
R22  19529787.580   104251329.146 8      3533.072          48.875    19529787.640   104251329.155 8      3533.072          49.625    19529793.560    81084394.944 8      2747.945          51.812    19529793.680    81084396.944 8      2747.945          52.000
G16  21306064.740   111964127.912 7      3988.275          46.875    21306061.880   111964127.914 6      3988.275          37.125    21306064.980    87244774.441 6      3107.747          36.875
G18  22338069.220   117387341.523 7       198.320          45.750    22338067.000   117387341.528 6       198.320          36.062    22338071.520    91470663.496 5       154.535          35.937    22338073.120    91470673.494 8       154.535          49.000
R11  19491246.880   104155315.788 8      2331.925          50.812    19491246.920   104155315.794 8      2331.925          49.312    19491253.400    81009712.300 8      1813.720          52.437    19491252.960    81009713.301 8      1813.720          52.812
R21  20353549.000   108915946.138 7      -275.773          45.500    20353547.940   108915946.140 7      -275.773          45.875    20353557.980    84712444.826 8      -214.490          49.312    20353557.560    84712443.823 8      -214.490          48.750
G08  23680426.700   124441480.711 6      4634.721          39.937    23680425.400   124441480.703 4      4634.721          28.250    23680435.240    96967400.423 4      3611.471          28.562    23680436.040    96967424.437 7      3611.471          46.187
R12  21452197.320   114593786.873 7      5791.563          46.750    21452197.300   114593786.874 7      5791.563          46.312    21452206.800    89128543.722 7      4504.549          47.312    21452206.920    89128543.722 7      4504.549          47.812
> 2024 05 10 10 12 33.0000000  0 15
G04  24812840.680   130392363.275 6      1167.728          38.812    24812839.060   130392363.283 3      1167.728          22.562    24812848.060   101604478.251 3       909.918          22.500    24812847.800   101604465.229 6       909.918          40.437
G23  23970592.680   125966318.591 7      4278.296          44.500    23970592.920   125966318.598 5      4278.296          31.062    23970602.680    98155619.316 5      3333.737          31.187    23970599.540    98155612.318 7      3333.737          45.000
G27  21296817.360   111915531.314 8      3482.901          48.000    21296816.160   111915531.317 6      3482.901          39.875    21296821.060    87206924.280 6      2713.949          39.625    21296821.720    87206926.278 8      2713.949          49.500
G31  21426584.860   112597462.721 7       104.762          47.250    21426584.260   112597462.731 7       104.762          46.500    21426586.600    87738289.929 7        81.633          46.437    21426587.400    87738292.932 8        81.633          48.250
R23  23024370.880   123164850.987 7      6144.930          42.062    23024370.120   123164850.994 6      6144.930          41.125
G28  23105637.620   121420940.359 7     -1058.748          42.437    23105636.700   121420940.372 5     -1058.748          32.312    23105642.400    94613734.888 5      -824.998          31.875    23105643.440    94613743.875 7      -824.998          47.562
G10  24584549.240   129192674.578 6      4823.007          38.500    24584548.380   129192674.582 5      4823.007          33.187    24584563.420   100669665.334 5      3758.187          33.250    24584563.120   100669671.355 6      3758.187          39.187
G26  20572836.120   108110985.145 8      2314.266          48.125    20572835.000   108110985.152 8      2314.266          48.562    20572840.500    84242344.184 8      1803.324          48.375    20572841.320    84242348.189 8      1803.324          49.250
R22  19529125.760   104247796.458 8      3532.108          49.250    19529125.800   104247796.459 8      3532.108          49.375    19529131.780    81081647.292 8      2747.195          51.500    19529131.900    81081649.290 8      2747.195          51.812
G16  21305305.860   111960139.650 7      3987.983          46.500    21305303.020   111960139.655 6      3987.983          37.437    21305306.020    87241666.709 6      3107.519          37.187
G18  22338031.500   117387143.416 7       197.668          45.812    22338029.120   117387143.419 6       197.668          36.250    22338033.700    91470509.125 5       154.027          35.687    22338035.540    91470519.119 8       154.027          48.750
R11  19490810.700   104152984.221 8      2331.027          51.062    19490810.600   104152984.227 8      2331.027          49.687    19490816.980    81007898.855 8      1813.021          52.187    19490816.700    81007899.855 8      1813.021          52.812
R21  20353600.700   108916222.097 7      -276.429          47.250    20353599.480   108916222.104 7      -276.429          46.125    20353609.440    84712659.468 8      -215.000          49.250    20353609.200    84712658.466 8      -215.000          48.687
G08  23679544.680   124436846.206 6      4634.211          39.125    23679543.400   124436846.198 4      4634.211          28.250    23679553.400    96963789.118 4      3611.073          28.562    23679553.960    96963813.130 7      3611.073          46.562
R12  21451113.320   114587995.357 7      5791.174          46.125    21451112.880   114587995.363 7      5791.174          45.875    21451122.580    89124039.215 7      4504.247          47.187    21451122.780    89124039.218 7      4504.247          47.812
> 2024 05 10 10 12 34.0000000  0 15
G04  24812618.320   130391195.648 6      1167.681          39.750    24812616.960   130391195.653 3      1167.681          22.562    24812625.940   101603568.405 3       909.881          22.500    24812625.540   101603555.388 6       909.881          40.625
G23  23969778.820   125962040.264 7      4278.237          44.562    23969778.840   125962040.274 5      4278.237          31.062    23969788.540    98152285.561 5      3333.691          31.375    23969785.480    98152278.580 7      3333.691          44.687
G27  21296154.520   111912048.448 8      3482.745          48.000    21296153.380   111912048.453 6      3482.745          40.187    21296158.220    87204210.362 6      2713.827          40.000    21296158.820    87204212.364 8      2713.827          49.500
G31  21426564.960   112597358.067 8       104.488          48.312    21426564.420   112597358.075 7       104.488          46.500    21426566.700    87738208.376 7        81.419          46.312    21426567.080    87738211.378 7        81.419          47.937
R23  23023221.880   123158706.155 7      6144.750          42.062    23023221.640   123158706.162 6      6144.750          41.125
G28  23105839.140   121421999.007 7     -1058.564          43.312    23105838.400   121421999.019 5     -1058.564          32.187    23105844.100    94614559.801 5      -824.855          31.875    23105844.700    94614568.787 7      -824.855          47.625
G10  24583631.140   129187851.356 6      4823.343          38.812    24583630.460   129187851.364 5      4823.343          33.312    24583645.560   100665906.988 5      3758.449          33.062    24583644.600   100665913.011 6      3758.449          39.187
G26  20572395.760   108108670.916 7      2314.205          47.812    20572394.520   108108670.918 8      2314.205          48.250    20572400.100    84240540.889 8      1803.277          48.187    20572400.980    84240544.890 8      1803.277          49.250
R22  19528463.900   104244264.581 8      3531.525          50.000    19528464.100   104244264.585 8      3531.525          49.750    19528470.140    81078900.281 8      2746.742          52.000    19528470.100    81078902.279 8      2746.742          51.562
G16  21304546.820   111956151.661 7      3987.964          47.125    21304544.060   111956151.666 6      3987.964          36.875    21304547.220    87238559.187 6      3107.504          36.875
G18  22337993.880   117386945.843 7       197.391          45.375    22337991.400   117386945.848 5       197.391          35.812    22337996.080    91470355.172 5       153.811          35.875    22337998.040    91470365.169 8       153.811          49.125
R11  19490374.260   104150653.388 8      2330.583          50.250    19490374.560   104150653.400 8      2330.583          49.375    19490380.880    81006085.986 8      1812.676          52.687    19490380.680    81006086.982 8      1812.676          53.312
R21  20353652.560   108916498.572 7      -276.538          46.062    20353651.640   108916498.576 7      -276.538          46.250    20353661.060    84712874.503 8      -215.085          49.250    20353660.920    84712873.502 8      -215.085          48.250
G08  23678662.560   124432211.943 6      4634.266          39.062    23678661.580   124432211.929 4      4634.266          28.750    23678671.460    96960178.006 4      3611.116          28.562    23678672.140    96960202.014 7      3611.116          46.312
R12  21450028.920   114582204.129 7      5791.225          46.312    21450028.700   114582204.125 7      5791.225          46.000    21450038.380    89119534.927 7      4504.286          47.250    21450038.520    89119534.928 7      4504.286          47.875
> 2024 05 10 10 12 35.0000000  0 15
G04  24812395.820   130390028.339 6      1166.983          39.000    24812394.940   130390028.347 3      1166.983          22.562    24812403.780   101602658.816 3       909.338          22.500    24812403.340   101602645.805 6       909.338          40.625
G23  23968964.800   125957762.195 7      4277.847          45.250    23968964.860   125957762.202 5      4277.847          31.312    23968974.360    98148952.001 5      3333.387          31.375    23968971.340    98148945.007 7      3333.387          44.625
G27  21295491.840   111908565.873 7      3482.295          46.937    21295490.740   111908565.880 6      3482.295          39.875    21295495.540    87201496.665 6      2713.477          39.687    21295496.060    87201498.668 8      2713.477          49.312
G31  21426545.140   112597253.847 8       103.917          48.250    21426544.620   112597253.854 7       103.917          46.437    21426546.820    87738127.161 7        80.974          46.687    21426547.340    87738130.161 8        80.974          48.312
R23  23022073.280   123152561.668 6      6144.236          41.937    23022072.840   123152561.686 6      6144.236          41.250
G28  23106040.500   121423057.862 7     -1059.019          43.062    23106039.780   121423057.875 5     -1059.019          32.187    23106045.540    94615384.875 5      -825.210          31.875    23106046.120    94615393.859 7      -825.210          47.187
G10  24582713.300   129183028.088 6      4823.285          38.937    24582712.660   129183028.100 5      4823.285          33.312    24582727.780   100662148.609 5      3758.404          33.062    24582726.640   100662154.624 6      3758.404          39.187
G26  20571955.460   108106357.035 7      2313.618          46.875    20571954.260   108106357.045 8      2313.618          48.437    20571959.800    84238737.869 8      1802.819          48.375    20571960.640    84238741.871 8      1802.819          49.000
R22  19527802.680   104240733.439 8      3530.638          49.062    19527802.720   104240733.442 8      3530.638          49.687    19527808.700    81076153.837 8      2746.052          51.625    19527808.700    81076155.833 8      2746.052          52.000
G16  21303787.920   111952163.859 7      3987.581          46.562    21303785.140   111952163.864 6      3987.581          37.062    21303788.220    87235451.807 6      3107.206          37.000
G18  22337956.240   117386748.724 7       196.812          44.562    22337953.960   117386748.726 6       196.812          36.000    22337958.700    91470201.564 6       153.360          36.125    22337960.520    91470211.562 8       153.360          49.375
R11  19489938.200   104148323.237 8      2329.715          50.375    19489938.480   104148323.246 8      2329.715          49.500    19489944.820    81004273.648 8      1812.001          52.812    19489944.220    81004274.646 8      1812.001          53.187
R21  20353703.980   108916775.508 7      -277.237          46.000    20353703.360   108916775.520 7      -277.237          46.187    20353712.740    84713089.897 8      -215.629          49.375    20353712.580    84713088.900 8      -215.629          48.250
G08  23677780.620   124427577.874 6      4633.819          39.000    23677779.720   124427577.865 4      4633.819          28.750    23677789.680    96956567.043 4      3610.768          28.562    23677790.220    96956591.055 7      3610.768          46.187
R12  21448945.040   114576413.067 7      5790.891          46.562    21448944.660   114576413.063 7      5790.891          45.937    21448954.080    89115030.771 7      4504.026          46.750    21448954.720    89115030.772 7      4504.026          47.625
> 2024 05 10 10 12 36.0000000  0 15
G04  24812174.380   130388861.283 6      1166.939          38.250    24812172.920   130388861.288 3      1166.939          22.562    24812181.500   101601749.415 3       909.303          22.500    24812181.900   101601736.400 6       909.303          40.937
G23  23968150.820   125953484.294 7      4277.865          45.187    23968150.860   125953484.304 5      4277.865          31.312    23968160.220    98145618.578 5      3333.401          31.375    23968157.320    98145611.578 7      3333.401          44.625
G27  21294829.140   111905083.545 7      3482.207          47.500    21294828.080   111905083.547 6      3482.207          40.500    21294832.840    87198783.161 6      2713.408          40.375    21294833.400    87198785.161 8      2713.408          49.562
G31  21426525.520   112597150.012 7       103.699          47.437    21426524.860   112597150.017 7       103.699          46.562    21426527.060    87738046.251 7        80.805          46.250    21426527.720    87738049.253 8        80.805          48.187
R23  23020924.960   123146417.513 6      6144.023          41.937    23020924.520   123146417.520 6      6144.023          41.250
G28  23106241.860   121424116.825 7     -1058.994          42.562    23106241.240   121424116.836 5     -1058.994          32.312    23106247.080    94616210.031 5      -825.190          32.250    23106247.560    94616219.025 7      -825.190          47.750
G10  24581795.240   129178204.693 6      4823.468          38.937    24581794.740   129178204.706 5      4823.468          32.875    24581809.880   100658390.119 5      3758.547          32.937    24581808.400   100658396.151 6      3758.547          38.437
G26  20571515.160   108104043.453 7      2313.434          47.000    20571514.000   108104043.458 8      2313.434          48.687    20571519.540    84236935.073 8      1802.676          48.312    20571520.300    84236939.078 8      1802.676          49.312
R22  19527141.120   104237202.963 8      3530.157          50.062    19527141.260   104237202.970 8      3530.157          49.812    19527147.140    81073407.914 8      2745.678          51.687    19527147.160    81073409.914 8      2745.678          51.875
G16  21303029.260   111948176.157 7      3987.683          46.937    21303026.440   111948176.159 6      3987.683          36.937    21303029.320    87232344.507 6      3107.285          36.812
G18  22337918.940   117386551.996 7       196.600          44.937    22337916.420   117386551.996 5       196.600          35.812    22337921.340    91470048.272 6       153.195          36.125    22337923.140    91470058.272 8       153.195          49.000
R11  19489502.380   104145993.687 8      2329.300          50.500    19489502.560   104145993.694 8      2329.300          50.062    19489508.800    81002461.782 8      1811.678          52.250    19489508.760    81002462.780 8      1811.678          53.000
R21  20353755.800   108917052.828 7      -277.458          47.000    20353755.400   108917052.830 7      -277.458          46.062    20353764.620    84713305.589 8      -215.800          49.125    20353764.240    84713304.588 8      -215.800          48.375
G08  23676899.000   124422943.926 6      4634.015          39.562    23676897.900   124422943.912 4      4634.015          28.750    23676907.780    96952956.174 4      3610.921          28.500    23676908.200    96952980.193 7      3610.921          46.625
R12  21447860.800   114570622.106 7      5790.871          46.687    21447860.400   114570622.104 7      5790.871          46.562    21447870.040    89110526.695 7      4504.011          46.812    21447870.520    89110526.696 7      4504.011          47.687
> 2024 05 10 10 12 37.0000000  0 15
G04  24811952.540   130387694.583 6      1166.368          38.312    24811951.120   130387694.588 3      1166.368          22.562    24811959.500   101600840.295 3       908.858          22.500    24811960.200   101600827.286 6       908.858          40.937
G23  23967336.680   125949206.700 7      4277.380          45.000    23967336.940   125949206.710 5      4277.380          31.312    23967346.260    98142285.390 5      3333.023          31.250    23967342.920    98142278.402 7      3333.023          44.375
G27  21294166.760   111901601.553 8      3481.762          48.375    21294165.400   111901601.555 6      3481.762          40.312    21294170.220    87196069.920 6      2713.062          40.062    21294170.600    87196071.923 8      2713.062          49.125
G31  21426505.980   112597046.696 7       102.988          47.812    21426505.400   112597046.701 7       102.988          46.500    21426507.360    87737965.743 7        80.250          46.375    21426508.000    87737968.740 8        80.250          48.437
R23  23019775.900   123140273.719 6      6143.522          41.937    23019775.860   123140273.736 6      6143.522          41.250
G28  23106443.300   121425176.036 7     -1059.394          43.250    23106442.980   121425176.046 5     -1059.394          32.312    23106448.540    94617035.381 5      -825.502          32.250    23106449.140    94617044.371 7      -825.502          47.750
G10  24580877.460   129173381.316 6      4823.243          38.562    24580876.980   129173381.327 5      4823.243          32.875    24580891.980   100654631.654 5      3758.371          32.937    24580890.340   100654637.670 6      3758.371          38.437
G26  20571074.880   108101730.249 7      2312.964          47.062    20571073.800   108101730.252 7      2312.964          47.937    20571079.260    84235132.577 7      1802.310          47.937    20571080.040    84235136.580 8      1802.310          49.312
R22  19526479.900   104233673.329 8      3529.123          49.750    19526480.180   104233673.332 8      3529.123          50.000    19526486.020    81070662.642 8      2744.873          51.625    19526485.960    81070664.642 8      2744.873          51.562
G16  21302270.520   111944188.723 7      3987.213          46.250    21302267.600   111944188.728 6      3987.213          36.875    21302270.720    87229237.419 6      3106.919          36.937
G18  22337881.620   117386355.799 7       195.847          46.062    22337879.040   117386355.802 5       195.847          35.562    22337884.120    91469895.387 5       152.608          35.562    22337885.860    91469905.389 8       152.608          48.875
R11  19489066.540   104143664.883 8      2328.326          50.875    19489066.780   104143664.895 8      2328.326          49.562    19489073.080    81000650.490 8      1810.920          52.625    19489072.640    81000651.488 8      1810.920          53.187
R21  20353807.860   108917330.652 7      -278.131          47.062    20353807.340   108917330.653 7      -278.131          46.375    20353816.780    84713521.668 8      -216.324          49.562    20353816.340    84713520.669 8      -216.324          48.250
G08  23676017.260   124418310.264 6      4633.489          39.562    23676016.100   124418310.253 4      4633.489          28.750    23676026.000    96949345.533 4      3610.511          28.500    23676026.380    96949369.549 7      3610.511          46.187
R12  21446776.880   114564831.367 7      5790.514          46.125    21446776.400   114564831.363 7      5790.514          46.125    21446785.760    89106022.783 7      4503.733          47.250    21446786.440    89106022.783 7      4503.733          47.812
> 2024 05 10 10 12 38.0000000  0 15
G04  24811730.320   130386528.394 6      1166.165          38.312    24811729.020   130386528.399 3      1166.165          22.562    24811737.660   101599931.572 3       908.700          22.500    24811738.180   101599918.548 6       908.700          41.000
G23  23966522.960   125944929.530 7      4277.216          45.000    23966523.120   125944929.542 5      4277.216          31.375    23966532.380    98138952.538 5      3332.895          31.250    23966529.040    98138945.544 7      3332.895          44.250
G27  21293504.120   111898120.068 7      3481.424          47.687    21293502.880   111898120.076 6      3481.424          40.500    21293507.640    87193357.077 6      2712.798          40.250    21293508.320    87193359.082 8      2712.798          49.312
G31  21426486.280   112596943.984 8       102.689          48.250    21426485.720   112596943.991 7       102.689          46.000    21426487.980    87737885.703 7        80.017          46.187    21426488.500    87737888.703 8        80.017          48.437
R23  23018627.200   123134130.502 6      6143.215          41.937    23018627.800   123134130.512 6      6143.215          40.937
G28  23106645.160   121426235.614 6     -1059.563          41.625    23106644.500   121426235.624 5     -1059.563          32.500    23106650.100    94617861.018 5      -825.634          32.312    23106650.620    94617870.013 7      -825.634          47.437
G10  24579959.400   129168558.011 6      4823.635          40.312    24579959.220   129168558.016 5      4823.635          33.062    24579974.040   100650873.231 5      3758.676          32.937    24579973.060   100650879.250 6      3758.676          38.437
G26  20570634.820   108099417.592 7      2312.624          47.062    20570633.680   108099417.600 8      2312.624          48.562    20570639.240    84233330.507 8      1802.045          48.500    20570639.920    84233334.508 8      1802.045          49.187
R22  19525819.100   104230144.599 8      3528.607          48.937    19525819.100   104230144.600 8      3528.607          49.312    19525825.060    81067918.070 8      2744.472          51.562    19525825.100    81067920.070 8      2744.472          51.937
G16  21301511.540   111940201.638 7      3987.101          46.750    21301508.900   111940201.646 6      3987.101          37.125    21301511.940    87226130.598 6      3106.832          37.125
G18  22337844.700   117386160.244 7       195.422          45.125    22337841.900   117386160.251 5       195.422          35.625    22337847.040    91469743.011 5       152.277          35.250    22337848.580    91469753.004 8       152.277          48.875
R11  19488631.160   104141336.933 8      2327.799          49.937    19488631.160   104141336.940 8      2327.799          49.500    19488637.380    80998839.852 8      1810.510          52.625    19488637.180    80998840.850 8      1810.510          53.125
R21  20353859.640   108917609.145 7      -278.565          46.125    20353859.280   108917609.149 7      -278.565          46.000    20353868.800    84713738.273 8      -216.662          49.125    20353868.220    84713737.274 8      -216.662          48.187
G08  23675135.680   124413676.960 6      4633.398          38.750    23675134.380   124413676.946 4      4633.398          28.625    23675144.320    96945735.166 4      3610.440          28.500    23675145.020    96945759.176 7      3610.440          46.187
R12  21445692.600   114559041.007 7      5790.505          46.625    21445692.540   114559040.997 7      5790.505          46.625    21445701.860    89101519.167 7      4503.726          47.062    21445702.260    89101519.168 7      4503.726          47.562
> 2024 05 10 10 12 39.0000000  0 15
G04  24811508.200   130385362.386 6      1165.673          38.437    24811506.880   130385362.390 3      1165.673          22.562    24811515.840   101599022.994 3       908.316          22.562    24811516.280   101599009.974 6       908.316          41.000
G23  23965709.100   125940652.517 7      4276.670          45.187    23965709.120   125940652.527 5      4276.670          31.375    23965718.580    98135619.802 5      3332.470          31.250    23965715.100    98135612.805 7      3332.470          44.187
G27  21292841.820   111894638.757 7      3480.995          47.937    21292840.400   111894638.759 6      3480.995          40.000    21292845.260    87190644.365 6      2712.464          39.875    21292845.880    87190646.368 8      2712.464          49.500
G31  21426466.920   112596841.615 7       102.039          47.937    21426466.220   112596841.623 7       102.039          45.187    21426468.360    87737805.934 7        79.511          45.437    21426469.080    87737808.933 8        79.511          48.375
R23  23017478.580   123127987.502 6      6142.656          41.500    23017479.720   123127987.507 6      6142.656          40.937
G28  23106846.880   121427295.250 7     -1059.867          42.812    23106846.120   121427295.260 5     -1059.867          32.500    23106851.740    94618686.698 5      -825.871          32.312    23106852.320    94618695.686 7      -825.871          47.375
G10  24579041.660   129163734.551 6      4823.327          40.625    24579041.500   129163734.558 5      4823.327          33.062    24579056.080   100647114.694 5      3758.437          32.937    24579054.460   100647120.736 6      3758.437          38.125
G26  20570194.700   108097105.172 7      2312.053          47.187    20570193.780   108097105.174 7      2312.053          47.812    20570199.240    84231528.612 7      1801.600          47.562    20570199.820    84231532.619 8      1801.600          49.375
R22  19525158.200   104226616.510 8      3527.553          49.375    19525158.080   104226616.519 8      3527.553          49.875    19525164.180    81065174.007 8      2743.652          50.625    19525164.160    81065176.009 8      2743.652          51.375
G16  21300753.080   111936214.616 7      3986.817          46.750    21300750.280   111936214.627 6      3986.817          37.000    21300753.460    87223023.830 6      3106.611          36.937
G18  22337807.460   117385965.019 7       194.857          45.062    22337804.580   117385965.027 5       194.857          35.875    22337809.780    91469590.879 5       151.837          35.687    22337811.240    91469600.873 8       151.837          49.187
R11  19488195.300   104139009.548 8      2326.893          50.312    19488195.480   104139009.557 8      2326.893          49.250    19488201.840    80997029.667 8      1809.806          51.062    19488201.580    80997030.667 8      1809.806          51.250
R21  20353911.840   108917887.953 7      -279.170          45.437    20353911.620   108917887.960 7      -279.170          46.187    20353920.900    84713955.124 8      -217.132          48.500    20353920.580    84713954.121 7      -217.132          47.875
G08  23674253.960   124409043.737 6      4633.057          39.250    23674252.700   124409043.728 4      4633.057          28.625    23674262.600    96942124.860 4      3610.174          28.500    23674263.300    96942148.871 7      3610.174          46.375
R12  21444608.940   114553250.738 7      5790.022          46.500    21444608.560   114553250.731 7      5790.022          46.562    21444617.780    89097015.631 7      4503.350          46.312    21444618.440    89097015.630 7      4503.350          46.687
> 2024 05 10 10 12 40.0000000  0 15
G04  24811286.880   130384196.813 6      1165.622          37.812    24811285.020   130384196.818 3      1165.622          22.687    24811294.040   101598114.749 3       908.277          22.562    24811294.600   101598101.732 6       908.277          40.687
G23  23964895.000   125936375.850 7      4276.495          44.812    23964895.260   125936375.858 5      4276.495          31.375    23964904.800    98132287.341 5      3332.334          31.250    23964901.260    98132280.346 7      3332.334          44.000
G27  21292179.540   111891157.879 7      3480.708          47.187    21292178.060   111891157.884 6      3480.708          39.812    21292182.820    87187931.991 6      2712.240          39.250    21292183.180    87187933.995 8      2712.240          49.187
G31  21426447.340   112596739.836 7       101.585          47.625    21426446.960   112596739.838 7       101.585          46.437    21426448.960    87737726.619 7        79.157          46.187    21426449.540    87737729.615 8        79.157          48.125
R23  23016330.620   123121844.981 6      6142.299          41.500    23016331.420   123121844.985 6      6142.299          41.187
G28  23107048.320   121428355.198 7     -1059.907          42.625    23107047.760   121428355.211 5     -1059.907          32.500    23107053.440    94619512.620 5      -825.901          32.312    23107054.080    94619521.612 7      -825.901          47.250
G10  24578123.740   129158911.172 6      4823.354          40.625    24578123.700   129158911.187 5      4823.354          33.062    24578138.040   100643356.225 5      3758.458          32.937    24578136.880   100643362.257 6      3758.458          38.125
G26  20569755.020   108094793.224 7      2311.730          47.437    20569753.720   108094793.229 7      2311.730          47.875    20569759.240    84229727.099 8      1801.348          48.187    20569759.960    84229731.100 8      1801.348          49.687
R22  19524497.300   104223089.296 8      3526.814          49.437    19524497.460   104223089.300 8      3526.814          49.437    19524503.280    81062430.615 8      2743.077          51.625    19524503.380    81062432.619 8      2743.077          51.625
G16  21299994.400   111932227.949 7      3986.526          46.187    21299991.700   111932227.957 6      3986.526          37.187    21299994.800    87219917.338 6      3106.384          36.875
G18  22337770.300   117385770.399 7       194.401          45.250    22337767.380   117385770.407 5       194.401          35.875    22337772.680    91469439.223 5       151.482          35.687    22337774.220    91469449.219 8       151.482          49.187
R11  19487759.840   104136682.982 8      2326.225          49.875    19487760.040   104136682.994 8      2326.225          48.562    19487766.480    80995220.116 8      1809.286          52.125    19487766.300    80995221.114 8      1809.286          53.312
R21  20353964.080   108918167.366 7      -279.607          46.625    20353964.000   108918167.378 7      -279.607          46.312    20353973.220    84714172.445 8      -217.472          49.125    20353972.880    84714171.446 8      -217.472          48.437
G08  23673372.580   124404410.834 6      4632.947          39.750    23673371.100   124404410.826 4      4632.947          28.625    23673381.060    96938514.807 4      3610.088          28.500    23673381.540    96938538.831 7      3610.088          46.437
R12  21443524.760   114547460.792 7      5789.831          45.875    21443524.480   114547460.791 7      5789.831          46.437    21443533.840    89092512.340 7      4503.202          47.187    21443534.520    89092512.338 8      4503.202          48.000
> 2024 05 10 10 12 41.0000000  0 15
G04  24811064.680   130383031.796 6      1164.701          38.375    24811063.300   130383031.801 3      1164.701          22.687    24811072.300   101597206.941 3       907.559          22.562    24811073.000   101597193.916 6       907.559          40.937
G23  23964081.060   125932099.602 7      4275.939          44.375    23964081.400   125932099.612 5      4275.939          30.562    23964091.060    98128955.200 5      3331.901          30.687    23964087.800    98128948.210 7      3331.901          44.125
G27  21291517.140   111887677.469 7      3480.079          47.937    21291515.800   111887677.474 6      3480.079          39.750    21291520.500    87185219.983 6      2711.750          39.312    21291520.800    87185221.988 8      2711.750          49.187
G31  21426428.100   112596638.661 7       100.851          47.500    21426427.640   112596638.660 7       100.851          46.250    21426429.720    87737647.775 7        78.585          46.250    21426430.420    87737650.777 8        78.585          48.562
R23  23015182.480   123115702.958 6      6141.642          41.750    23015182.800   123115702.959 6      6141.642          41.187
G28  23107249.940   121429415.535 7     -1060.579          43.375    23107249.480   121429415.551 5     -1060.579          31.812    23107255.120    94620338.849 5      -826.425          31.875    23107255.700    94620347.843 7      -826.425          47.562
G10  24577205.800   129154087.877 6      4823.156          40.000    24577205.920   129154087.887 5      4823.156          32.562    24577220.280   100639597.816 5      3758.303          32.437    24577219.360   100639603.837 6      3758.303          38.125
G26  20569315.180   108092481.794 7      2311.092          47.687    20569314.000   108092481.799 8      2311.092          48.625    20569319.440    84227925.980 8      1800.851          48.812    20569320.120    84227929.985 8      1800.851          49.562
R22  19523836.740   104219563.003 8      3525.775          49.750    19523836.860   104219563.004 8      3525.775          49.312    19523842.760    81059687.940 8      2742.269          51.812    19523842.800    81059689.944 8      2742.269          51.937
G16  21299235.780   111928241.606 7      3986.098          46.937    21299233.180   111928241.613 6      3986.098          37.000    21299236.020    87216811.096 6      3106.050          37.125
G18  22337733.280   117385576.399 7       193.650          44.750    22337730.340   117385576.406 5       193.650          35.687    22337735.700    91469288.052 5       150.896          35.500    22337737.360    91469298.052 8       150.896          48.937
R11  19487324.800   104134357.256 8      2325.305          49.562    19487324.740   104134357.265 8      2325.305          49.187    19487331.200    80993411.216 8      1808.570          52.187    19487330.760    80993412.216 8      1808.570          53.000
R21  20354016.380   108918447.418 7      -280.502          46.437    20354016.320   108918447.423 7      -280.502          46.312    20354025.620    84714390.259 8      -218.168          48.625    20354025.440    84714389.257 8      -218.168          48.750
G08  23672491.300   124399778.339 6      4632.203          39.312    23672489.500   124399778.339 4      4632.203          28.625    23672499.420    96934905.076 4      3609.509          28.000    23672500.140    96934929.091 7      3609.509          46.625
R12  21442440.940   114541671.188 7      5789.393          46.062    21442440.780   114541671.187 7      5789.393          46.062    21442450.000    89088009.319 7      4502.861          47.312    21442450.480    89088009.317 7      4502.861          47.625
> 2024 05 10 10 12 42.0000000  0 15
G04  24810843.140   130381866.920 6      1165.036          37.687    24810841.660   130381866.925 3      1165.036          22.687    24810850.420   101596299.244 3       907.820          22.562    24810851.400   101596286.229 6       907.820          40.937
G23  23963267.580   125927823.517 7      4276.030          44.250    23963267.660   125927823.527 5      4276.030          30.562    23963277.160    98125623.191 5      3331.971          30.687    23963274.300    98125616.202 7      3331.971          43.875
G27  21290854.560   111884197.280 8      3480.191          48.062    21290853.540   111884197.285 6      3480.191          40.125    21290858.380    87182508.147 6      2711.837          39.937    21290858.500    87182510.150 8      2711.837          49.062
G31  21426408.880   112596537.845 7       100.741          47.875    21426408.380   112596537.850 7       100.741          46.375    21426410.580    87737569.220 7        78.499          46.312    21426410.980    87737572.219 8        78.499          48.250
R23  23014034.240   123109561.186 7      6141.738          42.000    23014034.720   123109561.182 6      6141.738          40.687
G28  23107451.620   121430475.941 7     -1060.326          42.500    23107451.340   121430475.954 5     -1060.326          31.812    23107457.080    94621165.130 5      -826.228          31.875    23107457.360    94621174.117 7      -826.228          47.437
G10  24576287.760   129149264.440 6      4823.657          40.187    24576288.060   129149264.450 5      4823.657          32.562    24576302.360   100635839.297 5      3758.693          32.437    24576302.340   100635845.333 6      3758.693          38.125
G26  20568875.460   108090170.627 8      2311.128          48.250    20568874.120   108090170.632 8      2311.128          48.562    20568879.640    84226125.071 8      1800.879          48.375    20568880.380    84226129.076 8      1800.879          49.312
R22  19523176.500   104216037.351 8      3525.396          49.062    19523176.400   104216037.357 8      3525.396          49.625    19523182.380    81056945.774 8      2741.975          51.375    19523182.080    81056947.779 8      2741.975          51.875
G16  21298477.420   111924255.377 7      3986.296          46.750    21298474.620   111924255.388 6      3986.296          36.875    21298477.500    87213704.946 6      3106.205          36.812
G18  22337696.360   117385382.780 7       193.583          45.000    22337693.440   117385382.785 5       193.583          35.750    22337699.000    91469137.174 5       150.844          35.500    22337700.660    91469147.168 8       150.844          49.625
R11  19486889.520   104132032.093 8      2324.992          50.562    19486889.980   104132032.105 8      2324.992          49.375    19486896.120    80991602.756 8      1808.327          52.375    19486895.960    80991603.754 8      1808.327          52.875
R21  20354069.020   108918727.819 7      -280.453          46.562    20354068.860   108918727.828 7      -280.453          46.250    20354078.240    84714608.349 8      -218.130          49.625    20354077.900    84714607.350 8      -218.130          49.000
G08  23671610.180   124395145.920 6      4632.454          39.937    23671607.920   124395145.915 4      4632.454          28.625    23671617.840    96931295.399 4      3609.704          28.000    23671618.660    96931319.422 7      3609.704          46.500
R12  21441357.320   114535881.691 7      5789.520          46.000    21441357.100   114535881.679 7      5789.520          45.937    21441366.420    89083506.370 7      4502.960          47.375    21441366.760    89083506.369 7      4502.960          47.250
> 2024 05 10 10 12 43.0000000  0 15
G04  24810621.800   130380702.504 6      1164.458          37.687    24810620.200   130380702.509 3      1164.458          22.687    24810628.800   101595391.905 3       907.370          22.562    24810629.760   101595378.889 6       907.370          40.875
G23  23962453.640   125923547.744 7      4275.799          44.875    23962453.940   125923547.754 5      4275.799          30.562    23962463.500    98122291.423 5      3331.792          30.687    23962460.400    98122284.435 7      3331.792          44.375
G27  21290192.420   111880717.456 8      3479.857          48.000    21290191.320   111880717.461 6      3479.857          39.750    21290196.200    87179796.596 6      2711.577          39.687    21290196.520    87179798.599 8      2711.577          49.000
G31  21426389.720   112596437.537 8       100.329          48.125    21426389.460   112596437.542 7       100.329          46.062    21426391.460    87737491.060 7        78.178          45.937    21426392.320    87737494.057 8        78.178          48.000
R23  23012886.300   123103419.812 7      6141.419          42.000    23012886.980   123103419.819 6      6141.419          40.687
G28  23107653.480   121431536.599 7     -1060.475          42.500    23107653.220   121431536.612 5     -1060.475          31.812    23107659.020    94621991.607 5      -826.344          31.875    23107659.340    94622000.599 7      -826.344          47.562
G10  24575370.160   129144441.016 6      4823.609          40.000    24575370.240   129144441.024 5      4823.609          32.875    24575384.520   100632080.788 5      3758.657          32.750    24575383.780   100632086.817 6      3758.657          38.437
G26  20568435.540   108087859.864 8      2310.801          48.687    20568434.420   108087859.874 8      2310.801          48.062    20568439.880    84224324.483 8      1800.624          48.187    20568440.700    84224328.486 8      1800.624          49.187
R22  19522515.980   104212512.528 8      3524.606          49.187    19522516.080   104212512.535 8      3524.606          49.500    19522522.040    81054204.244 8      2741.360          52.125    19522521.940    81054206.246 8      2741.360          51.750
G16  21297718.860   111920269.407 7      3986.095          47.187    21297716.100   111920269.414 6      3986.095          37.000    21297719.100    87210598.995 6      3106.048          36.750
G18  22337659.700   117385189.691 7       193.078          45.125    22337656.740   117385189.699 5       193.078          35.312    22337662.200    91468986.713 5       150.450          34.937    22337663.940    91468996.709 8       150.450          49.125
R11  19486454.720   104129707.684 8      2324.199          49.625    19486454.840   104129707.693 8      2324.199          49.187    19486460.980    80989794.882 8      1807.711          52.312    19486460.740    80989795.880 8      1807.711          52.937
R21  20354121.080   108919008.725 7      -280.891          47.187    20354121.280   108919008.737 7      -280.891          46.000    20354130.800    84714826.831 8      -218.471          49.125    20354130.500    84714825.830 8      -218.471          49.062
G08  23670728.720   124390513.791 6      4632.062          40.187    23670726.420   124390513.790 4      4632.062          28.250    23670736.500    96927685.950 4      3609.399          28.000    23670737.160    96927709.968 7      3609.399          46.625
R12  21440273.220   114530092.410 7      5789.328          46.500    21440273.040   114530092.401 7      5789.328          46.125    21440282.540    89079003.600 7      4502.811          47.125    21440282.800    89079003.597 7      4502.811          47.937
> 2024 05 10 10 12 44.0000000  0 15
G04  24810400.040   130379538.143 6      1164.185          37.687    24810398.560   130379538.148 3      1164.185          22.687    24810407.060   101594484.604 3       907.157          22.562    24810408.260   101594471.581 6       907.157          40.875
G23  23961640.200   125919271.966 7      4275.596          44.937    23961640.280   125919271.976 5      4275.596          30.500    23961649.780    98118959.652 5      3331.633          30.562    23961646.780    98118952.662 7      3331.633          44.187
G27  21289530.420   111877237.679 8      3479.665          48.250    21289529.140   111877237.681 6      3479.665          40.000    21289533.960    87177085.082 6      2711.428          39.937    21289534.380    87177087.086 8      2711.428          49.125
G31  21426370.980   112596337.439 7        99.889          47.750    21426370.300   112596337.442 7        99.889          46.125    21426372.420    87737413.053 7        77.835          46.187    21426373.120    87737416.053 8        77.835          48.312
R23  23011738.180   123097278.521 6      6141.178          41.625    23011738.580   123097278.534 6      6141.178          40.687
G28  23107855.680   121432597.205 7     -1060.716          42.562    23107854.980   121432597.220 5     -1060.716          32.125    23107860.740    94622818.047 5      -826.532          31.937    23107860.980    94622827.039 7      -826.532          47.250
G10  24574452.640   129139617.262 6      4823.838          39.750    24574452.100   129139617.272 5      4823.838          32.875    24574466.680   100628322.024 5      3758.835          32.750    24574466.440   100628328.039 6      3758.835          38.437
G26  20567995.780   108085549.225 8      2310.439          48.250    20567994.720   108085549.230 8      2310.439          48.500    20568000.260    84222523.977 8      1800.342          48.250    20568000.960    84222527.980 8      1800.342          49.250
R22  19521855.800   104208988.205 8      3523.930          49.000    19521855.900   104208988.206 8      3523.930          49.562    19521861.820    81051463.100 8      2740.834          51.875    19521861.900    81051465.097 8      2740.834          51.750
G16  21296960.200   111916283.373 7      3985.986          46.750    21296957.460   111916283.381 6      3985.986          36.875    21296960.520    87207492.995 6      3105.963          37.062
G18  22337622.900   117384996.816 7       192.579          44.437    22337620.060   117384996.823 5       192.579          35.375    22337625.400    91468836.417 5       150.062          35.375    22337627.280    91468846.416 8       150.062          49.125
R11  19486019.780   104127383.697 8      2323.694          50.375    19486019.880   104127383.706 8      2323.694          49.437    19486026.120    80987987.335 8      1807.318          52.250    19486025.840    80987988.333 8      1807.318          52.875
R21  20354173.460   108919289.858 7      -281.398          47.125    20354173.640   108919289.876 7      -281.398          45.875    20354183.360    84715045.490 8      -218.865          48.812    20354182.860    84715044.490 8      -218.865          49.125
G08  23669847.440   124385881.545 6      4632.334          39.437    23669845.120   124385881.542 4      4632.334          28.250    23669854.940    96924076.408 4      3609.611          28.000    23669855.400    96924100.426 7      3609.611          46.437
R12  21439189.500   114524303.058 7      5789.270          45.312    21439189.440   114524303.051 7      5789.270          46.125    21439198.660    89074500.773 7      4502.766          47.250    21439198.900    89074500.769 7      4502.766          47.562
> 2024 05 10 10 12 45.0000000  0 15
G04  24810178.820   130378374.161 6      1163.627          38.562    24810177.060   130378374.168 3      1163.627          22.687    24810185.560   101593577.603 3       906.722          22.562    24810186.880   101593564.588 6       906.722          41.125
G23  23960826.840   125914996.527 7      4275.294          44.500    23960826.560   125914996.534 5      4275.294          30.500    23960836.200    98115628.143 5      3331.398          30.562    23960832.860    98115621.159 7      3331.398          44.125
G27  21288868.500   111873758.323 7      3479.156          47.312    21288867.180   111873758.328 6      3479.156          40.500    21288871.860    87174373.891 6      2711.031          40.375    21288872.260    87174375.893 8      2711.031          49.625
G31  21426351.960   112596237.878 7        99.340          47.437    21426351.300   112596237.882 7        99.340          46.000    21426353.460    87737335.472 7        77.408          45.937    21426354.100    87737338.474 8        77.408          48.312
R23  23010589.840   123091137.691 6      6140.644          41.625    23010590.740   123091137.692 6      6140.644          40.875
G28  23108057.460   121433658.086 7     -1060.936          42.812    23108056.900   121433658.096 5     -1060.936          32.125    23108062.720    94623644.695 5      -826.703          31.937    23108062.880    94623653.683 7      -826.703          47.437
G10  24573534.660   129134793.575 6      4823.554          39.250    24573534.060   129134793.585 5      4823.554          32.250    24573548.800   100624563.311 5      3758.614          32.312    24573549.000   100624569.337 6      3758.614          38.687
G26  20567556.280   108083239.028 8      2309.883          48.062    20567555.020   108083239.032 8      2309.883          48.375    20567560.600    84220723.823 8      1799.909          48.375    20567561.500    84220727.826 8      1799.909          49.312
R22  19521195.700   104205464.709 7      3523.134          47.750    19521195.840   104205464.713 8      3523.134          49.250    19521201.680    81048722.592 8      2740.215          51.437    19521201.920    81048724.590 8      2740.215          51.750
G16  21296201.820   111912297.623 7      3985.635          46.625    21296198.980   111912297.625 6      3985.635          37.312    21296202.040    87204387.212 6      3105.690          36.875
G18  22337586.440   117384804.481 7       192.109          43.750    22337583.440   117384804.486 5       192.109          35.375    22337588.920    91468686.542 5       149.695          35.312    22337590.460    91468696.541 8       149.695          49.500
R11  19485584.840   104125060.516 8      2322.802          50.500    19485585.180   104125060.520 8      2322.802          49.312    19485591.400    80986180.410 8      1806.623          52.562    19485591.280    80986181.409 8      1806.623          52.875
R21  20354225.980   108919571.567 7      -281.957          46.937    20354226.380   108919571.574 7      -281.957          45.937    20354236.120    84715264.587 8      -219.300          49.062    20354235.740    84715263.588 8      -219.300          49.187
G08  23668965.740   124381249.683 6      4631.683          39.250    23668963.680   124381249.680 4      4631.683          28.250    23668973.540    96920467.167 4      3609.104          28.000    23668974.220    96920491.179 7      3609.104          46.375
R12  21438105.940   114518514.031 7      5788.774          46.062    21438105.820   114518514.024 7      5788.774          46.062    21438114.900    89069998.202 7      4502.380          47.250    21438115.160    89069998.199 7      4502.380          47.125
> 2024 05 10 10 12 46.0000000  0 15
G04  24809956.960   130377210.488 6      1163.407          39.062    24809955.440   130377210.498 3      1163.407          22.687    24809964.320   101592670.843 3       906.551          22.562    24809965.500   101592657.830 6       906.551          41.125
G23  23960013.280   125910721.319 7      4275.098          44.812    23960013.100   125910721.327 5      4275.098          30.500    23960022.540    98112296.816 5      3331.245          30.562    23960019.340    98112289.826 7      3331.245          44.187
G27  21288206.200   111870279.206 7      3479.039          47.062    21288205.100   111870279.210 6      3479.039          40.437    21288209.880    87171662.892 6      2710.939          40.250    21288210.320    87171664.893 8      2710.939          49.250
G31  21426332.940   112596138.733 7        99.029          46.937    21426332.540   112596138.736 7        99.029          46.187    21426334.580    87737258.211 7        77.166          46.375    21426335.520    87737261.211 8        77.166          48.250
R23  23009442.380   123084997.170 6      6140.243          41.625    23009442.360   123084997.177 6      6140.243          40.875
G28  23108259.660   121434719.122 7     -1061.125          42.125    23108258.680   121434719.135 5     -1061.125          32.312    23108264.820    94624471.468 5      -826.850          32.312    23108264.800    94624480.461 7      -826.850          47.250
G10  24572616.220   129129969.708 6      4824.097          39.187    24572615.760   129129969.736 5      4824.097          32.250    24572630.740   100620804.472 5      3759.037          32.312    24572630.300   100620810.506 6      3759.037          38.687
G26  20567116.680   108080929.119 7      2309.782          47.250    20567115.500   108080929.129 8      2309.782          48.375    20567121.120    84218923.892 8      1799.830          48.562    20567121.640    84218927.897 8      1799.830          49.312
R22  19520535.840   104201941.942 8      3522.489          49.062    19520535.760   104201941.946 8      3522.489          49.437    19520541.780    81045982.662 8      2739.714          51.687    19520541.920    81045984.660 8      2739.714          51.937
G16  21295443.300   111908312.020 7      3985.586          46.500    21295440.580   111908312.025 6      3985.586          37.000    21295443.560    87201281.549 6      3105.652          37.250
G18  22337549.920   117384612.583 7       191.746          45.312    22337547.000   117384612.593 5       191.746          35.625    22337552.460    91468537.011 5       149.412          35.750    22337554.220    91468547.008 8       149.412          48.875
R11  19485150.200   104122737.953 8      2322.279          50.375    19485150.380   104122737.963 8      2322.279          48.937    19485156.700    80984373.975 8      1806.217          52.375    19485156.700    80984374.971 8      1806.217          53.062
R21  20354278.540   108919853.669 7      -282.199          47.250    20354278.980   108919853.678 7      -282.199          46.125    20354288.960    84715483.997 8      -219.488          49.312    20354288.200    84715483.001 8      -219.488          49.187
G08  23668083.880   124376617.927 6      4631.776          38.875    23668082.300   124376617.924 4      4631.776          28.250    23668092.180    96916858.010 4      3609.176          27.875    23668093.020    96916882.030 7      3609.176          46.625
R12  21437022.000   114512725.137 7      5788.913          45.687    21437022.100   114512725.130 7      5788.913          46.250    21437031.340    89065495.729 7      4502.488          47.062    21437031.320    89065495.728 7      4502.488          47.187
> 2024 05 10 10 12 47.0000000  0 15
G04  24809735.500   130376047.273 6      1162.924          39.562    24809734.220   130376047.286 3      1162.924          22.687    24809743.080   101591764.440 3       906.174          22.687    24809743.820   101591751.424 6       906.174          40.875
G23  23959199.760   125906446.513 7      4274.472          44.875    23959199.760   125906446.523 5      4274.472          30.750    23959209.020    98108965.798 5      3330.757          30.687    23959205.660    98108958.819 7      3330.757          44.000
G27  21287544.240   111866800.580 7      3478.356          47.750    21287543.180   111866800.582 6      3478.356          40.125    21287547.840    87168952.275 6      2710.408          40.250    21287548.460    87168954.277 8      2710.408          49.187
G31  21426314.340   112596040.212 7        98.209          46.875    21426313.640   112596040.220 7        98.209          45.937    21426315.880    87737181.443 7        76.526          46.125    21426316.600    87737184.439 8        76.526          48.062
R23  23008294.560   123078857.147 6      6139.642          41.625    23008294.380   123078857.160 6      6139.642          40.625
G28  23108461.700   121435780.505 7     -1061.605          43.000    23108460.600   121435780.518 5     -1061.605          32.312    23108466.660    94625298.512 5      -827.225          32.312    23108466.940    94625307.505 7      -827.225          47.187
G10  24571698.540   129125146.045 6      4823.629          39.187    24571697.820   129125146.065 5      4823.629          32.250    24571712.900   100617045.771 5      3758.672          32.312    24571712.620   100617051.791 6      3758.672          38.687
G26  20566677.280   108078619.746 7      2309.123          47.937    20566676.060   108078619.754 8      2309.123          48.312    20566681.620    84217124.383 8      1799.316          48.500    20566682.340    84217128.388 8      1799.316          49.500
R22  19519876.160   104198420.106 8      3521.302          50.062    19519876.220   104198420.110 8      3521.302          49.312    19519882.100    81043243.457 8      2738.791          51.687    19519882.160    81043245.455 8      2738.791          52.125
G16  21294684.940   111904326.775 7      3985.075          46.625    21294682.240   111904326.782 6      3985.075          37.062    21294685.240    87198176.169 6      3105.253          37.125
G18  22337513.600   117384421.326 7       190.897          44.750    22337510.580   117384421.339 5       190.897          35.625    22337516.040    91468387.979 5       148.751          35.750    22337517.720    91468397.975 8       148.751          49.187
R11  19484715.880   104120416.237 8      2321.246          50.812    19484715.880   104120416.247 8      2321.246          49.437    19484722.120    80982568.193 8      1805.414          52.500    19484722.060    80982569.191 8      1805.414          52.437
R21  20354331.540   108920136.410 7      -283.139          46.500    20354331.560   108920136.433 7      -283.139          46.812    20354341.700    84715703.916 8      -220.220          49.000    20354341.240    84715702.919 8      -220.220          49.062
G08  23667202.760   124371986.585 6      4631.143          39.562    23667200.940   124371986.572 4      4631.143          28.250    23667211.100    96913249.166 4      3608.683          27.875    23667211.620    96913273.168 7      3608.683          46.437
R12  21435939.160   114506936.666 7      5788.218          45.562    21435938.840   114506936.659 7      5788.218          46.625    21435947.540    89060993.587 7      4501.947          47.250    21435947.660    89060993.588 7      4501.947          47.250
> 2024 05 10 10 12 48.0000000  0 15
G04  24809514.600   130374884.591 6      1162.255          40.000    24809512.880   130374884.601 3      1162.255          22.312    24809521.880   101590858.454 3       905.653          22.687    24809522.440   101590845.432 6       905.653          40.875
G23  23958386.560   125902172.123 7      4274.123          44.625    23958386.520   125902172.135 5      4274.123          30.750    23958395.320    98105635.106 5      3330.486          30.687    23958392.340    98105628.121 7      3330.486          43.937
G27  21286882.360   111863322.414 7      3477.930          47.312    21286881.280   111863322.413 6      3477.930          40.187    21286885.880    87166242.015 6      2710.075          39.937    21286886.760    87166244.012 8      2710.075          49.187
G31  21426295.760   112595942.298 7        97.599          46.812    21426295.000   112595942.305 7        97.599          46.062    21426297.240    87737105.142 7        76.051          46.062    21426298.060    87737108.138 8        76.051          48.500
R23  23007146.780   123072717.665 6      6139.213          41.375    23007146.600   123072717.682 6      6139.213          40.625
G28  23108663.680   121436842.246 7     -1061.928          42.500    23108662.660   121436842.253 5     -1061.928          32.312    23108668.700    94626125.830 5      -827.476          32.312    23108668.820    94626134.816 7      -827.476          46.875
G10  24570780.340   129120322.466 6      4823.490          38.812    24570779.800   129120322.482 5      4823.490          32.562    24570795.000   100613287.141 5      3758.564          32.437    24570794.880   100613293.156 6      3758.564          39.437
G26  20566237.860   108076310.897 7      2308.553          47.812    20566236.740   108076310.904 8      2308.553          48.187    20566242.320    84215325.275 8      1798.873          48.437    20566242.860    84215329.278 8      1798.873          49.562
R22  19519216.680   104194899.178 8      3520.397          49.375    19519216.460   104194899.179 8      3520.397          49.062    19519222.440    81040504.957 8      2738.086          51.562    19519222.360    81040506.955 8      2738.086          52.125
G16  21293926.840   111900341.895 7      3984.707          46.437    21293924.060   111900341.899 6      3984.707          37.312    21293926.820    87195071.064 6      3104.967          37.125
G18  22337477.520   117384230.671 7       190.446          43.937    22337474.420   117384230.679 5       190.446          35.625    22337479.740    91468239.408 5       148.400          35.375    22337481.200    91468249.400 8       148.400          49.125
R11  19484281.760   104118095.358 8      2320.453          51.250    19484281.620   104118095.372 8      2320.453          49.500    19484287.740    80980763.071 8      1804.797          52.187    19484287.780    80980764.071 8      1804.797          53.250
R21  20354384.600   108920419.751 7      -283.658          47.437    20354385.020   108920419.763 7      -283.658          46.062    20354394.760    84715924.281 8      -220.623          49.687    20354394.100    84715923.283 8      -220.623          49.000
G08  23666321.360   124367355.548 6      4630.884          39.562    23666319.840   124367355.537 4      4630.884          28.375    23666329.800    96909640.570 4      3608.481          27.875    23666330.660    96909664.580 7      3608.481          46.250
R12  21434855.860   114501148.515 7      5787.933          45.750    21434855.140   114501148.497 7      5787.933          45.750    21434864.180    89056491.677 7      4501.726          46.812    21434864.240    89056491.682 7      4501.726          47.312
> 2024 05 10 10 12 49.0000000  0 15
G04  24809293.080   130373722.027 6      1162.436          38.750    24809291.760   130373722.038 3      1162.436          22.312    24809300.820   101589952.558 3       905.795          22.687    24809301.040   101589939.541 6       905.795          40.500
G23  23957573.140   125897897.858 7      4274.107          44.187    23957573.160   125897897.866 5      4274.107          30.750    23957582.080    98102304.509 5      3330.473          30.687    23957579.200    98102297.525 7      3330.473          44.187
G27  21286220.500   111859844.434 7      3477.797          47.500    21286219.400   111859844.439 6      3477.797          39.812    21286224.120    87163531.901 6      2709.972          39.625    21286225.000    87163533.906 8      2709.972          49.625
G31  21426277.080   112595844.725 7        97.372          47.312    21426276.460   112595844.724 7        97.372          46.187    21426278.680    87737029.105 7        75.874          45.875    21426279.560    87737032.103 8        75.874          48.000
R23  23005998.520   123066578.436 6      6139.086          41.375    23005998.720   123066578.464 6      6139.086          40.625
G28  23108865.540   121437904.036 7     -1061.883          42.375    23108864.800   121437904.049 5     -1061.883          32.000    23108870.760    94626953.195 5      -827.441          31.812    23108871.000    94626962.192 7      -827.441          47.250
G10  24569862.340   129115498.696 6      4823.885          38.812    24569862.020   129115498.706 5      4823.885          32.562    24569876.900   100609528.359 5      3758.872          32.437    24569876.520   100609534.364 6      3758.872          39.437
G26  20565798.400   108074002.278 7      2308.381          47.687    20565797.340   108074002.285 8      2308.381          48.625    20565802.980    84213526.351 8      1798.739          48.625    20565803.500    84213530.356 8      1798.739          49.062
R22  19518557.080   104191378.859 8      3519.977          48.375    19518557.080   104191378.860 8      3519.977          49.937    19518562.940    81037766.931 8      2737.760          52.125    19518562.820    81037768.927 8      2737.760          52.187
G16  21293168.580   111896357.077 7      3984.791          46.437    21293165.760   111896357.080 6      3984.791          36.875    21293168.700    87191966.011 6      3105.032          37.062
G18  22337441.300   117384040.389 7       190.081          44.312    22337438.260   117384040.402 5       190.081          35.687    22337443.500    91468091.135 5       148.115          35.437    22337445.300    91468101.130 8       148.115          48.937
R11  19483847.480   104115775.034 8      2319.989          50.625    19483847.480   104115775.048 8      2319.989          49.125    19483853.580    80978958.372 8      1804.436          52.250    19483853.360    80978959.373 8      1804.436          53.375
R21  20354438.060   108920703.466 7      -283.942          46.312    20354438.040   108920703.473 7      -283.942          46.250    20354447.660    84716144.945 8      -220.844          49.500    20354447.240    84716143.944 8      -220.844          49.562
G08  23665440.400   124362724.645 6      4630.772          39.937    23665438.580   124362724.632 4      4630.772          28.375    23665448.380    96906032.076 4      3608.394          27.875    23665449.160    96906056.091 7      3608.394          46.687
R12  21433772.020   114495360.417 7      5787.972          46.000    21433771.700   114495360.402 7      5787.972          45.687    21433780.620    89051989.830 7      4501.756          47.437    21433780.820    89051989.833 7      4501.756          47.187
> 2024 05 10 10 12 50.0000000  0 15
G04  24809071.960   130372559.800 6      1162.247          39.000    24809070.680   130372559.805 3      1162.247          22.312    24809079.520   101589046.920 3       905.647          22.687    24809079.940   101589033.891 6       905.647          40.500
G23  23956759.720   125893623.812 7      4273.934          45.062    23956759.940   125893623.819 5      4273.934          30.875    23956768.700    98098974.085 5      3330.339          30.812    23956765.540    98098967.095 7      3330.339          44.250
G27  21285558.540   111856366.720 7      3477.602          47.812    21285557.620   111856366.722 6      3477.602          40.000    21285562.360    87160821.992 6      2709.820          40.000    21285563.300    87160823.993 8      2709.820          49.750
G31  21426258.680   112595747.543 7        96.964          47.437    21426257.900   112595747.551 7        96.964          45.875    21426260.180    87736953.379 7        75.557          45.875    21426261.240    87736956.379 7        75.557          47.875
R23  23004851.000   123060439.564 6      6138.726          41.375    23004851.600   123060439.581 6      6138.726          40.375
G28  23109067.720   121438965.995 7     -1061.957          42.437    23109067.000   121438966.010 5     -1061.957          32.000    23109072.820    94627780.683 5      -827.499          31.812    23109072.880    94627789.673 7      -827.499          46.937
G10  24568944.860   129110674.841 6      4823.767          39.187    24568944.060   129110674.851 5      4823.767          32.625    24568959.060   100605769.513 5      3758.780          32.562    24568959.180   100605775.522 6      3758.780          39.437
G26  20565359.240   108071693.970 8      2308.161          48.875    20565358.200   108071693.974 8      2308.161          48.750    20565363.820    84211727.665 8      1798.567          48.687    20565364.420    84211731.666 8      1798.567          49.062
R22  19517897.480   104187859.268 8      3519.274          49.375    19517897.780   104187859.271 8      3519.274          50.000    19517903.620    81035029.473 8      2737.213          51.625    19517903.700    81035031.469 8      2737.213          52.562
G16  21292410.200   111892372.426 7      3984.533          47.187    21292407.360   111892372.431 6      3984.533          37.125    21292410.300    87188861.086 6      3104.831          36.562
G18  22337405.240   117383850.524 7       189.618          45.187    22337402.160   117383850.535 5       189.618          35.625    22337407.400    91467943.184 5       147.754          35.500    22337409.000    91467953.176 8       147.754          48.937
R11  19483413.500   104113455.364 8      2319.362          50.562    19483413.380   104113455.368 8      2319.362          49.250    19483419.480    80977154.166 8      1803.948          52.562    19483419.340    80977155.169 8      1803.948          53.250
R21  20354491.120   108920987.583 7      -284.291          46.875    20354491.140   108920987.593 7      -284.291          46.562    20354501.060    84716365.920 8      -221.115          49.625    20354500.460    84716364.924 8      -221.115          49.187
G08  23664559.340   124358093.861 6      4630.833          39.562    23664557.340   124358093.847 4      4630.833          28.375    23664567.280    96902423.673 4      3608.442          28.125    23664568.080    96902447.689 7      3608.442          46.250
R12  21432688.140   114489572.474 7      5787.942          46.375    21432688.160   114489572.459 7      5787.942          46.375    21432697.120    89047488.097 8      4501.733          48.000    21432697.100    89047488.102 7      4501.733          47.187
> 2024 05 10 10 12 51.0000000  0 15
G04  24808850.720   130371397.809 6      1162.109          39.187    24808849.740   130371397.819 3      1162.109          22.312    24808858.540   101588141.467 3       905.539          22.687    24808858.560   101588128.456 6       905.539          40.125
G23  23955946.240   125889349.933 7      4273.996          44.812    23955946.640   125889349.941 5      4273.996          30.875    23955955.320    98095643.790 5      3330.387          30.812    23955952.180    98095636.805 7      3330.387          44.000
G27  21284896.780   111852889.240 7      3477.495          47.250    21284895.860   111852889.250 6      3477.495          39.937    21284900.680    87158112.271 6      2709.736          39.750    21284901.500    87158114.274 8      2709.736          49.687
G31  21426240.120   112595650.764 7        96.691          47.187    21426239.480   112595650.769 7        96.691          45.750    21426241.800    87736877.963 7        75.344          45.500    21426242.940    87736880.962 8        75.344          48.437
R23  23003703.280   123054300.961 6      6138.603          41.000    23003703.680   123054300.973 6      6138.603          40.375
G28  23109269.780   121440028.064 7     -1061.949          42.000    23109269.200   121440028.077 5     -1061.949          32.125    23109274.940    94628608.261 5      -827.493          31.812    23109275.120    94628617.249 7      -827.493          46.937
G10  24568026.840   129105850.834 6      4824.115          39.375    24568025.900   129105850.852 5      4824.115          32.625    24568041.100   100602010.555 5      3759.051          32.562    24568041.420   100602016.564 6      3759.051          39.062
G26  20564920.060   108069385.942 8      2308.102          48.250    20564918.960   108069385.942 8      2308.102          48.125    20564924.600    84209929.198 7      1798.521          47.937    20564925.320    84209933.199 8      1798.521          49.437
R22  19517238.240   104184340.355 8      3518.768          48.812    19517238.440   104184340.361 8      3518.768          49.562    19517244.360    81032292.545 8      2736.819          50.125    19517244.580    81032294.541 8      2736.819          50.562
G16  21291651.920   111888387.863 7      3984.719          46.937    21291649.220   111888387.871 6      3984.719          36.875    21291652.040    87185756.234 6      3104.976          37.187
G18  22337369.020   117383661.041 7       189.433          45.062    22337366.300   117383661.051 5       189.433          35.625    22337371.180    91467795.533 5       147.610          35.375    22337373.040    91467805.522 8       147.610          49.000
R11  19482979.560   104111136.299 8      2318.874          50.937    19482979.400   104111136.305 8      2318.874          49.312    19482985.500    80975350.455 8      1803.569          50.812    19482985.340    80975351.457 8      1803.569          51.375
R21  20354544.300   108921272.074 7      -284.510          46.312    20354544.380   108921272.087 7      -284.510          46.437    20354553.940    84716587.191 8      -221.286          48.312    20354553.640    84716586.191 8      -221.286          48.250
G08  23663677.780   124353463.247 6      4630.756          39.687    23663676.340   124353463.234 4      4630.756          28.375    23663686.000    96898815.402 4      3608.381          28.125    23663686.960    96898839.413 7      3608.381          46.125
R12  21431604.900   114483784.660 7      5787.918          46.312    21431604.400   114483784.656 7      5787.918          46.312    21431613.440    89042986.474 7      4501.714          47.000    21431613.960    89042986.481 7      4501.714          46.125
> 2024 05 10 10 12 52.0000000  0 15
G04  24808629.400   130370236.094 6      1161.814          39.312    24808628.900   130370236.105 3      1161.814          22.312    24808637.220   101587236.238 3       905.310          22.687    24808637.260   101587223.217 6       905.310          40.125
G23  23955133.200   125885076.278 7      4273.597          45.187    23955133.300   125885076.286 5      4273.597          30.875    23955141.880    98092313.675 5      3330.075          30.812    23955139.140    98092306.696 7      3330.075          44.250
G27  21284235.100   111849412.032 7      3477.131          47.500    21284234.360   111849412.040 6      3477.131          40.062    21284238.980    87155402.757 6      2709.453          39.937    21284239.940    87155404.760 8      2709.453          49.375
G31  21426222.000   112595554.373 7        96.286          46.500    21426221.140   112595554.376 7        96.286          46.125    21426223.420    87736802.849 7        75.028          45.875    21426223.940    87736805.847 7        75.028          47.937
R23  23002556.300   123048162.639 6      6138.386          41.000    23002556.060   123048162.640 6      6138.386          40.125
G28  23109471.900   121441090.288 7     -1062.166          42.500    23109471.260   121441090.303 5     -1062.166          32.125    23109477.060    94629435.960 5      -827.662          32.187    23109477.460    94629444.948 7      -827.662          47.687
G10  24567109.160   129101026.714 6      4824.419          38.500    24567107.840   129101026.730 5      4824.419          32.625    24567123.320   100598251.502 5      3759.287          32.562    24567123.760   100598257.520 6      3759.287          39.062
G26  20564480.860   108067078.235 8      2307.580          49.250    20564479.840   108067078.240 8      2307.580          48.437    20564485.480    84208130.989 8      1798.114          48.562    20564486.200    84208134.990 8      1798.114          49.625
R22  19516578.680   104180822.157 8      3517.901          49.500    19516579.580   104180822.160 8      3517.901          49.875    19516585.260    81029556.167 8      2736.145          51.875    19516585.340    81029558.163 8      2736.145          51.875
G16  21290893.760   111884403.485 7      3984.390          46.875    21290891.040   111884403.490 6      3984.390          36.750    21290893.780    87182651.520 6      3104.719          36.625
G18  22337332.960   117383471.981 7       188.903          44.125    22337330.300   117383471.993 5       188.903          35.437    22337335.220    91467648.209 5       147.197          35.375    22337337.180    91467658.202 8       147.197          48.625
R11  19482545.860   104108817.845 8      2318.216          50.500    19482545.580   104108817.854 8      2318.216          49.125    19482551.460    80973547.215 8      1803.057          52.187    19482551.540    80973548.220 8      1803.057          53.062
R21  20354597.460   108921556.986 7      -285.072          47.437    20354597.560   108921557.009 7      -285.072          47.000    20354607.160    84716808.791 8      -221.723          49.437    20354606.320    84716807.797 8      -221.723          49.125
G08  23662797.120   124348832.781 6      4630.506          39.125    23662795.100   124348832.767 4      4630.506          28.312    23662804.660    96895207.247 4      3608.186          28.125    23662805.780    96895231.253 7      3608.186          46.562
R12  21430521.520   114477996.960 7      5787.729          46.375    21430521.000   114477996.956 7      5787.729          47.062    21430530.180    89038484.934 7      4501.567          46.937    21430530.140    89038484.941 7      4501.567          47.312
> 2024 05 10 10 12 53.0000000  0 15
G04  24808409.180   130369074.824 6      1161.034          39.187    24808407.800   130369074.839 3      1161.034          22.312    24808416.220   101586331.348 3       904.702          22.687    24808416.620   101586318.333 6       904.702          40.312
G23  23954319.940   125880802.962 7      4273.210          45.125    23954320.240   125880802.970 5      4273.210          30.750    23954328.780    98088983.821 5      3329.774          30.812    23954326.240    98088976.839 7      3329.774          44.062
G27  21283573.660   111845935.206 8      3476.692          48.125    21283572.720   111845935.211 6      3476.692          40.000    21283577.440    87152693.542 6      2709.111          39.812    21283578.260    87152695.545 8      2709.111          49.562
G31  21426203.640   112595458.548 7        95.583          46.500    21426202.740   112595458.550 7        95.583          45.562    21426205.280    87736728.176 7        74.480          45.500    21426205.920    87736731.176 8        74.480          48.312
R23  23001409.000   123042024.793 6      6137.644          41.500    23001408.580   123042024.803 6      6137.644          40.125
G28  23109674.320   121442152.782 7     -1062.570          42.375    23109673.440   121442152.798 5     -1062.570          32.312    23109679.200    94630263.865 5      -827.977          32.187    23109679.560    94630272.858 7      -827.977          46.875
G10  24566190.660   129096202.689 6      4823.958          38.937    24566189.860   129096202.710 5      4823.958          32.437    24566205.560   100594492.530 5      3758.929          32.375    24566205.920   100594498.541 6      3758.929          39.250
G26  20564041.800   108064770.970 8      2306.991          48.437    20564040.740   108064770.978 8      2306.991          48.625    20564046.440    84206333.120 8      1797.656          48.562    20564047.160    84206337.123 8      1797.656          50.000
R22  19515920.160   104177304.802 8      3516.912          48.750    19515920.600   104177304.803 8      3516.912          49.937    19515926.380    81026820.445 8      2735.376          51.812    19515926.420    81026822.440 8      2735.376          52.125
G16  21290135.620   111880419.375 7      3983.945          46.250    21290132.820   111880419.382 6      3983.945          36.687    21290135.740    87179547.020 6      3104.372          36.750
G18  22337297.160   117383283.501 7       188.120          44.312    22337294.480   117383283.511 5       188.120          35.750    22337299.340    91467501.339 5       146.587          35.500    22337301.000    91467511.329 8       146.587          48.812
R11  19482111.600   104106500.182 8      2317.262          50.125    19482111.980   104106500.189 8      2317.262          49.125    19482117.900    80971744.591 8      1802.315          52.187    19482117.740    80971745.597 8      1802.315          52.437
R21  20354650.840   108921842.472 7      -285.788          47.062    20354651.220   108921842.493 7      -285.788          46.625    20354660.640    84717030.834 8      -222.279          49.375    20354660.100    84717029.840 8      -222.279          48.812
G08  23661915.240   124344202.603 6      4630.008          40.062    23661914.140   124344202.595 4      4630.008          28.312    23661923.620    96891599.318 4      3607.798          28.125    23661924.820    96891623.332 7      3607.798          46.625
R12  21429438.200   114472209.571 7      5787.217          46.000    21429437.400   114472209.572 7      5787.217          46.375    21429446.820    89033983.635 7      4501.169          47.750    21429447.140    89033983.642 7      4501.169          46.687
> 2024 05 10 10 12 54.0000000  0 15
G04  24808188.000   130367914.149 6      1159.998          38.937    24808186.940   130367914.162 3      1159.998          22.312    24808195.460   101585426.928 3       903.895          22.687    24808195.740   101585413.903 6       903.895          40.312
G23  23953506.740   125876530.185 7      4272.319          45.000    23953507.140   125876530.192 5      4272.319          30.750    23953515.680    98085654.384 5      3329.080          31.000    23953512.980    98085647.403 7      3329.080          43.875
G27  21282912.220   111842458.985 7      3475.733          47.375    21282911.040   111842458.992 6      3475.733          39.875    21282915.900    87149984.798 6      2708.363          39.437    21282916.900    87149986.803 8      2708.363          49.687
G31  21426185.680   112595363.445 7        94.522          46.750    21426184.720   112595363.452 7        94.522          46.000    21426187.180    87736654.070 7        73.653          46.250    21426188.160    87736657.073 8        73.653          48.125
R23  23000261.700   123035887.579 6      6136.663          41.500    23000261.640   123035887.578 6      6136.663          40.125
G28  23109876.580   121443215.760 7     -1063.457          42.500    23109875.800   121443215.776 5     -1063.457          32.312    23109881.480    94631092.152 5      -828.668          32.250    23109882.020    94631101.148 7      -828.668          46.937
G10  24565272.600   129091378.858 6      4823.437          39.312    24565271.960   129091378.879 5      4823.437          32.437    24565287.760   100590733.702 5      3758.522          32.375    24565287.540   100590739.718 6      3758.522          39.250
G26  20563602.960   108062464.343 8      2306.054          48.500    20563601.840   108062464.348 8      2306.054          48.250    20563607.520    84204535.747 8      1796.925          48.437    20563608.320    84204539.747 8      1796.925          49.437
R22  19515261.640   104173788.492 8      3515.507          48.625    19515262.060   104173788.498 8      3515.507          49.437    19515267.720    81024085.540 8      2734.284          51.750    19515267.640    81024087.536 8      2734.284          52.062
G16  21289377.380   111876435.734 7      3983.205          46.125    21289374.820   111876435.739 6      3983.205          37.375    21289377.560    87176442.887 6      3103.796          36.562
G18  22337261.560   117383095.738 7       187.118          44.250    22337258.840   117383095.749 5       187.118          35.750    22337263.580    91467355.025 5       145.806          35.250    22337265.420    91467365.021 8       145.806          48.500
R11  19481678.340   104104183.473 8      2316.016          49.625    19481678.500   104104183.477 8      2316.016          49.562    19481684.300    80969942.702 8      1801.346          52.187    19481684.040    80969943.700 8      1801.346          52.875
R21  20354704.180   108922128.700 7      -286.862          46.125    20354704.680   108922128.718 7      -286.862          46.562    20354714.120    84717253.456 8      -223.115          49.437    20354713.400    84717252.457 8      -223.115          48.875
G08  23661034.240   124339572.943 6      4629.178          40.812    23661033.080   124339572.927 4      4629.178          28.312    23661042.680    96887991.787 4      3607.152          28.125    23661043.500    96888015.781 7      3607.152          46.625
R12  21428354.420   114466422.696 7      5786.317          46.187    21428354.260   114466422.703 7      5786.317          46.625    21428363.420    89029482.739 7      4500.469          47.250    21428363.740    89029482.746 7      4500.469          47.375
> 2024 05 10 10 12 55.0000000  0 15
G04  24807967.260   130366753.840 6      1160.327          39.000    24807966.100   130366753.853 3      1160.327          22.437    24807974.500   101584522.787 3       904.151          22.500    24807975.100   101584509.768 6       904.151          40.000
G23  23952693.620   125872257.757 7      4272.395          45.250    23952694.000   125872257.764 5      4272.395          30.750    23952702.620    98082325.223 5      3329.139          31.000    23952699.540    98082318.240 7      3329.139          43.750
G27  21282251.020   111838983.149 7      3475.787          47.437    21282249.660   111838983.154 6      3475.787          40.250    21282254.340    87147276.363 6      2708.406          39.812    21282255.380    87147278.364 8      2708.406          49.750
G31  21426167.420   112595268.891 7        94.408          47.000    21426166.720   112595268.896 7        94.408          46.000    21426169.200    87736580.389 7        73.565          46.062    21426170.200    87736583.393 7        73.565          47.937
R23  22999114.280   123029750.774 6      6136.707          41.000    22999113.980   123029750.786 6      6136.707          40.250
G28  23110078.940   121444278.991 7     -1063.096          42.812    23110078.320   121444279.006 5     -1063.096          32.312    23110083.640    94631920.633 5      -828.387          32.250    23110084.440    94631929.623 7      -828.387          46.812
G10  24564355.340   129086555.053 6      4823.979          38.750    24564354.060   129086555.077 5      4823.979          32.375    24564370.100   100586974.900 5      3758.945          32.375    24564369.800   100586980.903 6      3758.945          39.875
G26  20563164.160   108060158.158 8      2306.082          48.250    20563162.980   108060158.163 8      2306.082          48.750    20563168.660    84202738.719 8      1796.947          48.437    20563169.720    84202742.718 8      1796.947          49.625
R22  19514603.140   104170273.006 8      3515.305          49.562    19514603.480   104170273.004 8      3515.305          50.000    19514609.160    81021351.271 8      2734.126          52.000    19514609.300    81021353.267 8      2734.126          52.187
G16  21288619.360   111872452.370 7      3983.451          45.312    21288616.680   111872452.375 6      3983.451          37.125    21288619.600    87173338.969 6      3103.988          36.875
G18  22337225.860   117382908.528 7       187.128          44.375    22337223.200   117382908.538 5       187.128          35.562    22337227.840    91467209.146 5       145.814          35.375    22337229.700    91467219.140 8       145.814          48.312
R11  19481245.080   104101867.520 8      2315.784          50.062    19481245.060   104101867.524 8      2315.784          49.562    19481250.980    80968141.407 8      1801.165          51.937    19481250.580    80968142.409 8      1801.165          52.250
R21  20354757.860   108922415.452 7      -286.819          47.125    20354758.260   108922415.467 7      -286.819          46.750    20354767.480    84717476.475 8      -223.081          49.125    20354767.120    84717475.476 8      -223.081          48.750
G08  23660153.240   124334943.533 6      4629.408          40.812    23660152.040   124334943.519 4      4629.408          28.312    23660161.780    96884384.458 4      3607.331          27.937    23660162.640    96884408.464 7      3607.331          46.812
R12  21427271.180   114460636.084 7      5786.725          46.250    21427270.760   114460636.090 7      5786.725          46.187    21427280.080    89024982.046 7      4500.786          47.437    21427280.400    89024982.053 7      4500.786          47.250
> 2024 05 10 10 12 56.0000000  0 15
G04  24807746.420   130365593.725 6      1160.113          39.312    24807745.400   130365593.741 3      1160.113          22.437    24807753.720   101583618.806 3       903.984          22.500    24807754.240   101583605.789 6       903.984          40.000
G23  23951880.620   125867985.437 7      4272.234          45.187    23951881.040   125867985.447 5      4272.234          31.062    23951889.700    98078996.145 5      3329.014          31.000    23951886.400    98078989.159 7      3329.014          43.625
G27  21281589.480   111835507.490 7      3475.611          47.625    21281588.340   111835507.500 6      3475.611          40.187    21281593.140    87144568.053 6      2708.269          40.125    21281594.160    87144570.051 8      2708.269          49.625
G31  21426149.700   112595174.631 7        94.136          46.250    21426148.620   112595174.634 7        94.136          46.187    21426151.180    87736506.934 7        73.353          46.000    21426152.220    87736509.936 8        73.353          48.625
R23  22997967.100   123023614.185 6      6136.505          41.000    22997966.320   123023614.205 6      6136.505          40.250
G28  23110281.020   121445342.289 7     -1063.197          42.312    23110280.620   121445342.302 5     -1063.197          32.437    23110285.880    94632749.169 5      -828.465          32.250    23110286.620    94632758.157 7      -828.465          47.250
G10  24563437.180   129081731.075 6      4823.952          39.250    24563436.180   129081731.101 5      4823.952          32.375    24563452.040   100583215.960 5      3758.924          32.375    24563452.160   100583221.971 6      3758.924          39.875
G26  20562725.260   108057852.188 8      2305.889          48.437    20562724.180   108057852.187 8      2305.889          48.437    20562729.920    84200941.851 8      1796.797          48.437    20562730.740    84200945.852 8      1796.797          49.562
R22  19513944.520   104166758.131 8      3514.666          49.750    19513944.920   104166758.132 8      3514.666          50.125    19513950.680    81018617.486 8      2733.629          51.875    19513950.720    81018619.482 8      2733.629          52.437
G16  21287861.360   111868469.082 7      3983.283          46.750    21287858.680   111868469.092 6      3983.283          36.937    21287861.580    87170235.110 6      3103.857          36.812
G18  22337190.300   117382721.677 7       186.597          45.312    22337187.900   117382721.687 5       186.597          35.812    22337192.200    91467063.546 5       145.400          35.937    22337193.940    91467073.538 8       145.400          48.875
R11  19480811.820   104099552.115 8      2315.203          49.937    19480811.700   104099552.119 8      2315.203          49.312    19480817.620    80966340.530 8      1800.713          52.062    19480817.400    80966341.531 8      1800.713          52.562
R21  20354811.620   108922702.528 7      -287.279          47.812    20354812.240   108922702.543 7      -287.279          47.000    20354821.320    84717699.752 8      -223.440          49.562    20354820.540    84717698.755 8      -223.440          48.625
G08  23659272.080   124330314.198 6      4629.349          40.250    23659271.040   124330314.188 4      4629.349          28.312    23659280.880    96880777.187 4      3607.285          27.937    23659281.820    96880801.183 7      3607.285          46.750
R12  21426187.940   114454849.533 7      5786.626          46.500    21426187.440   114454849.520 7      5786.626          46.500    21426196.880    89020481.383 7      4500.709          47.250    21426197.300    89020481.390 7      4500.709          47.187
> 2024 05 10 10 12 57.0000000  0 15
G04  24807525.900   130364433.965 6      1159.427          38.875    24807524.680   130364433.978 3      1159.427          22.437    24807532.900   101582715.093 3       903.450          22.500    24807533.060   101582702.073 6       903.450          39.937
G23  23951067.680   125863713.358 7      4271.742          44.812    23951068.040   125863713.368 5      4271.742          31.062    23951076.740    98075667.257 5      3328.630          30.812    23951073.520    98075660.275 7      3328.630          43.687
G27  21280928.040   111832032.133 7      3475.075          47.625    21280927.060   111832032.140 6      3475.075          39.937    21280931.740    87141859.978 6      2707.850          39.812    21280932.480    87141861.979 8      2707.850          49.875
G31  21426131.660   112595080.832 7        93.435          45.687    21426130.820   112595080.837 7        93.435          45.937    21426133.440    87736433.841 7        72.807          46.062    21426134.300    87736436.845 8        72.807          48.687
R23  22996820.060   123017477.973 6      6135.902          40.812    22996819.880   123017477.985 6      6135.902          40.437
G28  23110483.160   121446405.782 7     -1063.746          42.750    23110482.960   121446405.795 5     -1063.746          32.437    23110488.540    94633577.857 5      -828.893          32.250    23110489.140    94633586.845 7      -828.893          46.875
G10  24562518.760   129076907.013 6      4823.988          38.875    24562518.140   129076907.034 5      4823.988          32.375    24562534.260   100579456.955 5      3758.952          32.375    24562534.320   100579462.962 6      3758.952          39.812
G26  20562286.640   108055546.567 7      2305.268          47.937    20562285.460   108055546.575 8      2305.268          48.750    20562291.160    84199145.270 8      1796.313          48.812    20562291.880    84199149.269 8      1796.313          49.875
R22  19513286.160   104163244.027 8      3513.588          49.062    19513286.740   104163244.031 8      3513.588          49.500    19513292.440    81015884.290 8      2732.791          52.187    19513292.420    81015886.284 8      2732.791          52.250
G16  21287103.580   111864485.976 7      3982.905          46.312    21287100.700   111864485.983 6      3982.905          37.312    21287103.760    87167131.386 6      3103.562          37.375
G18  22337154.740   117382535.247 7       186.136          44.687    22337152.540   117382535.252 5       186.136          35.937    22337156.580    91466918.272 5       145.041          35.750    22337158.500    91466928.260 8       145.041          48.000
R11  19480378.420   104097237.389 8      2314.204          49.750    19480378.620   104097237.401 8      2314.204          48.687    19480384.420    80964540.194 8      1799.937          52.062    19480384.260    80964541.192 8      1799.937          52.750
R21  20354865.540   108922990.054 8      -287.911          48.125    20354866.200   108922990.069 7      -287.911          46.187    20354875.040    84717923.381 8      -223.931          49.687    20354874.620    84717922.384 8      -223.931          49.062
G08  23658391.380   124325685.069 6      4628.964          40.312    23658390.200   124325685.058 4      4628.964          28.312    23658399.940    96877170.073 4      3606.985          27.937    23658400.840    96877194.065 7      3606.985          46.875
R12  21425105.000   114449063.144 7      5786.088          46.437    21425104.140   114449063.135 7      5786.088          45.687    21425113.760    89015980.859 7      4500.291          47.000    21425114.260    89015980.870 7      4500.291          46.687
