     3.05           OBSERVATION DATA    MIXED               RINEX VERSION / TYPE
TPS2RIN 1.0.29.3920 TPS-USER            20240511 200040 UTC PGM / RUN BY / DATE
Win64 build Feb 23, 2024 (c) Topcon Positioning Systems     COMMENT
SRC: 20240510_MI04.tps                                      COMMENT
OPT: -S -v 3.05                                             COMMENT
Observer            Agency                                  OBSERVER / AGENCY
O0M3X53SBGM         TPS HIPER_SR        4.8 HSR Jul,08,2022 REC # / TYPE / VERS
FW: 4.8 HSR Jul,08,2022 p3                                  COMMENT
SN: HiPer SR 1212-12575                                     COMMENT
000                 TPSHIPER_SR     NONE                    ANT # / TYPE
        1.8000        0.0000        0.0000                  ANTENNA: DELTA H/E/N
MI04                                                        MARKER NAME
  5384273.2213 -1587827.7389  3019892.9359                  APPROX POSITION XYZ
  2024     5    10    11    23   56.0000000     GPS         TIME OF FIRST OBS
  2024     5    10    11    39    1.0000000     GPS         TIME OF LAST OBS
     1.000                                                  INTERVAL
   906 EPOCHS                                               COMMENT
G   16 C1C L1C D1C S1C C1W L1W D1W S1W C2W L2W D2W S2W C2X  SYS / # / OBS TYPES
       L2X D2X S2X                                          SYS / # / OBS TYPES
R   16 C1C L1C D1C S1C C1P L1P D1P S1P C2P L2P D2P S2P C2C  SYS / # / OBS TYPES
       L2C D2C S2C                                          SYS / # / OBS TYPES
    16                                                      # OF SATELLITES
   G02   376   376   376   376   372   372   372   372   372PRN / # OF OBS
         372   372   372     0     0     0     0            PRN / # OF OBS
   G07   906   906   906   906   906   906   906   906   906PRN / # OF OBS
         906   906   906   906   906   906   906            PRN / # OF OBS
   G08   906   906   906   906   906   906   906   906   906PRN / # OF OBS
         906   906   906   906   906   906   906            PRN / # OF OBS
   G10   906   906   906   906   906   906   906   906   906PRN / # OF OBS
         906   906   906   906   906   906   906            PRN / # OF OBS
   G16   906   906   906   906   906   906   906   906   906PRN / # OF OBS
         906   906   906     0     0     0     0            PRN / # OF OBS
   G18   905   905   905   905   905   905   905   905   905PRN / # OF OBS
         905   905   905   905   905   905   905            PRN / # OF OBS
   G21   906   906   906   906   906   906   906   906   906PRN / # OF OBS
         906   906   906     0     0     0     0            PRN / # OF OBS
   G23   906   906   906   906   906   906   906   906   906PRN / # OF OBS
         906   906   906   906   906   906   906            PRN / # OF OBS
   G26   906   906   906   906   906   906   906   906   906PRN / # OF OBS
         906   906   906   906   906   906   906            PRN / # OF OBS
   G27   906   906   906   906   906   906   906   906   906PRN / # OF OBS
         906   906   906   906   906   906   906            PRN / # OF OBS
   G31   707   707   707   707   707   707   707   707   707PRN / # OF OBS
         707   707   707   707   707   707   707            PRN / # OF OBS
   R11   906   906   906   906   906   906   906   906   906PRN / # OF OBS
         906   906   906   906   906   906   906            PRN / # OF OBS
   R12   906   906   906   906   906   906   906   906   906PRN / # OF OBS
         906   906   906   906   906   906   906            PRN / # OF OBS
   R21   906   906   906   906   906   906   906   906   906PRN / # OF OBS
         906   906   906   906   906   906   906            PRN / # OF OBS
   R22   906   906   906   906   906   906   906   906   906PRN / # OF OBS
         906   906   906   906   906   906   906            PRN / # OF OBS
   R23   906   906   906   906   906   906   906   906     0PRN / # OF OBS
           0     0     0     0     0     0     0            PRN / # OF OBS
G L1C                                                       SYS / PHASE SHIFT
G L1W -0.25000                                              SYS / PHASE SHIFT
G L2W  0.00000                                              SYS / PHASE SHIFT
G L2X  0.25000                                              SYS / PHASE SHIFT
R L1C                                                       SYS / PHASE SHIFT
R L1P -0.25000                                              SYS / PHASE SHIFT
R L2P -0.25000                                              SYS / PHASE SHIFT
R L2C                                                       SYS / PHASE SHIFT
  5 R11  0 R12 -1 R21  4 R22 -3 R23  3                      GLONASS SLOT / FRQ #
                                                            GLONASS COD/PHS/BIS
    18    18  1929     7GPS                                 LEAP SECONDS
                                                            END OF HEADER
> 2024 05 10 11 23 56.0000000  0 15
R21  22830218.800   122169113.467 6     -1034.217          41.437    22830219.860   122169113.492 6     -1034.217          40.625    22830234.160    95020478.122 7      -804.391          47.562    22830233.340    95020477.122 7      -804.391          47.437
G27  20723178.380   108901033.932 8      2427.732          48.375    20723177.340   108901033.934 6      2427.732          40.750    20723183.380    84857968.569 6      1891.739          40.250    20723183.680    84857969.574 8      1891.739          50.125
R23  20688271.680   110668309.318 7      4040.975          45.500    20688271.360   110668309.319 7      4040.975          44.062
G18  24562030.960   129074343.441 7      -949.136          42.562    24562029.620   129074343.446 4      -949.136          29.625    24562038.840   100577438.699 4      -739.586          29.625    24562039.200   100577442.684 7      -739.586          45.875
R12  19272113.000   102948163.592 8      3714.746          49.187    19272113.520   102948163.588 8      3714.746          48.875    19272121.600    80070830.618 8      2889.247          48.500    19272121.820    80070831.618 8      2889.247          48.187
G16  20330410.780   106837025.202 7      2645.919          46.687    20330409.000   106837025.212 6      2645.919          40.187    20330412.300    83249637.548 6      2061.755          39.687
G10  22619341.220   118865440.734 7      4085.885          46.375    22619339.520   118865440.749 7      4085.885          44.375    22619349.540    92622454.937 7      3183.807          44.187    22619349.260    92622452.937 7      3183.807          45.562
G31  23700977.880   124549467.265 7      -968.479          44.750    23700976.780   124549467.270 6      -968.479          41.187    23700986.980    97051572.120 6      -754.659          41.000    23700987.660    97051573.121 7      -754.659          45.000
G21  22341065.000   117403098.942 7      5402.009          43.250    22341063.940   117403098.949 4      5402.009          27.625    22341070.380    91482962.513 4      4209.357          27.937
R22  19680547.560   105056098.413 8       814.440          48.812    19680547.200   105056098.416 8       814.440          49.375    19680553.240    81710323.792 8       633.453          49.187    19680553.600    81710325.790 8       633.453          49.062
G23  22962430.060   120668383.101 7      2372.763          46.125    22962429.560   120668383.111 5      2372.763          33.000    22962436.400    94027341.340 5      1848.906          32.875    22962436.900    94027342.344 7      1848.906          45.375
G26  21176244.380   111281916.921 7       575.990          46.937    21176242.960   111281916.926 7       575.990          46.312    21176251.040    86713207.691 7       448.824          46.125    21176251.140    86713209.696 7       448.824          47.625
G08  22029189.240   115764169.037 7      3874.714          46.312    22029189.960   115764169.037 5      3874.714          35.750    22029196.680    90205880.303 5      3019.258          35.187    22029196.000    90205874.309 7      3019.258          46.375
R11  20637308.800   110279515.620 8      -634.006          48.500    20637308.200   110279515.618 7      -634.006          47.875    20637317.820    85772995.644 7      -493.116          47.812    20637317.700    85772996.649 8      -493.116          48.500
G07  25424142.760   133604730.439 6      5123.915          37.187    25424140.600   133604730.439 3      5123.915          19.875    25424149.140   104107608.226 3      3992.661          19.687    25424150.360   104107644.261 6      3992.661          38.625
> 2024 05 10 11 23 57.0000000  0 15
R21  22830412.140   122170147.520 6     -1034.066          40.875    22830412.980   122170147.545 6     -1034.066          40.625    22830427.420    95021282.379 7      -804.273          46.812    22830426.560    95021281.381 7      -804.273          46.687
G27  20722716.240   108898606.111 8      2427.666          48.500    20722715.100   108898606.111 6      2427.666          40.812    20722721.300    84856076.758 6      1891.688          40.750    20722721.820    84856077.764 8      1891.688          49.125
R23  20687516.140   110664268.485 7      4040.543          45.437    20687515.740   110664268.487 7      4040.543          44.187
G18  24562211.620   129075292.425 6      -949.168          41.562    24562210.160   129075292.429 4      -949.168          29.625    24562219.580   100578178.161 4      -739.611          29.625    24562219.820   100578182.156 7      -739.611          45.250
R12  19271417.680   102944449.101 8      3714.033          49.125    19271418.120   102944449.102 8      3714.033          49.687    19271426.100    80067941.571 7      2888.692          47.375    19271426.260    80067942.576 7      2888.692          47.750
G16  20329907.060   106834379.331 7      2645.633          46.375    20329905.600   106834379.336 6      2645.633          39.750    20329908.640    83247575.826 6      2061.533          39.437
G10  22618563.820   118861354.891 7      4085.626          46.187    22618562.040   118861354.901 7      4085.626          43.500    22618571.820    92619271.161 7      3183.605          43.625    22618571.940    92619269.163 7      3183.605          45.625
G31  23701162.140   124550435.687 7      -968.497          44.000    23701161.040   124550435.692 6      -968.497          40.937    23701171.340    97052326.724 6      -754.673          40.812    23701171.700    97052327.725 7      -754.673          44.500
G21  22340037.260   117397696.939 7      5401.758          43.062    22340035.920   117397696.946 4      5401.758          27.625    22340042.580    91478753.164 4      4209.162          27.937
R22  19680394.900   105055284.099 8       814.036          48.750    19680394.680   105055284.105 8       814.036          49.000    19680400.760    81709690.436 7       633.139          47.562    19680401.040    81709692.436 7       633.139          47.812
G23  22961978.400   120666010.513 7      2372.145          46.187    22961978.100   120666010.521 5      2372.145          33.000    22961984.920    94025492.571 5      1848.424          32.875    22961985.640    94025493.574 7      1848.424          45.375
G26  21176134.560   111281341.009 7       575.606          46.562    21176133.380   111281341.008 7       575.606          45.062    21176141.560    86712758.924 7       448.524          45.000    21176141.540    86712760.927 7       448.524          47.062
G08  22028451.800   115760294.310 7      3874.549          46.125    22028452.500   115760294.315 5      3874.549          35.312    22028459.380    90202861.036 5      3019.129          35.187    22028458.640    90202855.047 7      3019.129          46.625
R11  20637427.160   110280149.764 7      -634.428          47.437    20637426.700   110280149.768 7      -634.428          47.187    20637436.600    85773488.872 7      -493.444          47.125    20637436.340    85773489.878 7      -493.444          47.062
G07  25423167.280   133599606.751 6      5123.403          37.187    25423165.660   133599606.750 3      5123.403          19.875    25423174.040   104103615.741 3      3992.262          19.687    25423174.140   104103651.748 6      3992.262          38.625
> 2024 05 10 11 23 58.0000000  0 15
R21  22830605.000   122171181.479 6     -1033.769          40.875    22830606.400   122171181.510 6     -1033.769          40.250    22830620.640    95022086.566 7      -804.042          46.062    22830619.860    95022085.565 7      -804.042          46.250
G27  20722254.340   108896178.427 8      2427.647          48.562    20722253.020   108896178.429 6      2427.647          40.312    20722259.360    84854185.058 6      1891.673          40.000    20722259.920    84854186.059 8      1891.673          49.562
R23  20686761.140   110660228.169 7      4040.037          44.875    20686760.260   110660228.176 7      4040.037          43.875
G18  24562392.100   129076241.439 7      -948.963          42.062    24562390.720   129076241.447 4      -948.963          29.687    24562400.280   100578917.645 4      -739.452          29.625    24562400.380   100578921.631 7      -739.452          45.000
R12  19270722.560   102940735.353 8      3713.394          49.000    19270722.840   102940735.341 8      3713.394          48.250    19270730.920    80065053.092 7      2888.195          47.687    19270730.960    80065054.092 7      2888.195          47.687
G16  20329403.920   106831733.846 7      2645.406          47.562    20329402.020   106831733.851 6      2645.406          40.000    20329405.160    83245514.403 6      2061.355          39.750
G10  22617786.320   118857269.395 7      4085.446          46.687    22617784.520   118857269.405 7      4085.446          43.437    22617794.560    92616087.658 7      3183.465          43.375    22617794.420    92616085.664 7      3183.465          45.375
G31  23701346.400   124551404.080 7      -968.329          44.687    23701345.260   124551404.084 6      -968.329          40.125    23701355.660    97053081.301 6      -754.542          40.125    23701356.420    97053082.302 7      -754.542          44.000
G21  22339009.620   117392295.330 7      5401.417          43.562    22339008.000   117392295.334 4      5401.417          27.625    22339014.720    91474544.122 4      4208.896          27.937
R22  19680242.560   105054470.161 8       813.801          48.187    19680242.300   105054470.167 8       813.801          49.187    19680248.320    81709057.371 7       632.956          46.812    19680248.480    81709059.369 7       632.956          47.437
G23  22961527.020   120663638.422 7      2371.895          45.937    22961526.660   120663638.429 5      2371.895          33.000    22961533.500    94023644.190 5      1848.230          32.875    22961533.960    94023645.191 7      1848.230          45.312
G26  21176024.900   111280765.438 7       575.439          46.875    21176023.860   111280765.443 7       575.439          45.375    21176032.000    86712310.425 7       448.394          45.062    21176032.320    86712312.430 7       448.394          47.000
G08  22027714.660   115756419.665 7      3874.673          46.375    22027715.260   115756419.664 5      3874.673          35.250    22027722.040    90199841.838 5      3019.225          34.750    22027721.240    90199835.839 7      3019.225          46.062
R11  20637545.780   110280784.494 8      -634.942          48.625    20637545.360   110280784.493 7      -634.942          47.875    20637555.340    85773982.538 7      -493.844          46.687    20637555.300    85773983.540 7      -493.844          46.250
G07  25422192.480   133594483.288 6      5123.172          37.125    25422190.620   133594483.290 3      5123.172          19.875    25422199.060   104099623.433 3      3992.082          19.687    25422199.840   104099659.431 6      3992.082          38.625
> 2024 05 10 11 23 59.0000000  0 15
R21  22830798.380   122172215.478 6     -1034.186          40.875    22830799.340   122172215.501 6     -1034.186          40.250    22830814.000    95022890.769 7      -804.367          46.750    22830813.120    95022889.768 7      -804.367          47.312
G27  20721792.460   108893751.015 7      2427.095          47.750    20721791.160   108893751.018 6      2427.095          40.937    20721797.420    84852293.567 6      1891.243          40.187    20721798.060    84852294.574 8      1891.243          50.937
R23  20686006.040   110656188.449 7      4039.328          45.687    20686005.740   110656188.451 7      4039.328          44.250
G18  24562572.700   129077190.596 7      -949.367          42.125    24562571.340   129077190.598 4      -949.367          29.687    24562580.800   100579657.237 4      -739.766          29.625    24562580.920   100579661.232 7      -739.766          45.500
R12  19270027.540   102937022.400 8      3712.373          49.187    19270027.540   102937022.391 8      3712.373          49.125    19270035.960    80062165.240 7      2887.402          47.562    19270036.080    80062166.244 8      2887.402          48.500
G16  20328900.520   106829088.863 7      2644.578          46.187    20328898.740   106829088.873 6      2644.578          40.250    20328901.880    83243453.384 6      2060.710          39.625
G10  22617009.180   118853184.386 7      4084.639          46.562    22617007.280   118853184.393 7      4084.639          43.937    22617017.160    92612904.536 7      3182.836          44.250    22617017.060    92612902.538 7      3182.836          45.375
G31  23701530.740   124552372.585 7      -968.707          44.875    23701529.460   124552372.593 6      -968.707          40.687    23701539.920    97053835.964 6      -754.837          40.437    23701540.500    97053836.962 7      -754.837          44.562
G21  22337981.840   117386894.183 7      5400.748          43.312    22337980.080   117386894.185 4      5400.748          27.625    22337986.800    91470335.441 4      4208.375          27.937
R22  19680090.360   105053656.738 8       813.061          48.250    19680089.560   105053656.744 8       813.061          49.062    19680095.980    81708424.691 8       632.381          48.187    19680095.840    81708426.686 8       632.381          48.187
G23  22961075.860   120661266.992 7      2370.957          46.312    22961075.240   120661267.000 5      2370.957          32.625    22961082.280    94021796.323 5      1847.499          32.500    22961082.740    94021797.336 7      1847.499          45.500
G26  21175915.360   111280190.385 7       574.609          47.187    21175914.420   111280190.384 7       574.609          45.812    21175922.700    86711862.326 7       447.747          45.687    21175922.800    86711864.326 8       447.747          48.000
G08  22026977.340   115752545.243 7      3874.201          46.562    22026977.980   115752545.242 5      3874.201          35.250    22026984.920    90196822.807 5      3018.858          34.812    22026983.940    90196816.811 7      3018.858          46.875
R11  20637665.000   110281419.860 8      -635.920          48.437    20637663.880   110281419.861 7      -635.920          47.500    20637674.280    85774476.703 7      -494.604          47.937    20637673.900    85774477.707 8      -494.604          48.625
G07  25421217.120   133589360.209 6      5122.725          37.125    25421215.920   133589360.209 3      5122.725          19.875    25421224.480   104095631.419 3      3991.734          19.687    25421225.060   104095667.425 6      3991.734          38.187
> 2024 05 10 11 24  0.0000000  0 15
R21  22830991.740   122173249.545 6     -1034.281          39.500    22830992.800   122173249.581 6     -1034.281          40.250    22831007.340    95023695.049 8      -804.441          49.375    22831006.220    95023694.048 8      -804.441          49.062
G27  20721330.620   108891323.956 7      2426.852          47.875    20721329.300   108891323.961 7      2426.852          42.000    20721335.580    84850402.354 6      1891.053          41.500    20721336.380    84850403.359 8      1891.053          52.125
R23  20685250.840   110652149.470 7      4038.591          45.187    20685250.700   110652149.482 7      4038.591          44.437
G18  24562753.100   129078140.007 7      -949.565          42.562    24562752.060   129078140.012 4      -949.565          29.687    24562761.500   100580397.030 4      -739.921          29.625    24562761.560   100580401.025 7      -739.921          46.125
R12  19269332.820   102933310.401 8      3711.536          49.625    19269332.460   102933310.392 8      3711.536          49.125    19269341.120    80059278.132 8      2886.750          50.812    19269341.080    80059279.132 8      2886.750          50.687
G16  20328397.300   106826444.485 7      2644.102          47.000    20328395.460   106826444.492 6      2644.102          40.625    20328398.680    83241392.825 6      2060.339          40.125
G10  22616231.960   118849099.933 7      4084.154          46.625    22616229.940   118849099.943 7      4084.154          45.250    22616239.780    92609721.851 7      3182.458          44.875    22616239.680    92609719.853 7      3182.458          46.062
G31  23701715.140   124553341.312 7      -968.895          44.187    23701713.880   124553341.319 6      -968.895          41.437    23701724.300    97054590.800 6      -754.983          41.312    23701725.060    97054591.803 7      -754.983          45.000
G21  22336954.080   117381493.623 7      5400.261          42.750    22336952.440   117381493.627 4      5400.261          28.000    22336959.160    91466127.220 4      4207.996          27.937
R22  19679937.460   105052843.924 8       812.473          49.625    19679937.240   105052843.927 8       812.473          50.125    19679943.580    81707792.491 8       631.924          51.000    19679944.100    81707794.485 8       631.924          51.187
G23  22960624.640   120658896.346 7      2370.177          46.125    22960624.120   120658896.351 5      2370.177          32.625    22960631.020    94019949.068 5      1846.891          32.500    22960631.680    94019950.069 7      1846.891          46.187
G26  21175806.500   111279615.904 7       574.122          46.875    21175805.040   111279615.904 7       574.122          47.000    21175813.240    86711414.672 7       447.367          46.750    21175813.440    86711416.677 8       447.367          48.937
G08  22026240.240   115748671.131 7      3873.996          45.625    22026240.760   115748671.128 5      3873.996          35.125    22026247.620    90193804.019 5      3018.698          34.812    22026246.900    90193798.022 7      3018.698          47.000
R11  20637783.820   110282055.976 8      -636.515          48.562    20637783.080   110282055.988 7      -636.515          47.250    20637793.380    85774971.456 8      -495.067          49.875    20637793.400    85774972.460 8      -495.067          50.000
G07  25420242.940   133584237.635 6      5122.378          37.500    25420241.000   133584237.637 3      5122.378          19.875    25420249.520   104091639.803 3      3991.463          19.687    25420250.140   104091675.815 6      3991.463          38.187
> 2024 05 10 11 24  1.0000000  0 15
R21  22831185.500   122174283.335 6     -1033.656          39.500    22831186.420   122174283.372 6     -1033.656          39.625    22831200.360    95024499.096 8      -803.954          49.375    22831199.480    95024498.097 8      -803.954          49.437
G27  20720868.820   108888896.876 8      2427.032          48.000    20720867.340   108888896.881 6      2427.032          41.500    20720873.640    84848511.121 6      1891.193          41.125    20720874.520    84848512.130 8      1891.193          51.937
R23  20684495.660   110648110.834 7      4038.449          45.562    20684495.760   110648110.854 7      4038.449          44.312
G18  24562934.040   129079089.259 7      -949.149          43.250    24562932.660   129079089.261 4      -949.149          29.687    24562941.980   100581136.702 4      -739.597          29.625    24562942.280   100581140.695 7      -739.597          46.500
R12  19268637.880   102929598.945 8      3711.211          49.500    19268637.680   102929598.938 8      3711.211          49.687    19268646.260    80056391.445 8      2886.497          50.937    19268646.320    80056392.449 8      2886.497          51.375
G16  20327894.440   106823800.327 7      2644.066          46.937    20327892.360   106823800.337 6      2644.066          40.500    20327895.460    83239332.444 6      2060.311          39.875
G10  22615454.680   118845015.661 7      4084.237          46.437    22615452.680   118845015.669 7      4084.237          45.625    22615462.620    92606539.300 7      3182.523          45.312    22615462.420    92606537.304 7      3182.523          45.687
G31  23701899.220   124554309.854 7      -968.509          44.437    23701898.080   124554309.862 6      -968.509          41.437    23701908.640    97055345.492 6      -754.683          41.687    23701909.320    97055346.489 7      -754.683          45.500
G21  22335926.380   117376093.285 7      5400.240          43.312    22335924.780   117376093.290 4      5400.240          28.000    22335931.440    91461919.169 4      4207.979          27.937
R22  19679785.460   105052031.339 8       812.411          49.812    19679785.100   105052031.337 8       812.411          49.687    19679791.420    81707160.475 8       631.875          51.187    19679791.620    81707162.469 8       631.875          51.375
G23  22960173.800   120656526.047 7      2370.088          46.312    22960173.100   120656526.049 5      2370.088          33.125    22960180.000    94018102.083 5      1846.822          33.000    22960180.540    94018103.076 7      1846.822          46.125
G26  21175697.220   111279041.621 7       574.176          47.812    21175695.840   111279041.620 7       574.176          47.312    21175704.000    86710967.177 7       447.409          46.937    21175704.120    86710969.181 8       447.409          48.562
G08  22025502.780   115744796.966 7      3874.179          45.562    22025503.680   115744796.966 5      3874.179          35.687    22025510.280    90190785.191 5      3018.841          35.250    22025509.280    90190779.199 7      3018.841          47.250
R11  20637902.860   110282692.469 8      -636.621          48.312    20637902.040   110282692.478 8      -636.621          48.312    20637912.480    85775466.504 8      -495.149          50.000    20637912.300    85775467.504 8      -495.149          50.437
G07  25419268.020   133579115.171 6      5122.431          37.750    25419266.160   133579115.173 3      5122.431          19.875    25419274.780   104087648.270 3      3991.505          19.687    25419276.220   104087684.287 6      3991.505          38.187
> 2024 05 10 11 24  2.0000000  0 15
R21  22831378.300   122175317.139 6     -1033.709          39.500    22831379.220   122175317.170 6     -1033.709          39.625    22831393.760    95025303.157 8      -803.996          49.125    22831392.780    95025302.154 8      -803.996          49.625
G27  20720407.020   108886470.048 8      2426.781          48.562    20720405.380   108886470.048 6      2426.781          41.437    20720411.800    84846620.084 6      1890.998          40.875    20720412.720    84846621.087 8      1890.998          52.000
R23  20683740.600   110644072.815 7      4037.720          47.125    20683740.640   110644072.835 7      4037.720          45.625
G18  24563114.740   129080038.649 7      -949.367          42.125    24563113.280   129080038.657 5      -949.367          30.000    24563122.640   100581876.481 4      -739.766          29.875    24563122.840   100581880.482 7      -739.766          46.125
R12  19267942.980   102925888.305 8      3710.289          50.750    19267943.020   102925888.298 8      3710.289          50.312    19267951.740    80053505.394 8      2885.780          50.562    19267951.740    80053506.396 8      2885.780          51.062
G16  20327391.120   106821156.682 7      2643.431          46.750    20327389.280   106821156.686 6      2643.431          40.187    20327392.380    83237272.459 6      2059.817          39.625
G10  22614677.300   118840931.868 7      4083.616          46.312    22614675.720   118840931.876 7      4083.616          45.312    22614685.620    92603357.132 7      3182.038          45.375    22614685.000    92603355.136 7      3182.038          45.500
G31  23702083.540   124555278.475 7      -968.614          45.375    23702082.320   124555278.483 6      -968.614          41.625    23702092.960    97056100.249 6      -754.764          41.187    23702093.760    97056101.246 7      -754.764          45.125
G21  22334898.860   117370693.432 7      5399.684          44.062    22334897.320   117370693.437 4      5399.684          28.000    22334903.720    91457711.497 4      4207.546          27.937
R22  19679633.220   105051219.221 8       811.925          50.312    19679632.920   105051219.219 8       811.925          50.062    19679639.360    81706528.828 8       631.497          50.812    19679639.700    81706530.819 8       631.497          51.125
G23  22959722.940   120654156.380 7      2369.429          46.562    22959722.180   120654156.383 5      2369.429          33.312    22959729.020    94016255.590 5      1846.308          33.000    22959729.180    94016256.589 7      1846.308          46.187
G26  21175588.060   111278467.834 8       573.525          48.000    21175586.680   111278467.839 7       573.525          47.500    21175594.800    86710520.070 7       446.902          47.125    21175595.380    86710522.071 8       446.902          48.687
G08  22024765.300   115740923.001 7      3874.019          46.187    22024766.340   115740922.996 6      3874.019          36.000    22024773.060    90187766.519 5      3018.716          35.750    22024772.560    90187760.521 7      3018.716          47.437
R11  20638022.000   110283329.622 8      -637.469          49.250    20638021.280   110283329.626 8      -637.469          48.875    20638031.640    85775962.049 8      -495.809          49.812    20638031.400    85775963.049 8      -495.809          50.187
G07  25418293.500   133573993.051 6      5122.139          37.750    25418291.620   133573993.056 3      5122.139          19.687    25418299.940   104083657.010 3      3991.277          19.687    25418300.180   104083693.010 6      3991.277          38.375
> 2024 05 10 11 24  3.0000000  0 15
R21  22831571.200   122176350.826 6     -1033.774          40.437    22831572.100   122176350.865 6     -1033.774          39.625    22831586.740    95026107.127 8      -804.046          48.250    22831586.080    95026106.131 8      -804.046          48.750
G27  20719945.220   108884043.359 7      2426.498          47.812    20719943.560   108884043.367 6      2426.498          41.437    20719950.000    84844729.160 6      1890.778          40.875    20719950.780    84844730.167 8      1890.778          51.437
R23  20682985.880   110640035.299 7      4037.248          47.000    20682986.320   110640035.306 7      4037.248          45.937
G18  24563295.260   129080988.082 6      -949.397          41.000    24563293.840   129080988.089 5      -949.397          30.000    24563303.280   100582616.290 4      -739.790          29.875    24563303.440   100582620.285 7      -739.790          46.187
R12  19267248.480   102922178.376 8      3709.425          50.000    19267248.460   102922178.374 8      3709.425          49.812    19267257.340    80050619.896 8      2885.108          49.937    19267257.380    80050620.898 8      2885.108          50.312
G16  20326888.180   106818513.407 7      2642.986          46.750    20326886.260   106818513.411 6      2642.986          40.687    20326889.400    83235212.760 6      2059.470          40.125
G10  22613900.340   118836848.417 7      4083.202          46.875    22613898.520   118836848.422 7      4083.202          44.750    22613908.500    92600175.222 7      3181.716          45.187    22613907.840    92600173.226 7      3181.716          45.312
G31  23702268.140   124556247.102 7      -968.685          45.375    23702266.660   124556247.109 6      -968.685          40.937    23702277.260    97056855.007 6      -754.819          40.687    23702278.200    97056856.008 7      -754.819          45.312
G21  22333871.620   117365293.919 7      5399.360          44.062    22333869.860   117365293.924 4      5399.360          28.000    22333876.360    91453504.087 4      4207.294          27.937
R22  19679481.400   105050407.499 8       811.447          50.250    19679480.900   105050407.502 8       811.447          50.000    19679487.220    81705897.492 8       631.125          50.187    19679487.500    81705899.484 8       631.125          49.937
G23  22959271.920   120651787.279 7      2368.708          46.625    22959271.400   120651787.279 5      2368.708          33.312    22959278.240    94014409.535 5      1845.746          33.312    22959278.800    94014410.530 7      1845.746          46.000
G26  21175479.000   111277894.394 7       573.227          47.125    21175477.480   111277894.391 7       573.227          47.000    21175485.800    86710073.226 7       446.671          46.625    21175486.180    86710075.230 8       446.671          48.125
G08  22024028.400   115737049.131 7      3873.818          45.812    22024029.120   115737049.128 5      3873.818          35.687    22024036.000    90184747.921 5      3018.559          35.562    22024035.660    90184741.929 7      3018.559          47.187
R11  20638141.400   110283967.299 8      -638.010          48.750    20638140.720   110283967.300 8      -638.010          48.812    20638150.600    85776458.022 8      -496.230          48.875    20638150.760    85776459.020 8      -496.230          48.750
G07  25417318.460   133568871.241 6      5121.720          37.812    25417316.860   133568871.243 3      5121.720          19.687    25417325.400   104079665.988 3      3990.951          19.687    25417326.780   104079701.988 6      3990.951          38.375
> 2024 05 10 11 24  4.0000000  0 15
R21  22831764.240   122177384.368 6     -1033.473          40.437    22831765.900   122177384.412 6     -1033.473          41.125    22831780.060    95026910.999 8      -803.813          49.500    22831779.180    95026909.997 8      -803.813          49.437
G27  20719483.460   108881616.794 7      2426.512          46.937    20719481.740   108881616.799 6      2426.512          41.312    20719488.220    84842838.330 6      1890.789          41.062    20719489.080    84842839.333 8      1890.789          51.625
R23  20682231.260   110635998.281 7      4036.765          45.937    20682231.420   110635998.282 7      4036.765          45.250
G18  24563475.980   129081937.527 7      -949.555          42.562    24563474.600   129081937.532 5      -949.555          30.000    24563483.800   100583356.114 4      -739.913          29.875    24563484.120   100583360.106 7      -739.913          46.687
R12  19266553.940   102918469.147 8      3708.880          49.250    19266553.920   102918469.142 8      3708.880          49.312    19266563.000    80047734.938 8      2884.685          50.500    19266562.980    80047735.940 8      2884.685          50.687
G16  20326385.020   106815870.499 7      2642.618          46.750    20326383.300   106815870.507 6      2642.618          40.750    20326386.420    83233153.354 6      2059.183          40.250
G10  22613123.300   118832765.299 7      4082.916          46.000    22613121.540   118832765.309 7      4082.916          45.375    22613131.420    92596993.579 7      3181.493          44.812    22613130.900    92596991.577 7      3181.493          46.000
G31  23702452.320   124557215.700 7      -968.566          44.312    23702450.920   124557215.699 6      -968.566          41.062    23702461.620    97057609.736 6      -754.727          41.375    23702462.700    97057610.733 7      -754.727          45.250
G21  22332844.020   117359894.801 7      5398.847          43.562    22332842.520   117359894.809 4      5398.847          28.437    22332848.940    91449296.988 4      4206.893          27.937
R22  19679329.480   105049596.136 8       811.136          49.125    19679329.080   105049596.140 8       811.136          49.062    19679335.320    81705266.428 8       630.883          51.062    19679335.500    81705268.418 8       630.883          50.750
G23  22958821.420   120649418.661 7      2368.309          45.625    22958820.560   120649418.661 5      2368.309          33.062    22958827.640    94012563.859 5      1845.436          33.312    22958827.940    94012564.862 7      1845.436          46.000
G26  21175369.880   111277321.324 7       572.865          46.750    21175368.480   111277321.324 7       572.865          47.125    21175376.700    86709626.676 7       446.388          46.687    21175376.880    86709628.676 8       446.388          48.500
G08  22023291.280   115733175.350 7      3873.685          45.750    22023291.940   115733175.347 5      3873.685          35.687    22023298.880    90181729.393 5      3018.456          35.812    22023298.280    90181723.396 7      3018.456          47.125
R11  20638260.900   110284605.486 8      -638.458          48.187    20638260.100   110284605.484 7      -638.458          47.437    20638270.020    85776954.379 8      -496.578          49.312    20638270.120    85776955.383 8      -496.578          49.375
G07  25416344.280   133563749.702 6      5121.360          37.750    25416342.320   133563749.707 3      5121.360          19.687    25416350.860   104075675.176 3      3990.670          19.625    25416351.160   104075711.166 6      3990.670          38.375
> 2024 05 10 11 24  5.0000000  0 15
R21  22831957.760   122178417.971 6     -1033.657          40.437    22831958.840   122178418.005 6     -1033.657          41.125    22831973.220    95027714.892 8      -803.956          48.937    22831972.160    95027713.892 8      -803.956          49.125
G27  20719021.820   108879190.442 7      2426.267          46.750    20719020.040   108879190.447 6      2426.267          41.437    20719026.520    84840947.663 6      1890.598          41.125    20719027.320    84840948.669 8      1890.598          50.312
R23  20681477.020   110631961.808 7      4036.189          46.375    20681476.720   110631961.823 7      4036.189          44.687
G18  24563656.540   129082887.044 7      -949.622          42.062    24563655.180   129082887.049 5      -949.622          30.250    24563664.440   100584095.991 4      -739.965          29.875    24563664.780   100584099.985 7      -739.965          46.062
R12  19265859.900   102914760.721 8      3708.081          48.687    19265859.680   102914760.717 8      3708.081          48.875    19265868.740    80044850.611 8      2884.063          49.500    19265868.860    80044851.613 8      2884.063          50.062
G16  20325882.240   106813228.023 7      2642.302          46.562    20325880.500   106813228.028 6      2642.302          40.250    20325883.480    83231094.279 6      2058.937          39.937
G10  22612346.400   118828682.599 7      4082.452          46.312    22612344.680   118828682.609 7      4082.452          44.500    22612354.680    92593812.259 7      3181.131          44.687    22612353.760    92593810.257 7      3181.131          45.750
G31  23702636.600   124558184.352 7      -968.774          44.750    23702635.220   124558184.357 6      -968.774          41.125    23702646.060    97058364.520 6      -754.889          41.125    23702646.900    97058365.521 7      -754.889          45.187
G21  22331816.620   117354496.101 7      5398.478          43.687    22331815.300   117354496.106 4      5398.478          28.437    22331821.420    91445090.213 4      4206.606          28.562
R22  19679177.540   105048785.220 8       810.729          49.000    19679177.180   105048785.221 8       810.729          48.750    19679183.380    81704635.720 8       630.567          50.875    19679183.440    81704637.711 8       630.567          50.375
G23  22958370.560   120647050.666 7      2367.649          46.375    22958370.000   120647050.668 5      2367.649          33.062    22958377.100    94010718.668 5      1844.921          32.687    22958377.300    94010719.665 7      1844.921          45.812
G26  21175261.120   111276748.673 7       572.487          46.375    21175259.500   111276748.675 7       572.487          46.500    21175267.760    86709180.452 7       446.094          46.375    21175267.860    86709182.448 8       446.094          48.687
G08  22022553.880   115729301.719 7      3873.457          46.250    22022554.840   115729301.719 5      3873.457          35.750    22022561.760    90178710.981 5      3018.278          35.812    22022560.780    90178704.986 7      3018.278          46.625
R11  20638380.440   110285244.279 7      -639.082          47.437    20638379.780   110285244.286 7      -639.082          47.687    20638389.520    85777451.214 8      -497.064          48.562    20638389.540    85777452.223 8      -497.064          49.750
G07  25415370.020   133558628.481 6      5120.823          37.750    25415367.980   133558628.488 3      5120.823          19.687    25415376.240   104071684.612 3      3990.251          19.625    25415377.560   104071720.624 6      3990.251          38.375
> 2024 05 10 11 24  6.0000000  0 15
R21  22832150.580   122179451.443 6     -1033.229          39.437    22832152.220   122179451.474 6     -1033.229          41.125    22832166.280    95028518.692 7      -803.622          47.750    22832165.440    95028517.691 7      -803.622          47.750
G27  20718560.020   108876764.279 7      2426.252          46.125    20718558.340   108876764.281 6      2426.252          40.937    20718564.860    84839057.145 6      1890.586          41.000    20718565.600    84839058.150 8      1890.586          51.062
R23  20680722.680   110627925.894 7      4035.852          45.500    20680722.620   110627925.912 7      4035.852          44.187
G18  24563837.220   129083836.642 7      -949.538          42.625    24563835.960   129083836.647 5      -949.538          30.250    24563845.200   100584835.931 5      -739.899          30.000    24563845.860   100584839.922 7      -739.899          46.187
R12  19265165.840   102911053.054 8      3707.420          49.125    19265165.580   102911053.048 8      3707.420          48.437    19265174.640    80041966.866 8      2883.549          48.812    19265174.740    80041967.868 8      2883.549          48.500
G16  20325379.560   106810586.004 7      2641.977          46.437    20325377.780   106810586.009 6      2641.977          40.312    20325380.720    83229035.563 6      2058.683          39.812
G10  22611569.560   118824600.285 7      4082.366          45.937    22611567.840   118824600.292 7      4082.366          44.125    22611577.740    92590631.235 7      3181.064          44.125    22611577.360    92590629.233 7      3181.064          45.375
G31  23702820.840   124559153.029 7      -968.584          44.187    23702819.520   124559153.034 6      -968.584          41.125    23702830.460    97059119.318 6      -754.741          41.062    23702831.360    97059120.316 7      -754.741          44.875
G21  22330789.440   117349097.832 7      5398.153          43.562    22330788.020   117349097.837 4      5398.153          28.437    22330794.100    91440883.773 4      4206.353          28.562
R22  19679025.780   105047974.757 8       810.395          49.437    19679025.040   105047974.758 8       810.395          49.000    19679031.560    81704005.349 8       630.307          48.875    19679031.800    81704007.343 8       630.307          48.875
G23  22957920.080   120644683.222 7      2367.347          45.500    22957919.460   120644683.225 5      2367.347          32.937    22957926.500    94008873.909 5      1844.686          32.687    22957926.780    94008874.908 7      1844.686          46.062
G26  21175151.980   111276176.462 7       572.155          46.687    21175150.600   111276176.462 7       572.155          45.437    21175158.920    86708734.565 7       445.835          45.437    21175159.340    86708736.564 8       445.835          48.875
G08  22021816.800   115725428.232 7      3873.561          46.187    22021817.780   115725428.232 5      3873.561          35.687    22021824.680    90175692.678 5      3018.359          35.500    22021823.820    90175686.687 7      3018.359          46.625
R11  20638499.860   110285883.693 8      -639.532          48.687    20638499.540   110285883.697 7      -639.532          47.937    20638509.120    85777948.532 8      -497.414          48.000    20638509.480    85777949.536 8      -497.414          49.125
G07  25414395.260   133553507.569 6      5120.797          37.250    25414393.520   133553507.577 3      5120.797          19.687    25414401.820   104067694.287 3      3990.232          19.625    25414402.780   104067730.285 6      3990.232          38.000
> 2024 05 10 11 24  7.0000000  0 15
R21  22832343.800   122180484.870 6     -1033.329          39.437    22832345.040   122180484.912 6     -1033.329          40.062    22832359.340    95029322.474 8      -803.701          49.312    22832358.460    95029321.474 8      -803.701          49.375
G27  20718098.480   108874338.355 7      2425.813          46.750    20718096.900   108874338.357 6      2425.813          41.125    20718103.120    84837166.816 6      1890.244          41.062    20718103.740    84837167.826 8      1890.244          51.187
R23  20679968.360   110623890.612 7      4034.915          45.625    20679968.080   110623890.616 7      4034.915          44.937
G18  24564017.660   129084786.363 6      -949.832          41.687    24564016.680   129084786.363 5      -949.832          30.250    24564025.960   100585575.964 5      -740.129          30.000    24564026.500   100585579.954 7      -740.129          45.875
R12  19264471.760   102907346.173 8      3706.509          49.125    19264471.760   102907346.161 8      3706.509          48.750    19264480.920    80039083.732 8      2882.840          50.250    19264480.920    80039084.736 8      2882.840          50.875
G16  20324876.920   106807944.463 7      2641.281          46.062    20324875.080   106807944.468 6      2641.281          40.375    20324878.240    83226977.220 6      2058.141          40.250
G10  22610792.700   118820518.439 7      4081.652          46.687    22610791.100   118820518.446 7      4081.652          44.875    22610801.000    92587450.578 7      3180.508          44.812    22610800.720    92587448.575 7      3180.508          46.062
G31  23703005.120   124560121.787 7      -968.790          44.437    23703003.960   124560121.792 6      -968.790          41.437    23703014.780    97059874.182 6      -754.901          41.250    23703015.540    97059875.180 7      -754.901          45.062
G21  22329762.680   117343700.001 7      5397.688          43.937    22329760.900   117343700.004 4      5397.688          28.437    22329766.880    91436677.672 4      4205.991          28.562
R22  19678873.880   105047164.764 8       809.756          49.250    19678873.480   105047164.765 8       809.756          49.500    19678879.840    81703375.357 8       629.810          50.750    19678880.000    81703377.350 8       629.810          50.375
G23  22957469.920   120642316.452 7      2366.359          44.937    22957468.900   120642316.457 5      2366.359          32.937    22957476.060    94007029.667 5      1843.916          32.875    22957476.420    94007030.669 7      1843.916          46.000
G26  21175043.300   111275604.683 7       571.590          46.937    21175041.840   111275604.685 7       571.590          47.187    21175050.160    86708289.023 7       445.395          46.750    21175050.380    86708291.022 8       445.395          48.437
G08  22021080.000   115721554.938 7      3873.219          46.000    22021080.640   115721554.935 6      3873.219          36.125    22021087.520    90172674.530 5      3018.093          35.937    22021086.500    90172668.533 7      3018.093          46.875
R11  20638619.780   110286523.715 7      -640.269          47.750    20638619.140   110286523.719 7      -640.269          47.312    20638628.840    85778446.319 8      -497.987          49.250    20638629.120    85778447.323 8      -497.987          49.500
G07  25413420.440   133548387.005 6      5120.434          38.437    25413419.160   133548387.007 3      5120.434          19.687    25413427.520   104063704.233 3      3989.949          19.625    25413428.760   104063740.253 6      3989.949          38.000
> 2024 05 10 11 24  8.0000000  0 15
R21  22832536.900   122181518.321 6     -1033.345          39.437    22832538.400   122181518.360 6     -1033.345          40.062    22832552.480    95030126.261 7      -803.713          47.937    22832551.800    95030125.262 7      -803.713          47.687
G27  20717636.900   108871912.706 7      2425.499          46.062    20717635.100   108871912.717 6      2425.499          41.125    20717641.620    84835276.705 6      1890.000          40.937    20717642.240    84835277.716 8      1890.000          50.187
R23  20679213.600   110619855.885 7      4034.527          45.500    20679213.840   110619855.887 7      4034.527          44.375
G18  24564198.640   129085736.224 7      -949.928          42.187    24564197.240   129085736.227 5      -949.928          30.250    24564206.820   100586316.105 5      -740.203          30.000    24564207.240   100586320.101 7      -740.203          45.437
R12  19263777.960   102903640.162 8      3705.658          48.687    19263777.620   102903640.158 8      3705.658          48.750    19263787.120    80036201.287 8      2882.178          48.937    19263787.060    80036202.289 8      2882.178          48.937
G16  20324374.320   106805303.440 7      2640.757          45.875    20324372.520   106805303.445 6      2640.757          40.437    20324375.640    83224919.280 6      2057.733          40.187
G10  22610016.000   118816437.081 7      4081.146          47.250    22610014.560   118816437.086 7      4081.146          44.562    22610024.360    92584270.305 7      3180.114          44.375    22610024.100    92584268.305 7      3180.114          45.750
G31  23703189.520   124561090.668 7      -968.928          44.750    23703188.340   124561090.678 6      -968.928          40.937    23703199.200    97060629.144 6      -755.009          40.687    23703199.880    97060630.138 7      -755.009          44.750
G21  22328735.500   117338302.702 7      5397.168          44.312    22328733.780   117338302.701 4      5397.168          28.437    22328739.800    91432471.987 4      4205.586          28.562
R22  19678722.080   105046355.275 8       809.259          48.750    19678721.840   105046355.281 8       809.259          49.250    19678728.100    81702745.759 8       629.424          49.125    19678728.540    81702747.750 8       629.424          49.250
G23  22957019.880   120639950.325 7      2365.772          44.312    22957018.580   120639950.327 5      2365.772          32.687    22957025.880    94005185.932 5      1843.459          32.875    22957026.260    94005186.934 7      1843.459          45.500
G26  21174934.560   111275033.424 7       571.064          47.250    21174933.220   111275033.426 7       571.064          46.062    21174941.420    86707843.886 7       444.985          45.625    21174941.480    86707845.887 7       444.985          47.312
G08  22020342.760   115717681.871 7      3873.073          46.187    22020343.580   115717681.874 6      3873.073          36.125    22020350.500    90169656.554 5      3017.979          35.125    22020349.660    90169650.551 7      3017.979          46.625
R11  20638739.380   110287164.419 8      -640.892          48.562    20638738.680   110287164.418 7      -640.892          47.375    20638748.800    85778944.632 8      -498.472          48.312    20638749.100    85778945.634 8      -498.472          48.250
G07  25412446.260   133543266.866 6      5120.084          38.437    25412444.840   133543266.869 3      5120.084          19.687    25412453.020   104059714.510 3      3989.676          19.625    25412453.360   104059750.504 6      3989.676          38.000
> 2024 05 10 11 24  9.0000000  0 15
R21  22832730.320   122182551.882 6     -1033.234          39.125    22832731.260   122182551.896 6     -1033.234          40.062    22832745.600    95030930.117 7      -803.626          46.875    22832744.760    95030929.118 7      -803.626          46.750
G27  20717175.380   108869487.403 7      2425.390          46.562    20717173.560   108869487.410 6      2425.390          40.562    20717180.060    84833386.855 6      1889.915          40.062    20717180.820    84833387.865 8      1889.915          49.375
R23  20678459.820   110615821.879 7      4033.976          45.250    20678459.520   110615821.893 7      4033.976          44.125
G18  24564379.460   129086686.314 7      -949.885          42.000    24564378.060   129086686.311 5      -949.885          30.125    24564387.740   100587056.426 4      -740.170          29.875    24564387.940   100587060.416 7      -740.170          45.375
R12  19263084.640   102899935.102 8      3704.850          48.250    19263084.060   102899935.095 8      3704.850          48.437    19263093.540    80033319.574 7      2881.550          47.625    19263093.560    80033320.576 8      2881.550          48.187
G16  20323871.820   106802663.000 7      2640.379          45.875    20323870.060   106802663.005 6      2640.379          39.625    20323873.160    83222861.796 6      2057.438          39.187
G10  22609239.640   118812356.268 7      4080.696          46.500    22609237.960   118812356.275 7      4080.696          43.437    22609247.820    92581090.455 7      3179.763          43.375    22609247.840    92581088.457 7      3179.763          44.937
G31  23703374.060   124562059.744 7      -968.903          45.187    23703372.860   124562059.751 6      -968.903          40.062    23703383.500    97061384.246 6      -754.989          40.375    23703384.240    97061385.241 7      -754.989          44.125
G21  22327708.180   117332905.977 7      5396.715          44.062    22327706.740   117332905.974 4      5396.715          28.437    22327712.740    91428266.750 4      4205.233          28.562
R22  19678570.700   105045546.392 8       808.851          49.312    19678570.440   105045546.393 8       808.851          49.062    19678576.660    81702116.623 7       629.107          47.687    19678576.880    81702118.619 7       629.107          47.187
G23  22956569.700   120637584.933 7      2365.228          45.750    22956568.400   120637584.936 5      2365.228          32.687    22956575.800    94003342.770 5      1843.035          32.875    22956576.600    94003343.761 7      1843.035          45.500
G26  21174825.900   111274462.732 7       570.651          47.500    21174824.560   111274462.737 7       570.651          45.062    21174832.900    86707399.191 7       444.663          45.062    21174832.840    86707401.198 7       444.663          46.750
G08  22019605.900   115713809.131 7      3872.729          45.687    22019606.660   115713809.138 5      3872.729          35.312    22019613.500    90166638.834 5      3017.711          35.125    22019612.600    90166632.838 7      3017.711          46.062
R11  20638859.400   110287805.847 8      -641.460          48.750    20638858.760   110287805.843 7      -641.460          47.562    20638868.920    85779443.520 7      -498.913          47.062    20638869.280    85779444.520 7      -498.913          46.562
G07  25411472.040   133538147.190 6      5119.807          37.812    25411470.680   133538147.192 3      5119.807          19.687    25411478.780   104055725.150 3      3989.460          19.625    25411478.440   104055761.167 6      3989.460          37.937
> 2024 05 10 11 24 10.0000000  0 15
R21  22832924.000   122183585.167 6     -1033.146          39.125    22832923.820   122183585.208 6     -1033.146          39.875    22832938.600    95031733.797 7      -803.558          46.187    22832938.080    95031732.799 7      -803.558          46.500
G27  20716713.680   108867062.093 7      2425.267          46.500    20716712.060   108867062.096 6      2425.267          37.500    20716718.520    84831497.004 6      1889.818          37.875    20716719.240    84831498.014 8      1889.818          48.875
R23  20677705.860   110611788.230 7      4033.408          45.062    20677705.160   110611788.245 7      4033.408          43.812
G18  24564560.360   129087636.308 6      -950.041          41.562    24564558.700   129087636.308 5      -950.041          30.125    24564568.680   100587796.675 4      -740.291          29.875    24564569.000   100587800.668 7      -740.291          45.062
R12  19262390.940   102896230.608 8      3704.146          49.000    19262390.600   102896230.601 8      3704.146          49.125    19262400.140    80030438.299 7      2881.002          46.812    19262399.880    80030439.301 7      2881.002          47.562
G16  20323369.480   106800022.810 7      2640.016          46.625    20323367.660   106800022.820 6      2640.016          39.812    20323370.760    83220804.505 6      2057.156          38.812
G10  22608463.040   118808275.651 7      4080.477          47.125    22608461.500   118808275.659 7      4080.477          43.312    22608471.380    92577910.760 7      3179.592          43.312    22608471.440    92577908.762 7      3179.592          45.000
G31  23703558.440   124563028.675 7      -969.044          45.062    23703557.300   124563028.688 6      -969.044          40.312    23703567.860    97062139.247 6      -755.099          40.687    23703568.320    97062140.247 7      -755.099          43.812
G21  22326681.260   117327509.460 7      5396.452          44.500    22326679.760   117327509.455 4      5396.452          28.437    22326685.940    91424061.680 4      4205.028          28.312
R22  19678419.500   105044737.747 8       808.445          49.187    19678418.420   105044737.745 8       808.445          48.812    19678425.260    81701487.673 7       628.790          46.812    19678425.380    81701489.669 7       628.790          46.937
G23  22956119.480   120635219.931 7      2364.727          44.812    22956118.200   120635219.936 5      2364.727          32.687    22956125.820    94001499.915 5      1842.644          32.250    22956126.540    94001500.917 7      1842.644          45.437
G26  21174717.340   111273892.277 7       570.259          47.062    21174715.860   111273892.279 7       570.259          44.437    21174724.260    86706954.675 7       444.358          44.312    21174724.100    86706956.677 7       444.358          47.187
G08  22018868.880   115709936.317 7      3872.798          45.875    22018869.840   115709936.319 5      3872.798          35.375    22018876.720    90163621.055 5      3017.764          35.250    22018875.500    90163615.058 7      3017.764          45.875
R11  20638979.560   110288447.697 8      -642.115          48.250    20638978.700   110288447.690 7      -642.115          47.250    20638989.220    85779942.722 7      -499.423          46.375    20638989.260    85779943.724 7      -499.423          45.937
G07  25410497.740   133533027.666 6      5119.413          37.312    25410496.280   133533027.676 3      5119.413          19.687    25410504.460   104051735.913 3      3989.153          19.625    25410503.600   104051771.905 6      3989.153          37.937
> 2024 05 10 11 24 11.0000000  0 15
R21  22833116.520   122184618.460 6     -1033.033          39.125    22833117.380   122184618.499 6     -1033.033          39.875    22833131.740    95032537.461 7      -803.470          46.312    22833131.080    95032536.463 7      -803.470          47.062
G27  20716252.000   108864636.997 7      2425.050          46.000    20716250.500   108864637.002 7      2425.050          44.312    20716257.060    84829607.319 7      1889.649          44.562    20716257.720    84829608.330 8      1889.649          50.437
R23  20676951.760   110607755.168 7      4032.808          43.562    20676951.160   110607755.177 7      4032.808          43.812
G18  24564741.000   129088586.377 6      -950.089          41.875    24564739.440   129088586.374 5      -950.089          30.125    24564749.440   100588536.982 4      -740.329          29.875    24564749.560   100588540.975 7      -740.329          45.375
R12  19261697.600   102892526.878 8      3703.387          48.812    19261697.200   102892526.874 8      3703.387          48.812    19261706.700    80027557.620 7      2880.412          47.812    19261706.520    80027558.622 8      2880.412          48.000
G16  20322867.320   106797383.082 7      2639.513          46.187    20322865.320   106797383.090 6      2639.513          39.687    20322868.320    83218747.572 6      2056.763          39.125
G10  22607686.500   118804195.471 7      4080.048          47.062    22607685.080   118804195.481 7      4080.048          43.875    22607695.020    92574731.402 7      3179.259          43.625    22607694.920    92574729.410 7      3179.259          45.750
G31  23703742.900   124563997.651 7      -969.031          44.437    23703741.700   124563997.659 6      -969.031          40.062    23703752.040    97062894.277 6      -755.089          40.187    23703752.660    97062895.274 7      -755.089          43.937
G21  22325654.360   117322113.406 7      5395.895          44.937    22325653.020   117322113.406 4      5395.895          28.437    22325659.040    91419856.968 4      4204.594          28.312
R22  19678267.840   105043929.548 8       808.003          48.750    19678267.000   105043929.549 8       808.003          48.812    19678273.860    81700859.069 8       628.447          48.625    19678274.180    81700861.067 8       628.447          48.000
G23  22955669.720   120632855.528 7      2364.215          45.000    22955668.200   120632855.540 5      2364.215          32.437    22955675.840    93999657.523 5      1842.245          32.250    22955676.780    93999658.524 7      1842.245          45.625
G26  21174608.780   111273322.258 7       569.805          47.250    21174607.460   111273322.258 7       569.805          45.187    21174615.800    86706510.496 7       444.004          45.125    21174615.840    86706512.503 7       444.004          47.937
G08  22018131.900   115706063.679 7      3872.562          45.562    22018132.840   115706063.684 5      3872.562          35.000    22018139.800    90160603.413 5      3017.581          34.875    22018138.660    90160597.416 7      3017.581          46.437
R11  20639099.840   110289090.130 8      -642.714          48.250    20639098.940   110289090.126 7      -642.714          47.687    20639109.440    85780442.388 7      -499.889          47.437    20639109.320    85780443.390 7      -499.889          47.937
G07  25409523.200   133527908.447 6      5119.353          37.312    25409522.100   133527908.457 3      5119.353          19.687    25409530.300   104047746.913 3      3989.106          19.625    25409530.540   104047782.923 6      3989.106          37.937
> 2024 05 10 11 24 12.0000000  0 15
R21  22833308.900   122185651.635 6     -1033.339          39.125    22833310.380   122185651.685 6     -1033.339          39.875    22833324.880    95033341.036 8      -803.708          48.875    22833324.080    95033340.035 8      -803.708          49.250
G27  20715790.660   108862211.992 7      2424.857          46.375    20715789.080   108862211.995 7      2424.857          45.062    20715795.680    84827717.703 7      1889.499          45.562    20715796.220    84827718.716 8      1889.499          51.750
R23  20676197.360   110603722.544 7      4032.187          44.062    20676197.260   110603722.561 7      4032.187          44.375
G18  24564921.960   129089536.424 7      -950.219          42.312    24564920.360   129089536.424 5      -950.219          30.125    24564930.140   100589277.271 4      -740.430          29.875    24564930.720   100589281.261 7      -740.430          46.250
R12  19261004.300   102888823.787 8      3702.609          48.562    19261003.960   102888823.783 8      3702.609          48.625    19261013.420    80024677.436 8      2879.807          50.250    19261013.340    80024678.440 8      2879.807          51.000
G16  20322364.960   106794743.670 7      2639.178          45.937    20322363.040   106794743.677 6      2639.178          40.500    20322366.060    83216690.887 6      2056.502          39.875
G10  22606910.260   118800115.585 7      4079.625          46.312    22606908.600   118800115.592 7      4079.625          44.875    22606918.620    92571552.272 7      3178.928          44.875    22606918.140    92571550.281 7      3178.928          46.125
G31  23703927.100   124564966.559 7      -969.123          44.750    23703926.060   124564966.569 6      -969.123          41.000    23703936.480    97063649.254 6      -755.161          41.062    23703936.920    97063650.255 7      -755.161          44.500
G21  22324627.640   117316717.664 7      5395.366          43.812    22324626.240   117316717.667 4      5395.366          28.437    22324632.240    91415652.498 4      4204.181          28.312
R22  19678116.360   105043121.668 8       807.623          48.250    19678115.660   105043121.667 8       807.623          49.250    19678122.500    81700230.714 8       628.151          50.750    19678122.880    81700232.710 8       628.151          50.250
G23  22955219.600   120630491.644 7      2363.472          45.250    22955218.260   120630491.652 5      2363.472          32.437    22955226.180    93997815.534 5      1841.667          32.687    22955226.560    93997816.521 7      1841.667          46.687
G26  21174500.460   111272752.541 7       569.446          46.812    21174499.100   111272752.538 7       569.446          46.687    21174507.340    86706066.559 7       443.724          46.375    21174507.660    86706068.563 8       443.724          48.750
G08  22017394.920   115702191.080 7      3872.452          44.875    22017395.640   115702191.083 5      3872.452          35.000    22017402.900    90157585.806 5      3017.495          34.875    22017401.760    90157579.809 7      3017.495          47.125
R11  20639220.080   110289733.054 8      -643.318          48.750    20639219.320   110289733.053 7      -643.318          47.500    20639229.780    85780942.428 8      -500.359          49.187    20639229.840    85780943.432 8      -500.359          48.625
G07  25408548.380   133522789.478 6      5118.963          36.687    25408548.020   133522789.488 3      5118.963          19.625    25408556.100   104043758.108 3      3988.803          19.625    25408557.100   104043794.116 6      3988.803          37.937
> 2024 05 10 11 24 13.0000000  0 15
R21  22833502.120   122186684.567 6     -1033.058          39.312    22833503.500   122186684.611 6     -1033.058          39.625    22833517.840    95034144.421 8      -803.489          49.437    22833517.100    95034143.420 8      -803.489          49.687
G27  20715329.200   108859787.067 7      2424.862          46.875    20715327.620   108859787.066 7      2424.862          45.125    20715334.260    84825828.146 7      1889.503          45.500    20715334.680    84825829.156 8      1889.503          51.562
R23  20675443.900   110599690.358 7      4031.888          44.250    20675443.680   110599690.368 7      4031.888          43.937
G18  24565102.360   129090486.406 7      -950.019          42.187    24565101.180   129090486.408 4      -950.019          29.625    24565110.780   100590017.512 4      -740.274          29.687    24565111.040   100590021.509 7      -740.274          46.375
R12  19260311.620   102885121.336 8      3702.008          48.062    19260310.980   102885121.335 8      3702.008          48.625    19260320.260    80021797.758 8      2879.339          50.625    19260320.480    80021798.760 8      2879.339          51.375
G16  20321862.900   106792104.609 7      2638.743          45.562    20321860.860   106792104.612 6      2638.743          40.312    20321863.900    83214634.472 6      2056.164          39.562
G10  22606133.900   118796035.993 7      4079.373          46.687    22606132.180   118796035.998 7      4079.373          45.250    22606142.160    92568373.368 7      3178.732          45.250    22606142.220    92568371.378 7      3178.732          46.250
G31  23704111.420   124565935.388 7      -968.864          44.750    23704110.440   124565935.390 6      -968.864          41.250    23704120.900    97064404.165 6      -754.959          41.000    23704121.180    97064405.162 7      -754.959          44.562
G21  22323601.120   117311322.209 7      5395.133          43.062    22323599.500   117311322.211 4      5395.133          28.750    22323605.540    91411448.252 4      4203.999          28.312
R22  19677965.120   105042314.123 8       807.241          49.250    19677964.280   105042314.121 8       807.241          48.812    19677971.280    81699602.626 8       627.854          50.750    19677971.320    81699604.621 8       627.854          50.875
G23  22954769.820   120628128.179 7      2363.167          44.812    22954768.640   120628128.187 5      2363.167          32.812    22954776.560    93995973.871 5      1841.429          32.687    22954777.120    93995974.872 7      1841.429          46.687
G26  21174391.940   111272183.148 7       569.099          46.250    21174390.600   111272183.145 7       569.099          46.812    21174398.940    86705622.865 7       443.454          46.687    21174399.400    86705624.866 8       443.454          48.500
G08  22016657.860   115698318.526 7      3872.328          45.250    22016658.640   115698318.529 5      3872.328          35.812    22016666.060    90154568.229 5      3017.398          35.187    22016664.920    90154562.237 7      3017.398          47.062
R11  20639340.500   110290376.449 8      -643.758          48.562    20639339.560   110290376.444 7      -643.758          47.312    20639350.080    85781442.847 8      -500.701          49.937    20639350.300    85781443.850 8      -500.701          49.437
G07  25407574.720   133517670.724 6      5118.753          36.687    25407574.000   133517670.734 3      5118.753          19.625    25407581.960   104039769.466 3      3988.639          19.625    25407581.960   104039805.458 6      3988.639          37.687
> 2024 05 10 11 24 14.0000000  0 15
R21  22833695.320   122187717.555 6     -1032.901          39.312    22833696.700   122187717.596 6     -1032.901          39.625    22833710.880    95034947.844 8      -803.368          49.312    22833710.200    95034946.847 8      -803.368          49.187
G27  20714867.900   108857362.467 7      2424.612          46.812    20714866.260   108857362.467 7      2424.612          45.062    20714872.860    84823938.848 7      1889.308          45.187    20714873.440    84823939.861 8      1889.308          50.812
R23  20674690.460   110595658.871 7      4031.347          44.062    20674690.080   110595658.881 7      4031.347          44.500
G18  24565283.540   129091436.637 7      -950.280          42.187    24565282.100   129091436.642 4      -950.280          29.625    24565291.620   100590757.948 4      -740.478          29.687    24565292.180   100590761.936 7      -740.478          46.687
R12  19259618.520   102881419.799 8      3701.297          48.562    19259617.800   102881419.798 8      3701.297          48.000    19259627.540    80018918.785 8      2878.787          50.562    19259627.320    80018919.785 8      2878.787          50.500
G16  20321360.680   106789466.077 7      2638.418          46.312    20321358.780   106789466.085 6      2638.418          40.125    20321361.820    83212578.477 6      2055.910          39.875
G10  22605357.640   118791956.914 7      4079.023          46.625    22605356.000   118791956.924 7      4079.023          44.937    22605366.000    92565194.873 7      3178.460          44.625    22605365.840    92565192.887 7      3178.460          46.062
G31  23704295.940   124566904.377 7      -968.898          44.562    23704294.940   124566904.384 6      -968.898          41.437    23704305.340    97065159.213 6      -754.986          40.625    23704305.780    97065160.210 7      -754.986          44.812
G21  22322574.480   117305927.303 7      5394.745          43.375    22322572.820   117305927.305 4      5394.745          28.750    22322579.060    91407244.433 4      4203.698          29.000
R22  19677814.060   105041507.111 7       806.936          47.687    19677813.060   105041507.115 8       806.936          48.937    19677820.120    81698974.954 8       627.617          50.562    19677820.140    81698976.948 8       627.617          50.437
G23  22954320.160   120625765.442 7      2362.643          44.562    22954318.840   120625765.449 5      2362.643          32.812    22954326.940    93994132.779 5      1841.020          32.937    22954327.500    93994133.782 7      1841.020          46.250
G26  21174283.580   111271614.269 7       568.800          47.000    21174282.380   111271614.271 7       568.800          47.000    21174290.700    86705179.585 7       443.221          46.750    21174291.220    86705181.590 8       443.221          48.437
G08  22015921.420   115694446.206 7      3872.350          45.625    22015921.900   115694446.211 5      3872.350          35.375    22015929.180    90151550.843 5      3017.415          35.062    22015927.800    90151544.851 7      3017.415          47.187
R11  20639460.800   110291020.559 8      -644.274          48.062    20639460.200   110291020.560 7      -644.274          46.812    20639470.680    85781943.810 8      -501.102          49.812    20639471.000    85781944.810 8      -501.102          49.937
G07  25406601.340   133512552.406 6      5118.306          36.687    25406599.960   133512552.413 3      5118.306          19.625    25406608.000   104035781.165 3      3988.290          19.312    25406608.900   104035817.185 6      3988.290          37.687
> 2024 05 10 11 24 15.0000000  0 15
R21  22833888.220   122188750.396 6     -1032.877          39.312    22833890.120   122188750.437 6     -1032.877          39.625    22833903.940    95035751.154 8      -803.349          48.375    22833903.380    95035750.153 8      -803.349          48.500
G27  20714406.720   108854937.938 7      2424.465          46.875    20714404.860   108854937.940 7      2424.465          44.625    20714411.520    84822049.606 7      1889.193          45.062    20714411.960    84822050.618 8      1889.193          50.875
R23  20673936.940   110591627.847 7      4030.683          44.812    20673936.460   110591627.859 7      4030.683          44.437
G18  24565464.560   129092386.813 7      -950.295          42.000    24565462.960   129092386.821 4      -950.295          29.625    24565472.400   100591498.341 4      -740.490          29.687    24565473.120   100591502.327 7      -740.490          46.375
R12  19258925.820   102877718.970 7      3700.426          47.125    19258925.060   102877718.966 8      3700.426          48.000    19258934.640    80016040.360 8      2878.109          49.125    19258934.620    80016041.362 8      2878.109          49.937
G16  20320858.520   106786827.907 7      2637.915          46.250    20320856.840   106786827.918 6      2637.915          40.000    20320859.800    83210522.760 6      2055.518          39.812
G10  22604581.400   118787878.165 7      4078.518          46.500    22604579.840   118787878.175 7      4078.518          44.812    22604589.780    92562016.631 7      3178.066          44.687    22604589.740    92562014.641 7      3178.066          46.000
G31  23704480.200   124567873.327 7      -968.985          44.437    23704479.320   124567873.329 6      -968.985          40.937    23704489.640    97065914.220 6      -755.053          40.562    23704489.900    97065915.218 7      -755.053          44.250
G21  22321547.840   117300532.752 7      5394.169          43.625    22321546.140   117300532.756 4      5394.169          28.750    22321552.460    91403040.890 4      4203.248          29.000
R22  19677662.740   105040700.473 8       806.371          49.000    19677661.980   105040700.477 8       806.371          48.375    19677669.040    81698347.567 8       627.177          49.875    19677669.280    81698349.562 8       627.177          49.500
G23  22953870.660   120623403.214 7      2361.959          44.375    22953869.400   120623403.219 5      2361.959          32.937    22953877.580    93992292.084 5      1840.488          32.937    22953878.140    93992293.083 7      1840.488          46.125
G26  21174175.460   111271045.737 7       568.322          46.500    21174174.180   111271045.740 7       568.322          46.125    21174182.500    86704736.571 7       442.849          45.687    21174183.020    86704738.574 8       442.849          48.937
G08  22015184.380   115690573.981 7      3872.096          44.937    22015185.180   115690573.989 5      3872.096          35.250    22015192.340    90148533.529 5      3017.217          35.125    22015191.020    90148527.532 7      3017.217          47.125
R11  20639581.700   110291665.188 8      -644.978          48.375    20639581.100   110291665.192 7      -644.978          47.000    20639591.360    85782445.184 8      -501.650          48.750    20639591.420    85782446.184 8      -501.650          49.687
G07  25405627.440   133507434.301 6      5118.223          36.687    25405625.900   133507434.308 3      5118.223          19.625    25405634.100   104031793.029 3      3988.226          19.312    25405635.160   104031829.041 6      3988.226          37.687
> 2024 05 10 11 24 16.0000000  0 15
R21  22834081.300   122189783.223 6     -1032.770          39.125    22834082.460   122189783.273 6     -1032.770          39.687    22834096.940    95036554.470 8      -803.265          48.875    22834096.420    95036553.468 8      -803.265          48.625
G27  20713945.540   108852513.683 7      2424.167          47.125    20713943.640   108852513.690 7      2424.167          45.312    20713950.160    84820160.578 7      1888.961          45.312    20713950.400    84820161.588 8      1888.961          50.812
R23  20673183.320   110587597.421 7      4030.226          44.687    20673182.920   110587597.441 7      4030.226          44.500
G18  24565645.260   129093337.115 7      -950.358          42.000    24565643.740   129093337.120 5      -950.358          30.187    24565653.240   100592238.828 4      -740.539          29.687    24565654.040   100592242.821 7      -740.539          46.312
R12  19258233.260   102874018.955 7      3699.658          47.687    19258232.180   102874018.957 8      3699.658          48.312    19258241.900    80013162.575 8      2877.512          50.562    19258241.860    80013163.575 8      2877.512          50.187
G16  20320356.680   106784190.232 7      2637.469          46.875    20320354.860   106784190.237 6      2637.469          40.312    20320357.880    83208467.425 6      2055.171          39.750
G10  22603805.580   118783799.861 7      4078.148          46.187    22603803.760   118783799.866 7      4078.148          44.687    22603813.680    92558838.732 7      3177.777          44.562    22603813.500    92558836.738 7      3177.777          45.625
G31  23704664.620   124568842.355 7      -969.004          44.687    23704663.820   124568842.363 6      -969.004          41.312    23704674.040    97066669.299 6      -755.068          41.312    23704674.780    97066670.303 7      -755.068          44.500
G21  22320521.280   117295138.639 7      5393.908          43.312    22320519.760   117295138.641 4      5393.908          28.750    22320526.060    91398837.688 4      4203.045          29.000
R22  19677511.900   105039894.307 7       805.949          47.562    19677510.860   105039894.308 8       805.949          48.625    19677517.960    81697720.551 8       626.849          50.000    19677518.200    81697722.547 8       626.849          49.875
G23  22953421.320   120621041.622 7      2361.261          45.062    22953420.080   120621041.627 5      2361.261          32.937    22953428.120    93990451.880 5      1839.944          32.625    22953428.820    93990452.877 7      1839.944          46.500
G26  21174067.380   111270477.671 7       567.917          46.937    21174066.060   111270477.673 7       567.917          46.125    21174074.460    86704293.920 7       442.532          45.875    21174074.880    86704295.918 8       442.532          48.437
G08  22014447.520   115686701.940 7      3871.992          45.562    22014448.360   115686701.944 5      3871.992          35.250    22014455.460    90145516.358 5      3017.136          35.125    22014454.140    90145510.357 7      3017.136          47.312
R11  20639702.520   110292310.471 8      -645.593          48.125    20639701.900   110292310.470 7      -645.593          47.312    20639712.120    85782947.067 8      -502.128          49.625    20639712.180    85782948.067 8      -502.128          49.562
G07  25404653.700   133502316.590 6      5117.742          36.312    25404652.040   133502316.597 3      5117.742          19.625    25404660.260   104027805.200 3      3987.851          19.312    25404660.680   104027841.206 6      3987.851          37.687
> 2024 05 10 11 24 17.0000000  0 15
R21  22834274.340   122190815.960 6     -1032.738          39.125    22834275.920   122190816.001 6     -1032.738          39.687    22834290.140    95037357.695 8      -803.241          48.750    22834289.100    95037356.695 8      -803.241          48.500
G27  20713483.920   108850089.524 7      2423.984          47.875    20713482.320   108850089.529 7      2423.984          45.000    20713488.840    84818271.622 7      1888.819          45.562    20713489.200    84818272.631 8      1888.819          50.500
R23  20672429.800   110583567.469 7      4029.639          43.875    20672429.500   110583567.492 7      4029.639          43.875
G18  24565826.340   129094287.418 7      -950.417          42.375    24565824.540   129094287.423 5      -950.417          30.187    24565833.980   100592979.317 4      -740.585          29.812    24565834.520   100592983.312 7      -740.585          46.062
R12  19257540.500   102870319.595 7      3698.982          47.250    19257539.640   102870319.599 8      3698.982          48.750    19257549.600    80010285.299 8      2876.986          49.750    19257549.240    80010286.299 8      2876.986          50.000
G16  20319854.520   106781552.882 7      2637.088          46.875    20319853.100   106781552.889 6      2637.088          40.625    20319856.160    83206412.347 6      2054.874          39.750
G10  22603029.920   118779721.880 7      4077.766          46.062    22603027.700   118779721.887 7      4077.766          44.500    22603037.700    92555661.086 7      3177.480          44.500    22603037.580    92555659.096 7      3177.480          45.875
G31  23704849.120   124569811.339 7      -969.063          44.687    23704848.240   124569811.352 6      -969.063          40.937    23704858.360    97067424.339 6      -755.114          40.812    23704859.300    97067425.343 7      -755.114          44.437
G21  22319494.780   117289744.876 7      5393.497          43.625    22319493.460   117289744.881 4      5393.497          28.750    22319499.800    91394634.760 4      4202.725          29.000
R22  19677360.700   105039088.494 8       805.589          48.500    19677359.940   105039088.495 8       805.589          48.937    19677367.060    81697093.805 8       626.569          49.875    19677367.280    81697095.801 8       626.569          50.312
G23  22952972.060   120618680.519 7      2360.641          45.000    22952970.820   120618680.524 5      2360.641          32.812    22952978.660    93988612.059 5      1839.461          32.625    22952979.300    93988613.065 7      1839.461          46.125
G26  21173959.520   111269909.946 7       567.488          46.687    21173958.000   111269909.948 7       567.488          46.312    21173966.500    86703851.535 7       442.199          46.000    21173966.600    86703853.537 8       442.199          48.500
G08  22013710.820   115682829.958 7      3871.898          45.312    22013711.340   115682829.958 5      3871.898          35.250    22013718.660    90142499.226 5      3017.063          35.062    22013717.620    90142493.233 7      3017.063          46.875
R11  20639823.620   110292956.252 8      -646.129          48.187    20639822.600   110292956.253 7      -646.129          46.750    20639832.820    85783449.330 8      -502.545          48.625    20639832.740    85783450.328 8      -502.545          49.000
G07  25403679.820   133497199.134 6      5117.277          37.750    25403678.340   133497199.144 3      5117.277          19.625    25403686.420   104023817.574 3      3987.489          19.312    25403686.700   104023853.607 6      3987.489          37.687
> 2024 05 10 11 24 18.0000000  0 15
R21  22834467.920   122191848.742 6     -1032.883          39.125    22834468.900   122191848.778 6     -1032.883          39.687    22834482.980    95038160.953 7      -803.353          47.375    22834482.160    95038159.955 7      -803.353          47.500
G27  20713022.900   108847665.681 7      2423.680          47.437    20713020.980   108847665.686 7      2423.680          44.500    20713027.740    84816382.913 7      1888.582          44.312    20713027.940    84816383.924 8      1888.582          50.437
R23  20671676.200   110579538.194 7      4029.020          44.562    20671676.440   110579538.201 7      4029.020          44.000
G18  24566007.240   129095237.885 6      -950.426          41.937    24566005.440   129095237.893 5      -950.426          30.187    24566014.960   100593719.935 4      -740.592          29.812    24566015.340   100593723.924 7      -740.592          46.000
R12  19256848.420   102866621.127 8      3697.974          48.000    19256847.240   102866621.120 8      3697.974          48.250    19256857.080    80007408.700 8      2876.202          48.500    19256857.120    80007409.700 8      2876.202          48.500
G16  20319353.080   106778916.102 7      2636.559          46.625    20319351.280   106778916.110 6      2636.559          39.312    20319354.400    83204357.709 6      2054.462          38.937
G10  22602253.800   118775644.430 7      4077.112          46.125    22602251.820   118775644.437 7      4077.112          43.937    22602261.780    92552483.858 7      3176.970          44.312    22602261.760    92552481.864 7      3176.970          46.187
G31  23705033.900   124570780.483 7      -969.171          44.750    23705032.760   124570780.491 6      -969.171          40.500    23705042.940    97068179.498 6      -755.198          40.687    23705043.840    97068180.498 7      -755.198          44.250
G21  22318468.320   117284351.670 7      5392.862          43.937    22318467.200   117284351.675 4      5392.862          28.750    22318473.780    91390432.265 4      4202.230          29.000
R22  19677209.680   105038283.236 8       804.962          48.750    19677209.040   105038283.239 8       804.962          48.625    19677216.240    81696467.491 8       626.082          49.437    19677216.520    81696469.487 8       626.082          48.812
G23  22952522.840   120616320.112 7      2360.042          45.625    22952521.620   120616320.119 5      2360.042          32.812    22952529.460    93986772.783 5      1838.994          32.625    22952530.060    93986773.779 7      1838.994          45.625
G26  21173851.420   111269342.754 7       566.935          47.125    21173850.040   111269342.756 7       566.935          45.125    21173858.520    86703409.561 7       441.768          44.937    21173858.900    86703411.563 8       441.768          48.187
G08  22012974.160   115678958.248 7      3871.627          45.750    22012974.560   115678958.248 5      3871.627          34.937    22012982.080    90139482.308 5      3016.852          34.687    22012980.440    90139476.310 7      3016.852          47.062
R11  20639944.740   110293602.722 8      -646.769          48.437    20639943.300   110293602.723 7      -646.769          47.250    20639953.980    85783952.129 7      -503.043          47.625    20639953.620    85783953.134 8      -503.043          48.812
G07  25402705.940   133492082.104 6      5116.875          37.750    25402704.520   133492082.114 3      5116.875          19.625    25402712.620   104019830.274 3      3987.175          19.312    25402713.440   104019866.288 6      3987.175          37.687
> 2024 05 10 11 24 19.0000000  0 15
R21  22834660.920   122192881.494 6     -1032.839          39.125    22834661.920   122192881.541 6     -1032.839          39.937    22834675.800    95038964.210 8      -803.319          48.562    22834675.220    95038963.211 8      -803.319          48.750
G27  20712561.520   108845242.085 7      2423.436          47.125    20712559.860   108845242.090 7      2423.436          45.187    20712566.500    84814494.394 7      1888.391          45.812    20712566.760    84814495.406 8      1888.391          50.937
R23  20670922.980   110575509.521 7      4028.342          45.312    20670923.520   110575509.522 7      4028.342          44.000
G18  24566187.620   129096188.527 6      -950.720          41.562    24566186.300   129096188.531 5      -950.720          30.187    24566196.080   100594460.684 4      -740.820          29.812    24566196.100   100594464.679 7      -740.820          46.375
R12  19256156.020   102862923.481 8      3697.169          48.625    19256154.860   102862923.472 8      3697.169          48.062    19256164.880    80004532.754 8      2875.576          50.062    19256164.980    80004533.756 8      2875.576          50.375
G16  20318851.460   106776279.819 7      2635.975          47.250    20318849.660   106776279.826 6      2635.975          40.375    20318852.520    83202303.465 6      2054.006          40.125
G10  22601477.740   118771567.421 7      4076.751          46.500    22601475.860   118771567.426 7      4076.751          44.500    22601485.940    92549306.970 7      3176.689          44.937    22601486.020    92549304.978 7      3176.689          46.375
G31  23705218.280   124571749.722 7      -969.310          45.187    23705217.020   124571749.732 6      -969.310          41.062    23705227.520    97068934.735 6      -755.307          41.000    23705228.240    97068935.740 7      -755.307          44.562
G21  22317442.460   117278958.926 7      5392.475          44.375    22317441.060   117278958.928 4      5392.475          28.750    22317447.480    91386230.130 4      4201.929          28.812
R22  19677059.140   105037478.477 8       804.445          49.000    19677058.420   105037478.477 8       804.445          48.875    19677065.560    81695841.582 8       625.679          50.500    19677065.660    81695843.578 8       625.679          50.062
G23  22952074.020   120613960.343 7      2359.516          45.062    22952072.540   120613960.351 5      2359.516          32.625    22952080.460    93984934.005 5      1838.584          32.562    22952080.980    93984934.996 7      1838.584          46.187
G26  21173743.660   111268776.038 7       566.468          47.687    21173742.300   111268776.043 7       566.468          46.812    21173750.680    86702967.962 7       441.404          46.187    21173751.060    86702969.960 8       441.404          48.500
G08  22012237.240   115675086.735 7      3871.414          45.750    22012237.760   115675086.734 5      3871.414          34.937    22012245.420    90136465.545 5      3016.686          34.687    22012244.180    90136459.554 7      3016.686          47.750
R11  20640065.800   110294249.843 8      -647.516          48.250    20640064.680   110294249.847 7      -647.516          46.937    20640075.100    85784455.446 8      -503.624          49.437    20640075.160    85784456.451 8      -503.624          49.687
G07  25401732.040   133486965.465 6      5116.233          37.437    25401730.900   133486965.480 3      5116.233          19.625    25401738.960   104015843.288 3      3986.675          19.312    25401739.400   104015879.272 6      3986.675          37.687
> 2024 05 10 11 24 20.0000000  0 15
R21  22834853.380   122193914.164 6     -1032.741          39.500    22834855.260   122193914.219 6     -1032.741          39.937    22834869.000    95039767.397 8      -803.243          48.062    22834867.860    95039766.398 7      -803.243          47.687
G27  20712100.380   108842818.652 7      2423.142          47.437    20712098.580   108842818.654 7      2423.142          44.875    20712105.340    84812606.005 7      1888.162          45.062    20712105.380    84812607.016 8      1888.162          50.062
R23  20670169.700   110571481.355 7      4027.680          45.625    20670170.000   110571481.367 7      4027.680          44.125
G18  24566368.740   129097139.199 7      -950.818          42.625    24566367.280   129097139.207 4      -950.818          29.812    24566376.800   100595201.460 4      -740.897          29.812    24566377.300   100595205.450 7      -740.897          45.875
R12  19255463.760   102859226.594 8      3696.350          48.125    19255462.920   102859226.590 8      3696.350          48.812    19255472.900    80001657.404 8      2874.939          48.812    19255472.940    80001658.406 8      2874.939          48.812
G16  20318349.800   106773643.933 8      2635.551          48.000    20318348.100   106773643.943 6      2635.551          40.500    20318351.140    83200249.527 6      2053.676          40.000
G10  22600701.860   118767490.801 7      4076.288          47.062    22600700.180   118767490.808 7      4076.288          44.625    22600710.200    92546130.391 7      3176.328          44.187    22600710.440    92546128.399 7      3176.328          45.812
G31  23705402.560   124572718.984 7      -969.489          45.062    23705401.780   124572718.994 6      -969.489          41.062    23705412.060    97069689.998 6      -755.446          41.000    23705412.780    97069690.993 7      -755.446          44.437
G21  22316416.140   117273566.587 7      5391.934          43.937    22316415.040   117273566.592 4      5391.934          28.750    22316421.400    91382028.313 4      4201.507          28.812
R22  19676908.520   105036674.120 8       804.011          48.125    19676907.880   105036674.116 8       804.011          49.062    19676914.840    81695215.967 8       625.342          49.500    19676914.780    81695217.963 8       625.342          48.812
G23  22951624.960   120611601.156 7      2358.790          45.187    22951623.440   120611601.161 5      2358.790          32.625    22951631.540    93983095.673 5      1838.018          32.562    22951632.060    93983096.668 7      1838.018          45.562
G26  21173636.000   111268209.718 7       566.005          47.062    21173634.360   111268209.718 7       566.005          45.687    21173643.020    86702526.668 7       441.043          45.625    21173643.180    86702528.670 7       441.043          47.500
G08  22011500.400   115671215.345 7      3871.226          45.500    22011501.000   115671215.342 5      3871.226          35.250    22011508.640    90133448.881 5      3016.540          34.937    22011507.460    90133442.887 7      3016.540          46.500
R11  20640186.960   110294897.523 7      -648.177          47.937    20640186.000   110294897.519 7      -648.177          47.187    20640196.560    85784959.179 7      -504.138          47.937    20640196.500    85784960.185 7      -504.138          47.437
G07  25400758.880   133481849.076 6      5116.106          37.875    25400757.240   133481849.088 3      5116.106          19.625    25400765.260   104011856.490 3      3986.576          19.312    25400766.720   104011892.514 6      3986.576          37.437
> 2024 05 10 11 24 21.0000000  0 15
R21  22835046.660   122194946.860 6     -1032.677          39.500    22835048.180   122194946.910 6     -1032.677          39.937    22835061.920    95040570.591 7      -803.193          46.750    22835060.900    95040569.592 7      -803.193          46.500
G27  20711639.160   108840395.466 7      2423.000          46.812    20711637.560   108840395.473 7      2423.000          43.562    20711644.200    84810717.814 7      1888.052          43.750    20711644.520    84810718.827 8      1888.052          49.000
R23  20669417.140   110567453.805 7      4027.090          44.250    20669417.260   110567453.825 7      4027.090          44.062
G18  24566549.580   129098089.988 7      -950.783          42.812    24566548.180   129098089.992 4      -950.783          29.812    24566557.560   100595942.326 4      -740.870          29.375    24566557.940   100595946.316 7      -740.870          45.187
R12  19254771.860   102855530.557 8      3695.619          48.375    19254771.120   102855530.552 8      3695.619          48.312    19254781.100    79998782.708 7      2874.370          46.937    19254780.740    79998783.712 7      2874.370          47.312
G16  20317848.340   106771008.556 7      2635.066          47.375    20317846.560   106771008.563 6      2635.066          39.875    20317849.480    83198195.985 6      2053.298          39.312
G10  22599926.380   118763414.627 7      4075.895          46.812    22599924.460   118763414.637 7      4075.895          43.937    22599934.520    92542954.159 7      3176.022          43.562    22599934.860    92542952.167 7      3176.022          45.750
G31  23705587.300   124573688.318 7      -969.426          44.687    23705586.260   124573688.322 6      -969.426          40.375    23705596.580    97070445.302 6      -755.397          41.000    23705597.660    97070446.306 7      -755.397          44.500
G21  22315390.420   117268174.710 7      5391.641          42.687    22315388.960   117268174.718 4      5391.641          28.750    22315395.220    91377826.855 4      4201.279          28.812
R22  19676758.100   105035870.239 7       803.588          47.250    19676757.200   105035870.240 8       803.588          48.750    19676764.420    81694590.731 7       625.013          47.000    19676764.160    81694592.727 7       625.013          47.500
G23  22951176.060   120609242.601 7      2358.207          44.687    22951174.740   120609242.609 5      2358.207          32.687    22951182.720    93981257.840 5      1837.564          32.250    22951183.300    93981258.837 7      1837.564          45.750
G26  21173528.060   111267643.877 7       565.554          47.500    21173526.680   111267643.882 7       565.554          45.000    21173535.280    86702085.755 7       440.692          45.062    21173535.560    86702087.757 7       440.692          47.750
G08  22010763.760   115667344.165 7      3871.035          45.875    22010764.420   115667344.165 5      3871.035          34.812    22010771.920    90130432.384 5      3016.391          34.750    22010770.620    90130426.393 7      3016.391          46.062
R11  20640308.160   110295545.847 7      -648.703          46.937    20640307.140   110295545.854 7      -648.703          47.125    20640317.960    85785463.429 7      -504.547          46.375    20640317.920    85785464.435 7      -504.547          47.312
G07  25399785.400   133476733.128 6      5115.461          37.875    25399783.680   133476733.140 3      5115.461          19.625    25399791.740   104007870.037 3      3986.073          19.312    25399791.360   104007906.028 6      3986.073          37.437
> 2024 05 10 11 24 22.0000000  0 15
R21  22835239.320   122195979.439 6     -1032.361          39.500    22835241.380   122195979.483 6     -1032.361          39.875    22835254.800    95041373.703 7      -802.947          45.625    22835253.960    95041372.703 7      -802.947          45.687
G27  20711178.060   108837972.435 7      2423.229          46.250    20711176.480   108837972.439 7      2423.229          43.312    20711183.120    84808829.736 7      1888.230          43.312    20711183.500    84808830.745 8      1888.230          48.687
R23  20668664.600   110563426.745 7      4027.063          44.437    20668664.600   110563426.754 7      4027.063          44.062
G18  24566730.380   129099040.821 7      -950.566          42.375    24566729.100   129099040.828 4      -950.566          29.812    24566738.540   100596683.232 4      -740.701          29.375    24566738.820   100596687.235 7      -740.701          45.312
R12  19254080.360   102851835.198 7      3695.278          47.062    19254079.280   102851835.196 8      3695.278          48.625    19254089.200    79995908.541 7      2874.105          46.562    19254089.120    79995909.545 7      2874.105          46.875
G16  20317346.940   106768373.555 7      2635.034          46.875    20317345.240   106768373.563 6      2635.034          39.250    20317348.080    83196142.737 6      2053.273          38.625
G10  22599150.560   118759338.830 7      4075.872          45.062    22599148.820   118759338.840 7      4075.872          43.187    22599158.880    92539778.216 7      3176.004          43.000    22599159.360    92539776.225 7      3176.004          45.125
G31  23705771.620   124574657.656 7      -969.144          44.625    23705770.660   124574657.666 6      -969.144          40.687    23705781.080    97071200.623 6      -755.178          40.687    23705781.780    97071201.626 7      -755.178          43.812
G21  22314364.600   117262783.225 7      5391.541          42.500    22314362.940   117262783.233 4      5391.541          28.875    22314369.460    91373625.702 4      4201.201          28.812
R22  19676607.380   105035066.748 7       803.555          47.062    19676607.040   105035066.754 8       803.555          48.937    19676613.860    81693965.799 7       624.987          46.437    19676613.840    81693967.793 7       624.987          47.000
G23  22950727.500   120606884.583 7      2358.006          44.437    22950726.160   120606884.593 5      2358.006          32.687    22950734.200    93979420.425 5      1837.407          32.250    22950734.360    93979421.424 7      1837.407          45.125
G26  21173420.700   111267078.396 7       565.524          46.500    21173418.960   111267078.398 7       565.524          44.562    21173427.620    86701645.116 7       440.668          44.187    21173428.220    86701647.116 7       440.668          47.312
G08  22010027.180   115663473.090 7      3871.188          44.750    22010027.720   115663473.090 5      3871.188          34.937    22010035.360    90127415.968 5      3016.510          34.750    22010034.240    90127409.972 7      3016.510          45.875
R11  20640429.660   110296194.735 7      -648.937          47.125    20640428.760   110296194.736 7      -648.937          46.812    20640439.500    85785968.115 7      -504.729          45.937    20640439.260    85785969.113 7      -504.729          46.312
G07  25398811.680   133471617.411 6      5115.758          38.375    25398810.440   133471617.424 3      5115.758          19.875    25398818.420   104003883.762 3      3986.305          19.312    25398818.880   104003919.782 6      3986.305          37.437
> 2024 05 10 11 24 23.0000000  0 15
R21  22835432.160   122197011.975 6     -1032.475          39.312    22835433.760   122197012.016 6     -1032.475          39.875    22835447.500    95042176.772 7      -803.036          47.500    22835446.900    95042175.776 7      -803.036          47.562
G27  20710717.060   108835549.650 7      2422.572          47.562    20710715.360   108835549.653 7      2422.572          44.000    20710722.000    84806941.846 7      1887.718          44.375    20710722.340    84806942.855 8      1887.718          49.875
R23  20667911.700   110559400.283 7      4026.035          45.000    20667911.760   110559400.295 7      4026.035          44.000
G18  24566911.380   129099991.790 7      -951.167          42.000    24566909.900   129099991.798 4      -951.167          29.812    24566919.520   100597424.244 4      -741.169          29.375    24566920.280   100597428.234 7      -741.169          46.187
R12  19253388.580   102848140.632 7      3694.035          47.312    19253387.520   102848140.630 8      3694.035          48.687    19253397.640    79993034.990 7      2873.138          47.437    19253397.480    79993035.992 7      2873.138          47.562
G16  20316845.700   106765739.053 7      2634.111          47.437    20316843.920   106765739.058 6      2634.111          40.062    20316846.880    83194089.875 6      2052.554          39.437
G10  22598375.000   118755263.487 7      4075.007          46.625    22598373.160   118755263.491 7      4075.007          43.625    22598383.400    92536602.624 7      3175.330          43.937    22598383.880    92536600.633 7      3175.330          46.125
G31  23705956.100   124575627.074 7      -969.585          45.187    23705955.240   124575627.084 6      -969.585          40.937    23705965.540    97071955.997 6      -755.521          40.937    23705966.040    97071957.000 7      -755.521          44.437
G21  22313338.600   117257392.203 7      5390.785          42.875    22313336.840   117257392.215 4      5390.785          28.875    22313343.540    91369424.911 4      4200.612          28.812
R22  19676457.120   105034263.759 7       802.668          46.687    19676456.500   105034263.760 8       802.668          48.625    19676463.360    81693341.229 8       624.297          48.500    19676463.340    81693343.223 8       624.297          49.000
G23  22950278.820   120604527.211 7      2356.932          44.625    22950277.520   120604527.221 5      2356.932          32.437    22950285.660    93977583.510 5      1836.570          32.250    22950286.020    93977584.507 7      1836.570          45.687
G26  21173313.160   111266513.401 7       564.683          46.625    21173311.500   111266513.403 7       564.683          45.687    21173320.080    86701204.852 7       440.013          45.437    21173320.780    86701206.854 7       440.013          47.562
G08  22009290.480   115659602.205 7      3870.692          44.812    22009290.960   115659602.202 5      3870.692          34.937    22009298.760    90124399.692 5      3016.124          34.625    22009297.480    90124393.699 7      3016.124          46.375
R11  20640551.140   110296844.261 7      -650.015          47.500    20640550.320   110296844.257 7      -650.015          46.937    20640560.720    85786473.302 7      -505.567          46.437    20640560.700    85786474.302 7      -505.567          47.625
G07  25397838.200   133466502.078 6      5114.999          38.687    25397837.040   133466502.088 3      5114.999          19.875    25397844.960   103999897.786 3      3985.713          19.312    25397845.080   103999933.823 6      3985.713          37.437
> 2024 05 10 11 24 24.0000000  0 15
R21  22835625.220   122198044.478 6     -1032.189          39.312    22835626.660   122198044.509 6     -1032.189          39.875    22835640.640    95042979.824 8      -802.814          48.750    22835639.940    95042978.828 8      -802.814          48.687
G27  20710256.180   108833127.032 7      2422.674          47.125    20710254.440   108833127.034 7      2422.674          45.000    20710261.140    84805054.093 7      1887.798          45.312    20710261.260    84805055.105 8      1887.798          51.125
R23  20667159.620   110555374.378 7      4025.617          43.750    20667158.800   110555374.387 7      4025.617          44.125
G18  24567092.460   129100942.786 7      -950.828          42.437    24567090.800   129100942.799 4      -950.828          29.875    24567100.520   100598165.275 4      -740.905          29.375    24567101.180   100598169.268 7      -740.905          47.000
R12  19252696.880   102844446.837 7      3693.593          47.875    19252696.020   102844446.830 8      3693.593          48.187    19252706.140    79990162.033 8      2872.794          50.000    19252706.060    79990163.035 8      2872.794          50.687
G16  20316344.400   106763104.951 8      2633.997          48.000    20316342.620   106763104.956 6      2633.997          40.437    20316345.700    83192037.326 6      2052.465          40.000
G10  22597599.900   118751188.532 7      4074.939          46.125    22597597.700   118751188.537 7      4074.939          44.750    22597607.900    92533427.335 7      3175.277          44.750    22597608.280    92533425.341 7      3175.277          46.375
G31  23706140.480   124576596.525 7      -969.371          45.375    23706139.800   124576596.533 6      -969.371          41.750    23706150.140    97072711.399 6      -755.354          41.937    23706150.700    97072712.405 7      -755.354          44.687
G21  22312312.940   117252001.603 7      5390.640          43.062    22312311.040   117252001.613 4      5390.640          28.875    22312317.860    91365224.448 4      4200.499          28.812
R22  19676306.860   105033461.185 7       802.498          47.187    19676306.320   105033461.184 8       802.498          48.687    19676313.020    81692717.001 8       624.165          50.312    19676313.240    81692718.997 8       624.165          50.437
G23  22949830.400   120602170.401 7      2356.721          44.625    22949828.980   120602170.408 5      2356.721          32.437    22949837.020    93975747.030 5      1836.406          32.250    22949837.400    93975748.021 7      1836.406          46.500
G26  21173205.800   111265948.808 7       564.538          46.625    21173204.120   111265948.807 7       564.538          46.687    21173212.680    86700764.901 7       439.900          46.625    21173213.040    86700766.905 8       439.900          49.000
G08  22008553.780   115655731.451 7      3870.901          45.125    22008554.340   115655731.451 5      3870.901          35.000    22008562.120    90121383.520 5      3016.286          35.187    22008561.020    90121377.521 7      3016.286          47.937
R11  20640673.180   110297494.344 7      -650.244          47.812    20640671.740   110297494.339 7      -650.244          46.875    20640682.620    85786978.899 8      -505.745          49.187    20640682.460    85786979.899 8      -505.745          48.625
G07  25396864.600   133461387.053 6      5115.136          39.187    25396863.940   133461387.065 3      5115.136          19.875    25396871.460   103995912.056 3      3985.820          20.062    25396870.640   103995948.062 6      3985.820          37.250
> 2024 05 10 11 24 25.0000000  0 15
R21  22835817.840   122199076.880 6     -1032.427          39.312    22835818.740   122199076.930 6     -1032.427          40.062    22835833.540    95043782.814 8      -802.999          49.500    22835832.660    95043781.818 8      -802.999          48.750
G27  20709795.260   108830704.573 7      2422.368          47.250    20709793.540   108830704.581 7      2422.368          44.750    20709800.120    84803166.463 7      1887.559          45.250    20709800.520    84803167.477 8      1887.559          51.812
R23  20666406.900   110551348.959 7      4025.168          45.625    20666406.100   110551348.966 7      4025.168          43.875
G18  24567273.660   129101893.866 7      -951.184          42.312    24567271.700   129101893.876 4      -951.184          29.875    24567281.720   100598906.368 4      -741.182          29.812    24567281.960   100598910.355 7      -741.182          47.000
R12  19252005.900   102840753.807 7      3692.646          47.687    19252004.560   102840753.803 8      3692.646          48.375    19252014.840    79987289.682 8      2872.058          50.437    19252014.420    79987290.684 8      2872.058          51.375
G16  20315843.140   106760471.259 8      2633.471          48.187    20315841.440   106760471.264 6      2633.471          40.437    20315844.500    83189985.098 6      2052.055          40.062
G10  22596824.420   118747113.943 7      4074.384          46.437    22596822.280   118747113.948 7      4074.384          44.812    22596832.560    92530252.335 7      3174.845          44.500    22596833.000    92530250.343 7      3174.845          46.125
G31  23706324.940   124577565.974 7      -969.529          45.500    23706324.240   124577565.982 6      -969.529          41.812    23706334.580    97073466.800 7      -755.477          42.000    23706335.260    97073467.809 7      -755.477          45.000
G21  22311287.160   117246611.384 7      5390.038          43.437    22311285.380   117246611.392 4      5390.038          28.875    22311292.240    91361024.282 4      4200.030          28.812
R22  19676155.980   105032659.005 8       801.901          49.187    19676155.780   105032659.008 8       801.901          48.500    19676162.620    81692093.083 8       623.701          51.437    19676162.520    81692095.079 8       623.701          51.125
G23  22949382.200   120599814.148 7      2355.902          44.375    22949380.540   120599814.155 5      2355.902          32.500    22949388.980    93973910.989 5      1835.768          32.625    22949388.780    93973911.980 7      1835.768          46.937
G26  21173098.480   111265384.593 8       563.970          48.000    21173096.660   111265384.598 7       563.970          46.687    21173105.320    86700325.255 7       439.457          46.562    21173106.020    86700327.256 8       439.457          48.812
G08  22007817.400   115651860.815 7      3870.559          44.812    22007817.900   115651860.817 5      3870.559          35.250    22007825.540    90118367.442 5      3016.020          35.500    22007824.660    90118361.452 7      3016.020          47.625
R11  20640795.100   110298144.979 7      -650.938          47.687    20640793.740   110298144.977 7      -650.938          46.500    20640804.280    85787484.944 8      -506.285          49.500    20640803.740    85787485.948 8      -506.285          49.625
G07  25395891.360   133456272.355 6      5114.494          39.375    25395890.720   133456272.366 3      5114.494          19.875    25395898.280   103991926.578 3      3985.320          20.062    25395897.060   103991962.582 6      3985.320          37.250
> 2024 05 10 11 24 26.0000000  0 15
R21  22836010.940   122200109.250 6     -1032.263          39.312    22836011.760   122200109.287 6     -1032.263          40.062    22836026.480    95044585.748 8      -802.871          48.812    22836025.660    95044584.749 8      -802.871          49.000
G27  20709334.200   108828282.333 7      2422.174          47.312    20709332.500   108828282.338 7      2422.174          45.062    20709339.200    84801279.001 7      1887.409          45.312    20709339.540    84801280.013 8      1887.409          50.812
R23  20665654.940   110547324.105 7      4024.555          44.000    20665653.500   110547324.134 7      4024.555          43.875
G18  24567454.680   129102844.991 7      -951.113          42.187    24567452.640   129102844.998 4      -951.113          29.875    24567462.760   100599647.492 4      -741.127          29.812    24567463.320   100599651.479 7      -741.127          46.625
R12  19251314.200   102837061.584 7      3691.863          47.562    19251313.340   102837061.582 7      3691.863          47.875    19251323.620    79984417.949 8      2871.449          49.812    19251323.580    79984418.951 8      2871.449          50.875
G16  20315341.920   106757838.016 7      2633.034          47.875    20315340.520   106757838.020 6      2633.034          40.750    20315343.420    83187933.220 6      2051.715          40.062
G10  22596049.520   118743039.777 7      4073.979          45.812    22596047.020   118743039.782 7      4073.979          44.375    22596057.220    92527077.660 7      3174.529          44.500    22596057.440    92527075.673 7      3174.529          46.000
G31  23706509.600   124578535.468 7      -969.551          45.125    23706508.700   124578535.475 6      -969.551          41.687    23706519.060    97074222.237 6      -755.495          41.625    23706519.760    97074223.238 7      -755.495          44.875
G21  22310261.420   117241221.594 7      5389.609          43.062    22310259.600   117241221.604 4      5389.609          28.875    22310266.640    91356824.453 4      4199.696          28.812
R22  19676006.180   105031857.272 8       801.446          48.375    19676005.600   105031857.273 8       801.446          49.375    19676012.420    81691469.513 8       623.347          50.875    19676012.500    81691471.511 8       623.347          51.187
G23  22948933.780   120597458.484 7      2355.320          44.375    22948932.300   120597458.489 5      2355.320          32.500    22948940.760    93972075.407 5      1835.314          32.625    22948940.800    93972076.404 7      1835.314          46.500
G26  21172991.160   111264820.804 7       563.631          47.062    21172989.400   111264820.809 7       563.631          46.375    21172998.080    86699885.933 7       439.193          46.375    21172998.260    86699887.935 8       439.193          48.937
G08  22007080.620   115647990.337 7      3870.441          45.062    22007081.340   115647990.334 5      3870.441          35.250    22007088.940    90115351.489 5      3015.928          35.500    22007088.020    90115345.490 7      3015.928          46.937
R11  20640916.820   110298796.226 8      -651.598          48.250    20640915.780   110298796.224 7      -651.598          47.750    20640926.040    85787991.455 8      -506.798          49.000    20640925.660    85787992.457 8      -506.798          49.812
G07  25394918.320   133451157.945 6      5114.500          39.562    25394917.600   133451157.952 3      5114.500          19.875    25394924.920   103987941.315 3      3985.325          20.062    25394924.280   103987977.304 6      3985.325          37.250
> 2024 05 10 11 24 27.0000000  0 15
R21  22836204.660   122201141.727 6     -1032.258          39.562    22836204.640   122201141.755 6     -1032.258          40.062    22836219.480    95045388.769 8      -802.867          48.500    22836218.620    95045387.770 8      -802.867          48.375
G27  20708873.500   108825860.419 7      2421.936          47.000    20708871.640   108825860.421 7      2421.936          45.000    20708878.240    84799391.791 7      1887.223          45.187    20708878.440    84799392.804 8      1887.223          50.562
R23  20664902.700   110543300.000 7      4023.921          45.312    20664901.840   110543300.012 7      4023.921          44.062
G18  24567635.620   129103796.362 7      -951.420          42.937    24567633.760   129103796.370 4      -951.420          29.875    24567643.740   100600388.815 4      -741.366          29.812    24567644.180   100600392.811 7      -741.366          46.312
R12  19250623.040   102833370.260 7      3691.020          47.500    19250622.320   102833370.261 8      3691.020          48.000    19250632.680    79981546.925 8      2870.793          49.062    19250632.480    79981547.925 8      2870.793          50.000
G16  20314840.980   106755205.356 7      2632.552          47.500    20314839.680   106755205.361 6      2632.552          40.187    20314842.420    83185881.799 6      2051.339          40.000
G10  22595274.060   118738966.158 7      4073.543          46.062    22595271.760   118738966.166 7      4073.543          44.625    22595282.080    92523903.420 7      3174.189          44.562    22595282.200    92523901.432 7      3174.189          45.875
G31  23706694.240   124579505.145 7      -969.528          45.437    23706693.280   124579505.155 6      -969.528          41.750    23706703.840    97074977.815 6      -755.477          41.687    23706704.480    97074978.819 7      -755.477          44.875
G21  22309235.940   117235832.392 7      5389.049          43.500    22309234.180   117235832.402 4      5389.049          28.812    22309240.900    91352625.081 4      4199.259          28.812
R22  19675855.980   105031056.108 7       800.995          47.875    19675855.580   105031056.112 8       800.995          49.125    19675862.440    81690846.388 8       622.996          50.000    19675862.440    81690848.386 8       622.996          49.937
G23  22948485.540   120595103.563 7      2354.722          44.812    22948484.260   120595103.563 5      2354.722          33.187    22948492.400    93970240.399 5      1834.848          32.625    22948492.840    93970241.389 7      1834.848          46.250
G26  21172883.920   111264257.606 7       563.014          47.000    21172882.220   111264257.608 7       563.014          46.375    21172890.900    86699447.077 7       438.712          46.312    21172891.120    86699449.076 8       438.712          48.812
G08  22006344.400   115644120.156 7      3870.214          45.375    22006344.840   115644120.150 5      3870.214          35.437    22006352.520    90112335.759 5      3015.751          35.062    22006351.520    90112329.769 7      3015.751          47.187
R11  20641038.620   110299448.197 7      -652.126          47.875    20641038.120   110299448.195 7      -652.126          47.500    20641048.040    85788498.539 8      -507.209          48.812    20641047.660    85788499.544 8      -507.209          48.812
G07  25393944.620   133446044.054 6      5113.821          39.000    25393944.640   133446044.064 3      5113.821          19.875    25393951.800   103983956.465 3      3984.795          20.062    25393951.740   103983992.467 6      3984.795          37.875
> 2024 05 10 11 24 28.0000000  0 15
R21  22836397.480   122202174.089 6     -1032.437          39.562    22836397.800   122202174.120 6     -1032.437          39.750    22836412.460    95046191.717 8      -803.007          48.687    22836411.700    95046190.718 8      -803.007          48.750
G27  20708412.400   108823438.672 7      2421.594          47.937    20708410.880   108823438.675 7      2421.594          43.437    20708417.440    84797504.757 7      1886.956          42.062    20708417.620    84797505.766 8      1886.956          48.812
R23  20664150.540   110539276.393 7      4023.195          44.000    20664149.320   110539276.413 7      4023.195          43.437
G18  24567816.700   129104747.758 7      -951.595          42.187    24567814.840   129104747.762 4      -951.595          29.875    24567824.880   100601130.155 4      -741.502          29.750    24567825.500   100601134.150 7      -741.502          46.750
R12  19249932.380   102829679.647 7      3690.103          47.375    19249931.520   102829679.648 8      3690.103          48.312    19249941.660    79978676.451 8      2870.080          49.562    19249941.380    79978677.451 8      2870.080          50.500
G16  20314340.040   106752573.111 7      2631.983          47.437    20314338.720   106752573.121 6      2631.983          40.812    20314341.660    83183830.699 6      2050.896          40.000
G10  22594499.080   118734892.922 7      4072.967          45.812    22594496.540   118734892.922 7      4072.967          44.687    22594507.020    92520729.472 7      3173.740          44.500    22594506.980    92520727.476 7      3173.740          46.312
G31  23706878.860   124580474.846 7      -969.805          45.562    23706877.800   124580474.859 6      -969.805          41.625    23706888.260    97075733.412 6      -755.692          41.812    23706889.180    97075734.414 7      -755.692          45.187
G21  22308210.600   117230443.571 7      5388.463          43.125    22308208.820   117230443.582 4      5388.463          28.812    22308215.400    91348426.002 4      4198.803          28.812
R22  19675706.080   105030255.347 8       800.431          48.375    19675705.680   105030255.348 8       800.431          49.187    19675712.360    81690223.578 8       622.558          50.625    19675712.380    81690225.572 8       622.558          50.000
G23  22948037.700   120592749.186 7      2353.998          44.875    22948036.240   120592749.186 5      2353.998          33.187    22948044.460    93968405.818 5      1834.284          32.937    22948044.900    93968406.811 7      1834.284          46.562
G26  21172776.680   111263694.765 7       562.542          46.000    21172775.000   111263694.768 7       562.542          46.375    21172783.780    86699008.498 7       438.344          45.812    21172783.960    86699010.497 8       438.344          48.687
G08  22005607.900   115640250.080 7      3869.925          44.875    22005608.400   115640250.079 5      3869.925          35.187    22005615.960    90109320.122 5      3015.526          34.750    22005615.040    90109314.133 7      3015.526          47.437
R11  20641160.660   110300100.742 8      -652.923          48.437    20641160.480   110300100.746 7      -652.923          47.250    20641170.040    85789006.073 8      -507.829          48.875    20641170.200    85789007.075 8      -507.829          48.687
G07  25392972.020   133440930.429 6      5113.340          39.125    25392971.680   133440930.434 3      5113.340          19.875    25392978.820   103979971.822 3      3984.421          20.062    25392978.740   103980007.818 6      3984.421          37.875
> 2024 05 10 11 24 29.0000000  0 15
R21  22836589.760   122203206.395 6     -1031.989          39.562    22836590.300   122203206.439 6     -1031.989          39.750    22836605.260    95046994.628 8      -802.658          48.562    22836604.640    95046993.629 8      -802.658          48.625
G27  20707951.880   108821017.173 7      2421.630          47.000    20707950.120   108821017.178 7      2421.630          47.937    20707956.700    84795617.874 7      1886.984          47.812    20707956.860    84795618.886 8      1886.984          49.125
R23  20663398.640   110535253.389 7      4023.057          44.750    20663397.120   110535253.401 7      4023.057          44.187
G18  24567997.900   129105699.261 6      -951.144          41.812    24567996.060   129105699.263 4      -951.144          29.875    24568006.000   100601871.578 4      -741.151          29.750    24568006.480   100601875.571 7      -741.151          46.812
R12  19249241.660   102825989.838 8      3689.698          48.125    19249240.980   102825989.844 8      3689.698          48.312    19249251.080    79975806.599 8      2869.765          49.750    19249250.740    79975807.603 8      2869.765          50.625
G16  20313839.160   106749941.363 7      2631.804          47.375    20313837.860   106749941.368 6      2631.804          40.312    20313840.820    83181779.986 6      2050.756          39.750
G10  22593724.040   118730820.110 7      4072.932          46.937    22593721.500   118730820.117 7      4072.932          44.562    22593732.040    92517555.860 7      3173.713          44.500    22593731.820    92517553.872 7      3173.713          46.062
G31  23707063.360   124581444.629 7      -969.572          45.625    23707062.360   124581444.642 7      -969.572          42.312    23707072.820    97076489.075 7      -755.510          42.125    23707073.360    97076490.078 7      -755.510          45.187
G21  22307185.040   117225055.205 7      5388.395          43.375    22307183.340   117225055.213 4      5388.395          28.812    22307189.880    91344227.277 4      4198.750          28.812
R22  19675555.820   105029455.083 8       800.237          48.312    19675555.800   105029455.086 8       800.237          49.187    19675562.440    81689601.146 8       622.406          50.375    19675562.800    81689603.146 8       622.406          50.375
G23  22947589.820   120590395.451 7      2353.676          44.812    22947588.340   120590395.450 5      2353.676          32.750    22947596.440    93966571.736 5      1834.033          32.937    22947596.960    93966572.732 7      1834.033          46.750
G26  21172669.960   111263132.400 7       562.408          45.937    21172667.940   111263132.408 7       562.408          46.062    21172676.780    86698570.287 7       438.240          45.875    21172677.280    86698572.288 8       438.240          48.625
G08  22004871.440   115636380.219 7      3870.008          44.687    22004871.780   115636380.219 5      3870.008          35.000    22004879.620    90106304.648 5      3015.591          34.750    22004878.480    90106298.653 7      3015.591          47.125
R11  20641283.280   110300753.913 8      -653.179          48.875    20641282.620   110300753.920 7      -653.179          47.625    20641292.380    85789514.095 8      -508.028          48.375    20641292.040    85789515.095 8      -508.028          48.000
G07  25391999.180   133435817.209 6      5113.007          38.937    25391998.740   133435817.214 3      5113.007          19.875    25392005.880   103975987.494 3      3984.161          20.062    25392006.700   103976023.506 6      3984.161          37.875
> 2024 05 10 11 24 30.0000000  0 15
R21  22836782.980   122204238.564 6     -1032.360          38.625    22836783.520   122204238.590 6     -1032.360          39.750    22836798.080    95047797.405 8      -802.947          48.562    22836797.460    95047796.407 7      -802.947          47.937
G27  20707491.220   108818595.708 7      2421.348          47.250    20707489.340   108818595.710 7      2421.348          47.500    20707496.000    84793731.016 7      1886.765          47.500    20707496.200    84793732.024 8      1886.765          49.562
R23  20662646.740   110531230.811 7      4022.228          44.937    20662645.160   110531230.821 7      4022.228          44.187
G18  24568178.820   129106650.743 7      -951.628          42.562    24568177.120   129106650.750 5      -951.628          30.000    24568187.140   100602612.991 4      -741.528          29.750    24568187.580   100602616.979 7      -741.528          46.500
R12  19248551.100   102822300.707 8      3688.631          48.375    19248550.460   102822300.708 7      3688.631          47.937    19248560.360    79972937.271 8      2868.935          50.000    19248560.140    79972938.275 8      2868.935          50.125
G16  20313338.520   106747309.920 7      2631.104          47.625    20313337.100   106747309.927 6      2631.104          40.500    20313340.080    83179729.507 6      2050.211          40.000
G10  22592949.100   118726747.604 7      4072.269          45.687    22592946.680   118726747.606 7      4072.269          44.562    22592957.040    92514382.481 7      3173.197          44.500    22592957.220    92514380.487 7      3173.197          45.937
G31  23707247.860   124582414.309 7      -969.823          45.562    23707247.000   124582414.322 6      -969.823          41.500    23707257.480    97077244.660 7      -755.706          42.000    23707258.120    97077245.665 7      -755.706          44.562
G21  22306159.440   117219667.133 7      5387.900          43.375    22306158.000   117219667.136 4      5387.900          28.812    22306164.540    91340028.782 4      4198.363          28.812
R22  19675406.020   105028655.099 8       799.675          48.312    19675405.880   105028655.102 8       799.675          48.750    19675412.720    81688978.932 8       621.969          49.187    19675412.580    81688980.930 8       621.969          49.812
G23  22947142.000   120588042.154 7      2352.861          45.062    22947140.580   120588042.156 5      2352.861          32.750    22947148.540    93964738.001 5      1833.399          32.312    22947148.820    93964739.006 7      1833.399          46.375
G26  21172563.060   111262570.337 7       561.750          46.750    21172560.880   111262570.337 7       561.750          46.750    21172569.820    86698132.310 7       437.728          46.562    21172570.560    86698134.309 8       437.728          49.125
G08  22004135.220   115632510.356 7      3869.705          44.750    22004135.360   115632510.358 5      3869.705          35.000    22004143.280    90103289.172 5      3015.355          34.687    22004142.120    90103283.188 7      3015.355          47.062
R11  20641405.160   110301407.530 8      -653.973          48.375    20641405.160   110301407.537 7      -653.973          47.500    20641414.460    85790022.457 8      -508.646          48.500    20641414.600    85790023.455 7      -508.646          47.625
G07  25391026.020   133430704.083 6      5112.833          39.125    25391025.780   133430704.088 3      5112.833          19.875    25391032.860   103972003.238 3      3984.026          20.062    25391033.260   103972039.255 6      3984.026          37.875
> 2024 05 10 11 24 31.0000000  0 15
R21  22836975.900   122205270.592 6     -1031.982          38.625    22836975.900   122205270.615 6     -1031.982          39.687    22836990.940    95048600.089 8      -802.653          49.250    22836990.400    95048599.088 8      -802.653          48.875
G27  20707030.520   108816174.421 7      2421.107          46.937    20707028.760   108816174.424 8      2421.107          48.312    20707035.260    84791844.301 8      1886.577          48.250    20707035.360    84791845.309 8      1886.577          49.250
R23  20661894.760   110527208.736 7      4021.714          43.437    20661893.220   110527208.748 7      4021.714          43.750
G18  24568359.700   129107602.238 6      -951.636          41.875    24568358.100   129107602.245 5      -951.636          30.000    24568368.080   100603354.405 4      -741.535          29.750    24568368.820   100603358.396 7      -741.535          46.875
R12  19247860.720   102818612.303 8      3687.892          48.625    19247860.160   102818612.301 8      3687.892          48.125    19247869.860    79970068.516 8      2868.361          50.687    19247869.740    79970069.518 8      2868.361          50.687
G16  20312837.940   106744678.866 7      2630.754          46.875    20312836.460   106744678.876 6      2630.754          40.437    20312839.380    83177679.335 6      2049.938          40.312
G10  22592174.280   118722675.454 7      4071.891          45.812    22592171.700   118722675.458 7      4071.891          44.812    22592182.160    92511209.383 7      3172.902          44.437    22592182.140    92511207.389 7      3172.902          46.000
G31  23707432.420   124583384.003 7      -969.878          46.187    23707431.520   124583384.013 6      -969.878          41.937    23707442.020    97078000.250 7      -755.749          42.062    23707442.360    97078001.254 7      -755.749          45.187
G21  22305134.300   117214279.492 7      5387.244          43.125    22305132.720   117214279.495 4      5387.244          29.000    22305139.340    91335830.626 4      4197.852          28.812
R22  19675256.260   105027855.531 7       799.264          47.625    19675256.300   105027855.529 8       799.264          49.500    19675262.860    81688357.046 8       621.650          50.875    19675263.000    81688359.039 8       621.650          50.687
G23  22946694.020   120585689.403 7      2352.429          43.562    22946692.980   120585689.408 5      2352.429          32.562    22946700.980    93962904.691 5      1833.061          32.312    22946701.000    93962905.690 7      1833.061          46.500
G26  21172456.280   111262008.642 7       561.342          47.000    21172454.220   111262008.653 7       561.342          46.687    21172462.900    86697694.628 7       437.409          46.250    21172463.440    86697696.626 8       437.409          48.812
G08  22003398.980   115628640.605 7      3869.587          43.812    22003399.000   115628640.608 5      3869.587          34.812    22003406.800    90100273.791 5      3015.262          34.750    22003405.760    90100267.800 7      3015.262          47.312
R11  20641527.480   110302061.724 8      -654.599          49.625    20641527.640   110302061.728 8      -654.599          48.000    20641537.000    85790531.266 8      -509.133          48.875    20641536.940    85790532.262 8      -509.133          49.812
G07  25390053.260   133425591.351 6      5112.388          39.125    25390052.900   133425591.356 3      5112.388          21.000    25390059.880   103968019.285 3      3983.679          20.062    25390060.700   103968055.293 6      3983.679          38.000
> 2024 05 10 11 24 32.0000000  0 15
R21  22837168.580   122206302.624 6     -1031.957          38.625    22837168.640   122206302.655 6     -1031.957          39.687    22837184.020    95049402.783 7      -802.634          47.000    22837183.100    95049401.787 7      -802.634          47.062
G27  20706569.820   108813753.348 8      2420.896          48.000    20706568.100   108813753.353 7      2420.896          47.000    20706574.580    84789957.750 7      1886.413          46.812    20706574.620    84789958.758 8      1886.413          48.312
R23  20661142.480   110523187.242 7      4021.121          44.937    20661141.500   110523187.246 7      4021.121          43.312
G18  24568540.640   129108553.833 7      -951.638          42.187    24568539.240   129108553.840 5      -951.638          30.000    24568549.240   100604095.902 4      -741.536          29.937    24568549.640   100604099.892 7      -741.536          46.562
R12  19247170.380   102814924.649 8      3687.241          48.750    19247169.720   102814924.650 8      3687.241          48.187    19247179.660    79967200.341 8      2867.854          49.250    19247179.360    79967201.343 8      2867.854          50.187
G16  20312337.120   106742048.284 7      2630.218          47.562    20312335.820   106742048.294 6      2630.218          39.812    20312338.760    83175629.531 6      2049.521          39.500
G10  22591399.320   118718603.750 7      4071.334          46.187    22591396.960   118718603.757 7      4071.334          43.750    22591407.420    92508036.632 7      3172.468          43.562    22591407.340    92508034.638 7      3172.468          45.750
G31  23707616.960   124584353.735 7      -969.826          45.875    23707615.980   124584353.743 6      -969.826          41.437    23707626.580    97078755.866 6      -755.708          41.687    23707627.200    97078756.867 7      -755.708          44.375
G21  22304109.180   117208892.245 7      5386.977          43.187    22304107.480   117208892.250 4      5386.977          29.000    22304114.320    91331632.780 4      4197.644          29.062
R22  19675106.680   105027056.398 8       798.847          48.187    19675106.540   105027056.396 8       798.847          49.062    19675113.020    81687735.498 8       621.326          48.437    19675113.240    81687737.496 8       621.326          48.187
G23  22946246.640   120583337.284 7      2351.739          44.375    22946245.480   120583337.286 5      2351.739          32.562    22946253.240    93961071.872 5      1832.524          32.562    22946253.220    93961072.874 7      1832.524          45.875
G26  21172349.340   111261447.394 7       560.960          46.937    21172347.200   111261447.404 7       560.960          45.500    21172356.060    86697257.287 7       437.112          44.875    21172356.460    86697259.284 7       437.112          47.500
G08  22002662.440   115624771.050 7      3869.386          45.250    22002662.580   115624771.052 5      3869.386          34.812    22002670.500    90097258.550 5      3015.106          34.500    22002669.260    90097252.551 7      3015.106          46.187
R11  20641650.000   110302716.533 8      -655.224          48.312    20641650.380   110302716.537 8      -655.224          48.000    20641659.420    85791040.562 8      -509.618          48.250    20641659.260    85791041.562 7      -509.618          47.750
G07  25389080.540   133420478.911 6      5112.113          39.062    25389080.140   133420478.916 3      5112.113          21.000    25389087.080   103964035.566 3      3983.465          20.062    25389087.280   103964071.551 6      3983.465          38.000
> 2024 05 10 11 24 33.0000000  0 15
R21  22837361.040   122207334.499 6     -1031.747          38.625    22837361.080   122207334.520 6     -1031.747          39.687    22837376.880    95050205.346 7      -802.470          46.500    22837376.140    95050204.344 7      -802.470          46.875
G27  20706108.940   108811332.382 7      2420.937          47.937    20706107.440   108811332.387 7      2420.937          46.812    20706113.860    84788071.281 7      1886.445          46.125    20706114.320    84788072.289 8      1886.445          48.000
R23  20660390.820   110519166.199 7      4020.888          45.125    20660389.600   110519166.198 7      4020.888          43.875
G18  24568721.960   129109505.412 6      -951.490          41.875    24568720.420   129109505.422 5      -951.490          30.000    24568730.440   100604837.386 4      -741.421          29.937    24568730.840   100604841.384 7      -741.421          45.937
R12  19246480.320   102811237.688 8      3686.648          48.250    19246479.700   102811237.686 8      3686.648          48.062    19246489.280    79964332.702 7      2867.393          47.250    19246489.160    79964333.704 7      2867.393          47.812
G16  20311836.720   106739418.039 7      2630.124          47.125    20311835.260   106739418.049 6      2630.124          39.875    20311838.280    83173579.994 6      2049.447          39.437
G10  22590624.520   118714532.343 7      4071.258          46.250    22590622.160   118714532.350 7      4071.258          43.250    22590632.700    92504864.112 7      3172.409          43.375    22590632.180    92504862.122 7      3172.409          45.000
G31  23707801.400   124585323.423 7      -969.609          45.562    23707800.480   124585323.431 6      -969.609          41.187    23707811.120    97079511.461 6      -755.540          41.187    23707811.720    97079512.464 7      -755.540          44.250
G21  22303084.100   117203505.358 7      5386.789          43.312    22303082.420   117203505.361 4      5386.789          29.000    22303089.400    91327435.211 4      4197.498          29.062
R22  19674956.880   105026257.626 8       798.562          49.000    19674957.040   105026257.626 8       798.562          48.625    19674963.520    81687114.255 7       621.104          47.625    19674963.480    81687116.253 7       621.104          47.500
G23  22945798.940   120580985.661 7      2351.306          44.875    22945798.000   120580985.671 5      2351.306          32.500    22945805.800    93959239.443 5      1832.186          32.562    22945806.160    93959240.452 7      1832.186          45.937
G26  21172242.540   111260886.482 7       560.790          46.875    21172240.560   111260886.487 7       560.790          45.125    21172249.340    86696820.209 7       436.979          44.812    21172249.720    86696822.206 7       436.979          47.312
G08  22001926.060   115620901.528 7      3869.503          44.250    22001926.260   115620901.530 5      3869.503          34.812    22001934.160    90094243.338 5      3015.197          34.500    22001933.280    90094237.346 7      3015.197          46.250
R11  20641772.840   110303371.828 8      -655.485          48.812    20641772.940   110303371.829 7      -655.485          47.250    20641782.060    85791550.229 7      -509.822          46.625    20641781.900    85791551.225 7      -509.822          47.062
G07  25388107.780   133415366.713 6      5112.073          38.812    25388107.400   133415366.715 3      5112.073          21.000    25388114.280   103960052.035 3      3983.434          20.062    25388115.760   103960088.045 6      3983.434          38.000
> 2024 05 10 11 24 34.0000000  0 15
R21  22837554.160   122208366.409 6     -1031.823          39.250    22837554.040   122208366.424 6     -1031.823          39.500    22837569.780    95051007.933 7      -802.529          45.625    22837568.980    95051006.934 7      -802.529          46.062
G27  20705648.140   108808911.718 7      2420.520          47.750    20705646.840   108808911.723 7      2420.520          45.812    20705653.240    84786185.050 7      1886.119          45.500    20705653.620    84786186.055 8      1886.119          48.000
R23  20659639.360   110515145.841 7      4019.971          45.312    20659638.180   110515145.840 7      4019.971          43.750
G18  24568902.900   129110457.193 7      -951.821          43.000    24568901.540   129110457.198 5      -951.821          30.500    24568911.720   100605579.030 4      -741.679          29.937    24568912.000   100605583.022 7      -741.679          45.750
R12  19245790.000   102807551.644 8      3685.580          48.312    19245789.660   102807551.643 7      3685.580          47.875    19245799.400    79961465.780 7      2866.563          46.500    19245799.120    79961466.780 7      2866.563          47.125
G16  20311336.360   106736788.367 7      2629.355          47.687    20311334.920   106736788.377 6      2629.355          39.625    20311337.960    83171530.898 6      2048.848          39.625
G10  22589849.780   118710461.464 7      4070.567          46.750    22589847.660   118710461.474 7      4070.567          43.437    22589857.820    92501692.006 7      3171.870          43.312    22589857.920    92501690.012 7      3171.870          45.000
G31  23707985.820   124586293.285 7      -969.957          45.625    23707985.140   124586293.290 6      -969.957          40.687    23707995.720    97080267.181 6      -755.810          40.750    23707996.220    97080268.184 7      -755.810          44.062
G21  22302058.860   117198119.015 7      5386.038          43.000    22302057.480   117198119.018 4      5386.038          29.000    22302064.420    91323238.065 4      4196.913          29.062
R22  19674807.280   105025459.408 7       797.889          47.562    19674807.600   105025459.407 8       797.889          48.562    19674813.920    81686493.395 7       620.580          47.437    19674814.100    81686495.393 7       620.580          46.875
G23  22945351.920   120578634.731 7      2350.555          44.375    22945350.780   120578634.736 5      2350.555          32.500    22945358.380    93957407.545 5      1831.602          32.062    22945358.680    93957408.549 7      1831.602          46.062
G26  21172135.960   111260326.104 7       560.105          46.312    21172133.840   111260326.111 7       560.105          44.625    21172142.720    86696383.546 7       436.446          44.437    21172143.000    86696385.541 7       436.446          47.500
G08  22001189.540   115617032.287 7      3868.998          44.187    22001189.860   115617032.292 5      3868.998          34.750    22001198.000    90091228.350 5      3014.804          34.437    22001196.980    90091222.361 7      3014.804          46.250
R11  20641895.460   110304027.847 8      -656.430          48.500    20641895.560   110304027.848 7      -656.430          47.000    20641904.840    85792060.458 7      -510.557          46.000    20641904.740    85792061.452 7      -510.557          46.875
G07  25387134.840   133410254.929 6      5111.605          38.437    25387134.540   133410254.932 3      5111.605          21.000    25387141.420   103956068.825 3      3983.069          20.812    25387140.720   103956104.817 6      3983.069          38.000
> 2024 05 10 11 24 35.0000000  0 15
R21  22837747.160   122209398.292 6     -1031.613          39.250    22837746.600   122209398.312 6     -1031.613          39.500    22837762.540    95051810.502 7      -802.366          47.562    22837761.940    95051809.503 7      -802.366          47.187
G27  20705187.580   108806491.238 7      2420.516          47.187    20705186.260   108806491.246 7      2420.516          47.312    20705192.620    84784298.964 7      1886.117          47.062    20705192.820    84784299.969 8      1886.117          49.062
R23  20658887.860   110511126.023 7      4019.549          43.875    20658886.380   110511126.030 7      4019.549          44.250
G18  24569084.100   129111409.041 6      -951.781          41.937    24569082.720   129111409.043 5      -951.781          30.500    24569092.940   100606320.718 5      -741.647          30.125    24569092.860   100606324.709 7      -741.647          46.687
R12  19245100.180   102803866.403 7      3684.872          47.062    19245099.620   102803866.404 8      3684.872          48.375    19245109.560    79958599.483 8      2866.012          48.125    19245109.260    79958600.483 8      2866.012          48.812
G16  20310836.060   106734159.115 7      2629.077          47.625    20310834.480   106734159.125 6      2629.077          39.937    20310837.640    83169482.126 6      2048.631          39.375
G10  22589075.100   118706390.979 7      4070.453          47.000    22589072.980   118706390.978 7      4070.453          44.312    22589083.300    92498520.196 7      3171.782          44.375    22589083.560    92498518.204 7      3171.782          45.312
G31  23708170.700   124587263.152 7      -969.804          46.250    23708169.580   124587263.156 6      -969.804          41.500    23708180.280    97081022.905 6      -755.692          41.875    23708181.040    97081023.910 7      -755.692          44.500
G21  22301033.900   117192733.072 7      5385.881          43.375    22301032.660   117192733.077 4      5385.881          28.750    22301039.540    91319041.230 4      4196.791          29.062
R22  19674657.840   105024661.586 8       797.757          49.187    19674658.120   105024661.590 8       797.757          48.750    19674664.500    81685872.866 8       620.478          48.250    19674664.620    81685874.868 8       620.478          48.062
G23  22944904.460   120576284.377 7      2350.167          45.187    22944903.540   120576284.379 5      2350.167          32.062    22944911.000    93955576.101 5      1831.299          32.062    22944911.580    93955577.106 7      1831.299          46.062
G26  21172029.300   111259766.140 7       559.851          46.687    21172027.300   111259766.145 7       559.851          45.875    21172036.140    86695947.209 7       436.247          45.500    21172036.300    86695949.206 8       436.247          48.000
G08  22000453.380   115613163.170 7      3869.139          44.562    22000453.440   115613163.172 5      3869.139          34.562    22000461.740    90088213.453 5      3014.913          34.437    22000460.820    90088207.459 7      3014.913          47.125
R11  20642018.460   110304684.443 8      -656.830          49.125    20642018.420   110304684.441 7      -656.830          47.750    20642027.700    85792571.127 7      -510.867          47.750    20642027.520    85792572.119 7      -510.867          47.437
G07  25386162.000   133405143.501 6      5111.416          38.687    25386161.760   133405143.503 3      5111.416          21.000    25386168.720   103952085.892 3      3982.921          20.812    25386169.640   103952121.928 6      3982.921          37.500
> 2024 05 10 11 24 36.0000000  0 15
R21  22837940.000   122210430.293 6     -1031.966          39.250    22837939.400   122210430.316 6     -1031.966          39.500    22837955.240    95052613.167 8      -802.640          48.687    22837954.600    95052612.173 8      -802.640          48.500
G27  20704727.100   108804071.100 7      2420.030          47.125    20704725.780   108804071.105 8      2420.030          48.375    20704732.140    84782413.136 7      1885.738          47.750    20704732.520    84782414.141 8      1885.738          49.812
R23  20658136.620   110507106.920 7      4018.650          44.375    20658135.160   110507106.929 7      4018.650          44.250
G18  24569265.540   129112361.095 7      -952.149          42.562    24569263.960   129112361.098 5      -952.149          30.500    24569273.980   100607062.569 5      -741.935          30.125    24569274.280   100607066.564 7      -741.935          47.625
R12  19244410.360   102800182.034 8      3683.911          48.562    19244410.320   102800182.035 8      3683.911          48.375    19244419.800    79955733.859 8      2865.264          50.187    19244419.440    79955734.861 8      2865.264          50.562
G16  20310335.900   106731530.444 7      2628.305          47.562    20310334.400   106731530.456 6      2628.305          40.187    20310337.560    83167433.811 6      2048.030          39.875
G10  22588300.720   118702321.059 7      4069.608          46.562    22588298.600   118702321.059 7      4069.608          44.750    22588308.800    92495348.834 7      3171.124          44.375    22588308.560    92495346.844 7      3171.124          46.187
G31  23708355.060   124588233.213 7      -970.235          46.000    23708354.120   124588233.220 7      -970.235          42.000    23708364.720    97081778.786 6      -756.028          41.687    23708365.300    97081779.794 7      -756.028          44.625
G21  22300009.200   117187347.722 7      5384.984          42.250    22300007.560   117187347.727 4      5384.984          28.750    22300014.740    91314844.858 4      4196.092          29.062
R22  19674508.580   105023864.370 8       796.919          49.187    19674508.680   105023864.370 8       796.919          49.812    19674515.160    81685252.807 8       619.826          49.250    19674515.560    81685254.805 8       619.826          49.750
G23  22944457.340   120573934.767 7      2349.201          44.750    22944456.360   120573934.769 5      2349.201          32.062    22944463.880    93953745.236 5      1830.546          32.062    22944463.980    93953746.239 7      1830.546          46.625
G26  21171922.880   111259206.742 7       559.034          45.750    21171920.940   111259206.749 7       559.034          46.125    21171929.640    86695511.312 7       435.611          45.750    21171929.940    86695513.311 8       435.611          48.437
G08  21999717.240   115609294.371 7      3868.627          45.312    21999717.300   115609294.371 5      3868.627          34.562    21999725.440    90085198.801 5      3014.514          34.187    21999724.460    90085192.808 7      3014.514          47.562
R11  20642141.440   110305341.781 8      -657.694          48.875    20642141.480   110305341.783 7      -657.694          47.750    20642150.660    85793082.378 8      -511.540          48.437    20642150.460    85793083.374 8      -511.540          49.312
G07  25385189.800   133400032.540 6      5110.781          38.250    25385189.200   133400032.542 3      5110.781          21.000    25385196.100   103948103.329 3      3982.427          20.812    25385197.740   103948139.353 6      3982.427          37.500
> 2024 05 10 11 24 37.0000000  0 15
R21  22838132.820   122211462.184 6     -1031.871          39.250    22838132.780   122211462.225 6     -1031.871          39.062    22838148.040    95053415.755 8      -802.566          49.187    22838147.560    95053414.757 8      -802.566          49.250
G27  20704266.600   108801651.135 7      2419.932          47.812    20704265.380   108801651.137 8      2419.932          49.187    20704271.560    84780527.447 8      1885.661          48.937    20704272.060    84780528.450 8      1885.661          50.187
R23  20657385.180   110503088.343 7      4018.250          43.875    20657384.180   110503088.350 7      4018.250          43.875
G18  24569446.520   129113313.192 7      -952.132          42.125    24569445.120   129113313.194 5      -952.132          30.687    24569455.180   100607804.457 5      -741.921          30.125    24569455.620   100607808.457 7      -741.921          47.187
R12  19243720.960   102796498.379 8      3683.264          49.250    19243720.880   102796498.377 8      3683.264          48.625    19243730.240    79952868.793 8      2864.761          51.187    19243730.120    79952869.795 8      2864.761          51.375
G16  20309835.920   106728902.195 7      2627.970          46.437    20309834.200   106728902.206 6      2627.970          40.500    20309837.300    83165385.824 6      2047.769          40.000
G10  22587526.240   118698251.504 7      4069.344          46.250    22587524.160   118698251.507 7      4069.344          45.187    22587534.380    92492177.758 7      3170.917          45.187    22587534.300    92492175.767 7      3170.917          46.062
G31  23708539.800   124589203.266 7      -970.060          45.062    23708538.760   124589203.276 6      -970.060          41.750    23708549.280    97082534.662 7      -755.891          42.000    23708549.900    97082535.665 7      -755.891          44.750
G21  22298984.800   117181962.758 7      5384.654          42.062    22298982.600   117181962.763 4      5384.654          28.750    22298989.900    91310648.786 4      4195.834          28.875
R22  19674359.360   105023067.559 8       796.584          49.812    19674359.460   105023067.562 8       796.584          49.062    19674365.860    81684633.070 8       619.566          51.375    19674366.220    81684635.067 8       619.566          51.187
G23  22944010.040   120571585.705 7      2348.719          44.937    22944009.240   120571585.708 5      2348.719          32.937    22944016.920    93951914.798 5      1830.170          32.500    22944017.140    93951915.802 7      1830.170          47.062
G26  21171816.480   111258647.727 7       558.781          46.187    21171814.480   111258647.737 7       558.781          46.750    21171823.240    86695075.712 7       435.414          46.562    21171823.580    86695077.711 8       435.414          49.062
G08  21998981.060   115605425.661 7      3868.590          44.687    21998981.020   115605425.664 5      3868.590          35.000    21998989.160    90082184.230 5      3014.485          34.750    21998988.520    90082178.237 7      3014.485          47.750
R11  20642264.740   110305999.692 8      -658.286          49.000    20642264.680   110305999.693 7      -658.286          47.875    20642273.920    85793594.080 8      -512.000          49.812    20642273.860    85793595.076 8      -512.000          49.125
G07  25384217.560   133394921.871 6      5110.696          38.187    25384216.680   133394921.873 3      5110.696          21.000    25384223.540   103944120.989 3      3982.360          20.812    25384224.900   103944157.006 6      3982.360          37.500
> 2024 05 10 11 24 38.0000000  0 15
R21  22838326.100   122212493.997 6     -1031.766          39.312    22838326.500   122212494.026 6     -1031.766          39.062    22838340.780    95054218.258 8      -802.484          49.562    22838340.300    95054217.259 8      -802.484          48.750
G27  20703805.980   108799231.367 7      2419.705          47.250    20703804.980   108799231.375 8      2419.705          48.812    20703811.140    84778641.917 8      1885.484          48.562    20703811.740    84778642.919 8      1885.484          50.062
R23  20656633.880   110499070.312 7      4017.756          44.375    20656633.020   110499070.327 7      4017.756          44.250
G18  24569627.820   129114265.368 7      -952.048          43.062    24569626.280   129114265.373 5      -952.048          30.687    24569636.320   100608546.407 5      -741.855          30.125    24569636.960   100608550.396 7      -741.855          47.312
R12  19243031.820   102792815.503 7      3682.527          47.625    19243031.440   102792815.502 7      3682.527          47.937    19243040.700    79950004.335 8      2864.188          50.687    19243040.580    79950005.337 8      2864.188          51.375
G16  20309335.880   106726274.376 7      2627.671          47.312    20309334.100   106726274.386 6      2627.671          40.562    20309337.340    83163338.170 6      2047.536          40.062
G10  22586751.940   118694182.383 7      4068.850          45.625    22586749.780   118694182.388 7      4068.850          44.937    22586760.040    92489007.019 7      3170.532          45.125    22586760.040    92489005.031 7      3170.532          46.500
G31  23708724.500   124590173.372 7      -970.031          45.125    23708723.320   124590173.377 6      -970.031          41.625    23708733.820    97083290.574 6      -755.868          41.562    23708734.740    97083291.577 7      -755.868          44.375
G21  22297960.100   117176578.210 6      5384.420          41.812    22297957.840   117176578.220 4      5384.420          28.750    22297965.300    91306453.040 4      4195.652          28.875
R22  19674210.220   105022271.178 7       796.233          47.875    19674210.380   105022271.176 8       796.233          48.937    19674216.800    81684013.656 8       619.292          51.250    19674216.880    81684015.652 8       619.292          51.125
G23  22943563.140   120569237.227 7      2348.252          45.187    22943562.340   120569237.232 5      2348.252          32.937    22943570.020    93950084.819 5      1829.806          32.500    22943570.440    93950085.825 7      1829.806          46.812
G26  21171710.160   111258089.145 7       558.460          46.062    21171708.180   111258089.150 7       558.460          47.312    21171716.860    86694640.446 7       435.164          46.500    21171717.440    86694642.446 8       435.164          48.125
G08  21998244.820   115601557.114 7      3868.541          44.500    21998244.900   115601557.117 5      3868.541          35.062    21998253.000    90079169.778 5      3014.448          34.812    21998252.180    90079163.789 7      3014.448          47.812
R11  20642387.660   110306658.174 8      -658.714          48.687    20642387.720   110306658.173 7      -658.714          47.500    20642397.140    85794106.225 8      -512.333          49.125    20642397.100    85794107.225 8      -512.333          49.437
G07  25383245.100   133389811.578 6      5110.111          38.187    25383244.420   133389811.585 3      5110.111          21.000    25383251.000   103940138.942 3      3981.904          20.812    25383251.880   103940174.946 6      3981.904          37.375
> 2024 05 10 11 24 39.0000000  0 15
R21  22838519.020   122213525.704 6     -1031.706          39.312    22838519.200   122213525.732 6     -1031.706          39.062    22838533.560    95055020.690 8      -802.438          48.625    22838532.960    95055019.694 8      -802.438          48.687
G27  20703345.500   108796811.781 7      2419.498          47.312    20703344.580   108796811.791 8      2419.498          48.375    20703350.660    84776756.525 8      1885.323          48.187    20703351.220    84776757.531 8      1885.323          49.687
R23  20655882.800   110495052.854 7      4017.150          44.375    20655882.220   110495052.852 7      4017.150          43.375
G18  24569808.820   129115217.638 7      -952.359          42.312    24569807.460   129115217.646 5      -952.359          30.687    24569817.600   100609288.432 5      -742.098          30.875    24569818.160   100609292.429 7      -742.098          47.062
R12  19242342.580   102789133.453 7      3681.505          46.625    19242342.060   102789133.454 8      3681.505          48.625    19242351.440    79947140.520 8      2863.393          50.000    19242351.400    79947141.520 8      2863.393          50.062
G16  20308835.940   106723647.005 7      2627.153          47.312    20308834.060   106723647.015 6      2627.153          40.750    20308837.360    83161290.870 6      2047.132          40.312
G10  22585977.660   118690113.640 7      4068.447          46.562    22585975.500   118690113.651 7      4068.447          44.500    22585985.720    92485836.578 7      3170.219          44.687    22585985.820    92485834.592 7      3170.219          45.750
G31  23708909.300   124591143.522 7      -970.167          46.562    23708908.020   124591143.527 6      -970.167          41.875    23708918.560    97084046.523 6      -755.974          41.812    23708919.320    97084047.524 7      -755.974          44.437
G21  22296935.740   117171194.103 7      5383.908          42.125    22296933.200   117171194.110 4      5383.908          29.125    22296940.820    91302257.636 4      4195.253          28.875
R22  19674061.140   105021475.232 8       795.642          48.875    19674061.180   105021475.230 8       795.642          48.937    19674067.680    81683394.612 8       618.833          49.687    19674067.700    81683396.608 8       618.833          50.000
G23  22943116.580   120566889.359 7      2347.526          45.812    22943115.500   120566889.364 5      2347.526          32.687    22943123.240    93948255.312 5      1829.241          32.500    22943123.820    93948256.313 7      1829.241          46.312
G26  21171603.960   111257530.987 7       557.913          45.812    21171602.080   111257530.989 7       557.913          46.375    21171610.640    86694205.515 7       434.737          46.250    21171611.060    86694207.514 7       434.737          47.750
G08  21997508.780   115597688.722 7      3868.336          44.125    21997508.760   115597688.722 5      3868.336          35.062    21997516.860    90076155.446 5      3014.288          34.812    21997516.040    90076149.460 7      3014.288          47.625
R11  20642511.180   110307317.223 8      -659.370          48.437    20642511.180   110307317.230 7      -659.370          47.562    20642520.500    85794618.823 8      -512.843          48.750    20642520.340    85794619.823 8      -512.843          48.500
G07  25382272.120   133384701.539 6      5109.953          38.812    25382271.980   133384701.541 3      5109.953          21.000    25382278.600   103936157.090 3      3981.782          20.812    25382279.520   103936193.115 6      3981.782          37.375
> 2024 05 10 11 24 40.0000000  0 15
R21  22838711.660   122214557.391 6     -1031.836          39.312    22838712.080   122214557.414 6     -1031.836          39.062    22838726.300    95055823.106 8      -802.539          49.312    22838725.780    95055822.111 8      -802.539          48.937
G27  20702885.240   108794392.389 7      2419.124          47.937    20702884.280   108794392.404 8      2419.124          48.312    20702890.240    84774871.291 8      1885.032          48.437    20702890.920    84774872.294 8      1885.032          49.875
R23  20655132.480   110491035.911 7      4016.568          44.750    20655131.380   110491035.913 7      4016.568          44.000
G18  24569989.900   129116169.961 7      -952.428          42.375    24569988.700   129116169.971 5      -952.428          31.000    24569998.880   100610030.494 5      -742.152          30.875    24569999.180   100610034.474 7      -742.152          47.250
R12  19241653.280   102785452.143 8      3680.791          48.312    19241652.760   102785452.144 8      3680.791          48.250    19241662.320    79944277.281 8      2862.837          50.437    19241662.120    79944278.281 8      2862.837          50.875
G16  20308335.800   106721020.068 7      2626.579          46.500    20308334.240   106721020.078 6      2626.579          40.250    20308337.460    83159243.906 6      2046.685          40.000
G10  22585203.520   118686045.292 7      4068.067          46.312    22585201.320   118686045.299 7      4068.067          44.500    22585211.520    92482666.436 7      3169.922          44.687    22585210.880    92482664.451 7      3169.922          45.500
G31  23709093.880   124592113.699 7      -970.306          46.062    23709092.580   124592113.704 7      -970.306          42.000    23709103.100    97084802.491 7      -756.083          42.312    23709103.840    97084803.498 7      -756.083          44.500
G21  22295911.540   117165810.435 7      5383.124          42.312    22295908.560   117165810.442 4      5383.124          29.125    22295916.380    91298062.576 4      4194.642          28.875
R22  19673912.160   105020679.708 8       795.191          48.750    19673912.260   105020679.706 8       795.191          49.375    19673918.540    81682775.871 8       618.482          50.875    19673919.000    81682777.869 8       618.482          50.562
G23  22942669.900   120564542.056 7      2346.887          44.625    22942668.780   120564542.063 5      2346.887          32.687    22942676.640    93946426.246 5      1828.743          32.500    22942677.240    93946427.245 7      1828.743          46.750
G26  21171497.920   111256973.228 7       557.420          46.875    21171495.940   111256973.233 7       557.420          46.562    21171504.580    86693770.896 7       434.354          46.312    21171504.840    86693772.898 8       434.354          48.812
G08  21996772.520   115593820.472 7      3867.980          43.625    21996772.720   115593820.475 5      3867.980          34.625    21996780.840    90073141.230 5      3014.010          34.437    21996779.900    90073135.241 7      3014.010          47.750
R11  20642634.120   110307976.868 8      -660.075          49.062    20642634.880   110307976.877 7      -660.075          47.625    20642643.920    85795131.873 8      -513.392          49.125    20642644.020    85795132.874 8      -513.392          48.875
G07  25381300.300   133379591.863 6      5109.452          38.125    25381299.760   133379591.863 3      5109.452          21.000    25381306.300   103932175.526 3      3981.391          20.812    25381305.780   103932211.516 6      3981.391          37.375
> 2024 05 10 11 24 41.0000000  0 15
R21  22838904.240   122215589.012 6     -1031.413          39.187    22838904.420   122215589.035 6     -1031.413          39.625    22838919.160    95056625.469 8      -802.210          49.187    22838918.640    95056624.472 8      -802.210          49.062
G27  20702425.000   108791973.170 7      2419.375          47.812    20702423.960   108791973.175 8      2419.375          48.875    20702429.940    84772986.175 8      1885.228          48.875    20702430.480    84772987.177 8      1885.228          49.687
R23  20654381.160   110487019.506 7      4016.405          44.687    20654379.980   110487019.513 7      4016.405          44.187
G18  24570171.020   129117122.336 7      -952.212          42.437    24570170.000   129117122.344 5      -952.212          31.000    24570180.120   100610772.596 5      -741.983          30.875    24570180.460   100610776.589 7      -741.983          47.187
R12  19240964.360   102781771.575 8      3680.502          48.062    19240964.100   102781771.576 8      3680.502          48.625    19240973.180    79941414.615 8      2862.613          50.125    19240973.200    79941415.615 8      2862.613          50.687
G16  20307835.980   106718393.543 7      2626.560          47.250    20307834.420   106718393.551 6      2626.560          40.375    20307837.680    83157197.259 6      2046.670          39.875
G10  22584429.560   118681977.348 7      4068.064          45.375    22584427.220   118681977.350 7      4068.064          44.625    22584437.380    92479496.606 7      3169.920          44.562    22584436.920    92479494.616 7      3169.920          45.875
G31  23709278.260   124593083.876 7      -969.870          46.062    23709277.320   124593083.878 6      -969.870          41.812    23709287.800    97085558.458 7      -755.743          42.000    23709288.620    97085559.457 7      -755.743          44.687
G21  22294886.640   117160427.121 7      5383.358          42.937    22294884.160   117160427.129 4      5383.358          29.125    22294891.780    91293867.793 4      4194.824          28.875
R22  19673763.520   105019884.576 8       795.232          49.000    19673763.220   105019884.574 8       795.232          49.000    19673769.660    81682157.435 8       618.514          50.062    19673769.780    81682159.433 8       618.514          50.625
G23  22942223.500   120562195.314 7      2346.697          45.187    22942222.260   120562195.322 5      2346.697          32.437    22942229.940    93944597.619 5      1828.595          32.437    22942230.700    93944598.620 7      1828.595          46.937
G26  21171391.740   111256415.869 7       557.467          45.687    21171389.960   111256415.871 7       557.467          46.687    21171398.400    86693336.581 7       434.390          46.187    21171398.760    86693338.578 8       434.390          48.562
G08  21996036.700   115589952.330 7      3868.387          44.750    21996036.540   115589952.330 5      3868.387          34.750    21996044.800    90070127.093 5      3014.328          34.562    21996043.980    90070121.102 7      3014.328          47.625
R11  20642757.720   110308637.055 8      -660.178          48.562    20642758.300   110308637.061 7      -660.178          47.812    20642767.480    85795645.338 8      -513.472          49.062    20642767.640    85795646.336 8      -513.472          48.750
G07  25380327.900   133374482.471 6      5109.397          38.937    25380327.540   133374482.473 3      5109.397          20.250    25380333.780   103928194.180 3      3981.349          20.812    25380334.380   103928230.208 6      3981.349          37.375
> 2024 05 10 11 24 42.0000000  0 15
R21  22839097.100   122216620.531 6     -1031.517          39.187    22839096.980   122216620.562 6     -1031.517          39.625    22839111.880    95057427.764 8      -802.291          48.312    22839111.280    95057426.767 8      -802.291          48.375
G27  20701964.600   108789554.106 7      2418.863          47.500    20701963.560   108789554.109 7      2418.863          47.562    20701969.560    84771101.187 7      1884.828          47.437    20701970.160    84771102.190 8      1884.828          49.937
R23  20653630.560   110483003.615 7      4015.604          45.125    20653629.540   110483003.617 7      4015.604          44.187
G18  24570352.440   129118074.740 7      -952.579          42.937    24570351.220   129118074.751 5      -952.579          31.000    24570361.180   100611514.723 5      -742.269          30.937    24570362.020   100611518.714 7      -742.269          47.437
R12  19240275.560   102778091.702 8      3679.504          49.250    19240275.060   102778091.703 8      3679.504          48.312    19240284.420    79938552.489 8      2861.837          49.812    19240284.480    79938553.493 8      2861.837          49.875
G16  20307336.220   106715767.423 7      2625.794          47.937    20307334.600   106715767.431 6      2625.794          40.250    20307337.900    83155150.928 6      2046.073          39.687
G10  22583655.540   118677909.772 7      4067.308          45.750    22583653.240   118677909.779 7      4067.308          43.937    22583663.240    92476327.072 7      3169.331          44.125    22583663.320    92476325.082 7      3169.331          45.625
G31  23709462.940   124594054.060 7      -970.262          45.562    23709461.800   124594054.068 7      -970.262          42.187    23709472.400    97086314.436 6      -756.048          41.875    23709472.880    97086315.435 7      -756.048          44.375
G21  22293862.600   117155044.231 7      5382.545          42.562    22293859.880   117155044.238 4      5382.545          29.125    22293867.520    91289673.335 4      4194.191          29.125
R22  19673614.280   105019089.860 8       794.475          49.250    19673614.440   105019089.858 8       794.475          48.750    19673620.740    81681539.308 8       617.925          49.062    19673621.020    81681541.304 8       617.925          49.437
G23  22941776.940   120559849.122 7      2345.887          45.500    22941775.960   120559849.127 5      2345.887          32.437    22941783.480    93942769.415 5      1827.964          32.437    22941784.160    93942770.414 7      1827.964          46.750
G26  21171285.800   111255858.893 7       556.712          46.750    21171283.980   111255858.900 7       556.712          45.875    21171292.480    86692902.572 7       433.802          45.375    21171292.660    86692904.570 8       433.802          48.625
G08  21995300.340   115586084.317 7      3867.863          45.062    21995300.580   115586084.316 5      3867.863          34.750    21995308.660    90067113.058 5      3013.919          34.562    21995308.120    90067107.066 7      3013.919          47.500
R11  20642881.400   110309297.824 8      -661.220          49.062    20642881.740   110309297.828 7      -661.220          47.625    20642891.200    85796159.263 8      -514.282          48.437    20642891.160    85796160.261 7      -514.282          47.625
G07  25379355.280   133369373.329 6      5108.871          38.312    25379355.440   133369373.333 3      5108.871          20.250    25379361.520   103924213.032 3      3980.938          20.812    25379361.000   103924249.056 6      3980.938          37.062
> 2024 05 10 11 24 43.0000000  0 15
R21  22839290.060   122217652.042 6     -1031.215          39.187    22839289.960   122217652.046 6     -1031.215          39.625    22839304.680    95058230.031 8      -802.056          49.312    22839304.040    95058229.033 8      -802.056          49.250
G27  20701504.200   108787135.256 8      2418.929          48.062    20701503.460   108787135.266 8      2418.929          48.562    20701509.120    84769216.376 8      1884.880          48.750    20701509.740    84769217.377 8      1884.880          49.812
R23  20652879.740   110478988.302 7      4015.322          44.750    20652878.860   110478988.311 7      4015.322          43.562
G18  24570533.880   129119027.239 7      -952.293          42.375    24570532.520   129119027.247 5      -952.293          31.125    24570542.500   100612256.924 5      -742.046          30.937    24570543.160   100612260.921 7      -742.046          47.937
R12  19239586.740   102774412.643 8      3678.917          49.062    19239586.300   102774412.644 8      3678.917          49.062    19239595.780    79935691.001 8      2861.380          51.000    19239595.520    79935692.005 8      2861.380          51.062
G16  20306836.480   106713141.766 7      2625.611          47.625    20306834.960   106713141.773 6      2625.611          40.625    20306838.220    83153104.963 6      2045.931          40.250
G10  22582881.800   118673842.627 7      4067.175          47.250    22582879.220   118673842.631 7      4067.175          44.750    22582889.260    92473157.870 7      3169.227          45.500    22582889.260    92473155.880 7      3169.227          46.062
G31  23709647.760   124595024.311 7      -969.962          46.375    23709646.560   124595024.316 6      -969.962          41.875    23709657.000    97087070.459 6      -755.814          41.875    23709657.580    97087071.466 7      -755.814          44.187
G21  22292838.520   117149661.763 7      5382.480          42.875    22292835.680   117149661.771 4      5382.480          29.250    22292843.380    91285479.208 4      4194.140          29.125
R22  19673465.960   105018295.601 8       794.248          48.750    19673465.780   105018295.594 8       794.248          49.250    19673471.880    81680921.553 8       617.748          51.500    19673472.120    81680923.549 8       617.748          51.062
G23  22941330.520   120557503.558 7      2345.463          45.312    22941329.580   120557503.566 5      2345.463          32.437    22941337.180    93940941.705 5      1827.634          32.437    22941337.960    93940942.706 7      1827.634          47.187
G26  21171179.920   111255302.371 7       556.558          46.687    21171178.120   111255302.373 7       556.558          47.062    21171186.660    86692468.917 7       433.682          46.500    21171186.740    86692470.911 8       433.682          48.500
G08  21994564.360   115582216.469 7      3868.044          44.937    21994564.580   115582216.466 5      3868.044          34.625    21994572.620    90064099.153 5      3014.060          34.125    21994572.200    90064093.158 8      3014.060          48.125
R11  20643005.320   110309959.187 8      -661.438          48.500    20643005.260   110309959.193 7      -661.438          47.125    20643015.040    85796673.650 8      -514.452          49.750    20643014.980    85796674.648 8      -514.452          49.625
G07  25378382.920   133364264.604 6      5108.781          37.750    25378383.360   133364264.611 3      5108.781          20.250    25378389.240   103920232.209 3      3980.868          20.812    25378389.560   103920268.232 6      3980.868          37.062
> 2024 05 10 11 24 44.0000000  0 15
R21  22839482.640   122218683.313 6     -1031.158          39.000    22839482.420   122218683.330 6     -1031.158          39.187    22839497.300    95059032.130 7      -802.012          47.937    22839496.760    95059031.132 7      -802.012          47.875
G27  20701044.000   108784716.510 7      2418.623          47.437    20701043.240   108784716.517 7      2418.623          47.375    20701048.840    84767331.639 7      1884.641          47.375    20701049.440    84767332.640 8      1884.641          48.250
R23  20652129.560   110474973.446 7      4014.590          45.187    20652128.420   110474973.460 7      4014.590          43.562
G18  24570715.160   129119979.730 7      -952.436          42.062    24570713.640   129119979.735 5      -952.436          31.125    24570723.820   100612999.116 5      -742.158          30.937    24570724.500   100613003.103 7      -742.158          46.687
R12  19238898.080   102770734.274 8      3678.020          48.500    19238897.780   102770734.277 8      3678.020          48.687    19238907.080    79932830.053 8      2860.682          48.625    19238907.120    79932831.055 8      2860.682          48.812
G16  20306337.080   106710516.450 7      2625.089          46.937    20306335.200   106710516.458 6      2625.089          40.062    20306338.600    83151059.265 6      2045.524          39.750
G10  22582107.820   118669775.791 7      4066.666          45.812    22582105.300   118669775.799 7      4066.666          44.250    22582115.540    92469988.914 7      3168.831          44.062    22582115.400    92469986.924 7      3168.831          45.250
G31  23709832.400   124595994.498 7      -970.180          46.187    23709831.300   124595994.506 6      -970.180          40.812    23709841.620    97087826.443 6      -755.984          41.312    23709842.300    97087827.442 7      -755.984          43.937
G21  22291814.320   117144279.640 7      5381.911          43.000    22291811.580   117144279.650 4      5381.911          29.250    22291819.200    91281285.354 4      4193.697          29.125
R22  19673316.740   105017501.673 8       793.713          48.812    19673317.060   105017501.674 8       793.713          48.750    19673323.260    81680304.058 8       617.332          49.062    19673323.240    81680306.058 8       617.332          48.500
G23  22940884.280   120555158.467 7      2344.905          44.812    22940883.260   120555158.475 5      2344.905          32.437    22940890.840    93939114.357 5      1827.199          32.437    22940891.820    93939115.358 7      1827.199          46.437
G26  21171074.220   111254746.165 7       555.999          47.187    21171072.420   111254746.175 7       555.999          45.937    21171080.780    86692035.512 7       433.246          45.625    21171080.980    86692037.510 7       433.246          47.812
G08  21993828.420   115578348.694 7      3867.666          45.187    21993828.580   115578348.691 5      3867.666          34.687    21993836.780    90061085.301 5      3013.766          34.375    21993835.980    90061079.308 7      3013.766          47.062
R11  20643129.020   110310621.063 8      -662.139          48.812    20643129.120   110310621.066 7      -662.139          47.625    20643139.080    85797188.430 7      -514.997          47.375    20643138.740    85797189.424 8      -514.997          48.187
G07  25377410.960   133359156.105 6      5108.392          37.750    25377411.440   133359156.112 3      5108.392          20.250    25377416.960   103916251.565 3      3980.566          20.312    25377417.460   103916287.565 6      3980.566          37.062
> 2024 05 10 11 24 45.0000000  0 15
R21  22839675.040   122219714.377 6     -1030.968          39.000    22839675.420   122219714.410 6     -1030.968          39.187    22839689.960    95059834.080 7      -801.864          47.125    22839689.440    95059833.085 7      -801.864          47.000
G27  20700583.680   108782297.825 8      2418.619          48.125    20700582.960   108782297.830 7      2418.619          47.375    20700588.580    84765446.945 7      1884.638          46.812    20700589.080    84765447.947 8      1884.638          48.000
R23  20651378.620   110470959.001 7      4014.166          44.500    20651378.040   110470959.016 7      4014.166          43.812
G18  24570896.300   129120932.132 7      -952.281          42.125    24570894.880   129120932.139 5      -952.281          31.125    24570905.000   100613741.243 5      -742.037          30.937    24570905.780   100613745.234 7      -742.037          46.500
R12  19238209.560   102767056.542 7      3677.430          46.875    19238209.140   102767056.541 8      3677.430          48.687    19238218.760    79929969.589 7      2860.224          47.687    19238218.520    79929970.596 7      2860.224          47.875
G16  20305837.520   106707891.426 7      2624.918          47.000    20305835.680   106707891.431 6      2624.918          40.125    20305839.000    83149013.789 6      2045.391          39.687
G10  22581333.720   118665709.240 7      4066.333          46.625    22581331.500   118665709.245 7      4066.333          43.562    22581341.580    92466820.177 7      3168.571          43.187    22581341.280    92466818.183 7      3168.571          45.312
G31  23710016.860   124596964.583 7      -969.987          46.312    23710015.820   124596964.593 6      -969.987          40.875    23710026.280    97088582.339 6      -755.834          41.250    23710026.860    97088583.346 7      -755.834          43.812
G21  22290789.980   117138897.774 7      5381.884          42.937    22290787.460   117138897.787 4      5381.884          29.250    22290795.180    91277091.699 4      4193.676          29.125
R22  19673168.140   105016708.038 8       793.463          49.250    19673168.340   105016708.042 8       793.463          49.375    19673174.620    81679686.786 8       617.138          48.437    19673174.620    81679688.786 8       617.138          48.062
G23  22940437.980   120552813.849 7      2344.372          45.187    22940437.160   120552813.856 5      2344.372          32.562    22940444.760    93937287.380 5      1826.783          32.250    22940445.880    93937288.379 7      1826.783          46.125
G26  21170968.320   111254190.245 7       555.724          47.062    21170966.460   111254190.258 7       555.724          45.875    21170975.020    86691602.327 7       433.032          45.375    21170975.100    86691604.322 7       433.032          47.437
G08  21993092.260   115574480.899 7      3867.789          44.812    21993092.480   115574480.896 5      3867.789          34.687    21993100.680    90058071.438 5      3013.861          34.375    21993100.060    90058065.446 7      3013.861          46.750
R11  20643252.840   110311283.374 8      -662.526          48.812    20643253.120   110311283.370 8      -662.526          48.000    20643262.760    85797703.561 7      -515.298          46.562    20643262.720    85797704.555 7      -515.298          47.187
G07  25376439.580   133354047.785 6      5108.144          38.625    25376439.500   133354047.790 3      5108.144          20.250    25376444.820   103912271.054 3      3980.372          20.312    25376443.980   103912307.056 6      3980.372          37.062
> 2024 05 10 11 24 46.0000000  0 15
R21  22839867.420   122220745.462 6     -1031.132          39.000    22839867.900   122220745.483 6     -1031.132          39.187    22839882.560    95060636.012 7      -801.992          46.750    22839882.260    95060635.014 7      -801.992          46.562
G27  20700123.560   108779879.326 7      2418.267          47.437    20700122.660   108779879.331 7      2418.267          46.375    20700128.340    84763562.403 7      1884.364          46.125    20700128.860    84763563.404 8      1884.364          48.062
R23  20650628.360   110466945.124 7      4013.384          44.500    20650627.460   110466945.139 7      4013.384          43.562
G18  24571077.740   129121884.644 6      -952.565          41.437    24571076.160   129121884.649 5      -952.565          31.000    24571086.320   100614483.456 5      -742.258          30.937    24571086.860   100614487.453 7      -742.258          46.687
R12  19237521.100   102763379.596 7      3676.389          47.812    19237521.000   102763379.595 7      3676.389          47.875    19237530.320    79927109.745 7      2859.414          46.812    19237530.140    79927110.747 7      2859.414          46.937
G16  20305338.080   106705266.875 7      2624.273          46.812    20305336.480   106705266.877 6      2624.273          39.500    20305339.680    83146968.682 6      2044.888          39.187
G10  22580559.940   118661643.091 7      4065.827          45.625    22580557.760   118661643.090 7      4065.827          43.750    22580567.880    92463651.748 7      3168.177          44.062    22580567.640    92463649.754 7      3168.177          45.187
G31  23710201.800   124597934.733 7      -970.316          46.312    23710200.540   124597934.741 6      -970.316          40.687    23710210.940    97089338.288 6      -756.090          40.750    23710211.180    97089339.287 7      -756.090          43.500
G21  22289765.760   117133516.397 7      5381.099          42.562    22289763.460   117133516.407 4      5381.099          29.250    22289771.300    91272898.420 4      4193.065          29.187
R22  19673019.640   105015914.836 8       792.866          48.187    19673019.720   105015914.840 8       792.866          48.062    19673026.080    81679069.851 7       616.673          47.187    19673026.000    81679071.851 7       616.673          47.312
G23  22939992.020   120550469.817 7      2343.556          45.750    22939990.900   120550469.824 5      2343.556          32.562    22939998.620    93935460.863 5      1826.148          32.250    22939999.600    93935461.866 7      1826.148          46.062
G26  21170862.720   111253634.749 7       555.232          46.937    21170860.900   111253634.756 7       555.232          45.250    21170869.260    86691169.465 7       432.648          45.062    21170869.400    86691171.467 7       432.648          47.000
G08  21992356.660   115570613.272 7      3867.509          44.500    21992356.540   115570613.271 5      3867.509          34.437    21992364.820    90055057.705 5      3013.643          34.062    21992364.060    90055051.708 7      3013.643          46.562
R11  20643377.200   110311946.294 8      -663.390          48.062    20643377.060   110311946.287 7      -663.390          46.750    20643387.060    85798219.155 7      -515.970          45.875    20643386.780    85798220.149 7      -515.970          46.250
G07  25375467.560   133348939.769 6      5107.682          38.375    25375467.500   133348939.777 3      5107.682          20.250    25375472.840   103908290.784 3      3980.012          20.312    25375472.880   103908326.809 6      3980.012          37.062
> 2024 05 10 11 24 47.0000000  0 15
R21  22840060.180   122221776.583 6     -1031.075          39.000    22840060.120   122221776.606 6     -1031.075          39.500    22840075.300    95061437.993 7      -801.947          47.375    22840074.900    95061436.996 7      -801.947          46.812
G27  20699663.320   108777461.153 7      2418.062          46.437    20699662.620   108777461.163 7      2418.062          47.312    20699668.200    84761678.110 7      1884.204          47.125    20699668.840    84761679.107 8      1884.204          49.000
R23  20649878.120   110462931.934 7      4012.798          44.625    20649877.400   110462931.944 7      4012.798          43.687
G18  24571259.140   129122837.366 7      -952.769          42.187    24571257.320   129122837.373 5      -952.769          31.000    24571267.580   100615225.833 5      -742.417          30.937    24571268.040   100615229.816 7      -742.417          47.062
R12  19236832.760   102759703.545 8      3675.613          48.250    19236832.860   102759703.541 8      3675.613          48.687    19236842.260    79924250.594 8      2858.810          48.312    19236841.960    79924251.596 8      2858.810          49.187
G16  20304839.000   106702642.878 7      2623.731          47.250    20304837.060   106702642.885 6      2623.731          40.062    20304840.280    83144924.013 6      2044.466          39.312
G10  22579786.140   118657577.461 7      4065.477          46.312    22579784.020   118657577.469 7      4065.477          43.875    22579794.100    92460483.732 7      3167.904          43.875    22579794.220    92460481.740 7      3167.904          45.125
G31  23710386.360   124598905.020 7      -970.383          45.562    23710385.200   124598905.031 6      -970.383          41.125    23710395.380    97090094.343 6      -756.143          41.062    23710396.080    97090095.351 7      -756.143          43.875
G21  22288742.120   117128135.561 7      5380.545          42.187    22288739.400   117128135.572 4      5380.545          29.250    22288747.420    91268705.571 4      4192.633          29.187
R22  19672870.980   105015122.205 8       792.374          49.125    19672871.300   105015122.209 8       792.374          49.125    19672877.580    81678453.356 8       616.291          48.687    19672877.820    81678455.356 8       616.291          48.250
G23  22939545.740   120548126.491 7      2342.947          45.187    22939545.140   120548126.499 5      2342.947          32.125    22939552.800    93933634.895 5      1825.673          32.250    22939553.720    93933635.888 7      1825.673          46.187
G26  21170756.940   111253079.806 7       554.676          46.187    21170755.200   111253079.814 7       554.676          45.375    21170763.600    86690737.040 7       432.215          45.000    21170763.780    86690739.041 7       432.215          47.687
G08  21991620.560   115566745.933 7      3867.234          44.312    21991620.780   115566745.933 5      3867.234          34.687    21991628.740    90052044.194 5      3013.429          34.062    21991628.260    90052038.202 7      3013.429          47.875
R11  20643501.220   110312609.917 7      -663.963          47.375    20643501.200   110312609.918 7      -663.963          47.500    20643511.100    85798735.298 8      -516.415          48.187    20643511.280    85798736.292 7      -516.415          47.000
G07  25374495.160   133343832.209 6      5107.552          39.062    25374495.700   133343832.214 3      5107.552          20.250    25374500.960   103904310.865 3      3979.911          20.312    25374502.100   103904346.887 6      3979.911          36.437
> 2024 05 10 11 24 48.0000000  0 15
R21  22840253.080   122222807.719 6     -1031.137          39.375    22840252.740   122222807.753 6     -1031.137          39.500    22840267.840    95062239.990 8      -801.995          48.750    22840267.600    95062238.989 8      -801.995          48.125
G27  20699203.200   108775043.235 7      2417.758          46.687    20699202.500   108775043.240 7      2417.758          47.937    20699208.000    84759794.014 8      1883.967          48.187    20699208.580    84759795.013 8      1883.967          50.000
R23  20649128.100   110458919.341 7      4012.302          43.937    20649127.420   110458919.353 7      4012.302          43.687
G18  24571440.520   129123790.204 7      -952.958          42.437    24571438.740   129123790.209 5      -952.958          31.187    24571448.900   100615968.294 5      -742.564          30.875    24571449.480   100615972.285 7      -742.564          47.687
R12  19236144.920   102756028.295 8      3674.911          48.562    19236144.840   102756028.291 8      3674.911          48.812    19236154.200    79921392.062 8      2858.264          49.937    19236153.760    79921393.062 8      2858.264          50.000
G16  20304339.740   106700019.372 7      2623.275          46.687    20304337.800   106700019.380 6      2623.275          40.312    20304341.060    83142879.717 6      2044.110          39.750
G10  22579012.720   118653512.303 7      4065.053          45.937    22579010.480   118653512.310 7      4065.053          44.250    22579020.540    92457316.080 7      3167.574          44.437    22579020.540    92457314.082 7      3167.574          45.875
G31  23710570.900   124599875.400 7      -970.382          45.937    23710569.800   124599875.410 6      -970.382          41.312    23710580.120    97090850.469 6      -756.142          41.375    23710580.460    97090851.474 7      -756.142          44.000
G21  22287718.040   117122755.167 7      5380.269          42.875    22287715.500   117122755.177 4      5380.269          28.812    22287723.640    91264513.062 4      4192.418          29.187
R22  19672723.060   105014330.060 8       791.882          48.875    19672723.000   105014330.058 8       791.882          48.937    19672729.200    81677837.235 8       615.908          51.125    19672729.140    81677839.235 8       615.908          49.562
G23  22939100.260   120545783.799 7      2342.409          45.375    22939099.460   120545783.804 5      2342.409          32.125    22939107.080    93931809.419 5      1825.254          32.187    22939107.680    93931810.414 7      1825.254          47.062
G26  21170651.340   111252525.332 7       554.277          46.812    21170649.740   111252525.342 7       554.277          46.375    21170658.100    86690304.978 7       431.904          46.125    21170658.220    86690306.974 8       431.904          48.812
G08  21990884.400   115562878.787 7      3867.044          45.812    21990884.980   115562878.784 5      3867.044          34.687    21990892.800    90049030.833 5      3013.281          34.562    21990892.240    90049024.839 8      3013.281          48.437
R11  20643625.680   110313274.192 8      -664.498          49.000    20643625.880   110313274.191 7      -664.498          46.937    20643635.600    85799251.946 8      -516.832          48.500    20643635.140    85799252.940 8      -516.832          49.375
G07  25373523.040   133338725.068 6      5107.146          38.062    25373523.900   133338725.076 3      5107.146          20.250    25373529.100   103900331.275 3      3979.594          20.312    25373529.800   103900367.267 6      3979.594          36.437
> 2024 05 10 11 24 49.0000000  0 15
R21  22840445.680   122223838.711 6     -1030.881          39.375    22840445.080   122223838.750 6     -1030.881          39.500    22840460.400    95063041.868 8      -801.796          49.000    22840460.300    95063040.872 8      -801.796          49.187
G27  20698743.020   108772625.446 7      2417.740          47.187    20698742.400   108772625.451 8      2417.740          48.875    20698748.000    84757910.024 8      1883.953          48.937    20698748.500    84757911.022 8      1883.953          49.875
R23  20648378.420   110454907.296 7      4011.826          43.687    20648377.620   110454907.297 7      4011.826          43.500
G18  24571621.940   129124743.039 7      -952.834          42.562    24571620.080   129124743.041 5      -952.834          31.187    24571630.160   100616710.755 5      -742.468          30.875    24571630.640   100616714.752 7      -742.468          47.812
R12  19235457.160   102752353.774 8      3674.166          48.000    19235456.960   102752353.770 8      3674.166          49.187    19235466.340    79918534.103 8      2857.684          51.187    19235466.080    79918535.105 8      2857.684          51.687
G16  20303840.440   106697396.256 7      2622.991          46.875    20303838.640   106697396.266 6      2622.991          40.187    20303841.940    83140835.730 6      2043.889          40.187
G10  22578239.300   118649447.535 7      4064.565          45.812    22578237.000   118649447.543 7      4064.565          44.312    22578246.980    92454148.731 7      3167.193          44.875    22578247.280    92454146.739 7      3167.193          45.875
G31  23710755.520   124600845.773 7      -970.343          45.625    23710754.520   124600845.781 6      -970.343          40.812    23710764.700    97091606.594 6      -756.112          40.875    23710765.480    97091607.603 7      -756.112          44.125
G21  22286694.220   117117375.201 7      5379.742          42.062    22286691.880   117117375.211 4      5379.742          28.812    22286699.840    91260320.885 4      4192.006          29.187
R22  19672574.460   105013538.296 8       791.526          48.750    19672574.840   105013538.300 8       791.526          49.125    19672580.980    81677221.425 8       615.631          51.562    19672580.880    81677223.425 8       615.631          51.375
G23  22938654.500   120543441.643 7      2341.954          44.875    22938653.880   120543441.653 5      2341.954          32.625    22938661.360    93929984.362 5      1824.899          32.187    22938661.860    93929985.363 7      1824.899          47.250
G26  21170546.160   111251971.238 7       553.937          46.687    21170544.320   111251971.241 7       553.937          46.625    21170552.560    86689873.215 7       431.639          46.625    21170552.940    86689875.213 8       431.639          48.625
G08  21990148.380   115559011.735 7      3866.968          45.375    21990149.100   115559011.735 5      3866.968          34.687    21990156.680    90046017.552 5      3013.222          34.562    21990156.440    90046011.564 8      3013.222          48.187
R11  20643750.280   110313939.023 8      -665.127          48.687    20643749.960   110313939.027 7      -665.127          47.312    20643759.980    85799769.038 8      -517.321          49.750    20643759.840    85799770.030 8      -517.321          50.000
G07  25372551.060   133333618.201 6      5106.713          38.812    25372552.000   133333618.211 3      5106.713          20.250    25372557.340   103896351.898 3      3979.257          20.312    25372557.260   103896387.918 6      3979.257          36.437
> 2024 05 10 11 24 50.0000000  0 15
R21  22840638.500   122224869.730 6     -1031.089          39.375    22840638.640   122224869.740 6     -1031.089          39.375    22840653.280    95063843.745 8      -801.958          49.687    22840652.700    95063842.746 8      -801.958          49.000
G27  20698283.180   108770207.885 7      2417.337          47.125    20698282.380   108770207.893 8      2417.337          48.500    20698287.880    84756026.213 8      1883.639          48.937    20698288.400    84756027.214 8      1883.639          49.562
R23  20647628.480   110450895.818 7      4011.003          44.000    20647627.040   110450895.824 7      4011.003          43.687
G18  24571803.280   129125695.976 7      -953.063          42.375    24571801.600   129125695.987 5      -953.063          31.187    24571811.580   100617453.304 5      -742.647          30.875    24571812.140   100617457.304 7      -742.647          47.937
R12  19234769.220   102748680.060 8      3673.143          48.687    19234769.240   102748680.061 8      3673.143          48.000    19234778.640    79915676.774 8      2856.889          51.125    19234778.260    79915677.776 8      2856.889          51.500
G16  20303341.320   106694773.617 7      2622.258          47.000    20303339.440   106694773.630 6      2622.258          40.562    20303342.880    83138792.120 6      2043.318          39.937
G10  22577465.860   118645383.181 7      4063.997          46.875    22577463.660   118645383.183 7      4063.997          44.875    22577473.420    92450981.703 7      3166.751          45.125    22577473.680    92450979.707 7      3166.751          45.875
G31  23710940.360   124601816.205 7      -970.600          45.687    23710939.000   124601816.213 6      -970.600          41.125    23710949.420    97092362.762 6      -756.312          40.812    23710949.800    97092363.770 7      -756.312          44.250
G21  22285670.480   117111995.661 7      5379.147          42.000    22285668.300   117111995.671 4      5379.147          28.812    22285676.120    91256129.039 4      4191.543          29.312
R22  19672426.140   105012746.976 8       790.997          49.812    19672426.260   105012746.977 8       790.997          48.875    19672432.500    81676605.949 8       615.220          51.187    19672432.800    81676607.949 8       615.220          50.812
G23  22938208.880   120541100.133 7      2341.052          44.437    22938208.340   120541100.141 5      2341.052          32.625    22938215.720    93928159.809 5      1824.196          32.500    22938216.480    93928160.810 7      1824.196          47.125
G26  21170440.800   111251417.589 7       553.242          46.062    21170439.060   111251417.599 7       553.242          46.375    21170447.220    86689441.799 7       431.097          46.125    21170447.560    86689443.798 8       431.097          48.625
G08  21989412.460   115555144.867 7      3866.643          44.937    21989413.040   115555144.864 5      3866.643          34.687    21989420.820    90043004.406 5      3012.968          34.562    21989420.880    90042998.414 7      3012.968          47.937
R11  20643874.640   110314604.465 8      -665.936          48.187    20643874.400   110314604.469 7      -665.936          47.562    20643884.440    85800286.594 8      -517.950          49.312    20643884.460    85800287.588 8      -517.950          49.562
G07  25371579.580   133328511.676 6      5106.363          39.500    25371580.220   133328511.688 3      5106.363          20.562    25371585.580   103892372.783 3      3978.984          20.312    25371584.720   103892408.787 6      3978.984          36.437
> 2024 05 10 11 24 51.0000000  0 15
R21  22840831.680   122225900.674 6     -1030.785          39.125    22840830.280   122225900.681 6     -1030.785          39.375    22840845.880    95064645.584 8      -801.722          48.125    22840845.380    95064644.589 8      -801.722          48.000
G27  20697823.000   108767790.508 7      2417.588          46.937    20697822.400   108767790.513 8      2417.588          48.562    20697827.920    84754142.541 8      1883.835          48.125    20697828.360    84754143.540 8      1883.835          49.312
R23  20646878.840   110446884.853 7      4010.965          44.937    20646877.280   110446884.868 7      4010.965          43.937
G18  24571984.840   129126649.006 6      -952.769          41.750    24571983.100   129126649.016 5      -952.769          31.500    24571992.980   100618195.918 5      -742.417          31.250    24571993.240   100618199.906 7      -742.417          47.000
R12  19234081.520   102745007.123 8      3672.778          49.000    19234081.660   102745007.119 8      3672.778          48.250    19234091.040    79912820.041 8      2856.605          49.562    19234091.120    79912821.045 8      2856.605          50.062
G16  20302842.240   106692151.391 7      2622.301          46.562    20302840.400   106692151.401 6      2622.301          40.312    20302843.820    83136748.827 6      2043.351          40.187
G10  22576692.500   118641319.207 7      4063.996          46.062    22576690.220   118641319.209 7      4063.996          44.437    22576700.080    92447814.974 7      3166.750          44.250    22576699.980    92447812.978 7      3166.750          45.437
G31  23711124.920   124602786.660 7      -970.306          45.625    23711123.540   124602786.668 6      -970.306          40.625    23711134.120    97093118.947 6      -756.083          40.687    23711135.000    97093119.958 7      -756.083          43.937
G21  22284646.760   117106616.525 7      5379.067          42.625    22284644.600   117106616.530 4      5379.067          28.812    22284652.320    91251937.509 4      4191.481          29.312
R22  19672277.720   105011956.069 8       790.926          48.187    19672278.280   105011956.072 8       790.926          49.750    19672284.460    81675990.802 8       615.165          49.437    19672284.880    81675992.802 8       615.165          49.875
G23  22937763.720   120538759.180 7      2340.783          45.062    22937762.820   120538759.191 5      2340.783          32.437    22937770.280    93926335.690 5      1823.986          32.500    22937771.100    93926336.683 7      1823.986          46.750
G26  21170335.320   111250864.341 7       553.190          45.812    21170333.700   111250864.349 7       553.190          46.375    21170341.960    86689010.691 7       431.057          46.312    21170342.140    86689012.692 7       431.057          47.937
G08  21988676.980   115551278.123 7      3866.877          43.687    21988677.420   115551278.125 5      3866.877          35.000    21988685.080    90039991.363 5      3013.151          34.437    21988684.740    90039985.375 8      3013.151          48.312
R11  20643999.960   110315270.469 8      -666.004          48.375    20643999.240   110315270.467 7      -666.004          47.812    20644008.940    85800804.585 8      -518.003          48.187    20644008.760    85800805.577 8      -518.003          48.312
G07  25370608.000   133323405.463 6      5106.453          39.250    25370608.640   133323405.473 3      5106.453          20.562    25370613.920   103888393.916 3      3979.055          20.312    25370614.340   103888429.934 6      3979.055          36.437
> 2024 05 10 11 24 52.0000000  0 15
R21  22841023.180   122226931.369 6     -1030.679          39.125    22841022.940   122226931.381 6     -1030.679          39.375    22841038.360    95065447.233 8      -801.639          49.375    22841038.160    95065446.237 8      -801.639          48.625
G27  20697362.940   108765373.192 8      2417.149          48.125    20697362.460   108765373.200 8      2417.149          48.937    20697367.800    84752258.920 8      1883.492          48.437    20697368.160    84752259.923 8      1883.492          50.000
R23  20646129.140   110442874.333 7      4010.199          44.125    20646127.800   110442874.345 7      4010.199          43.750
G18  24572166.040   129127601.952 7      -953.047          42.375    24572164.420   129127601.962 5      -953.047          31.500    24572174.460   100618938.467 5      -742.634          31.250    24572174.680   100618942.461 7      -742.634          47.687
R12  19233394.100   102741334.830 8      3671.852          49.062    19233394.020   102741334.831 8      3671.852          48.625    19233403.680    79909963.819 8      2855.885          50.750    19233403.140    79909964.821 8      2855.885          51.437
G16  20302343.340   106689529.483 7      2621.684          46.312    20302341.560   106689529.491 6      2621.684          40.312    20302344.980    83134705.780 6      2042.871          39.562
G10  22575919.120   118637255.522 7      4063.442          46.000    22575916.940   118637255.527 7      4063.442          44.562    22575926.740    92444648.471 7      3166.318          44.750    22575926.780    92444646.479 7      3166.318          45.437
G31  23711309.440   124603757.010 7      -970.373          45.500    23711308.340   124603757.015 6      -970.373          41.062    23711318.760    97093875.055 6      -756.135          41.187    23711319.360    97093876.057 7      -756.135          44.312
G21  22283623.040   117101237.662 7      5378.689          42.562    22283620.820   117101237.672 4      5378.689          29.375    22283628.680    91247746.198 4      4191.186          29.312
R22  19672129.900   105011165.482 8       790.383          48.562    19672130.120   105011165.483 8       790.383          49.125    19672136.480    81675375.893 8       614.742          51.250    19672136.620    81675377.893 8       614.742          50.812
G23  22937318.080   120536418.672 7      2340.103          45.500    22937317.360   120536418.679 5      2340.103          32.437    22937324.800    93924511.921 5      1823.457          32.500    22937325.760    93924512.920 7      1823.457          47.187
G26  21170230.340   111250311.380 7       552.671          46.562    21170228.480   111250311.382 7       552.671          46.937    21170236.640    86688579.808 7       430.653          46.562    21170237.040    86688581.807 8       430.653          48.062
G08  21987941.180   115547411.397 7      3866.657          44.500    21987941.560   115547411.396 5      3866.657          35.000    21987949.360    90036978.332 5      3012.979          34.562    21987948.880    90036972.333 8      3012.979          48.250
R11  20644124.740   110315936.913 8      -666.739          48.250    20644123.860   110315936.909 7      -666.739          47.750    20644133.660    85801322.922 8      -518.575          49.250    20644133.680    85801323.916 8      -518.575          49.812
G07  25369636.120   133318299.468 6      5105.709          39.250    25369636.920   133318299.481 3      5105.709          20.562    25369642.340   103884415.223 3      3978.474          20.312    25369643.120   103884451.229 6      3978.474          36.437
> 2024 05 10 11 24 53.0000000  0 15
R21  22841215.560   122227962.056 6     -1030.782          39.125    22841215.380   122227962.057 6     -1030.782          39.375    22841231.240    95066248.858 8      -801.719          48.250    22841230.540    95066247.857 7      -801.719          47.937
G27  20696903.080   108762956.086 8      2416.950          48.000    20696902.460   108762956.091 8      2416.950          48.312    20696907.920    84750375.460 8      1883.338          48.125    20696908.460    84750376.464 8      1883.338          49.812
R23  20645379.340   110438864.379 7      4009.605          44.125    20645377.920   110438864.386 7      4009.605          43.312
G18  24572347.500   129128555.005 7      -953.144          42.812    24572345.780   129128555.015 5      -953.144          31.500    24572355.760   100619681.101 5      -742.710          31.437    24572356.160   100619685.096 7      -742.710          47.437
R12  19232706.800   102737663.317 8      3671.078          48.062    19232706.820   102737663.312 7      3671.078          47.875    19232716.340    79907108.194 8      2855.283          50.250    19232715.900    79907109.196 8      2855.283          50.125
G16  20301844.500   106686908.051 7      2621.060          46.625    20301842.740   106686908.061 6      2621.060          40.062    20301846.120    83132663.105 6      2042.385          39.687
G10  22575146.000   118633192.273 7      4062.933          47.437    22575143.800   118633192.276 7      4062.933          45.250    22575153.520    92441482.305 7      3165.922          44.875    22575153.400    92441480.307 7      3165.922          45.750
G31  23711494.080   124604727.424 7      -970.422          45.062    23711492.940   124604727.426 6      -970.422          41.062    23711503.500    97094631.201 6      -756.173          41.062    23711503.880    97094632.207 7      -756.173          44.312
G21  22282599.740   117095859.281 7      5378.193          42.375    22282597.320   117095859.288 4      5378.193          29.375    22282605.260    91243555.257 4      4190.800          29.312
R22  19671981.920   105010375.352 7       789.814          47.062    19671982.020   105010375.353 8       789.814          49.312    19671988.480    81674761.353 8       614.300          50.750    19671988.480    81674763.353 8       614.300          50.187
G23  22936872.760   120534078.780 7      2339.543          44.062    22936872.060   120534078.785 5      2339.543          32.750    22936879.340    93922688.627 5      1823.020          32.500    22936880.320    93922689.620 7      1823.020          46.875
G26  21170125.300   111249758.853 7       552.257          46.875    21170123.440   111249758.863 7       552.257          47.125    21170131.500    86688149.270 7       430.330          47.000    21170132.040    86688151.266 8       430.330          48.187
G08  21987205.480   115543544.847 7      3866.424          44.812    21987205.720   115543544.846 5      3866.424          34.812    21987213.660    90033965.436 5      3012.798          34.750    21987213.220    90033959.447 8      3012.798          48.125
R11  20644249.540   110316603.964 7      -667.387          47.812    20644248.540   110316603.955 7      -667.387          47.687    20644258.440    85801841.733 8      -519.079          48.500    20644258.560    85801842.723 8      -519.079          49.312
G07  25368664.520   133313193.791 6      5105.535          39.000    25368665.460   133313193.799 3      5105.535          20.562    25368670.720   103880436.769 3      3978.339          20.312    25368671.460   103880472.775 6      3978.339          36.437
> 2024 05 10 11 24 54.0000000  0 15
R21  22841408.780   122228992.829 6     -1030.940          39.125    22841408.260   122228992.838 6     -1030.940          39.187    22841423.760    95067050.566 7      -801.842          47.937    22841423.240    95067049.569 7      -801.842          47.750
G27  20696443.120   108760539.363 7      2416.483          47.812    20696442.600   108760539.368 7      2416.483          47.562    20696448.060    84748492.300 7      1882.974          47.562    20696448.540    84748493.306 8      1882.974          49.750
R23  20644630.080   110434855.150 7      4008.780          44.750    20644628.680   110434855.157 7      4008.780          43.312
G18  24572529.040   129129508.310 7      -953.514          42.250    24572527.160   129129508.318 5      -953.514          31.625    24572537.220   100620423.929 5      -742.998          31.437    24572537.780   100620427.921 7      -742.998          47.187
R12  19232019.580   102733992.749 8      3669.988          48.375    19232019.700   102733992.747 8      3669.988          48.812    19232029.300    79904253.308 8      2854.435          49.250    19232029.020    79904254.308 8      2854.435          49.312
G16  20301345.760   106684287.212 7      2620.535          46.562    20301344.060   106684287.220 6      2620.535          40.250    20301347.380    83130620.891 6      2041.976          39.875
G10  22574372.840   118629129.611 7      4062.286          46.687    22574370.720   118629129.608 7      4062.286          44.375    22574380.480    92438316.594 7      3165.418          44.562    22574380.640    92438314.596 7      3165.418          45.375
G31  23711679.020   124605698.058 7      -970.752          45.625    23711677.680   124605698.063 6      -970.752          41.125    23711688.280    97095387.529 6      -756.430          40.750    23711688.760    97095388.535 7      -756.430          44.312
G21  22281576.320   117090481.514 7      5377.402          42.562    22281574.000   117090481.524 4      5377.402          29.375    22281581.940    91239364.792 4      4190.184          29.125
R22  19671834.240   105009585.831 8       789.145          49.625    19671834.160   105009585.829 8       789.145          49.000    19671840.640    81674147.275 8       613.779          48.500    19671840.500    81674149.271 8       613.779          49.125
G23  22936427.860   120531739.649 7      2338.816          44.562    22936426.840   120531739.651 5      2338.816          32.750    22936434.380    93920865.927 5      1822.454          32.312    22936434.820    93920866.918 7      1822.454          46.187
G26  21170020.160   111249206.945 7       551.616          46.250    21170018.420   111249206.947 7       551.616          46.000    21170026.360    86687719.204 7       429.831          45.562    21170026.860    86687721.198 8       429.831          48.312
G08  21986469.760   115539678.599 7      3866.140          45.125    21986469.980   115539678.596 5      3866.140          34.875    21986478.040    90030952.775 5      3012.577          34.750    21986477.500    90030946.787 8      3012.577          48.250
R11  20644374.580   110317271.788 8      -668.275          48.375    20644373.760   110317271.781 7      -668.275          47.500    20644383.480    85802361.149 7      -519.770          47.750    20644383.440    85802362.145 8      -519.770          48.000
G07  25367693.140   133308088.635 6      5104.972          38.875    25367693.900   133308088.642 3      5104.972          20.562    25367699.060   103876458.727 3      3977.900          20.687    25367699.600   103876494.751 6      3977.900          36.437
> 2024 05 10 11 24 55.0000000  0 15
R21  22841601.560   122230023.508 6     -1030.930          39.375    22841600.560   122230023.512 6     -1030.930          39.187    22841616.280    95067852.195 8      -801.835          49.187    22841616.000    95067851.196 8      -801.835          48.812
G27  20695983.220   108758122.728 8      2416.361          48.125    20695982.720   108758122.735 8      2416.361          49.312    20695988.220    84746609.205 8      1882.878          49.062    20695988.580    84746610.207 8      1882.878          49.812
R23  20643880.320   110430846.350 7      4008.393          44.750    20643879.160   110430846.351 7      4008.393          43.062
G18  24572710.260   129130461.566 6      -953.454          41.750    24572708.520   129130461.573 5      -953.454          31.625    24572718.580   100621166.725 5      -742.951          31.437    24572719.420   100621170.720 7      -742.951          47.500
R12  19231332.700   102730322.862 8      3669.318          48.812    19231332.660   102730322.866 8      3669.318          48.687    19231342.240    79901398.953 8      2853.914          51.062    19231341.660    79901399.953 8      2853.914          51.375
G16  20300847.020   106681666.736 7      2620.112          46.437    20300845.320   106681666.744 6      2620.112          40.000    20300848.720    83128578.958 6      2041.646          39.562
G10  22573599.860   118625067.248 7      4062.015          46.562    22573597.760   118625067.247 7      4062.015          45.000    22573607.340    92435151.114 7      3165.206          44.875    22573607.360    92435149.118 7      3165.206          45.812
G31  23711863.380   124606668.626 7      -970.687          45.312    23711862.340   124606668.631 6      -970.687          41.062    23711872.900    97096143.804 6      -756.379          41.062    23711873.600    97096144.809 7      -756.379          44.750
G21  22280553.400   117085104.044 7      5377.128          42.000    22280550.480   117085104.051 4      5377.128          29.375    22280558.700    91235174.557 4      4189.970          29.125
R22  19671686.220   105008796.632 8       788.852          48.875    19671686.260   105008796.628 8       788.852          48.812    19671692.720    81673533.445 8       613.552          51.062    19671692.900    81673535.441 8       613.552          51.375
G23  22935982.860   120529401.011 7      2338.253          44.250    22935981.860   120529401.013 5      2338.253          32.687    22935989.380    93919043.612 5      1822.015          32.312    22935989.580    93919044.609 7      1822.015          46.562
G26  21169915.220   111248655.356 7       551.175          47.250    21169913.420   111248655.363 7       551.175          47.125    21169921.420    86687289.392 7       429.487          46.687    21169921.680    86687291.386 8       429.487          48.375
G08  21985733.880   115535812.435 7      3866.056          43.812    21985734.160   115535812.429 5      3866.056          34.875    21985742.240    90027940.180 5      3012.511          35.062    21985741.880    90027934.187 7      3012.511          47.750
R11  20644499.460   110317940.084 7      -668.728          47.750    20644498.660   110317940.082 7      -668.728          47.562    20644508.560    85802880.931 8      -520.122          49.562    20644508.840    85802881.927 8      -520.122          49.750
G07  25366721.860   133302983.728 6      5104.676          38.375    25366722.260   133302983.735 3      5104.676          20.562    25366727.520   103872480.871 3      3977.670          20.687    25366726.240   103872516.867 6      3977.670          36.437
> 2024 05 10 11 24 56.0000000  0 15
R21  22841794.500   122231054.069 6     -1030.445          39.375    22841792.860   122231054.065 6     -1030.445          39.187    22841808.880    95068653.728 7      -801.458          47.687    22841808.480    95068652.727 7      -801.458          47.500
G27  20695523.420   108755706.250 8      2416.447          48.250    20695522.780   108755706.260 7      2416.447          47.750    20695528.360    84744726.237 7      1882.946          47.437    20695529.040    84744727.241 8      1882.946          49.312
R23  20643131.500   110426838.084 7      4007.987          44.375    20643129.200   110426838.091 7      4007.987          43.937
G18  24572891.780   129131414.900 7      -953.306          42.812    24572889.920   129131414.908 5      -953.306          31.625    24572900.040   100621909.573 5      -742.836          31.312    24572900.640   100621913.559 7      -742.836          47.000
R12  19230645.920   102726653.752 8      3668.750          48.375    19230645.820   102726653.754 8      3668.750          48.562    19230655.380    79898545.201 8      2853.472          48.812    19230654.980    79898546.201 8      2853.472          49.187
G16  20300348.300   106679046.678 7      2619.797          47.187    20300346.780   106679046.688 6      2619.797          40.000    20300350.040    83126537.356 6      2041.400          39.250
G10  22572826.880   118621005.279 7      4061.712          46.812    22572824.820   118621005.283 7      4061.712          44.562    22572834.280    92431985.956 7      3164.970          44.625    22572834.480    92431983.960 7      3164.970          45.250
G31  23712048.200   124607639.210 7      -970.587          46.250    23712047.120   124607639.210 6      -970.587          40.687    23712057.560    97096900.089 6      -756.301          40.500    23712058.180    97096901.092 7      -756.301          44.250
G21  22279530.340   117079727.002 7      5376.801          42.312    22279527.480   117079727.010 4      5376.801          29.125    22279535.440    91230984.659 4      4189.715          29.125
R22  19671538.540   105008007.852 8       788.563          48.687    19671538.060   105008007.848 8       788.563          48.812    19671544.900    81672919.954 8       613.327          49.437    19671544.960    81672921.948 8       613.327          49.687
G23  22935537.960   120527062.943 7      2337.877          44.437    22935536.960   120527062.945 5      2337.877          32.687    22935544.520    93917221.736 5      1821.723          32.562    22935544.820    93917222.734 7      1821.723          46.250
G26  21169810.100   111248104.150 7       550.999          46.937    21169808.580   111248104.157 7       550.999          46.375    21169816.520    86686859.876 7       429.350          46.187    21169816.760    86686861.873 7       429.350          47.312
G08  21984998.000   115531946.379 7      3866.055          44.312    21984998.420   115531946.373 5      3866.055          35.125    21985006.460    90024927.671 5      3012.510          34.437    21985006.140    90024921.678 7      3012.510          47.750
R11  20644624.860   110318608.960 8      -669.144          48.562    20644624.020   110318608.963 7      -669.144          47.750    20644633.780    85803401.170 8      -520.445          48.250    20644633.900    85803402.164 8      -520.445          48.375
G07  25365750.640   133297879.094 6      5104.503          38.375    25365751.000   133297879.101 3      5104.503          20.562    25365756.140   103868503.235 3      3977.535          20.687    25365755.660   103868539.222 6      3977.535          36.125
> 2024 05 10 11 24 57.0000000  0 15
R21  22841987.640   122232084.531 6     -1030.127          39.375    22841985.000   122232084.527 6     -1030.127          38.875    22842001.680    95069455.192 7      -801.210          47.000    22842001.260    95069454.196 7      -801.210          47.312
G27  20695063.820   108753289.989 7      2416.249          47.750    20695062.960   108753289.997 7      2416.249          47.500    20695068.520    84742843.439 7      1882.792          47.437    20695069.360    84742844.443 8      1882.792          48.187
R23  20642382.180   110422830.358 7      4007.576          44.125    20642380.420   110422830.373 7      4007.576          43.375
G18  24573073.140   129132368.269 7      -953.229          42.312    24573071.360   129132368.276 5      -953.229          31.250    24573081.460   100622652.451 5      -742.776          31.312    24573081.780   100622656.452 7      -742.776          46.625
R12  19229959.160   102722985.399 8      3668.067          48.937    19229959.140   102722985.395 8      3668.067          49.000    19229968.560    79895692.040 8      2852.941          48.000    19229968.280    79895693.039 8      2852.941          48.187
G16  20299849.860   106676427.030 7      2619.534          47.187    20299848.340   106676427.037 6      2619.534          39.687    20299851.480    83124496.076 6      2041.196          39.062
G10  22572054.000   118616943.712 7      4061.427          47.250    22572051.900   118616943.714 7      4061.427          43.812    22572061.300    92428821.102 7      3164.748          43.875    22572061.560    92428819.104 7      3164.748          45.000
G31  23712232.800   124608609.807 7      -970.480          45.750    23712231.800   124608609.815 6      -970.480          40.062    23712242.340    97097656.392 6      -756.218          40.062    23712242.960    97097657.397 7      -756.218          43.750
G21  22278507.240   117074350.342 6      5376.637          41.937    22278504.300   117074350.347 4      5376.637          29.125    22278512.360    91226795.057 4      4189.587          29.125
R22  19671391.000   105007219.470 8       788.292          49.562    19671390.500   105007219.469 8       788.292          49.250    19671397.440    81672306.774 7       613.116          47.750    19671397.320    81672308.770 8       613.116          48.562
G23  22935093.340   120524725.451 7      2337.329          44.312    22935092.120   120524725.450 5      2337.329          32.437    22935099.680    93915400.316 5      1821.296          32.562    22935099.980    93915401.315 7      1821.296          45.937
G26  21169705.320   111247553.367 7       550.657          46.375    21169703.760   111247553.372 7       550.657          45.250    21169711.580    86686430.693 7       429.083          45.312    21169711.960    86686432.693 7       429.083          46.750
G08  21984262.300   115528080.470 7      3865.965          44.625    21984262.600   115528080.470 5      3865.965          34.062    21984270.740    90021915.278 5      3012.440          34.437    21984270.200    90021909.294 7      3012.440          46.875
R11  20644750.080   110319278.415 8      -669.644          48.812    20644749.100   110319278.416 7      -669.644          47.250    20644759.100    85803921.847 7      -520.834          47.500    20644758.940    85803922.843 7      -520.834          46.937
G07  25364779.460   133292774.760 6      5104.316          38.375    25364779.700   133292774.765 3      5104.316          20.562    25364784.760   103864525.833 3      3977.389          20.687    25364783.880   103864561.844 6      3977.389          36.125
> 2024 05 10 11 24 58.0000000  0 15
R21  22842180.020   122233114.894 6     -1030.093          39.375    22842178.360   122233114.893 6     -1030.093          38.875    22842193.980    95070256.575 7      -801.184          46.750    22842193.620    95070255.579 7      -801.184          46.875
G27  20694604.060   108750873.869 7      2416.097          47.250    20694603.100   108750873.871 7      2416.097          46.875    20694608.740    84740960.742 7      1882.673          46.312    20694609.500    84740961.747 8      1882.673          48.312
R23  20641633.020   110418823.192 7      4006.950          44.687    20641631.200   110418823.196 7      4006.950          43.375
G18  24573254.400   129133321.706 7      -953.308          42.187    24573252.740   129133321.713 5      -953.308          31.250    24573262.820   100623395.385 5      -742.837          31.312    24573263.120   100623399.372 7      -742.837          46.812
R12  19229272.680   102719317.750 7      3667.337          47.875    19229272.400   102719317.746 8      3667.337          48.125    19229281.900    79892839.422 7      2852.373          47.437    19229281.680    79892840.424 8      2852.373          48.000
G16  20299351.540   106673807.815 7      2619.025          46.562    20299349.840   106673807.822 6      2619.025          39.437    20299353.120    83122455.125 6      2040.799          39.250
G10  22571281.340   118612882.510 7      4061.036          46.625    22571279.200   118612882.512 7      4061.036          43.812    22571288.660    92425656.534 7      3164.443          43.625    22571288.720    92425654.538 7      3164.443          44.625
G31  23712417.720   124609580.420 7      -970.542          44.625    23712416.600   124609580.430 6      -970.542          40.437    23712427.180    97098412.701 6      -756.267          40.187    23712428.180    97098413.711 7      -756.267          43.687
G21  22277483.680   117068974.128 6      5375.971          41.125    22277481.180   117068974.133 4      5375.971          29.125    22277489.440    91222605.806 4      4189.068          29.125
R22  19671243.120   105006431.497 8       787.868          48.312    19671242.840   105006431.500 8       787.868          49.312    19671249.580    81671693.908 7       612.786          46.750    19671249.660    81671695.906 7       612.786          47.062
G23  22934648.280   120522388.507 7      2336.779          43.812    22934647.480   120522388.512 5      2336.779          32.437    22934655.080    93913579.323 5      1820.866          32.562    22934655.280    93913580.327 7      1820.866          45.437
G26  21169600.640   111247002.960 7       550.266          46.562    21169599.080   111247002.965 7       550.266          45.125    21169606.940    86686001.800 7       428.779          44.812    21169607.160    86686003.798 7       428.779          47.312
G08  21983527.040   115524214.687 7      3865.727          44.687    21983526.960   115524214.687 5      3865.727          34.062    21983535.100    90018902.984 5      3012.255          33.937    21983534.640    90018896.996 7      3012.255          47.125
R11  20644875.200   110319948.451 8      -670.323          48.000    20644874.480   110319948.446 7      -670.323          47.375    20644884.640    85804442.976 7      -521.362          46.937    20644884.520    85804443.974 7      -521.362          45.875
G07  25363808.000   133287670.757 6      5103.956          38.125    25363808.580   133287670.761 3      5103.956          20.562    25363813.420   103860548.690 3      3977.109          20.687    25363812.940   103860584.698 6      3977.109          36.125
> 2024 05 10 11 24 59.0000000  0 15
R21  22842372.460   122234145.209 6     -1030.091          38.812    22842370.920   122234145.214 6     -1030.091          38.875    22842386.480    95071057.929 7      -801.182          47.437    22842386.280    95071056.931 7      -801.182          47.312
G27  20694144.180   108748457.990 7      2415.603          47.312    20694143.380   108748457.994 7      2415.603          47.625    20694149.040    84739078.238 7      1882.288          47.375    20694149.840    84739079.246 8      1882.288          49.000
R23  20640883.820   110414816.603 7      4006.212          44.750    20640882.200   110414816.607 7      4006.212          43.812
G18  24573435.560   129134275.255 7      -953.703          42.437    24573434.040   129134275.263 5      -953.703          31.250    24573444.160   100624138.405 5      -743.145          31.000    24573444.620   100624142.391 7      -743.145          47.062
R12  19228586.420   102715650.911 8      3666.435          48.812    19228585.880   102715650.909 8      3666.435          48.812    19228595.460    79889987.432 8      2851.671          48.500    19228595.360    79889988.436 8      2851.671          48.812
G16  20298853.320   106671189.050 7      2618.473          46.750    20298851.520   106671189.062 6      2618.473          40.000    20298854.820    83120414.531 6      2040.369          39.312
G10  22570508.660   118608821.763 7      4060.484          46.062    22570506.380   118608821.760 7      4060.484          44.000    22570515.800    92422492.315 7      3164.013          44.125    22570516.380    92422490.317 7      3164.013          45.437
G31  23712602.300   124610551.112 7      -970.784          45.500    23712601.420   124610551.117 6      -970.784          40.500    23712611.940    97099169.068 6      -756.455          40.437    23712612.520    97099170.066 7      -756.455          44.000
G21  22276460.640   117063598.326 7      5375.509          42.312    22276458.360   117063598.329 4      5375.509          29.125    22276466.560    91218416.878 4      4188.708          29.000
R22  19671095.220   105005644.009 7       787.179          47.875    19671095.240   105005644.013 8       787.179          48.812    19671102.160    81671081.414 8       612.250          48.312    19671102.380    81671083.409 8       612.250          48.312
G23  22934203.820   120520052.197 7      2336.014          44.312    22934202.800   120520052.197 5      2336.014          32.187    22934210.360    93911758.822 5      1820.271          31.937    22934210.620    93911759.815 7      1820.271          45.812
G26  21169495.980   111246453.018 7       549.669          46.937    21169494.420   111246453.020 7       549.669          45.937    21169502.260    86685573.268 7       428.314          45.687    21169502.580    86685575.270 8       428.314          48.000
G08  21982791.520   115520349.070 7      3865.420          44.687    21982791.360   115520349.070 5      3865.420          34.375    21982799.360    90015890.815 5      3012.015          33.937    21982799.140    90015884.822 7      3012.015          47.250
R11  20645000.720   110320619.082 8      -670.980          48.062    20645000.100   110320619.080 7      -670.980          47.750    20645010.260    85804964.567 8      -521.873          48.062    20645010.100    85804965.565 7      -521.873          47.125
G07  25362837.100   133282567.148 6      5103.192          37.937    25362837.300   133282567.155 3      5103.192          21.125    25362842.220   103856571.852 3      3976.513          20.687    25362842.660   103856607.858 6      3976.513          36.125
> 2024 05 10 11 25  0.0000000  0 15
R21  22842565.220   122235175.546 6     -1030.025          38.812    22842563.200   122235175.542 6     -1030.025          38.875    22842579.220    95071859.290 8      -801.130          49.062    22842578.560    95071858.291 8      -801.130          49.062
G27  20693684.460   108746042.294 7      2415.726          47.250    20693683.580   108746042.299 8      2415.726          48.687    20693689.400    84737195.879 8      1882.384          48.812    20693689.920    84737196.882 8      1882.384          49.750
R23  20640134.940   110410810.584 7      4005.914          43.687    20640133.200   110410810.596 7      4005.914          43.187
G18  24573616.940   129135228.845 7      -953.376          42.812    24573615.560   129135228.852 5      -953.376          31.250    24573625.620   100624881.455 5      -742.891          31.000    24573626.180   100624885.448 7      -742.891          47.750
R12  19227900.000   102711984.905 8      3665.793          48.125    19227899.860   102711984.895 8      3665.793          48.000    19227909.080    79887136.090 8      2851.172          50.812    19227909.100    79887137.092 8      2851.172          51.625
G16  20298355.100   106668570.739 7      2618.300          46.937    20298353.320   106668570.749 6      2618.300          40.437    20298356.620    83118374.286 6      2040.234          39.750
G10  22569735.880   118604761.438 7      4060.182          46.312    22569733.760   118604761.438 7      4060.182          45.062    22569742.920    92419328.428 7      3163.778          44.937    22569743.160    92419326.438 7      3163.778          46.000
G31  23712787.040   124611521.819 7      -970.530          45.062    23712786.120   124611521.829 6      -970.530          40.687    23712796.520    97099925.456 6      -756.257          41.437    23712796.740    97099926.465 7      -756.257          44.125
G21  22275437.680   117058222.977 6      5375.309          41.625    22275435.480   117058222.982 4      5375.309          28.937    22275443.580    91214228.298 4      4188.552          29.000
R22  19670948.040   105004856.943 8       787.036          48.562    19670948.000   105004856.941 8       787.036          49.062    19670954.660    81670469.241 8       612.139          50.937    19670954.720    81670471.236 8       612.139          51.250
G23  22933759.140   120517716.479 7      2335.661          44.062    22933758.320   120517716.478 5      2335.661          32.187    22933765.880    93909938.777 5      1819.996          31.937    22933766.120    93909939.781 7      1819.996          46.750
G26  21169391.460   111245903.496 7       549.481          47.312    21169389.940   111245903.501 7       549.481          46.937    21169397.580    86685145.067 7       428.167          46.875    21169398.080    86685147.073 8       428.167          48.187
G08  21982055.740   115516483.595 7      3865.648          43.812    21982055.820   115516483.594 5      3865.648          34.375    21982063.840    90012878.758 5      3012.193          34.250    21982063.500    90012872.766 7      3012.193          47.687
R11  20645126.460   110321290.309 7      -671.328          47.812    20645125.900   110321290.316 7      -671.328          47.812    20645135.980    85805486.631 8      -522.144          49.687    20645135.680    85805487.629 8      -522.144          49.750
G07  25361866.100   133277463.814 6      5103.234          38.437    25361865.980   133277463.819 3      5103.234          21.125    25361871.140   103852595.225 3      3976.546          20.687    25361871.140   103852631.216 6      3976.546          36.125
> 2024 05 10 11 25  1.0000000  0 15
R21  22842757.700   122236205.872 6     -1030.248          38.812    22842756.480   122236205.860 6     -1030.248          38.750    22842771.560    95072660.640 8      -801.304          49.187    22842771.020    95072659.645 8      -801.304          49.250
G27  20693224.740   108743626.844 7      2415.367          47.250    20693223.920   108743626.851 8      2415.367          49.375    20693229.760    84735313.709 8      1882.104          49.187    20693230.380    84735314.715 8      1882.104          50.125
R23  20639386.280   110406805.164 7      4005.228          44.187    20639384.540   110406805.176 7      4005.228          43.625
G18  24573798.800   129136182.573 6      -953.566          41.937    24573797.040   129136182.578 5      -953.566          31.250    24573807.160   100625624.616 5      -743.038          31.000    24573808.000   100625628.605 7      -743.038          47.875
R12  19227213.900   102708319.700 8      3664.835          48.062    19227213.700   102708319.696 8      3664.835          50.250    19227223.060    79884285.381 8      2850.427          50.875    19227222.800    79884286.381 8      2850.427          52.062
G16  20297857.040   106665952.927 7      2617.630          46.562    20297855.180   106665952.934 6      2617.630          40.687    20297858.480    83116334.431 6      2039.711          40.687
G10  22568963.220   118600701.550 7      4059.648          46.937    22568961.140   118600701.550 7      4059.648          45.250    22568970.520    92416164.885 7      3163.362          45.500    22568970.640    92416162.893 7      3163.362          45.937
G31  23712971.640   124612492.653 7      -970.877          45.812    23712970.740   124612492.661 6      -970.877          41.062    23712981.420    97100681.937 6      -756.528          41.062    23712981.740    97100682.942 7      -756.528          44.625
G21  22274414.620   117052848.116 6      5374.559          41.812    22274412.700   117052848.123 4      5374.559          28.937    22274420.600    91210040.101 4      4187.968          29.000
R22  19670800.600   105004070.360 8       786.382          49.875    19670800.480   105004070.361 8       786.382          49.187    19670807.420    81669857.456 8       611.631          51.062    19670807.260    81669859.454 8       611.631          51.312
G23  22933315.040   120515381.412 7      2334.768          44.375    22933314.100   120515381.414 5      2334.768          32.562    22933321.580    93908119.247 5      1819.300          32.312    22933321.820    93908120.250 7      1819.300          46.500
G26  21169287.000   111245354.450 7       548.829          47.937    21169285.440   111245354.449 7       548.829          47.250    21169293.120    86684717.235 7       427.659          47.125    21169293.740    86684719.237 8       427.659          48.312
G08  21981320.360   115512618.348 7      3865.172          44.687    21981320.260   115512618.348 5      3865.172          34.687    21981328.300    90009866.882 5      3011.822          34.312    21981327.860    90009860.889 7      3011.822          47.812
R11  20645252.180   110321962.183 8      -672.125          49.125    20645251.840   110321962.195 8      -672.125          48.062    20645261.600    85806009.195 8      -522.764          49.625    20645261.320    85806010.191 8      -522.764          50.625
G07  25360895.020   133272360.860 6      5102.874          37.937    25360894.900   133272360.865 3      5102.874          21.125    25360900.040   103848618.894 3      3976.265          20.687    25360899.620   103848654.913 6      3976.265          36.125
> 2024 05 10 11 25  2.0000000  0 15
R21  22842949.760   122237236.195 6     -1030.294          38.812    22842948.040   122237236.202 6     -1030.294          38.750    22842964.180    95073462.010 8      -801.340          49.250    22842963.820    95073461.012 8      -801.340          49.000
G27  20692765.360   108741211.708 7      2414.999          47.812    20692764.280   108741211.710 8      2414.999          49.625    20692770.160    84733431.781 8      1881.817          49.187    20692770.940    84733432.789 8      1881.817          49.937
R23  20638637.340   110402800.407 7      4004.508          45.750    20638635.960   110402800.430 7      4004.508          43.625
G18  24573980.280   129137136.512 7      -954.015          42.625    24573978.780   129137136.517 5      -954.015          31.562    24573988.520   100626367.941 5      -743.389          31.375    24573989.440   100626371.932 7      -743.389          47.250
R12  19226528.120   102704655.372 8      3663.894          50.250    19226527.760   102704655.370 8      3663.894          49.812    19226536.940    79881435.348 8      2849.696          51.000    19226536.940    79881436.348 8      2849.696          51.312
G16  20297359.000   106663335.662 7      2617.051          47.250    20297357.080   106663335.672 6      2617.051          40.500    20297360.440    83114295.004 6      2039.260          39.812
G10  22568190.840   118596642.206 7      4059.026          47.812    22568188.700   118596642.209 7      4059.026          45.312    22568198.080    92413001.762 7      3162.878          45.187    22568198.360    92412999.768 7      3162.878          45.875
G31  23713156.080   124613463.594 7      -971.022          45.500    23713155.540   124613463.599 6      -971.022          41.250    23713166.120    97101438.496 6      -756.640          41.062    23713166.940    97101439.504 7      -756.640          44.375
G21  22273391.940   117047473.781 7      5374.041          42.312    22273389.880   117047473.786 4      5374.041          28.937    22273397.920    91205852.309 4      4187.564          29.000
R22  19670653.440   105003284.306 8       785.836          50.187    19670652.900   105003284.312 8       785.836          50.000    19670659.980    81669246.084 8       611.206          51.125    19670660.020    81669248.080 8       611.206          50.937
G23  22932870.680   120513047.020 7      2334.020          44.875    22932869.740   120513047.025 5      2334.020          32.562    22932877.300    93906300.240 5      1818.717          32.312    22932877.660    93906301.245 7      1818.717          46.750
G26  21169182.480   111244805.924 7       548.284          47.437    21169181.060   111244805.931 7       548.284          47.687    21169188.760    86684289.814 7       427.234          47.375    21169189.380    86684291.818 8       427.234          48.437
G08  21980584.980   115508753.332 7      3864.978          44.375    21980584.840   115508753.332 5      3864.978          34.500    21980592.740    90006855.183 5      3011.671          34.312    21980592.400    90006849.189 8      3011.671          48.062
R11  20645377.720   110322634.751 8      -672.961          49.500    20645377.860   110322634.760 8      -672.961          49.000    20645387.420    85806532.287 8      -523.414          49.250    20645387.460    85806533.287 8      -523.414          50.125
G07  25359923.600   133267258.370 6      5102.249          39.625    25359923.960   133267258.375 3      5102.249          21.125    25359929.020   103844642.928 3      3975.779          20.687    25359928.600   103844678.926 5      3975.779          35.875
> 2024 05 10 11 25  3.0000000  0 15
R21  22843142.360   122238266.512 6     -1030.350          39.437    22843140.960   122238266.514 6     -1030.350          38.750    22843156.860    95074263.362 8      -801.383          48.125    22843156.200    95074262.364 7      -801.383          47.562
G27  20692305.780   108738796.783 7      2414.754          47.875    20692304.700   108738796.790 8      2414.754          48.750    20692310.680    84731550.025 8      1881.626          48.312    20692311.300    84731551.031 8      1881.626          48.875
R23  20637888.680   110398796.237 7      4003.838          45.187    20637887.400   110398796.254 7      4003.838          44.750
G18  24574161.800   129138090.519 7      -954.039          42.250    24574160.260   129138090.524 5      -954.039          31.562    24574170.120   100627111.317 5      -743.407          31.375    24574170.840   100627115.310 7      -743.407          46.937
R12  19225842.120   102700991.831 8      3663.110          50.187    19225842.000   102700991.835 8      3663.110          49.750    19225851.100    79878585.931 8      2849.086          49.125    19225851.120    79878586.931 8      2849.086          49.812
G16  20296861.020   106660718.867 7      2616.520          47.250    20296859.120   106660718.872 6      2616.520          40.125    20296862.380    83112255.941 6      2038.847          39.375
G10  22567418.420   118592583.267 8      4058.747          48.000    22567416.300   118592583.266 7      4058.747          44.625    22567425.680    92409838.952 7      3162.660          44.625    22567425.740    92409836.960 7      3162.660          45.562
G31  23713341.080   124614434.604 7      -971.107          45.937    23713340.300   124614434.612 6      -971.107          41.125    23713351.120    97102195.119 6      -756.707          41.125    23713351.560    97102196.122 7      -756.707          44.437
G21  22272369.760   117042099.879 7      5373.671          42.437    22272367.240   117042099.884 4      5373.671          28.937    22272375.120    91201664.859 4      4187.276          29.062
R22  19670505.880   105002498.718 8       785.276          50.187    19670505.840   105002498.724 8       785.276          49.750    19670512.940    81668635.076 8       610.770          49.750    19670513.080    81668637.074 8       610.770          49.687
G23  22932426.160   120510713.264 7      2333.329          44.437    22932425.480   120510713.269 5      2333.329          32.125    22932433.180    93904481.729 5      1818.178          32.062    22932433.620    93904482.732 7      1818.178          46.187
G26  21169078.320   111244257.860 7       547.716          47.375    21169076.780   111244257.868 7       547.716          47.062    21169084.440    86683862.749 7       426.791          46.750    21169085.100    86683864.754 7       426.791          47.750
G08  21979849.400   115504888.530 7      3864.628          44.062    21979849.340   115504888.529 5      3864.628          34.500    21979857.320    90003843.653 5      3011.398          34.187    21979857.180    90003837.654 7      3011.398          46.875
R11  20645504.020   110323307.929 8      -673.527          49.187    20645503.840   110323307.930 8      -673.527          48.875    20645513.220    85807055.863 8      -523.855          48.312    20645513.100    85807056.864 8      -523.855          48.250
G07  25358952.600   133262156.219 6      5101.784          39.187    25358953.080   133262156.227 3      5101.784          21.125    25358958.160   103840667.224 3      3975.416          21.187    25358958.240   103840703.239 5      3975.416          35.875
> 2024 05 10 11 25  4.0000000  0 15
R21  22843334.800   122239296.919 6     -1030.690          39.437    22843333.600   122239296.928 6     -1030.690          38.750    22843349.380    95075064.781 8      -801.648          49.062    22843348.780    95075063.782 8      -801.648          49.000
G27  20691846.260   108736382.186 7      2414.318          47.812    20691845.220   108736382.188 8      2414.318          49.312    20691851.280    84729668.519 8      1881.287          49.062    20691851.760    84729669.527 8      1881.287          49.687
R23  20637140.000   110394792.756 7      4002.903          45.187    20637138.920   110394792.776 7      4002.903          44.500
G18  24574343.420   129139044.747 7      -954.451          42.875    24574341.960   129139044.751 5      -954.451          31.562    24574351.840   100627854.865 5      -743.728          31.375    24574352.460   100627858.858 7      -743.728          47.562
R12  19225156.220   102697329.228 8      3662.013          48.812    19225156.400   102697329.229 8      3662.013          48.625    19225165.520    79875737.238 8      2848.232          50.812    19225165.440    79875738.238 8      2848.232          51.437
G16  20296362.980   106658102.634 7      2615.846          47.000    20296361.380   106658102.644 6      2615.846          40.687    20296364.460    83110217.324 6      2038.321          40.062
G10  22566645.980   118588524.884 7      4058.057          46.312    22566643.980   118588524.887 7      4058.057          45.125    22566653.300    92406676.588 7      3162.122          45.500    22566653.540    92406674.592 7      3162.122          45.437
G31  23713526.060   124615405.782 7      -971.347          45.625    23713525.100   124615405.792 6      -971.347          41.062    23713535.980    97102951.869 6      -756.894          41.500    23713536.320    97102952.868 7      -756.894          44.187
G21  22271347.020   117036726.561 6      5373.030          40.812    22271344.560   117036726.568 4      5373.030          28.812    22271352.640    91197477.860 4      4186.777          29.062
R22  19670359.020   105001713.712 8       784.615          48.437    19670358.840   105001713.713 8       784.615          49.437    19670365.780    81668024.506 8       610.256          51.062    19670365.960    81668026.504 8       610.256          51.437
G23  22931982.520   120508380.215 7      2332.532          44.687    22931981.520   120508380.219 5      2332.532          32.125    22931989.260    93902663.764 5      1817.558          32.062    22931989.560    93902664.762 7      1817.558          46.750
G26  21168974.100   111243710.336 7       547.124          47.500    21168972.620   111243710.341 7       547.124          47.375    21168980.240    86683436.101 7       426.331          47.250    21168980.740    86683438.105 8       426.331          48.375
G08  21979114.160   115501023.982 7      3864.313          44.125    21979113.920   115501023.982 5      3864.313          34.500    21979121.820    90000832.313 5      3011.153          34.187    21979121.260    90000826.316 7      3011.153          47.687
R11  20645630.100   110323981.830 8      -674.422          48.437    20645630.060   110323981.834 8      -674.422          48.000    20645639.420    85807580.005 8      -524.551          49.250    20645639.380    85807581.009 8      -524.551          49.312
G07  25357982.260   133257054.523 6      5101.348          39.187    25357982.140   133257054.531 3      5101.348          21.125    25357987.320   103836691.879 3      3975.076          21.187    25357987.380   103836727.881 5      3975.076          35.875
> 2024 05 10 11 25  5.0000000  0 15
R21  22843527.460   122240327.413 6     -1030.323          39.437    22843525.760   122240327.414 6     -1030.323          39.750    22843541.940    95075866.270 8      -801.362          48.750    22843541.240    95075865.272 8      -801.362          48.437
G27  20691387.020   108733967.947 7      2414.335          47.250    20691385.740   108733967.944 8      2414.335          48.562    20691391.820    84727787.290 8      1881.300          48.625    20691392.520    84727788.295 8      1881.300          49.812
R23  20636392.180   110390790.010 7      4002.512          43.937    20636390.580   110390790.017 7      4002.512          43.375
G18  24574525.300   129139999.208 7      -954.347          42.750    24574523.440   129139999.216 5      -954.347          31.125    24574533.440   100628598.597 5      -743.647          31.000    24574534.220   100628602.596 7      -743.647          47.000
R12  19224471.040   102693667.567 8      3661.433          48.625    19224470.900   102693667.566 8      3661.433          48.875    19224479.860    79872889.280 8      2847.781          50.562    19224479.880    79872890.280 8      2847.781          50.875
G16  20295865.260   106655487.035 7      2615.530          46.250    20295863.560   106655487.043 6      2615.530          40.125    20295866.760    83108179.189 6      2038.076          39.625
G10  22565874.000   118584467.093 7      4057.841          47.187    22565871.940   118584467.095 7      4057.841          44.437    22565881.200    92403514.673 7      3161.954          44.937    22565881.520    92403512.679 7      3161.954          45.625
G31  23713711.020   124616377.188 7      -971.299          45.250    23713710.100   124616377.196 6      -971.299          40.937    23713720.920    97103708.790 6      -756.856          41.125    23713721.020    97103709.794 7      -756.856          44.625
G21  22270324.140   117031353.881 6      5372.403          41.437    22270322.080   117031353.888 4      5372.403          28.812    22270330.540    91193291.362 4      4186.288          29.062
R22  19670212.300   105000929.302 8       784.290          49.437    19670211.700   105000929.303 8       784.290          48.625    19670218.900    81667414.413 8       610.004          50.562    19670218.900    81667416.411 8       610.004          51.062
G23  22931538.720   120506047.927 7      2332.102          44.562    22931537.720   120506047.930 5      2332.102          32.125    22931545.320    93900846.393 5      1817.223          32.062    22931545.560    93900847.397 7      1817.223          46.812
G26  21168870.320   111243163.407 7       546.880          46.937    21168868.560   111243163.412 7       546.880          47.250    21168876.120    86683009.921 7       426.140          46.875    21168876.600    86683011.929 8       426.140          48.437
G08  21978378.440   115497159.760 7      3864.278          44.187    21978378.620   115497159.760 5      3864.278          34.375    21978386.440    89997821.233 5      3011.125          34.125    21978386.160    89997815.240 8      3011.125          48.187
R11  20645756.320   110324656.483 8      -674.833          48.750    20645756.240   110324656.484 7      -674.833          47.687    20645765.560    85808104.733 8      -524.870          48.875    20645765.760    85808105.737 8      -524.870          49.625
G07  25357011.680   133251953.342 6      5101.256          38.250    25357011.460   133251953.347 3      5101.256          21.125    25357016.860   103832716.928 3      3975.005          21.187    25357015.980   103832752.936 5      3975.005          35.875
> 2024 05 10 11 25  6.0000000  0 15
R21  22843719.480   122241357.814 6     -1030.599          39.437    22843718.500   122241357.812 6     -1030.599          39.750    22843734.820    95076667.679 7      -801.577          47.562    22843734.220    95076666.680 7      -801.577          47.375
G27  20690927.580   108731553.891 7      2413.707          47.625    20690926.340   108731553.893 7      2413.707          47.250    20690932.460    84725906.214 7      1880.811          47.500    20690933.040    84725907.221 8      1880.811          49.250
R23  20635643.960   110386787.760 7      4001.710          43.812    20635642.560   110386787.775 7      4001.710          43.375
G18  24574707.100   129140953.701 7      -954.702          42.437    24574704.940   129140953.706 5      -954.702          31.125    24574715.200   100629342.354 5      -743.924          31.000    24574715.920   100629346.355 7      -743.924          47.312
R12  19223785.420   102690006.618 8      3660.368          49.500    19223785.740   102690006.621 8      3660.368          48.875    19223794.540    79870041.876 8      2846.953          48.937    19223794.300    79870042.876 8      2846.953          49.437
G16  20295367.720   106652871.822 7      2614.823          46.687    20295365.940   106652871.829 6      2614.823          40.375    20295369.020    83106141.360 6      2037.525          40.000
G10  22565101.800   118580409.693 7      4057.016          46.750    22565099.840   118580409.688 7      4057.016          44.437    22565109.120    92400353.057 7      3161.311          44.562    22565109.140    92400351.061 7      3161.311          45.312
G31  23713895.960   124617348.582 7      -971.668          45.437    23713894.920   124617348.589 6      -971.668          41.062    23713905.780    97104465.706 6      -757.144          40.812    23713906.120    97104466.709 7      -757.144          44.375
G21  22269302.120   117025981.513 6      5371.969          41.750    22269299.720   117025981.521 4      5371.969          28.812    22269308.100    91189105.108 4      4185.950          29.062
R22  19670065.480   105000145.271 8       783.648          48.375    19670064.500   105000145.269 8       783.648          49.125    19670072.080    81666804.609 8       609.504          48.812    19670071.980    81666806.605 8       609.504          49.187
G23  22931094.940   120503716.179 7      2331.322          44.812    22931094.020   120503716.184 5      2331.322          31.937    22931101.580    93899029.449 5      1816.614          31.500    22931102.080    93899030.448 7      1816.614          46.750
G26  21168766.060   111242616.865 7       546.140          47.250    21168764.620   111242616.873 7       546.140          46.062    21168772.200    86682584.042 7       425.564          46.000    21168772.700    86682586.046 7       425.564          47.625
G08  21977642.940   115493295.656 7      3863.811          44.125    21977643.360   115493295.656 5      3863.811          34.375    21977651.060    89994810.245 5      3010.762          34.250    21977650.920    89994804.250 7      3010.762          47.750
R11  20645882.460   110325331.699 8      -675.739          48.437    20645882.460   110325331.700 7      -675.739          47.125    20645891.760    85808629.890 7      -525.575          47.812    20645892.240    85808630.897 8      -525.575          48.625
G07  25356040.920   133246852.445 6      5100.833          39.000    25356040.760   133246852.449 3      5100.833          21.125    25356046.220   103828742.205 3      3974.675          21.187    25356045.380   103828778.193 5      3974.675          35.875
> 2024 05 10 11 25  7.0000000  0 15
R21  22843912.880   122242388.153 6     -1030.307          38.687    22843911.220   122242388.138 6     -1030.307          39.750    22843927.520    95077469.035 8      -801.350          49.375    22843926.640    95077468.032 8      -801.350          48.812
G27  20690468.160   108729140.001 7      2413.757          47.250    20690466.840   108729140.009 8      2413.757          48.875    20690473.080    84724025.260 8      1880.850          49.000    20690473.660    84724026.270 8      1880.850          50.312
R23  20634896.080   110382786.082 7      4001.402          44.250    20634894.480   110382786.091 7      4001.402          43.250
G18  24574888.600   129141908.286 7      -954.657          42.437    24574886.700   129141908.294 5      -954.657          31.125    24574896.940   100630086.178 5      -743.889          31.000    24574897.200   100630090.177 7      -743.889          47.562
R12  19223100.380   102686346.480 8      3659.661          49.062    19223100.400   102686346.478 8      3659.661          48.562    19223109.400    79867195.100 8      2846.403          50.625    19223109.220    79867196.098 8      2846.403          51.000
G16  20294869.860   106650257.063 7      2614.493          46.250    20294868.320   106650257.068 6      2614.493          40.750    20294871.580    83104103.886 6      2037.267          40.312
G10  22564329.780   118576352.693 7      4056.721          47.062    22564327.620   118576352.693 7      4056.721          45.000    22564336.980    92397191.762 7      3161.081          45.250    22564337.000    92397189.766 7      3161.081          45.875
G31  23714080.740   124618320.012 7      -971.528          45.125    23714079.780   124618320.019 6      -971.528          41.187    23714090.540    97105222.650 6      -757.035          41.375    23714090.840    97105223.651 7      -757.035          44.687
G21  22268280.200   117020609.614 6      5371.647          41.875    22268277.320   117020609.624 4      5371.647          28.812    22268285.920    91184919.217 4      4185.699          29.062
R22  19669918.560   104999361.698 8       783.268          48.750    19669917.880   104999361.697 8       783.268          48.750    19669925.220    81666195.161 8       609.209          51.250    19669925.100    81666197.161 8       609.209          51.125
G23  22930651.420   120501385.048 7      2330.838          44.375    22930650.360   120501385.052 5      2330.838          31.937    22930657.980    93897212.981 5      1816.237          31.500    22930658.400    93897213.976 7      1816.237          46.625
G26  21168662.140   111242070.738 7       545.907          47.875    21168660.660   111242070.746 7       545.907          47.750    21168668.360    86682158.484 7       425.382          47.375    21168668.460    86682160.489 8       425.382          48.375
G08  21976907.680   115489431.705 7      3863.764          43.937    21976907.900   115489431.704 5      3863.764          33.937    21976915.800    89991799.376 5      3010.725          34.250    21976915.640    89991793.377 7      3010.725          47.875
R11  20646008.940   110326007.503 7      -676.136          47.812    20646008.900   110326007.512 8      -676.136          48.000    20646018.060    85809155.522 8      -525.883          49.000    20646018.460    85809156.522 8      -525.883          49.312
G07  25355070.180   133241751.886 6      5100.443          39.312    25355070.180   133241751.891 3      5100.443          21.125    25355075.760   103824767.740 3      3974.371          21.187    25355075.120   103824803.727 5      3974.371          35.937
> 2024 05 10 11 25  8.0000000  0 15
R21  22844106.080   122243418.481 6     -1030.303          38.687    22844103.580   122243418.488 6     -1030.303          38.812    22844119.720    95078270.406 8      -801.347          48.375    22844119.460    95078269.407 7      -801.347          47.625
G27  20690008.720   108726726.382 7      2413.587          47.750    20690007.660   108726726.392 7      2413.587          47.937    20690013.720    84722144.522 7      1880.717          47.812    20690014.480    84722145.530 8      1880.717          48.437
R23  20634148.140   110378785.027 7      4000.832          44.812    20634147.120   110378785.036 7      4000.832          43.500
G18  24575070.060   129142862.992 7      -954.591          42.875    24575068.500   129142862.997 5      -954.591          31.312    24575078.440   100630830.099 5      -743.837          31.125    24575078.860   100630834.089 7      -743.837          47.062
R12  19222415.460   102682687.186 8      3658.970          48.937    19222415.440   102682687.184 8      3658.970          49.187    19222424.360    79864348.985 8      2845.866          49.750    19222424.240    79864349.985 8      2845.866          49.500
G16  20294372.480   106647642.788 7      2614.181          46.437    20294370.800   106647642.793 6      2614.181          40.437    20294374.080    83102066.789 6      2037.024          39.812
G10  22563557.820   118572296.155 7      4056.397          46.000    22563555.780   118572296.152 7      4056.397          44.187    22563565.100    92394030.827 7      3160.829          44.375    22563565.120    92394028.833 7      3160.829          45.562
G31  23714265.540   124619291.502 7      -971.340          45.125    23714264.700   124619291.510 6      -971.340          40.875    23714275.540    97105979.639 6      -756.888          40.750    23714275.640    97105980.643 7      -756.888          44.187
G21  22267258.440   117015238.203 6      5371.193          41.875    22267255.280   117015238.213 4      5371.193          28.812    22267263.960    91180733.704 4      4185.345          28.750
R22  19669771.980   104998578.598 8       782.916          49.437    19669771.040   104998578.599 8       782.916          48.875    19669778.600    81665586.094 8       608.934          50.000    19669778.560    81665588.092 8       608.934          49.687
G23  22930207.840   120499054.539 7      2330.348          44.750    22930207.000   120499054.541 5      2330.348          32.000    22930214.460    93895397.000 5      1815.855          32.125    22930215.040    93895398.004 7      1815.855          46.375
G26  21168558.500   111241525.105 7       545.485          47.312    21168556.840   111241525.116 7       545.485          46.750    21168564.460    86681733.318 7       425.053          46.187    21168564.880    86681735.322 8       425.053          48.125
G08  21976172.660   115485567.927 7      3863.822          43.500    21976172.700   115485567.929 5      3863.822          33.937    21976180.540    89988788.644 5      3010.770          34.250    21976180.420    89988782.651 7      3010.770          47.312
R11  20646135.820   110326683.975 8      -676.685          48.500    20646135.220   110326683.984 8      -676.685          48.062    20646144.700    85809681.663 8      -526.311          48.375    20646144.980    85809682.665 8      -526.311          48.625
G07  25354099.240   133236651.719 6      5100.108          39.187    25354099.600   133236651.724 3      5100.108          21.625    25354105.280   103820793.584 3      3974.110          21.187    25354106.260   103820829.602 5      3974.110          35.937
> 2024 05 10 11 25  9.0000000  0 15
R21  22844298.500   122244448.671 6     -1029.931          38.687    22844296.380   122244448.667 6     -1029.931          38.812    22844312.340    95079071.647 7      -801.057          46.875    22844311.760    95079070.644 7      -801.057          46.875
G27  20689549.500   108724312.854 7      2413.503          47.687    20689548.400   108724312.862 7      2413.503          47.375    20689554.560    84720263.847 7      1880.651          47.062    20689555.180    84720264.857 8      1880.651          48.875
R23  20633400.420   110374784.381 7      4000.577          44.000    20633399.320   110374784.391 7      4000.577          43.500
G18  24575252.040   129143817.672 7      -954.507          42.250    24575250.320   129143817.674 5      -954.507          31.312    24575260.060   100631573.997 5      -743.772          31.125    24575260.420   100631577.991 7      -743.772          46.687
R12  19221730.780   102679028.567 7      3658.363          47.875    19221730.480   102679028.571 8      3658.363          48.812    19221739.120    79861503.395 8      2845.394          48.125    19221739.260    79861504.397 8      2845.394          48.187
G16  20293875.200   106645028.871 7      2613.830          46.437    20293873.420   106645028.881 6      2613.830          40.312    20293876.560    83100029.970 6      2036.750          39.937
G10  22562785.840   118568239.904 7      4056.221          46.000    22562783.760   118568239.911 7      4056.221          44.250    22562793.320    92390870.124 7      3160.692          43.750    22562793.240    92390868.132 7      3160.692          45.375
G31  23714450.460   124620262.980 7      -971.383          45.375    23714449.400   124620262.987 6      -971.383          40.500    23714460.460    97106736.624 6      -756.922          41.187    23714460.560    97106737.626 7      -756.922          44.062
G21  22266236.360   117009867.086 6      5371.065          41.875    22266233.260   117009867.102 4      5371.065          28.687    22266241.700    91176548.426 4      4185.246          28.750
R22  19669625.160   104997795.822 8       782.664          48.625    19669624.460   104997795.825 8       782.664          48.375    19669632.020    81664977.249 8       608.739          48.125    19669632.020    81664979.247 7       608.739          47.875
G23  22929764.520   120496724.546 7      2329.764          44.812    22929763.680   120496724.553 5      2329.764          32.000    22929771.200    93893581.423 5      1815.401          32.125    22929771.460    93893582.424 7      1815.401          46.187
G26  21168454.720   111240979.782 7       545.279          46.812    21168453.180   111240979.787 7       545.279          45.437    21168460.680    86681308.385 7       424.893          45.250    21168461.220    86681310.389 7       424.893          47.500
G08  21975437.420   115481704.236 7      3863.741          43.875    21975437.600   115481704.235 5      3863.741          33.875    21975445.320    89985777.975 5      3010.708          34.250    21975444.880    89985771.985 7      3010.708          46.687
R11  20646262.560   110327360.930 8      -677.149          48.562    20646261.880   110327360.937 7      -677.149          47.500    20646271.100    85810208.171 7      -526.671          47.187    20646271.420    85810209.175 7      -526.671          46.375
G07  25353129.180   133231551.789 6      5099.706          39.937    25353129.060   133231551.794 3      5099.706          21.625    25353134.760   103816819.612 3      3973.797          21.187    25353136.160   103816855.628 5      3973.797          35.937
> 2024 05 10 11 25 10.0000000  0 15
R21  22844490.960   122245478.871 6     -1030.246          38.687    22844488.940   122245478.875 6     -1030.246          38.812    22844504.600    95079872.912 7      -801.303          46.000    22844504.260    95079871.911 7      -801.303          45.812
G27  20689090.100   108721899.563 7      2413.288          47.062    20689088.920   108721899.568 7      2413.288          46.250    20689095.500    84718383.357 7      1880.484          46.000    20689095.840    84718384.370 8      1880.484          48.750
R23  20632652.480   110370784.364 7      3999.851          43.937    20632651.760   110370784.379 7      3999.851          43.937
G18  24575433.580   129144772.475 7      -954.785          42.812    24575431.960   129144772.477 5      -954.785          31.312    24575441.940   100632317.993 5      -743.988          31.125    24575442.200   100632322.000 7      -743.988          46.687
R12  19221045.720   102675370.753 8      3657.584          48.187    19221045.840   102675370.754 8      3657.584          49.000    19221054.460    79858658.426 7      2844.788          46.750    19221054.720    79858659.424 7      2844.788          46.812
G16  20293377.880   106642415.442 7      2613.275          47.625    20293376.200   106642415.452 6      2613.275          39.875    20293379.260    83097993.534 6      2036.318          39.312
G10  22562014.000   118564184.159 7      4055.626          46.625    22562012.080   118564184.159 7      4055.626          43.375    22562021.520    92387709.802 7      3160.228          43.187    22562021.920    92387707.808 7      3160.228          44.562
G31  23714635.420   124621234.515 7      -971.445          44.312    23714634.100   124621234.522 6      -971.445          40.312    23714645.340    97107493.646 6      -756.970          40.187    23714646.180    97107494.650 7      -756.970          43.625
G21  22265213.760   117004496.495 6      5370.506          41.062    22265211.320   117004496.511 4      5370.506          28.687    22265219.480    91172363.558 4      4184.810          28.750
R22  19669479.160   104997013.528 8       782.188          48.687    19669477.940   104997013.526 8       782.188          48.187    19669485.740    81664368.790 7       608.369          47.062    19669485.460    81664370.790 7       608.369          46.812
G23  22929321.400   120494395.178 7      2329.130          44.875    22929320.500   120494395.183 5      2329.130          31.875    22929327.920    93891766.329 5      1814.907          32.125    22929327.980    93891767.324 7      1814.907          45.750
G26  21168350.980   111240434.938 7       544.700          46.937    21168349.540   111240434.943 7       544.700          45.062    21168357.040    86680883.824 7       424.442          45.000    21168357.860    86680885.829 7       424.442          47.187
G08  21974702.360   115477840.723 7      3863.577          44.250    21974702.340   115477840.720 5      3863.577          33.812    21974710.020    89982767.442 5      3010.579          33.500    21974709.660    89982761.459 7      3010.579          46.312
R11  20646388.780   110328038.530 7      -677.854          47.625    20646388.600   110328038.528 7      -677.854          47.375    20646397.800    85810735.185 7      -527.219          46.062    20646398.520    85810736.187 7      -527.219          46.000
G07  25352158.500   133226452.208 6      5099.487          39.562    25352158.640   133226452.215 3      5099.487          21.625    25352164.360   103812845.915 3      3973.626          21.187    25352164.360   103812881.914 5      3973.626          35.937
> 2024 05 10 11 25 11.0000000  0 15
R21  22844683.280   122246508.862 6     -1029.877          38.500    22844681.680   122246508.863 6     -1029.877          38.812    22844697.160    95080674.010 7      -801.015          47.250    22844696.620    95080673.009 7      -801.015          46.687
G27  20688631.120   108719486.369 7      2413.168          47.125    20688629.780   108719486.374 7      2413.168          46.687    20688636.040    84716502.950 7      1880.391          46.687    20688636.800    84716503.964 8      1880.391          49.687
R23  20631904.480   110366784.775 7      3999.490          43.937    20631904.180   110366784.774 7      3999.490          43.937
G18  24575615.460   129145727.249 6      -954.713          41.937    24575613.720   129145727.254 5      -954.713          31.187    24575623.780   100633061.967 5      -743.932          30.812    24575624.160   100633065.972 7      -743.932          47.375
R12  19220361.260   102671713.575 7      3656.965          47.875    19220361.160   102671713.576 8      3656.965          48.937    19220369.840    79855813.958 8      2844.306          48.125    19220369.880    79855814.958 8      2844.306          48.312
G16  20292880.740   106639802.349 7      2612.986          47.500    20292879.020   106639802.354 6      2612.986          40.437    20292882.020    83095957.355 6      2036.093          39.562
G10  22561242.320   118560128.691 7      4055.362          46.375    22561240.260   118560128.690 7      4055.362          44.000    22561249.880    92384549.705 7      3160.022          43.937    22561250.100    92384547.715 7      3160.022          45.250
G31  23714820.080   124622205.995 7      -971.392          44.500    23714819.040   124622206.000 6      -971.392          40.500    23714830.300    97108250.623 6      -756.929          40.500    23714830.500    97108251.625 7      -756.929          44.312
G21  22264192.220   116999126.198 6      5370.237          40.875    22264189.280   116999126.214 4      5370.237          28.687    22264197.640    91168178.909 4      4184.600          28.750
R22  19669332.380   104996231.557 8       781.903          49.187    19669331.240   104996231.555 8       781.903          49.000    19669339.080    81663760.590 8       608.147          49.625    19669339.020    81663762.590 8       608.147          48.500
G23  22928878.120   120492066.293 7      2328.669          44.937    22928877.220   120492066.298 5      2328.669          31.875    22928884.660    93889951.618 5      1814.547          31.687    22928885.120    93889952.613 7      1814.547          46.250
G26  21168247.320   111239890.387 7       544.493          46.812    21168246.000   111239890.390 7       544.493          45.937    21168253.360    86680459.501 7       424.280          45.687    21168253.840    86680461.504 7       424.280          47.625
G08  21973967.180   115473977.273 7      3863.475          44.437    21973967.220   115473977.273 5      3863.475          33.812    21973974.660    89979756.968 5      3010.500          34.250    21973974.480    89979750.981 7      3010.500          47.187
R11  20646515.900   110328716.605 7      -678.332          47.875    20646515.340   110328716.598 7      -678.332          47.250    20646524.560    85811262.566 7      -527.591          47.000    20646525.220    85811263.572 8      -527.591          48.000
G07  25351188.680   133221352.897 6      5099.115          39.750    25351188.140   133221352.905 3      5099.115          21.625    25351194.080   103808872.424 3      3973.336          21.187    25351194.920   103808908.436 6      3973.336          36.375
> 2024 05 10 11 25 12.0000000  0 15
R21  22844876.240   122247538.821 6     -1030.042          38.500    22844874.340   122247538.809 6     -1030.042          38.812    22844889.560    95081475.071 8      -801.144          49.125    22844888.980    95081474.068 8      -801.144          48.875
G27  20688171.900   108717073.352 7      2412.838          46.812    20688170.640   108717073.354 8      2412.838          48.000    20688176.960    84714622.674 8      1880.133          48.187    20688177.720    84714623.684 8      1880.133          50.312
R23  20631157.100   110362785.707 7      3998.788          45.187    20631156.660   110362785.709 7      3998.788          43.812
G18  24575796.940   129146682.071 6      -954.866          41.875    24575795.340   129146682.076 5      -954.866          31.187    24575805.500   100633805.982 5      -744.052          30.812    24575806.100   100633809.980 7      -744.052          47.750
R12  19219676.500   102668057.147 8      3656.001          49.125    19219676.760   102668057.156 8      3656.001          48.875    19219685.140    79852970.074 8      2843.556          50.812    19219685.380    79852971.072 8      2843.556          50.750
G16  20292383.440   106637189.682 7      2612.415          47.250    20292381.860   106637189.684 6      2612.415          41.062    20292384.940    83093921.507 6      2035.648          40.562
G10  22560470.580   118556073.614 7      4054.923          46.812    22560468.520   118556073.616 7      4054.923          44.187    22560478.160    92381389.906 7      3159.680          44.562    22560478.280    92381387.914 7      3159.680          45.625
G31  23715004.980   124623177.470 7      -971.461          45.312    23715003.860   124623177.477 6      -971.461          40.562    23715014.900    97109007.608 6      -756.983          40.812    23715015.360    97109008.614 7      -756.983          44.750
G21  22263170.100   116993756.317 6      5369.764          41.687    22263167.160   116993756.330 4      5369.764          28.687    22263175.820    91163994.596 4      4184.232          28.750
R22  19669186.340   104995450.008 8       781.326          48.437    19669184.840   104995450.003 8       781.326          48.437    19669192.640    81663152.712 8       607.698          50.937    19669192.500    81663154.712 8       607.698          51.187
G23  22928434.860   120489737.974 7      2328.035          44.750    22928434.100   120489737.978 5      2328.035          32.250    22928441.480    93888137.341 5      1814.053          31.687    22928441.900    93888138.336 7      1814.053          46.562
G26  21168143.780   111239346.260 7       543.920          47.437    21168142.580   111239346.270 7       543.920          47.187    21168149.920    86680035.504 7       423.834          47.312    21168150.260    86680037.506 8       423.834          48.250
G08  21973231.960   115470113.934 7      3863.328          43.875    21973232.100   115470113.934 5      3863.328          34.812    21973239.560    89976746.578 5      3010.385          34.250    21973239.140    89976740.583 7      3010.385          47.250
R11  20646642.920   110329395.230 7      -678.965          47.625    20646642.400   110329395.231 7      -678.965          47.187    20646651.820    85811790.388 8      -528.084          48.687    20646652.180    85811791.392 8      -528.084          48.562
G07  25350218.560   133216253.860 6      5098.681          39.750    25350217.900   133216253.870 3      5098.681          21.625    25350223.580   103804899.152 3      3972.999          21.187    25350223.780   103804935.134 6      3972.999          36.375
> 2024 05 10 11 25 13.0000000  0 15
R21  22845068.320   122248568.580 6     -1029.738          38.500    22845066.800   122248568.576 6     -1029.738          38.812    22845082.000    95082275.992 8      -800.907          49.187    22845081.420    95082274.991 8      -800.907          48.437
G27  20687712.760   108714660.416 7      2412.799          47.000    20687711.340   108714660.426 8      2412.799          48.625    20687717.740    84712742.468 8      1880.103          48.812    20687718.600    84712743.482 8      1880.103          50.187
R23  20630409.700   110358787.097 7      3998.307          43.875    20630409.480   110358787.101 7      3998.307          43.687
G18  24575978.440   129147636.887 7      -954.926          42.312    24575977.100   129147636.889 5      -954.926          31.687    24575987.120   100634549.988 5      -744.098          30.812    24575987.820   100634553.981 7      -744.098          47.875
R12  19218992.060   102664401.424 8      3655.274          49.062    19218992.500   102664401.430 8      3655.274          49.062    19219000.900    79850126.736 8      2842.991          50.312    19219000.940    79850127.734 8      2842.991          51.000
G16  20291886.520   106634577.351 7      2612.063          47.000    20291884.680   106634577.359 6      2612.063          40.437    20291887.900    83091885.923 6      2035.374          40.187
G10  22559699.060   118552018.870 7      4054.512          46.812    22559697.040   118552018.875 7      4054.512          45.125    22559706.520    92378230.374 7      3159.360          45.000    22559706.600    92378228.378 7      3159.360          45.250
G31  23715189.880   124624148.897 7      -971.387          44.500    23715188.760   124624148.905 6      -971.387          40.750    23715199.780    97109764.546 6      -756.925          40.875    23715200.220    97109765.550 7      -756.925          44.500
G21  22262148.500   116988386.787 6      5369.262          41.875    22262145.380   116988386.797 4      5369.262          28.437    22262154.060    91159810.551 4      4183.841          28.375
R22  19669039.740   104994668.792 8       780.938          48.625    19669038.760   104994668.790 8       780.938          48.562    19669046.360    81662545.100 8       607.396          51.062    19669046.260    81662547.098 8       607.396          51.000
G23  22927991.900   120487410.148 7      2327.487          44.187    22927991.200   120487410.147 5      2327.487          32.250    22927998.480    93886323.451 5      1813.626          32.062    22927999.060    93886324.450 7      1813.626          46.937
G26  21168040.280   111238802.458 8       543.527          48.437    21168039.280   111238802.463 7       543.527          47.375    21168046.400    86679611.758 7       423.527          47.312    21168046.600    86679613.765 8       423.527          48.250
G08  21972496.740   115466250.658 7      3863.217          44.125    21972496.920   115466250.666 5      3863.217          34.812    21972504.360    89973736.239 5      3010.299          34.187    21972503.900    89973730.246 7      3010.299          47.812
R11  20646769.920   110330074.345 8      -679.445          48.187    20646769.680   110330074.348 7      -679.445          47.437    20646778.820    85812318.577 8      -528.457          49.375    20646779.400    85812319.584 8      -528.457          49.375
G07  25349247.900   133211155.025 6      5098.657          39.000    25349247.680   133211155.033 3      5098.657          21.625    25349253.360   103800926.032 3      3972.980          21.312    25349254.480   103800962.053 6      3972.980          36.375
> 2024 05 10 11 25 14.0000000  0 15
R21  22845261.020   122249598.132 6     -1029.383          38.500    22845258.940   122249598.126 6     -1029.383          38.812    22845274.600    95083076.745 8      -800.631          48.250    22845273.860    95083075.746 8      -800.631          48.500
G27  20687253.640   108712247.506 7      2412.881          46.937    20687252.400   108712247.513 8      2412.881          49.312    20687258.640    84710862.281 8      1880.167          48.937    20687259.300    84710863.291 8      1880.167          50.250
R23  20629661.900   110354788.851 7      3997.980          44.562    20629661.800   110354788.860 7      3997.980          43.812
G18  24576160.260   129148591.562 7      -954.624          42.625    24576158.640   129148591.561 5      -954.624          31.687    24576168.840   100635293.882 5      -743.863          31.375    24576169.460   100635297.877 7      -743.863          47.375
R12  19218308.060   102660746.339 8      3654.739          49.562    19218308.180   102660746.343 8      3654.739          49.062    19218316.560    79847283.888 8      2842.575          50.375    19218316.500    79847284.886 8      2842.575          50.875
G16  20291389.200   106631965.291 7      2611.908          46.812    20291387.700   106631965.296 6      2611.908          40.500    20291390.880    83089850.553 6      2035.253          40.062
G10  22558927.540   118547964.342 7      4054.413          47.250    22558925.460   118547964.347 7      4054.413          44.687    22558934.880    92375070.998 7      3159.283          44.687    22558934.740    92375069.004 7      3159.283          45.625
G31  23715374.620   124625120.188 7      -971.274          43.875    23715373.600   124625120.195 6      -971.274          40.500    23715384.800    97110521.384 6      -756.837          40.437    23715385.000    97110522.384 7      -756.837          44.500
G21  22261126.620   116983017.486 6      5369.085          40.937    22261123.620   116983017.499 4      5369.085          28.437    22261132.220    91155626.687 4      4183.702          28.375
R22  19668893.400   104993887.803 8       780.876          49.062    19668892.260   104993887.802 8       780.876          49.125    19668899.940    81661937.667 8       607.348          51.812    19668900.100    81661939.665 8       607.348          51.312
G23  22927549.060   120485082.735 7      2327.252          44.625    22927548.240   120485082.737 5      2327.252          32.625    22927555.660    93884509.882 5      1813.443          32.062    22927556.000    93884510.875 7      1813.443          47.250
G26  21167936.780   111238258.893 8       543.384          48.500    21167935.760   111238258.898 7       543.384          47.187    21167942.940    86679188.195 7       423.416          47.125    21167943.320    86679190.201 8       423.416          48.187
G08  21971761.680   115462387.366 7      3863.271          44.562    21971761.760   115462387.369 5      3863.271          34.375    21971769.180    89970725.880 5      3010.341          34.187    21971768.460    89970719.885 7      3010.341          47.375
R11  20646896.900   110330753.838 7      -679.763          47.812    20646896.800   110330753.853 7      -679.763          47.250    20646906.040    85812847.068 8      -528.704          49.187    20646906.660    85812848.077 8      -528.704          49.187
G07  25348277.600   133206056.398 6      5098.586          40.187    25348277.540   133206056.406 3      5098.586          21.625    25348283.200   103796953.076 3      3972.924          21.312    25348284.140   103796989.082 6      3972.924          36.375
> 2024 05 10 11 25 15.0000000  0 15
R21  22845453.180   122250627.618 6     -1029.784          39.000    22845451.180   122250627.614 6     -1029.784          39.125    22845466.600    95083877.456 7      -800.943          47.437    22845466.340    95083876.453 7      -800.943          47.375
G27  20686794.500   108709834.793 7      2412.479          46.562    20686793.160   108709834.798 7      2412.479          47.375    20686799.500    84708982.241 7      1879.854          47.687    20686800.260    84708983.257 8      1879.854          49.125
R23  20628914.740   110350791.174 7      3997.266          44.437    20628914.480   110350791.183 7      3997.266          43.750
G18  24576342.000   129149546.323 6      -954.811          41.312    24576340.340   129149546.320 5      -954.811          31.687    24576350.580   100636037.848 5      -744.009          31.375    24576351.240   100636041.845 7      -744.009          47.312
R12  19217623.900   102657092.018 8      3653.889          49.000    19217624.180   102657092.019 8      3653.889          48.625    19217632.460    79844441.637 8      2841.914          49.312    19217632.340    79844442.634 8      2841.914          49.625
G16  20290892.220   106629353.678 7      2611.203          46.187    20290890.660   106629353.683 6      2611.203          40.437    20290894.000    83087815.526 6      2034.704          39.875
G10  22558156.280   118543910.246 7      4053.775          46.187    22558153.960   118543910.248 7      4053.775          44.625    22558163.480    92371911.963 7      3158.786          44.500    22558163.280    92371909.969 7      3158.786          45.250
G31  23715559.560   124626091.500 7      -971.508          44.187    23715558.320   124626091.507 6      -971.508          40.875    23715569.420    97111278.234 6      -757.019          40.500    23715569.580    97111279.240 7      -757.019          44.375
G21  22260105.220   116977648.627 6      5368.484          41.250    22260101.960   116977648.632 4      5368.484          28.437    22260110.560    91151443.162 4      4183.234          28.375
R22  19668747.300   104993107.274 8       780.199          49.062    19668746.320   104993107.272 8       780.199          49.187    19668753.740    81661330.588 8       606.822          50.312    19668753.560    81661332.586 8       606.822          50.062
G23  22927106.260   120482755.913 7      2326.455          44.000    22927105.480   120482755.912 5      2326.455          32.625    22927112.940    93882696.768 5      1812.822          32.562    22927113.220    93882697.761 7      1812.822          46.500
G26  21167833.500   111237715.746 8       542.818          48.187    21167832.420   111237715.751 7       542.818          47.062    21167839.680    86678764.959 7       422.975          46.875    21167839.840    86678766.966 7       422.975          47.750
G08  21971026.580   115458524.187 7      3863.018          44.562    21971026.580   115458524.190 5      3863.018          34.375    21971034.060    89967715.612 5      3010.144          34.312    21971033.580    89967709.616 7      3010.144          46.875
R11  20647024.400   110331433.920 7      -680.422          47.437    20647024.120   110331433.929 7      -680.422          47.500    20647033.580    85813376.023 8      -529.217          48.375    20647033.700    85813377.029 8      -529.217          48.937
G07  25347307.260   133200958.071 6      5098.094          38.125    25347307.260   133200958.078 3      5098.094          21.625    25347312.940   103792980.353 3      3972.541          21.312    25347313.460   103793016.353 6      3972.541          37.312
