     3.05           OBSERVATION DATA    MIXED               RINEX VERSION / TYPE
TPS2RIN 1.0.29.3920 TPS-USER            20240511 200040 UTC PGM / RUN BY / DATE
Win64 build Feb 23, 2024 (c) Topcon Positioning Systems     COMMENT
SRC: 20240510_MI05.tps                                      COMMENT
OPT: -S -v 3.05                                             COMMENT
Observer            Agency                                  OBSERVER / AGENCY
O0M3X53SBGM         TPS HIPER_SR        4.8 HSR Jul,08,2022 REC # / TYPE / VERS
FW: 4.8 HSR Jul,08,2022 p3                                  COMMENT
SN: HiPer SR 1212-12575                                     COMMENT
000                 TPSHIPER_SR     NONE                    ANT # / TYPE
        1.8000        0.0000        0.0000                  ANTENNA: DELTA H/E/N
MI05                                                        MARKER NAME
  5383167.6377 -1588603.9587  3020805.8358                  APPROX POSITION XYZ
  2024     5    10    11    53   33.0000000     GPS         TIME OF FIRST OBS
  2024     5    10    12     8   32.0000000     GPS         TIME OF LAST OBS
     1.000                                                  INTERVAL
   900 EPOCHS                                               COMMENT
G   16 C1C L1C D1C S1C C1W L1W D1W S1W C2W L2W D2W S2W C2X  SYS / # / OBS TYPES
       L2X D2X S2X                                          SYS / # / OBS TYPES
R   16 C1C L1C D1C S1C C1P L1P D1P S1P C2P L2P D2P S2P C2C  SYS / # / OBS TYPES
       L2C D2C S2C                                          SYS / # / OBS TYPES
    14                                                      # OF SATELLITES
   G02   900   900   900   900   900   900   900   900   900PRN / # OF OBS
         900   900   900     0     0     0     0            PRN / # OF OBS
   G07   779   779   779   779   772   772   772   772   772PRN / # OF OBS
         772   772   772   764   764   764   764            PRN / # OF OBS
   G08   900   900   900   900   900   900   900   900   900PRN / # OF OBS
         900   900   900   900   900   900   900            PRN / # OF OBS
   G10   900   900   900   900   900   900   900   900   900PRN / # OF OBS
         900   900   900   900   900   900   900            PRN / # OF OBS
   G16   900   900   900   900   900   900   900   900   900PRN / # OF OBS
         900   900   900     0     0     0     0            PRN / # OF OBS
   G21   900   900   900   900   900   900   900   900   900PRN / # OF OBS
         900   900   900     0     0     0     0            PRN / # OF OBS
   G23   900   900   900   900   900   900   900   900   900PRN / # OF OBS
         900   900   900   900   900   900   900            PRN / # OF OBS
   G26   900   900   900   900   900   900   900   900   900PRN / # OF OBS
         900   900   900   900   900   900   900            PRN / # OF OBS
   G27   900   900   900   900   900   900   900   900   900PRN / # OF OBS
         900   900   900   900   900   900   900            PRN / # OF OBS
   R11   900   900   900   900   900   900   900   900   900PRN / # OF OBS
         900   900   900   900   900   900   900            PRN / # OF OBS
   R12   900   900   900   900   900   900   900   900   900PRN / # OF OBS
         900   900   900   900   900   900   900            PRN / # OF OBS
   R13    31    31    31    31    25    25    25    25    25PRN / # OF OBS
          25    25    25    24    24    24    24            PRN / # OF OBS
   R22   900   900   900   900   900   900   900   900   900PRN / # OF OBS
         900   900   900   900   900   900   900            PRN / # OF OBS
   R23   900   900   900   900   900   900   900   900     0PRN / # OF OBS
           0     0     0     0     0     0     0            PRN / # OF OBS
G L1C                                                       SYS / PHASE SHIFT
G L1W -0.25000                                              SYS / PHASE SHIFT
G L2W  0.00000                                              SYS / PHASE SHIFT
G L2X  0.25000                                              SYS / PHASE SHIFT
R L1C                                                       SYS / PHASE SHIFT
R L1P -0.25000                                              SYS / PHASE SHIFT
R L2P -0.25000                                              SYS / PHASE SHIFT
R L2C                                                       SYS / PHASE SHIFT
  5 R11  0 R12 -1 R13 -2 R22 -3 R23  3                      GLONASS SLOT / FRQ #
                                                            GLONASS COD/PHS/BIS
    18    18  1929     7GPS                                 LEAP SECONDS
                                                            END OF HEADER
> 2024 05 10 11 53 33.0000000  0 13
R22  20425016.400   109030125.168 8       193.750          48.875    20425017.440   109030125.169 7       193.750          47.812    20425023.200    84801237.756 8       150.695          49.812    20425023.900    84801238.758 8       150.695          49.750
G10  22282536.660   117095522.047 7      3211.065          45.437    22282534.740   117095522.052 7      3211.065          45.812    22282545.000    91243297.668 7      2502.128          45.312    22282544.920    91243297.668 8      2502.128          48.312
G27  20864291.280   109642588.491 8      2080.822          48.375    20864290.080   109642588.495 8      2080.822          49.250    20864296.600    85435802.940 8      1621.419          49.437    20864296.820    85435806.941 8      1621.419          50.375
G02  23291546.040   122397905.860 7      5009.509          42.750    23291543.780   122397905.865 4      5009.509          29.937    23291551.920    95375006.317 4      3903.513          29.812
R12  19184925.760   102482426.782 8      2203.847          50.312    19184926.080   102482426.783 8      2203.847          49.562    19184934.420    79708589.786 8      1714.103          51.312    19184934.660    79708591.789 8      1714.103          51.187
G26  22011893.740   115673282.854 7      -154.594          46.812    22011892.460   115673282.854 7      -154.594          44.937    22011902.420    90135059.006 7      -120.463          45.062    22011902.960    90135060.014 7      -120.463          46.875
R11  21912874.720   117095750.771 7     -1537.803          45.437    21912873.600   117095750.783 7     -1537.803          44.750    21912889.260    91074571.144 7     -1196.069          47.812    21912889.080    91074537.139 7     -1196.069          47.562
G07  24707569.300   129839160.657 7      4407.154          43.437    24707570.800   129839160.686 3      4407.154          22.937    24707572.420   101173404.015 4      3434.146          24.000    24707572.900   101173401.014 5      3434.146          35.312
R23  20411316.720   109186784.652 7      3078.163          45.750    20411316.400   109186784.662 7      3078.163          44.750
G16  20481988.380   107633578.867 7      1780.496          46.062    20481986.540   107633578.877 6      1780.496          39.750    20481990.900    83870325.935 6      1387.400          39.562
G21  21558125.840   113288716.811 7      4543.886          46.437    21558124.340   113288716.818 6      4543.886          36.750    21558130.400    88276894.693 6      3540.690          36.750
G08  21667443.300   113863185.535 7      3603.665          45.562    21667441.200   113863185.532 6      3603.665          36.187    21667449.280    88724585.115 5      2808.051          35.812    21667450.360    88724590.134 8      2808.051          48.437
G23  23246116.180   122159163.398 7      1291.200          43.750    23246115.620   122159163.400 5      1291.200          32.875    23246123.300    95188989.185 5      1006.130          32.500    23246123.000    95188989.175 7      1006.130          46.500
> 2024 05 10 11 53 34.0000000  0 13
R22  20424979.880   109029931.166 8       193.974          49.187    20424980.820   109029931.167 8       193.974          48.562    20424986.960    84801086.864 8       150.869          49.625    20424987.460    84801087.868 8       150.869          49.937
G10  22281925.560   117092310.910 7      3210.931          45.187    22281923.560   117092310.912 7      3210.931          45.687    22281933.840    91240795.485 7      2502.024          45.250    22281934.060    91240795.486 8      2502.024          48.437
G27  20863895.360   109640507.412 8      2081.043          48.187    20863894.120   109640507.412 8      2081.043          49.312    20863900.560    85434181.316 8      1621.592          49.500    20863900.940    85434185.321 8      1621.592          50.250
G02  23290592.740   122392896.217 7      5009.457          42.562    23290590.540   122392896.224 4      5009.457          29.937    23290598.600    95371102.702 4      3903.473          29.812
R12  19184513.160   102480223.027 8      2203.408          49.125    19184513.740   102480223.031 8      2203.408          49.250    19184522.040    79706875.759 8      1713.762          50.625    19184522.100    79706877.764 8      1713.762          50.875
G26  22011923.200   115673437.421 7      -154.680          45.937    22011922.040   115673437.431 7      -154.680          45.187    22011931.900    90135179.448 7      -120.530          45.062    22011932.120    90135180.457 7      -120.530          46.500
R11  21913162.300   117097288.411 7     -1537.834          45.437    21913161.500   117097288.426 7     -1537.834          44.937    21913177.180    91075767.071 7     -1196.093          47.125    21913177.000    91075733.069 7     -1196.093          47.500
G07  24706730.680   129834753.438 7      4406.965          43.625    24706732.180   129834753.469 3      4406.965          22.937    24706733.400   101169969.820 4      3433.999          24.000    24706735.040   101169966.827 5      3433.999          35.312
R23  20410741.260   109183706.404 7      3078.042          45.812    20410741.280   109183706.414 7      3078.042          44.250
G16  20481649.800   107631798.285 7      1780.396          45.750    20481647.760   107631798.292 6      1780.396          39.562    20481652.060    83868938.464 6      1387.322          38.937
G21  21557261.300   113284172.852 7      4543.810          46.500    21557259.580   113284172.862 6      4543.810          36.437    21557265.500    88273353.951 6      3540.631          36.562
G08  21666757.500   113859581.666 7      3603.942          45.937    21666755.380   113859581.663 6      3603.942          36.187    21666763.420    88721776.903 5      2808.267          35.875    21666764.640    88721781.916 8      2808.267          48.562
G23  23245870.040   122157872.189 7      1290.917          43.937    23245869.860   122157872.196 5      1290.917          32.687    23245877.700    95187983.050 5      1005.910          32.500    23245877.320    95187983.050 7      1005.910          46.500
> 2024 05 10 11 53 35.0000000  0 13
R22  20424943.820   109029737.298 8       193.780          48.125    20424944.620   109029737.299 8       193.780          48.812    20424950.620    84800936.082 8       150.718          49.500    20424951.340    84800937.086 8       150.718          49.687
G10  22281314.560   117089100.207 7      3210.432          44.750    22281312.440   117089100.206 7      3210.432          45.562    22281322.960    91238293.639 7      2501.636          45.250    22281323.160    91238293.639 8      2501.636          48.625
G27  20863499.300   109638426.374 8      2080.993          49.312    20863498.180   109638426.373 8      2080.993          49.375    20863504.440    85432559.728 8      1621.553          49.250    20863504.860    85432563.729 8      1621.553          49.875
G02  23289639.380   122387886.791 7      5009.124          43.875    23289637.400   122387886.796 4      5009.124          29.937    23289645.300    95367199.256 4      3903.213          29.875
R12  19184100.840   102478020.044 8      2202.571          49.062    19184101.080   102478020.037 8      2202.571          49.937    19184109.620    79705162.321 8      1713.111          50.437    19184109.800    79705164.327 8      1713.111          51.000
G26  22011952.760   115673592.231 7      -154.956          45.875    22011951.420   115673592.236 7      -154.956          45.000    22011961.340    90135300.073 7      -120.745          45.000    22011961.940    90135301.079 7      -120.745          46.625
R11  21913450.000   117098826.325 7     -1538.102          45.500    21913449.120   117098826.331 7     -1538.102          44.625    21913465.080    91076963.207 7     -1196.302          47.187    21913464.840    91076929.203 8     -1196.302          48.062
G07  24705891.740   129830346.504 7      4406.814          44.000    24705893.820   129830346.536 3      4406.814          22.937    24705894.780   101166535.849 4      3433.881          24.000    24705895.880   101166532.864 5      3433.881          35.312
R23  20410165.960   109180628.515 7      3077.637          46.750    20410165.620   109180628.521 7      3077.637          45.125
G16  20481310.840   107630018.086 7      1779.994          46.125    20481308.880   107630018.094 6      1779.994          40.062    20481313.320    83867551.292 6      1387.008          39.375
G21  21556396.480   113279629.294 7      4543.358          46.562    21556395.040   113279629.301 6      4543.358          36.625    21556400.860    88269813.519 6      3540.279          36.750
G08  21666071.720   113855977.820 7      3603.773          45.000    21666069.580   113855977.815 6      3603.773          36.375    21666077.780    88718968.712 6      2808.134          36.000    21666078.720    88718973.724 8      2808.134          48.375
G23  23245624.660   122156581.444 7      1290.488          43.750    23245624.340   122156581.449 5      1290.488          32.687    23245632.080    95186977.271 5      1005.575          32.437    23245631.680    95186977.261 7      1005.575          46.500
> 2024 05 10 11 53 36.0000000  0 13
R22  20424907.540   109029543.759 7       193.511          47.000    20424908.140   109029543.754 8       193.511          48.250    20424914.640    84800785.547 8       150.508          49.875    20424914.920    84800786.546 8       150.508          49.750
G10  22280703.560   117085890.158 7      3209.821          44.187    22280701.780   117085890.160 7      3209.821          45.437    22280712.180    91235792.304 7      2501.159          45.187    22280712.200    91235792.308 7      2501.159          47.562
G27  20863103.460   109636345.627 8      2080.711          49.062    20863102.000   109636345.626 8      2080.711          48.250    20863108.540    85430938.364 8      1621.333          48.375    20863108.920    85430942.367 8      1621.333          49.875
G02  23288686.160   122382877.825 7      5008.755          43.687    23288684.200   122382877.833 4      5008.755          29.687    23288692.100    95363296.172 4      3902.926          29.875
R12  19183688.460   102475818.020 8      2201.644          50.812    19183689.060   102475818.024 8      2201.644          50.125    19183697.400    79703449.640 8      1712.389          49.062    19183697.400    79703451.643 8      1712.389          50.750
G26  22011982.320   115673747.512 7      -155.404          46.500    22011981.100   115673747.520 7      -155.404          45.562    22011990.800    90135421.059 7      -121.094          45.187    22011991.240    90135422.067 7      -121.094          46.562
R11  21913738.320   117100364.730 7     -1538.567          45.437    21913737.120   117100364.736 7     -1538.567          45.062    21913752.760    91078159.727 7     -1196.664          47.187    21913752.940    91078125.726 7     -1196.664          47.000
G07  24705053.320   129825940.178 7      4406.088          43.625    24705055.240   129825940.207 3      4406.088          22.937    24705056.060   101163102.350 3      3433.315          22.500    24705058.180   101163099.375 5      3433.315          35.312
R23  20409590.340   109177551.221 7      3077.050          45.812    20409590.440   109177551.231 7      3077.050          45.062
G16  20480972.160   107628238.511 7      1779.335          46.625    20480970.340   107628238.515 6      1779.335          39.812    20480974.620    83866164.606 6      1386.494          39.125
G21  21555531.720   113275086.344 7      4542.716          46.687    21555530.580   113275086.354 6      4542.716          36.062    21555536.400    88266273.561 6      3539.779          36.000
G08  21665385.900   113852374.196 7      3603.647          45.562    21665383.900   113852374.187 5      3603.647          35.875    21665392.000    88716160.693 6      2808.037          36.000    21665393.280    88716165.701 7      2808.037          47.125
G23  23245379.080   122155291.380 7      1289.873          42.875    23245378.800   122155291.385 5      1289.873          32.687    23245386.560    95185972.022 5      1005.095          32.437    23245386.380    95185972.016 7      1005.095          45.250
> 2024 05 10 11 53 37.0000000  0 13
R22  20424871.600   109029350.651 8       193.072          48.250    20424871.760   109029350.650 8       193.072          48.187    20424878.720    84800635.344 8       150.167          48.062    20424879.000    84800636.344 7       150.167          47.875
G10  22280093.060   117082680.810 7      3209.178          44.875    22280091.140   117082680.807 7      3209.178          44.437    22280101.080    91233291.512 7      2500.658          44.500    22280101.220    91233291.512 8      2500.658          48.250
G27  20862707.460   109634265.216 8      2080.425          48.562    20862706.220   109634265.216 8      2080.425          48.375    20862712.600    85429317.261 8      1621.111          48.250    20862712.980    85429321.266 8      1621.111          50.562
G02  23287732.720   122377869.388 7      5008.352          43.625    23287731.260   122377869.398 4      5008.352          29.687    23287739.000    95359393.493 4      3902.612          29.875
R12  19183276.680   102473617.089 8      2200.537          50.125    19183277.240   102473617.093 8      2200.537          49.625    19183285.460    79701737.796 8      1711.529          48.875    19183285.340    79701739.802 8      1711.529          48.687
G26  22012011.880   115673903.332 7      -155.838          46.625    22012010.700   115673903.337 7      -155.838          44.937    22012020.640    90135542.475 7      -121.432          44.750    22012021.040    90135543.483 7      -121.432          46.187
R11  21914026.100   117101903.709 7     -1539.101          45.125    21914024.880   117101903.715 7     -1539.101          44.562    21914041.100    91079356.692 7     -1197.079          47.750    21914040.780    91079322.691 7     -1197.079          46.437
G07  24704215.120   129821534.443 7      4405.618          44.562    24704216.780   129821534.469 3      4405.618          22.937    24704217.600   101159669.313 3      3432.949          22.500    24704218.020   101159666.341 5      3432.949          33.062
R23  20409015.180   109174474.600 7      3076.382          46.312    20409014.940   109174474.604 7      3076.382          44.875
G16  20480633.700   107626459.581 7      1778.731          47.062    20480631.880   107626459.591 6      1778.731          39.812    20480636.100    83864778.429 6      1386.024          39.250
G21  21554667.500   113270544.073 7      4542.093          45.812    21554666.280   113270544.078 6      4542.093          36.625    21554672.180    88262734.131 6      3539.293          36.437
G08  21664700.020   113848770.886 7      3603.322          44.625    21664698.120   113848770.880 5      3603.322          35.625    21664706.320    88713352.919 5      2807.784          35.375    21664707.420    88713357.929 8      2807.784          48.812
G23  23245133.800   122154002.112 7      1289.004          44.437    23245133.540   122154002.123 5      1289.004          32.562    23245141.120    95184967.398 5      1004.419          32.437    23245140.760    95184967.388 7      1004.419          46.375
> 2024 05 10 11 53 38.0000000  0 13
R22  20424835.540   109029157.571 7       192.896          47.937    20424835.480   109029157.572 7       192.896          47.875    20424842.400    84800485.166 8       150.030          49.812    20424843.000    84800486.168 8       150.030          49.687
G10  22279482.440   117079471.828 7      3208.620          44.812    22279480.220   117079471.831 7      3208.620          45.375    22279490.240    91230791.010 7      2500.224          45.125    22279490.680    91230791.012 7      2500.224          47.937
G27  20862311.600   109632184.787 8      2080.331          48.625    20862310.320   109632184.786 8      2080.331          49.500    20862316.720    85427696.147 8      1621.037          49.500    20862317.060    85427700.152 8      1621.037          50.187
G02  23286779.760   122372861.110 7      5008.094          42.812    23286778.240   122372861.112 4      5008.094          29.687    23286785.860    95355490.939 4      3902.411          29.812
R12  19182864.720   102471416.833 8      2199.751          50.687    19182865.360   102471416.834 8      2199.751          49.625    19182873.320    79700026.488 8      1710.917          50.500    19182873.580    79700028.491 8      1710.917          50.812
G26  22012041.640   115674059.349 7      -156.292          46.562    22012040.300   115674059.354 7      -156.292          45.312    22012050.380    90135664.036 7      -121.786          45.250    22012050.940    90135665.044 7      -121.786          47.250
R11  21914313.900   117103442.894 7     -1539.447          45.375    21914313.440   117103442.898 7     -1539.447          44.500    21914329.060    91080553.811 8     -1197.348          48.000    21914328.960    91080519.806 7     -1197.348          47.250
G07  24703376.600   129817128.963 7      4405.328          43.937    24703378.440   129817128.986 3      4405.328          22.937    24703379.160   101156236.474 3      3432.723          22.500    24703379.240   101156233.460 5      3432.723          33.062
R23  20408439.760   109171398.234 7      3076.090          45.750    20408439.660   109171398.244 7      3076.090          44.437
G16  20480295.280   107624680.965 7      1778.346          46.312    20480293.340   107624680.977 6      1778.346          40.125    20480297.660    83863392.492 6      1385.724          39.875
G21  21553803.500   113266002.101 7      4541.664          47.062    21553802.000   113266002.109 6      4541.664          36.625    21553807.800    88259194.940 6      3538.959          37.000
G08  21664014.300   113845167.506 7      3603.273          45.875    21664012.420   113845167.505 6      3603.273          36.125    21664020.520    88710545.088 5      2807.745          35.750    21664021.640    88710550.107 8      2807.745          48.250
G23  23244888.540   122152713.215 7      1288.607          42.875    23244888.080   122152713.228 5      1288.607          32.562    23244896.020    95183963.060 5      1004.110          32.250    23244895.600    95183963.056 7      1004.110          46.187
> 2024 05 10 11 53 39.0000000  0 13
R22  20424799.220   109028964.648 8       192.817          48.312    20424799.580   109028964.651 7       192.817          47.500    20424806.340    84800335.115 8       149.969          49.937    20424806.900    84800336.118 8       149.969          50.437
G10  22278871.740   117076263.301 7      3208.256          45.000    22278869.560   117076263.308 7      3208.256          45.687    22278879.840    91228290.867 7      2499.940          45.562    22278880.000    91228290.869 8      2499.940          48.625
G27  20861915.820   109630104.455 7      2080.246          47.875    20861914.540   109630104.455 8      2080.246          49.500    20861920.900    85426075.109 8      1620.971          49.750    20861921.260    85426079.116 8      1620.971          50.312
G02  23285826.620   122367853.101 7      5007.887          43.375    23285825.320   122367853.103 4      5007.887          29.687    23285832.920    95351588.603 4      3902.250          29.812
R12  19182452.880   102469217.368 8      2199.012          48.562    19182453.720   102469217.369 8      2199.012          49.875    19182461.720    79698315.789 8      1710.343          50.687    19182461.820    79698317.792 8      1710.343          51.062
G26  22012071.280   115674215.621 7      -156.423          46.125    22012070.120   115674215.625 7      -156.423          45.000    22012079.940    90135785.796 7      -121.888          45.062    22012080.640    90135786.802 7      -121.888          46.937
R11  21914602.300   117104982.346 7     -1539.680          46.250    21914601.240   117104982.347 7     -1539.680          44.562    21914617.100    91081751.157 7     -1197.529          47.812    21914617.000    91081717.158 7     -1197.529          47.750
G07  24702538.300   129812723.887 7      4404.866          43.875    24702540.320   129812723.913 3      4404.866          22.937    24702540.360   101152803.952 3      3432.363          22.500    24702541.640   101152800.963 5      3432.363          33.062
R23  20407865.180   109168322.292 7      3075.765          46.187    20407865.040   109168322.301 7      3075.765          44.875
G16  20479957.080   107622902.768 7      1777.994          46.750    20479955.000   107622902.781 6      1777.994          39.812    20479959.380    83862006.885 6      1385.450          39.687
G21  21552939.160   113261460.568 7      4541.298          47.937    21552937.640   113261460.576 6      4541.298          36.625    21552943.480    88255656.087 6      3538.674          36.812
G08  21663328.560   113841564.183 7      3603.359          45.625    21663326.840   113841564.177 6      3603.359          36.312    21663334.880    88707737.304 5      2807.812          35.812    21663336.100    88707742.310 8      2807.812          48.437
G23  23244643.240   122151424.854 7      1288.118          42.750    23244642.860   122151424.859 5      1288.118          32.500    23244650.820    95182959.134 5      1003.728          32.250    23244650.320    95182959.124 7      1003.728          46.625
> 2024 05 10 11 53 40.0000000  0 13
R22  20424763.040   109028772.136 8       192.221          48.687    20424763.580   109028772.147 8       192.221          48.375    20424770.120    84800185.394 8       149.505          49.875    20424770.760    84800186.397 8       149.505          49.875
G10  22278261.520   117073055.519 7      3207.318          45.875    22278259.320   117073055.519 7      3207.318          45.437    22278269.620    91225791.291 7      2499.209          45.062    22278269.800    91225791.291 8      2499.209          48.312
G27  20861519.900   109628024.475 8      2079.722          48.937    20861518.640   109628024.472 8      2079.722          49.750    20861525.060    85424454.346 8      1620.562          49.687    20861525.360    85424458.349 8      1620.562          50.250
G02  23284874.020   122362845.638 7      5007.145          43.687    23284872.320   122362845.645 4      5007.145          29.937    23284879.980    95347686.688 4      3901.671          29.812
R12  19182041.280   102467018.942 8      2197.799          50.625    19182041.940   102467018.951 8      2197.799          50.062    19182050.100    79696605.906 8      1709.400          51.000    19182050.420    79696607.909 8      1709.400          51.437
G26  22012101.140   115674372.462 7      -157.237          46.625    22012100.080   115674372.465 7      -157.237          45.500    22012109.760    90135908.007 7      -122.522          45.125    22012110.340    90135909.014 7      -122.522          46.562
R11  21914890.020   117106522.357 7     -1540.470          45.875    21914889.380   117106522.369 7     -1540.470          45.250    21914905.420    91082948.941 7     -1198.143          47.250    21914905.300    91082914.942 7     -1198.143          47.312
G07  24701700.240   129808319.421 7      4404.042          44.062    24701702.440   129808319.445 3      4404.042          22.937    24701701.920   101149371.904 3      3431.721          22.500    24701702.440   101149368.913 5      3431.721          33.062
R23  20407290.080   109165247.015 7      3074.916          45.937    20407289.860   109165247.028 7      3074.916          44.750
G16  20479618.560   107621125.274 7      1777.086          46.562    20479616.780   107621125.286 6      1777.086          40.187    20479621.160    83860621.818 6      1384.743          39.500
G21  21552075.140   113256919.713 7      4540.491          47.750    21552073.320   113256919.720 6      4540.491          36.687    21552079.520    88252117.759 6      3538.045          36.812
G08  21662643.140   113837961.181 7      3602.729          45.312    21662641.380   113837961.178 6      3602.729          36.312    21662649.280    88704929.772 5      2807.322          35.937    21662650.180    88704934.787 8      2807.322          48.437
G23  23244398.120   122150137.260 7      1287.030          43.687    23244397.900   122150137.265 5      1287.030          32.500    23244405.660    95181955.814 5      1002.880          32.750    23244405.540    95181955.806 7      1002.880          46.500
> 2024 05 10 11 53 41.0000000  0 13
R22  20424727.120   109028579.874 7       192.096          47.500    20424727.700   109028579.875 7       192.096          47.937    20424734.020    84800035.847 8       149.408          49.375    20424734.680    84800036.852 8       149.408          49.812
G10  22277651.160   117069848.242 7      3207.026          45.625    22277649.060   117069848.247 7      3207.026          45.812    22277659.320    91223292.118 7      2498.982          45.375    22277659.600    91223292.119 8      2498.982          48.562
G27  20861124.240   109625944.653 7      2079.713          47.875    20861122.720   109625944.650 8      2079.713          48.875    20861129.180    85422833.705 8      1620.555          49.125    20861129.600    85422837.706 8      1620.555          50.250
G02  23283921.300   122357838.514 7      5006.918          43.562    23283919.440   122357838.522 4      5006.918          29.937    23283927.160    95343785.039 4      3901.495          29.812
R12  19181629.820   102464821.400 8      2197.102          48.125    19181630.560   102464821.403 8      2197.102          49.812    19181638.680    79694896.702 8      1708.857          50.750    19181638.760    79694898.708 8      1708.857          51.187
G26  22012131.040   115674529.635 7      -157.360          46.000    22012129.960   115674529.640 7      -157.360          45.000    22012139.560    90136030.467 7      -122.618          45.062    22012140.080    90136031.474 7      -122.618          46.812
R11  21915178.500   117108062.776 7     -1540.726          45.750    21915177.820   117108062.786 7     -1540.726          45.062    21915193.400    91084147.028 7     -1198.343          47.812    21915193.460    91084113.027 7     -1198.343          47.375
G07  24700862.620   129803915.392 7      4403.827          44.437    24700864.380   129803915.415 3      4403.827          21.750    24700863.880   101145940.193 3      3431.553          22.500    24700864.140   101145937.193 5      3431.553          33.062
R23  20406715.600   109162172.207 7      3074.625          46.125    20406715.200   109162172.219 7      3074.625          45.062
G16  20479280.440   107619348.252 7      1776.776          47.125    20479278.540   107619348.259 6      1776.776          40.062    20479282.940    83859237.125 6      1384.501          39.437
G21  21551211.040   113252379.352 7      4540.105          47.125    21551209.300   113252379.365 6      4540.105          36.375    21551215.420    88248579.821 6      3537.744          36.375
G08  21661957.520   113834358.292 7      3602.766          46.312    21661955.700   113834358.286 6      3602.766          36.187    21661963.680    88702122.326 6      2807.350          36.125    21661964.540    88702127.336 8      2807.350          49.000
G23  23244153.180   122148850.239 7      1286.617          43.250    23244153.040   122148850.241 5      1286.617          33.000    23244160.840    95180952.936 5      1002.558          32.750    23244160.700    95180952.922 7      1002.558          46.750
> 2024 05 10 11 53 42.0000000  0 13
R22  20424691.080   109028387.845 7       192.177          47.812    20424691.480   109028387.844 8       192.177          48.562    20424698.040    84799886.487 8       149.471          49.875    20424698.580    84799887.490 8       149.471          49.812
G10  22277041.080   117066641.549 7      3206.669          45.812    22277039.000   117066641.551 7      3206.669          45.562    22277049.040    91220793.400 7      2498.703          45.437    22277049.400    91220793.404 8      2498.703          48.375
G27  20860728.200   109623865.017 7      2079.805          47.687    20860726.960   109623865.017 8      2079.805          49.562    20860733.420    85421213.210 8      1620.627          49.125    20860733.800    85421217.215 8      1620.627          50.250
G02  23282968.360   122352831.774 7      5006.798          44.187    23282966.780   122352831.776 4      5006.798          29.937    23282974.200    95339883.685 5      3901.401          30.375
R12  19181218.580   102462624.771 8      2196.428          50.375    19181219.240   102462624.777 8      2196.428          49.500    19181227.440    79693188.215 8      1708.333          50.750    19181227.540    79693190.219 8      1708.333          50.937
G26  22012161.000   115674687.205 7      -157.556          46.187    22012160.000   115674687.204 7      -157.556          45.250    22012169.560    90136153.242 7      -122.771          45.062    22012170.060    90136154.245 7      -122.771          46.562
R11  21915466.860   117109603.599 7     -1540.822          45.625    21915466.280   117109603.614 7     -1540.822          45.000    21915481.880    91085345.427 7     -1198.417          47.125    21915481.680    91085311.428 7     -1198.417          47.312
G07  24700024.840   129799511.856 7      4403.476          43.250    24700026.520   129799511.879 3      4403.476          21.750    24700025.740   101142508.866 3      3431.280          22.500    24700025.840   101142505.848 5      3431.280          33.062
R23  20406141.020   109159097.920 7      3074.341          45.875    20406140.480   109159097.929 7      3074.341          44.812
G16  20478942.300   107617571.758 7      1776.430          45.875    20478940.560   107617571.763 6      1776.430          40.250    20478944.800    83857852.843 6      1384.231          39.500
G21  21550347.020   113247839.527 7      4539.782          47.125    21550345.480   113247839.537 6      4539.782          36.437    21550351.560    88245042.299 6      3537.493          36.375
G08  21661271.900   113830755.550 7      3602.862          45.750    21661270.160   113830755.544 6      3602.862          36.375    21661278.120    88699314.995 5      2807.425          35.750    21661279.180    88699320.005 8      2807.425          48.625
G23  23243908.640   122147563.819 7      1286.207          43.687    23243908.220   122147563.819 5      1286.207          33.000    23243916.100    95179950.529 5      1002.239          32.750    23243915.980    95179950.517 7      1002.239          46.375
> 2024 05 10 11 53 43.0000000  0 13
R22  20424655.200   109028195.982 8       191.601          48.312    20424655.040   109028195.980 7       191.601          47.687    20424662.140    84799737.260 8       149.023          49.562    20424662.800    84799738.265 8       149.023          49.812
G10  22276430.960   117063435.312 7      3205.887          46.125    22276428.920   117063435.317 7      3205.887          45.875    22276438.820    91218295.036 7      2498.094          45.687    22276439.160    91218295.040 8      2498.094          48.000
G27  20860332.440   109621785.484 7      2079.311          47.937    20860331.500   109621785.484 8      2079.311          49.312    20860337.620    85419592.795 8      1620.242          49.312    20860338.180    85419596.802 8      1620.242          50.750
G02  23282015.500   122347825.288 7      5006.107          43.437    23282014.280   122347825.291 5      5006.107          30.500    23282021.480    95335982.537 5      3900.863          30.375
R12  19180807.660   102460428.959 8      2195.252          49.312    19180808.160   102460428.966 8      2195.252          50.250    19180816.460    79691480.364 8      1707.418          51.062    19180816.680    79691482.367 8      1707.418          51.062
G26  22012190.960   115674845.042 7      -158.060          46.125    22012190.100   115674845.047 7      -158.060          44.875    22012199.560    90136276.224 7      -123.164          45.375    22012199.980    90136277.232 7      -123.164          46.875
R11  21915755.100   117111144.708 7     -1541.293          45.562    21915754.580   117111144.717 7     -1541.293          44.812    21915770.280    91086544.045 7     -1198.784          47.687    21915770.360    91086510.048 7     -1198.784          47.562
G07  24699186.980   129795108.672 7      4402.822          43.125    24699188.480   129795108.690 3      4402.822          21.750    24699187.740   101139077.808 3      3430.770          22.500    24699188.820   101139074.798 5      3430.770          33.062
R23  20405566.740   109156024.058 7      3073.462          46.437    20405565.900   109156024.071 7      3073.462          45.250
G16  20478604.260   107615795.669 7      1775.725          45.875    20478602.680   107615795.677 6      1775.725          40.062    20478606.920    83856468.877 6      1383.682          39.875
G21  21549483.380   113243300.111 7      4539.062          47.375    21549481.720   113243300.121 6      4539.062          36.062    21549487.620    88241505.094 6      3536.932          36.375
G08  21660586.460   113827152.858 7      3602.499          46.000    21660584.720   113827152.852 6      3602.499          36.187    21660592.680    88696507.704 6      2807.142          36.062    21660593.400    88696512.715 8      2807.142          48.375
G23  23243664.120   122146277.875 7      1285.605          43.562    23243663.660   122146277.877 5      1285.605          32.625    23243671.180    95178948.493 5      1001.770          32.750    23243671.280    95178948.483 7      1001.770          46.562
> 2024 05 10 11 53 44.0000000  0 13
R22  20424618.920   109028004.353 7       191.363          47.812    20424619.540   109028004.351 8       191.363          48.375    20424626.000    84799588.209 8       148.838          49.750    20424626.460    84799589.215 8       148.838          49.375
G10  22275820.620   117060229.623 7      3205.374          45.062    22275818.780   117060229.622 7      3205.374          46.062    22275828.680    91215797.098 7      2497.694          45.625    22275829.000    91215797.102 8      2497.694          48.062
G27  20859936.720   109619706.109 8      2079.225          48.625    20859935.540   109619706.106 8      2079.225          49.187    20859942.060    85417972.498 8      1620.175          49.437    20859942.380    85417976.499 8      1620.175          50.187
G02  23281063.240   122342819.150 7      5005.910          43.687    23281061.540   122342819.155 5      5005.910          30.500    23281068.820    95332081.656 5      3900.709          30.375
R12  19180397.160   102458234.011 8      2194.418          50.250    19180397.500   102458234.017 8      2194.418          49.625    19180405.720    79689773.176 8      1706.770          51.250    19180405.380    79689775.181 8      1706.770          51.375
G26  22012221.180   115675003.250 7      -158.564          46.187    22012220.300   115675003.258 7      -158.564          45.187    22012229.760    90136399.501 7      -123.556          45.250    22012230.380    90136400.503 7      -123.556          46.937
R11  21916044.040   117112686.242 7     -1541.863          45.250    21916042.900   117112686.238 7     -1541.863          44.812    21916058.800    91087742.995 7     -1199.227          47.375    21916058.460    91087709.000 7     -1199.227          47.750
G07  24698349.460   129790705.909 7      4402.494          44.250    24698350.780   129790705.927 3      4402.494          21.750    24698349.720   101135647.085 3      3430.515          22.500    24698352.280   101135644.104 5      3430.515          33.062
R23  20404991.660   109152950.668 7      3073.092          46.250    20404991.380   109152950.674 7      3073.092          45.187
G16  20478266.620   107614020.093 7      1775.182          46.875    20478264.820   107614020.097 6      1775.182          40.375    20478269.100    83855085.305 6      1383.259          39.875
G21  21548619.660   113238761.203 7      4538.558          47.750    21548618.040   113238761.211 6      4538.558          36.125    21548623.720    88237968.287 6      3536.539          36.062
G08  21659900.700   113823550.300 7      3602.342          45.250    21659899.040   113823550.294 6      3602.342          36.062    21659907.040    88693700.516 5      2807.020          35.812    21659907.860    88693705.529 8      2807.020          48.625
G23  23243419.500   122144992.567 7      1284.880          44.375    23243419.180   122144992.569 5      1284.880          32.625    23243426.660    95177946.950 5      1001.205          32.562    23243426.820    95177946.934 7      1001.205          46.250
> 2024 05 10 11 53 45.0000000  0 13
R22  20424583.320   109027813.029 7       191.351          47.875    20424584.180   109027813.035 8       191.351          48.312    20424590.160    84799439.401 8       148.828          49.312    20424590.940    84799440.409 8       148.828          49.812
G10  22275210.600   117057024.582 7      3204.892          45.187    22275208.920   117057024.581 7      3204.892          46.062    22275219.060    91213299.657 7      2497.319          45.875    22275218.760    91213299.656 8      2497.319          48.062
G27  20859541.080   109617626.999 7      2079.194          47.937    20859539.920   109617626.998 8      2079.194          49.812    20859546.380    85416352.412 8      1620.151          50.125    20859546.560    85416356.413 8      1620.151          50.000
G02  23280110.420   122337813.476 7      5005.587          42.750    23280109.020   122337813.481 5      5005.587          30.500    23280116.280    95328181.136 5      3900.458          30.562
R12  19179985.880   102456040.010 8      2193.792          50.187    19179986.640   102456040.009 8      2193.792          50.062    19179994.980    79688066.727 8      1706.283          51.000    19179994.800    79688068.730 8      1706.283          50.812
G26  22012251.220   115675161.916 7      -158.713          45.937    22012250.420   115675161.921 7      -158.713          44.812    22012260.040    90136523.126 7      -123.673          44.812    22012260.180    90136524.132 7      -123.673          46.625
R11  21916332.120   117114228.224 7     -1541.959          45.687    21916331.740   117114228.225 7     -1541.959          45.125    21916347.460    91088942.300 7     -1199.301          47.500    21916347.480    91088908.303 7     -1199.301          47.437
G07  24697511.400   129786303.716 7      4402.084          44.187    24697512.960   129786303.736 3      4402.084          21.750    24697511.780   101132216.801 3      3430.196          21.875    24697512.540   101132213.783 5      3430.196          33.062
R23  20404417.280   109149877.881 7      3072.576          45.562    20404417.080   109149877.896 7      3072.576          45.187
G16  20477928.680   107612245.102 7      1774.801          46.250    20477926.920   107612245.112 6      1774.801          40.250    20477931.360    83853702.197 6      1382.962          39.875
G21  21547756.200   113234222.892 7      4538.254          47.500    21547754.320   113234222.899 6      4538.254          36.125    21547760.240    88234431.944 6      3536.302          36.312
G08  21659215.300   113819947.960 7      3602.455          44.937    21659213.380   113819947.949 6      3602.455          36.125    21659221.460    88690893.496 5      2807.108          35.812    21659222.520    88690898.500 8      2807.108          48.375
G23  23243174.920   122143707.911 7      1284.562          44.812    23243174.740   122143707.913 5      1284.562          32.375    23243182.180    95176945.917 5      1000.957          32.562    23243182.060    95176945.911 7      1000.957          46.812
> 2024 05 10 11 53 46.0000000  0 13
R22  20424547.360   109027621.875 8       190.976          48.312    20424548.420   109027621.876 8       190.976          48.375    20424554.260    84799290.718 8       148.537          49.875    20424555.100    84799291.725 8       148.537          49.687
G10  22274600.940   117053819.985 7      3204.288          45.312    22274599.080   117053819.987 7      3204.288          45.875    22274609.160    91210802.577 7      2496.848          45.625    22274608.960    91210802.579 8      2496.848          48.500
G27  20859145.560   109615547.973 8      2078.942          48.625    20859144.320   109615547.975 8      2078.942          49.125    20859150.860    85414732.392 8      1619.954          48.875    20859151.260    85414736.397 8      1619.954          50.562
G02  23279158.080   122332808.063 7      5005.174          42.437    23279156.660   122332808.070 5      5005.174          30.500    23279163.680    95324280.818 5      3900.136          30.562
R12  19179575.560   102453846.806 8      2192.750          50.687    19179575.740   102453846.799 8      2192.750          49.937    19179584.380    79686360.895 8      1705.472          50.625    19179584.380    79686362.900 8      1705.472          51.062
G26  22012281.480   115675320.862 7      -159.201          46.437    22012280.600   115675320.867 7      -159.201          45.437    22012290.200    90136646.970 7      -124.053          45.312    22012290.780    90136647.978 7      -124.053          47.250
R11  21916621.040   117115770.533 7     -1542.603          45.750    21916620.260   117115770.534 7     -1542.603          45.000    21916636.180    91090141.858 8     -1199.802          48.312    21916636.000    91090107.857 7     -1199.802          47.812
G07  24696673.320   129781901.846 7      4401.662          43.687    24696675.480   129781901.869 3      4401.662          21.750    24696674.060   101128786.776 3      3429.866          21.875    24696675.200   101128783.867 5      3429.866          33.062
R23  20403843.060   109146805.496 7      3072.062          45.125    20403842.740   109146805.508 7      3072.062          45.125
G16  20477591.220   107610470.516 7      1774.266          45.687    20477589.200   107610470.526 6      1774.266          40.062    20477593.620    83852319.401 6      1382.545          39.312
G21  21546892.540   113229685.021 7      4537.560          46.125    21546890.760   113229685.029 6      4537.560          36.187    21546896.660    88230895.941 6      3535.761          36.375
G08  21658529.840   113816345.657 7      3602.217          45.562    21658528.080   113816345.651 6      3602.217          36.312    21658535.980    88688086.511 6      2806.922          36.000    21658536.940    88688091.515 7      2806.922          47.812
G23  23242930.540   122142423.793 7      1283.701          44.062    23242930.440   122142423.795 5      1283.701          32.375    23242937.840    95175945.306 5      1000.287          32.562    23242938.060    95175945.294 7      1000.287          46.437
> 2024 05 10 11 53 47.0000000  0 13
R22  20424511.940   109027430.935 8       190.747          49.062    20424512.380   109027430.944 8       190.747          48.312    20424518.480    84799142.207 8       148.358          49.437    20424519.060    84799143.212 8       148.358          49.437
G10  22273991.440   117050615.945 7      3203.635          45.687    22273989.420   117050615.950 7      3203.635          45.687    22273999.500    91208305.933 7      2496.339          45.187    22273999.180    91208305.935 8      2496.339          48.312
G27  20858749.860   109613469.125 8      2078.715          49.062    20858748.820   109613469.125 8      2078.715          49.375    20858755.380    85413112.507 8      1619.778          49.250    20858755.660    85413116.512 8      1619.778          50.562
G02  23278205.620   122327802.996 7      5004.850          43.125    23278204.240   122327803.004 5      5004.850          30.500    23278211.040    95320380.770 5      3899.883          30.562
R12  19179165.320   102451654.496 8      2191.893          49.375    19179165.260   102451654.483 8      2191.893          49.687    19179174.020    79684655.758 8      1704.805          50.375    19179173.740    79684657.760 8      1704.805          51.375
G26  22012311.960   115675480.158 7      -159.484          46.500    22012311.000   115675480.160 7      -159.484          44.875    22012320.680    90136771.087 7      -124.273          45.125    22012320.960    90136772.090 7      -124.273          46.750
R11  21916909.660   117117313.183 7     -1542.833          45.750    21916909.360   117117313.187 7     -1542.833          44.687    21916924.700    91091341.685 7     -1199.981          47.437    21916924.860    91091307.680 7     -1199.981          47.937
G07  24695835.820   129777500.472 7      4401.203          44.062    24695837.720   129777500.496 3      4401.203          21.750    24695836.480   101125357.145 3      3429.509          21.875    24695839.480   101125354.246 5      3429.509          33.062
R23  20403268.720   109143733.565 7      3071.677          45.312    20403268.180   109143733.586 7      3071.677          44.750
G16  20477253.680   107608696.411 7      1773.899          45.812    20477251.660   107608696.421 6      1773.899          40.312    20477255.820    83850936.983 6      1382.259          39.312
G21  21546029.120   113225147.629 7      4537.141          47.125    21546027.280   113225147.631 6      4537.141          36.187    21546033.180    88227360.311 6      3535.435          36.437
G08  21657844.340   113812743.506 7      3602.066          45.687    21657842.480   113812743.503 6      3602.066          36.312    21657850.520    88685279.640 5      2806.804          35.812    21657851.600    88685284.646 8      2806.804          48.750
G23  23242686.420   122141140.224 7      1283.243          44.437    23242686.180   122141140.229 5      1283.243          32.500    23242693.680    95174945.118 5       999.930          32.312    23242693.860    95174945.106 7       999.930          46.937
> 2024 05 10 11 53 48.0000000  0 13
R22  20424475.980   109027240.166 8       190.670          48.437    20424476.440   109027240.170 8       190.670          48.437    20424483.080    84798993.833 8       148.299          49.500    20424483.540    84798994.841 8       148.299          49.312
G10  22273381.580   117047412.362 7      3203.229          45.000    22273379.620   117047412.367 7      3203.229          45.625    22273389.780    91205809.631 7      2496.022          45.437    22273389.640    91205809.631 8      2496.022          48.375
G27  20858354.200   109611390.370 8      2078.703          49.000    20858353.260   109611390.369 8      2078.703          49.187    20858359.660    85411492.697 8      1619.769          49.125    20858359.960    85411496.698 8      1619.769          48.750
G02  23277253.280   122322798.227 7      5004.539          44.062    23277251.880   122322798.234 5      5004.539          30.500    23277258.820    95316480.953 5      3899.641          30.562
R12  19178754.820   102449463.009 8      2191.061          49.750    19178754.840   102449463.007 8      2191.061          49.750    19178763.680    79682951.270 8      1704.158          49.812    19178763.840    79682953.276 8      1704.158          50.937
G26  22012342.320   115675639.777 7      -159.852          46.187    22012341.320   115675639.779 7      -159.852          45.125    22012350.880    90136895.461 7      -124.560          44.875    22012351.200    90136896.471 7      -124.560          46.500
R11  21917198.440   117118856.176 7     -1543.303          45.687    21917198.180   117118856.171 7     -1543.303          44.812    21917213.460    91092541.776 7     -1200.347          46.875    21917213.300    91092507.775 7     -1200.347          47.375
G07  24694998.600   129773099.462 7      4400.893          44.312    24695000.160   129773099.482 3      4400.893          21.750    24694998.680   101121927.796 3      3429.267          21.875    24695002.300   101121924.905 5      3429.267          33.062
R23  20402694.320   109140662.090 7      3071.211          44.812    20402694.040   109140662.107 7      3071.211          45.000
G16  20476916.000   107606922.783 7      1773.344          46.250    20476914.040   107606922.794 6      1773.344          40.125    20476918.360    83849554.930 6      1381.827          39.250
G21  21545165.900   113220610.697 7      4536.586          46.750    21545163.940   113220610.699 6      4536.586          36.250    21545169.840    88223825.048 6      3535.002          36.375
G08  21657158.680   113809141.392 7      3602.128          45.437    21657157.040   113809141.384 6      3602.128          36.000    21657165.100    88682472.792 5      2806.853          35.937    21657166.020    88682477.796 7      2806.853          47.687
G23  23242442.420   122139857.199 7      1282.666          44.562    23242442.300   122139857.204 5      1282.666          32.500    23242449.440    95173945.355 5       999.480          32.312    23242449.540    95173945.343 7       999.480          46.437
> 2024 05 10 11 53 49.0000000  0 13
R22  20424440.380   109027049.621 8       190.352          48.000    20424440.880   109027049.622 8       190.352          48.312    20424447.440    84798845.627 8       148.051          49.625    20424447.960    84798846.637 8       148.051          49.312
G10  22272772.000   117044209.311 7      3202.674          44.500    22272770.000   117044209.310 7      3202.674          45.500    22272780.220    91203313.744 7      2495.590          45.312    22272780.160    91203313.744 7      2495.590          47.875
G27  20857958.820   109609311.785 8      2078.389          48.750    20857957.740   109609311.782 7      2078.389          47.812    20857963.960    85409873.021 7      1619.524          47.500    20857964.260    85409877.024 8      1619.524          49.875
G02  23276301.080   122317793.785 7      5004.172          44.062    23276299.720   122317793.795 5      5004.172          30.500    23276306.300    95312581.387 5      3899.355          30.125
R12  19178344.820   102447272.384 8      2190.100          49.875    19178344.840   102447272.377 8      2190.100          49.937    19178353.400    79681247.451 8      1703.411          48.375    19178353.520    79681249.453 8      1703.411          50.000
G26  22012372.780   115675799.717 7      -160.245          46.437    22012371.820   115675799.722 7      -160.245          44.875    22012381.340    90137020.089 7      -124.866          44.625    22012381.800    90137021.093 7      -124.866          46.750
R11  21917487.100   117120399.505 7     -1543.666          46.125    21917486.680   117120399.506 7     -1543.666          44.812    21917502.400    91093742.124 7     -1200.629          47.562    21917502.420    91093708.123 7     -1200.629          47.375
G07  24694161.100   129768698.890 7      4400.367          44.375    24694162.780   129768698.910 3      4400.367          21.312    24694161.100   101118498.783 3      3428.857          21.875    24694163.840   101118495.909 5      3428.857          33.062
R23  20402120.300   109137591.076 7      3070.679          44.812    20402120.260   109137591.089 7      3070.679          44.437
G16  20476578.560   107605149.606 7      1772.851          46.250    20476576.780   107605149.616 6      1772.851          40.000    20476581.020    83848173.235 6      1381.442          39.312
G21  21544302.460   113216074.227 7      4536.108          46.625    21544300.520   113216074.229 6      4536.108          36.000    21544306.560    88220290.138 5      3534.630          35.750
G08  21656473.540   113805539.409 7      3601.869          45.187    21656471.520   113805539.401 6      3601.869          36.000    21656479.580    88679666.054 5      2806.652          35.750    21656480.160    88679671.060 8      2806.652          48.250
G23  23242198.200   122138574.737 7      1282.051          44.562    23242198.260   122138574.742 5      1282.051          32.562    23242205.240    95172946.029 5       999.000          32.562    23242205.480    95172946.019 7       999.000          45.937
> 2024 05 10 11 53 50.0000000  0 13
R22  20424404.740   109026859.396 8       190.380          48.062    20424405.280   109026859.397 8       190.380          48.625    20424411.780    84798697.662 8       148.074          49.625    20424412.440    84798698.668 8       148.074          50.062
G10  22272162.640   117041006.900 7      3202.410          44.875    22272160.500   117041006.902 7      3202.410          45.687    22272170.760    91200818.363 7      2495.384          45.562    22272170.820    91200818.364 8      2495.384          48.062
G27  20857563.440   109607233.455 8      2078.459          48.562    20857561.940   109607233.452 8      2078.459          48.875    20857568.640    85408253.545 8      1619.578          48.937    20857568.880    85408257.546 8      1619.578          50.375
G02  23275348.660   122312789.770 7      5004.013          43.437    23275347.440   122312789.777 5      5004.013          30.000    23275354.260    95308682.158 5      3899.231          30.125
R12  19177934.780   102445082.710 8      2189.463          49.375    19177934.740   102445082.706 8      2189.463          49.750    19177943.520    79679544.370 8      1702.916          50.375    19177943.500    79679546.373 8      1702.916          50.625
G26  22012403.420   115675960.129 7      -160.396          46.437    22012402.360   115675960.129 7      -160.396          45.187    22012411.940    90137145.072 7      -124.984          45.062    22012412.540    90137146.084 7      -124.984          46.937
R11  21917775.820   117121943.309 7     -1543.772          46.875    21917775.920   117121943.311 7     -1543.772          45.187    21917791.240    91094942.838 7     -1200.711          47.625    21917791.380    91094908.839 7     -1200.711          47.562
G07  24693324.080   129764298.859 7      4400.175          44.437    24693325.500   129764298.880 3      4400.175          21.312    24693323.840   101115070.192 3      3428.708          21.875    24693328.640   101115067.311 5      3428.708          33.062
R23  20401546.440   109134520.625 7      3070.447          45.312    20401546.640   109134520.645 7      3070.447          45.250
G16  20476241.220   107603377.038 7      1772.525          46.375    20476239.520   107603377.045 6      1772.525          39.875    20476243.800    83846792.003 6      1381.188          39.562
G21  21543439.160   113211538.359 7      4535.888          47.125    21543437.320   113211538.367 6      4535.888          36.062    21543443.400    88216755.693 6      3534.458          36.437
G08  21655788.140   113801937.647 7      3601.918          45.500    21655786.080   113801937.639 6      3601.918          36.000    21655794.060    88676859.486 5      2806.689          35.875    21655794.880    88676864.499 8      2806.689          48.250
G23  23241954.480   122137292.955 7      1281.708          43.812    23241954.220   122137292.960 5      1281.708          32.562    23241961.400    95171947.236 5       998.734          32.562    23241961.560    95171947.226 7       998.734          46.312
> 2024 05 10 11 53 51.0000000  0 13
R22  20424368.960   109026669.233 8       190.004          48.250    20424369.600   109026669.231 8       190.004          48.500    20424376.260    84798549.753 8       147.781          50.437    20424376.520    84798550.757 8       147.781          50.187
G10  22271553.580   117037804.870 7      3201.681          45.187    22271551.160   117037804.872 7      3201.681          45.437    22271561.360    91198323.275 7      2494.816          45.562    22271561.600    91198323.271 8      2494.816          48.375
G27  20857168.060   109605155.102 8      2078.282          48.625    20857166.600   109605155.104 8      2078.282          49.187    20857173.200    85406634.051 8      1619.440          49.000    20857173.660    85406638.056 8      1619.440          50.437
G02  23274396.560   122307785.959 7      5003.640          43.500    23274395.260   122307785.964 5      5003.640          30.000    23274402.060    95304783.091 5      3898.940          30.125
R12  19177525.020   102442893.710 8      2188.524          49.625    19177524.800   102442893.708 8      2188.524          49.375    19177533.640    79677841.816 8      1702.186          50.562    19177533.760    79677843.815 8      1702.186          50.437
G26  22012433.680   115676120.708 7      -160.793          46.187    22012432.680   115676120.710 7      -160.793          45.187    22012442.620    90137270.196 7      -125.293          45.312    22012443.240    90137271.205 7      -125.293          46.937
R11  21918065.100   117123487.317 7     -1544.221          46.937    21918064.960   117123487.326 7     -1544.221          45.250    21918080.360    91096143.725 7     -1201.061          47.875    21918080.100    91096109.726 7     -1201.061          47.500
G07  24692486.780   129759899.115 7      4399.444          44.000    24692488.260   129759899.135 3      4399.444          21.312    24692486.480   101111641.830 3      3428.138          21.875    24692491.640   101111638.976 4      3428.138          29.125
R23  20400972.760   109131450.470 7      3069.812          45.375    20400972.700   109131450.499 7      3069.812          44.875
G16  20475903.980   107601604.759 7      1772.041          46.187    20475902.320   107601604.769 6      1772.041          41.000    20475906.540    83845411.008 6      1380.811          40.375
G21  21542576.200   113207002.827 7      4535.166          46.500    21542574.240   113207002.832 6      4535.166          36.062    21542580.320    88213221.515 6      3533.896          36.437
G08  21655102.760   113798335.836 7      3601.721          45.625    21655100.780   113798335.830 6      3601.721          36.312    21655108.880    88674052.882 6      2806.536          36.062    21655109.560    88674057.888 8      2806.536          48.562
G23  23241710.700   122136011.580 7      1281.064          44.250    23241710.420   122136011.585 5      1281.064          32.562    23241717.720    95170948.764 5       998.232          32.437    23241717.700    95170948.752 7       998.232          46.687
> 2024 05 10 11 53 52.0000000  0 13
R22  20424333.560   109026479.363 7       189.595          47.812    20424333.880   109026479.364 7       189.595          47.875    20424340.820    84798402.079 8       147.462          49.937    20424341.080    84798403.086 8       147.462          50.000
G10  22270944.140   117034603.418 7      3200.978          45.312    22270942.100   117034603.426 7      3200.978          45.687    22270952.180    91195828.646 7      2494.268          45.375    22270952.380    91195828.648 8      2494.268          48.375
G27  20856772.440   109603076.998 8      2077.872          48.562    20856770.920   109603076.998 8      2077.872          49.062    20856777.640    85405014.747 8      1619.121          48.875    20856777.940    85405018.752 8      1619.121          50.250
G02  23273444.400   122302782.569 7      5003.046          42.437    23273442.940   122302782.574 5      5003.046          30.000    23273449.680    95300884.337 5      3898.478          30.125
R12  19177115.440   102440705.660 8      2187.393          49.875    19177115.420   102440705.661 8      2187.393          49.312    19177124.080    79676139.997 8      1701.306          51.000    19177124.260    79676142.001 8      1701.306          50.937
G26  22012464.480   115676281.724 7      -161.340          46.312    22012463.300   115676281.724 7      -161.340          45.062    22012473.180    90137395.655 7      -125.720          44.625    22012473.460    90137396.663 7      -125.720          47.062
R11  21918354.080   117125031.808 7     -1544.831          45.687    21918354.540   117125031.812 7     -1544.831          45.687    21918369.600    91097344.975 7     -1201.535          47.750    21918369.180    91097310.976 8     -1201.535          48.312
G07  24691649.640   129755499.875 7      4398.905          45.062    24691651.160   129755499.893 3      4398.905          21.312    24691649.420   101108213.857 3      3427.718          21.875    24691652.960   101108210.995 4      3427.718          29.125
R23  20400398.740   109128380.862 7      3069.232          45.687    20400398.680   109128380.884 7      3069.232          44.937
G16  20475566.860   107599833.068 7      1771.258          46.875    20475565.280   107599833.078 6      1771.258          40.000    20475569.400    83844030.470 6      1380.201          39.625
G21  21541713.140   113202467.853 7      4534.524          46.500    21541711.320   113202467.855 5      4534.524          35.625    21541717.400    88209687.768 5      3533.395          35.937
G08  21654417.400   113794734.216 7      3601.348          46.000    21654415.500   113794734.213 6      3601.348          36.000    21654423.500    88671246.427 5      2806.245          35.687    21654424.220    88671251.435 8      2806.245          48.687
G23  23241466.620   122134730.870 7      1280.193          43.625    23241466.760   122134730.872 5      1280.193          32.750    23241473.860    95169950.800 5       997.553          32.437    23241474.200    95169950.788 7       997.553          46.375
> 2024 05 10 11 53 53.0000000  0 13
R22  20424298.160   109026289.638 8       189.770          48.062    20424298.900   109026289.631 8       189.770          48.125    20424305.100    84798254.527 8       147.599          50.125    20424305.540    84798255.532 8       147.599          50.625
G10  22270335.000   117031402.440 7      3200.802          45.687    22270333.160   117031402.442 7      3200.802          45.687    22270342.920    91193334.377 7      2494.131          44.937    22270343.080    91193334.377 8      2494.131          48.125
G27  20856377.080   109600998.981 7      2078.009          47.750    20856375.900   109600998.983 8      2078.009          49.187    20856382.360    85403395.513 8      1619.228          49.437    20856382.740    85403399.518 8      1619.228          50.062
G02  23272492.500   122297779.436 7      5003.060          43.250    23272490.820   122297779.441 5      5003.060          30.000    23272497.620    95296985.788 4      3898.489          29.250
R12  19176705.900   102438518.441 8      2186.874          50.000    19176705.740   102438518.439 8      2186.874          49.125    19176714.740    79674438.823 8      1700.902          51.062    19176714.720    79674440.826 8      1700.902          50.750
G26  22012494.920   115676443.025 7      -161.312          45.500    22012494.040   115676443.022 7      -161.312          45.312    22012503.620    90137521.328 7      -125.698          45.250    22012504.200    90137522.337 7      -125.698          46.875
R11  21918643.420   117126576.599 7     -1544.827          46.937    21918643.000   117126576.598 7     -1544.827          45.437    21918658.320    91098546.454 7     -1201.532          47.437    21918658.320    91098512.453 8     -1201.532          48.062
G07  24690812.500   129751100.998 7      4398.788          45.187    24690814.180   129751101.018 3      4398.788          21.312    24690812.380   101104786.163 3      3427.627          21.875    24690815.340   101104783.280 4      3427.627          29.125
R23  20399824.820   109125311.670 7      3069.025          46.437    20399824.720   109125311.693 7      3069.025          45.125
G16  20475229.960   107598061.790 7      1771.090          46.750    20475228.140   107598061.800 6      1771.090          40.125    20475232.240    83842650.251 6      1380.070          40.062
G21  21540850.300   113197933.285 7      4534.429          46.187    21540848.420   113197933.293 5      4534.429          35.625    21540854.460    88206154.343 5      3533.321          35.875
G08  21653732.020   113791132.640 7      3601.666          46.125    21653730.200   113791132.632 6      3601.666          36.187    21653738.200    88668440.002 6      2806.493          36.062    21653738.860    88668445.002 8      2806.493          48.562
G23  23241223.200   122133450.646 7      1280.088          43.562    23241223.040   122133450.648 5      1280.088          32.750    23241230.180    95168953.221 5       997.471          32.437    23241230.500    95168953.203 7       997.471          46.812
> 2024 05 10 11 53 54.0000000  0 13
R22  20424262.560   109026100.203 8       189.107          48.375    20424263.400   109026100.207 8       189.107          48.625    20424269.600    84798107.191 8       147.083          49.937    20424270.020    84798108.198 8       147.083          50.312
G10  22269725.940   117028202.065 7      3199.890          45.312    22269723.980   117028202.068 7      3199.890          46.500    22269734.120    91190840.578 7      2493.421          46.187    22269734.140    91190840.583 8      2493.421          48.187
G27  20855981.640   109598921.193 8      2077.507          48.312    20855980.440   109598921.190 8      2077.507          49.500    20855986.940    85401776.453 8      1618.837          49.312    20855987.180    85401780.458 8      1618.837          50.625
G02  23271540.420   122292776.700 7      5002.272          43.687    23271538.960   122292776.713 4      5002.272          29.000    23271545.720    95293087.554 4      3897.875          29.250
R12  19176296.840   102436332.146 8      2185.676          48.562    19176296.460   102436332.144 8      2185.676          49.562    19176305.540    79672738.375 8      1699.970          50.437    19176305.600    79672740.374 8      1699.970          51.187
G26  22012525.840   115676604.725 7      -161.989          46.187    22012524.940   115676604.722 7      -161.989          44.687    22012534.440    90137647.324 7      -126.225          45.000    22012534.820    90137648.329 7      -126.225          47.000
R11  21918932.820   117128121.828 7     -1545.563          45.562    21918932.320   117128121.826 7     -1545.563          45.437    21918947.600    91099748.286 7     -1202.105          47.937    21918947.420    91099714.287 7     -1202.105          47.625
G07  24689975.460   129746702.625 7      4397.944          44.875    24689977.140   129746702.648 3      4397.944          21.312    24689975.260   101101358.865 3      3426.969          21.375    24689978.320   101101355.991 4      3426.969          29.125
R23  20399251.360   109122243.018 7      3068.182          45.375    20399251.400   109122243.041 7      3068.182          44.937
G16  20474892.680   107596291.051 7      1770.294          46.250    20474890.960   107596291.058 6      1770.294          39.812    20474895.240    83841270.453 6      1379.450          39.312
G21  21539987.540   113193399.309 7      4533.453          46.437    21539985.720   113193399.314 5      4533.453          35.937    21539991.760    88202621.377 6      3532.561          36.500
G08  21653046.600   113787531.262 7      3601.047          46.187    21653044.840   113787531.254 6      3601.047          36.187    21653052.900    88665633.734 6      2806.010          36.062    21653053.760    88665638.734 8      2806.010          48.812
G23  23240979.560   122132171.069 7      1279.142          44.625    23240979.680   122132171.068 5      1279.142          32.125    23240986.760    95167956.139 5       996.734          32.187    23240986.980    95167956.127 7       996.734          46.312
> 2024 05 10 11 53 55.0000000  0 13
R22  20424227.380   109025911.006 8       189.079          48.750    20424227.560   109025911.015 8       189.079          48.000    20424234.140    84797960.037 8       147.062          50.187    20424234.480    84797961.045 8       147.062          50.562
G10  22269117.060   117025002.232 7      3199.527          45.312    22269115.120   117025002.237 7      3199.527          45.375    22269125.040    91188347.208 7      2493.138          45.125    22269125.060    91188347.208 7      2493.138          47.875
G27  20855586.180   109596843.572 8      2077.537          48.375    20855585.020   109596843.575 8      2077.537          49.375    20855591.580    85400157.528 8      1618.860          49.187    20855591.880    85400161.533 8      1618.860          50.312
G02  23270588.560   122287774.327 7      5002.201          42.750    23270587.020   122287774.334 4      5002.201          29.000    23270593.700    95289189.603 4      3897.819          29.250
R12  19175887.320   102434146.703 8      2184.982          48.687    19175887.260   102434146.709 8      2184.982          48.937    19175896.360    79671038.588 8      1699.430          50.312    19175896.300    79671040.592 8      1699.430          51.000
G26  22012556.440   115676766.806 7      -162.186          46.562    22012555.640   115676766.806 7      -162.186          44.937    22012565.380    90137773.616 7      -126.379          44.937    22012565.700    90137774.620 7      -126.379          46.875
R11  21919221.800   117129667.428 7     -1545.708          46.312    21919221.340   117129667.427 7     -1545.708          45.375    21919236.860    91100950.403 7     -1202.218          47.625    21919236.880    91100916.400 7     -1202.218          47.500
G07  24689138.880   129742304.696 7      4397.746          44.875    24689140.260   129742304.717 3      4397.746          21.312    24689138.560   101097931.912 3      3426.815          21.375    24689143.580   101097929.011 4      3426.815          29.125
R23  20398677.800   109119174.862 7      3067.942          45.312    20398677.700   109119174.885 7      3067.942          44.937
G16  20474555.900   107594520.821 7      1769.973          46.000    20474554.060   107594520.828 6      1769.973          39.562    20474558.420    83839891.051 6      1379.200          39.562
G21  21539124.820   113188865.811 7      4533.244          46.687    21539123.080   113188865.813 6      4533.244          36.125    21539129.120    88199088.785 6      3532.398          36.187
G08  21652361.480   113783929.997 7      3601.198          45.312    21652359.540   113783929.988 6      3601.198          36.250    21652367.680    88662827.555 5      2806.128          35.750    21652368.440    88662832.563 8      2806.128          48.875
G23  23240736.480   122130892.090 7      1278.683          44.750    23240736.380   122130892.093 5      1278.683          32.125    23240743.440    95166959.535 5       996.376          32.187    23240743.560    95166959.523 7       996.376          46.812
> 2024 05 10 11 53 56.0000000  0 13
R22  20424191.900   109025722.220 7       188.734          47.750    20424192.440   109025722.231 8       188.734          48.562    20424198.840    84797813.206 8       146.793          50.187    20424199.320    84797814.211 8       146.793          49.250
G10  22268508.420   117021803.137 7      3198.930          45.875    22268506.620   117021803.134 7      3198.930          45.625    22268516.180    91185854.397 7      2492.672          45.250    22268516.200    91185854.399 8      2492.672          48.437
G27  20855191.000   109594766.291 8      2077.318          48.437    20855189.640   109594766.293 8      2077.318          49.375    20855196.180    85398538.870 8      1618.689          49.250    20855196.560    85398542.877 8      1618.689          50.312
G02  23269636.840   122282772.490 7      5001.705          42.562    23269635.280   122282772.494 4      5001.705          29.000    23269641.880    95285292.065 4      3897.433          29.250
R12  19175478.460   102431962.315 8      2184.005          48.937    19175478.140   102431962.311 8      2184.005          49.500    19175487.360    79669339.608 8      1698.671          50.750    19175487.460    79669341.609 8      1698.671          51.062
G26  22012587.620   115676929.439 7      -162.717          46.125    22012586.580   115676929.436 7      -162.717          44.937    22012596.320    90137900.333 7      -126.793          44.750    22012596.620    90137901.339 7      -126.793          46.875
R11  21919511.260   117131213.595 7     -1546.311          46.750    21919510.620   117131213.604 7     -1546.311          45.625    21919526.120    91102152.977 7     -1202.687          47.875    21919526.160    91102118.978 7     -1202.687          47.375
G07  24688302.300   129737907.406 7      4397.135          44.187    24688303.520   129737907.429 3      4397.135          21.312    24688301.900   101094505.456 3      3426.339          21.375    24688306.100   101094502.574 4      3426.339          29.125
R23  20398104.440   109116107.382 7      3067.389          45.750    20398103.940   109116107.394 7      3067.389          44.875
G16  20474219.460   107592751.282 7      1769.369          45.250    20474217.440   107592751.287 6      1769.369          40.000    20474221.660    83838512.187 6      1378.729          39.312
G21  21538262.340   113184333.025 7      4532.573          46.812    21538260.660   113184333.022 6      4532.573          36.062    21538266.340    88195556.746 6      3531.875          36.187
G08  21651676.300   113780329.055 7      3600.927          45.687    21651674.100   113780329.052 6      3600.927          36.062    21651682.300    88660021.628 6      2805.917          36.312    21651683.180    88660026.632 8      2805.917          48.250
G23  23240492.880   122129613.882 7      1277.980          44.437    23240493.060   122129613.884 5      1277.980          32.500    23240500.380    95165963.524 5       995.828          32.312    23240500.380    95165963.516 7       995.828          47.000
> 2024 05 10 11 53 57.0000000  0 13
R22  20424156.380   109025533.645 8       188.421          48.937    20424157.340   109025533.653 8       188.421          48.562    20424163.400    84797666.532 8       146.550          49.812    20424163.860    84797667.538 8       146.550          49.625
G10  22267899.820   117018604.539 7      3198.278          45.125    22267897.820   117018604.547 7      3198.278          45.812    22267907.560    91183361.995 7      2492.165          45.687    22267907.600    91183361.999 7      2492.165          47.750
G27  20854795.460   109592689.188 8      2076.979          48.125    20854794.440   109592689.185 8      2076.979          49.187    20854800.920    85396920.344 8      1618.425          49.437    20854801.280    85396924.347 8      1618.425          50.437
G02  23268684.820   122277770.983 7      5001.190          42.500    23268683.580   122277770.993 4      5001.190          29.000    23268689.960    95281394.794 4      3897.031          29.250
R12  19175069.880   102429778.798 8      2182.976          48.875    19175069.300   102429778.796 8      2182.976          49.625    19175078.620    79667641.314 8      1697.870          50.687    19175078.580    79667643.318 8      1697.870          50.812
G26  22012618.820   115677092.400 7      -163.200          46.875    22012617.700   115677092.405 7      -163.200          45.125    22012627.420    90138027.312 7      -127.169          45.312    22012627.940    90138028.315 7      -127.169          47.062
R11  21919800.500   117132760.125 7     -1546.809          46.750    21919800.260   117132760.128 7     -1546.809          45.562    21919815.620    91103355.819 7     -1203.074          47.312    21919815.480    91103321.820 7     -1203.074          47.125
G07  24687465.660   129733510.539 7      4396.525          43.625    24687466.760   129733510.557 3      4396.525          21.375    24687465.120   101091079.324 3      3425.863          21.375    24687469.420   101091076.456 4      3425.863          29.125
R23  20397531.180   109113040.376 7      3066.698          46.000    20397530.680   109113040.396 7      3066.698          45.125
G16  20473882.520   107590982.206 7      1768.739          44.875    20473880.620   107590982.219 6      1768.739          40.125    20473885.000    83837133.691 6      1378.238          40.000
G21  21537399.760   113179800.696 7      4532.088          46.375    21537398.220   113179800.698 5      4532.088          35.687    21537403.740    88192025.067 5      3531.497          35.812
G08  21650991.080   113776728.212 7      3600.744          45.500    21650988.960   113776728.207 6      3600.744          36.312    21650997.100    88657215.775 6      2805.775          36.250    21650997.820    88657220.781 8      2805.775          48.437
G23  23240249.820   122128336.230 7      1277.303          43.937    23240249.980   122128336.232 5      1277.303          32.500    23240257.200    95164967.952 5       995.301          32.312    23240257.280    95164967.937 7       995.301          46.875
> 2024 05 10 11 53 58.0000000  0 13
R22  20424121.120   109025345.288 7       188.193          46.812    20424121.640   109025345.297 8       188.193          48.500    20424127.840    84797520.026 8       146.372          50.125    20424128.400    84797521.030 8       146.372          49.687
G10  22267291.240   117015406.485 7      3197.756          45.250    22267289.480   117015406.490 7      3197.756          45.937    22267299.040    91180870.008 7      2491.758          45.750    22267298.960    91180870.011 8      2491.758          48.062
G27  20854400.220   109590612.222 8      2076.818          48.250    20854399.200   109590612.219 8      2076.818          49.375    20854405.800    85395301.929 8      1618.300          49.437    20854406.140    85395305.934 8      1618.300          50.062
G02  23267733.180   122272769.795 7      5001.009          42.687    23267731.880   122272769.805 4      5001.009          29.000    23267738.360    95277497.764 4      3896.890          28.812
R12  19174661.180   102427596.183 8      2182.117          49.437    19174660.720   102427596.182 8      2182.117          49.812    19174670.100    79665943.725 8      1697.202          50.687    19174669.980    79665945.729 8      1697.202          51.062
G26  22012649.800   115677255.711 7      -163.602          46.437    22012648.720   115677255.708 7      -163.602          44.500    22012658.400    90138154.559 7      -127.482          44.500    22012658.800    90138155.562 7      -127.482          46.750
R11  21920090.300   117134307.010 7     -1547.136          46.687    21920089.860   117134307.019 7     -1547.136          44.937    21920105.100    91104558.932 7     -1203.328          46.812    21920104.980    91104524.928 7     -1203.328          47.750
G07  24686628.900   129729114.108 7      4396.082          44.312    24686630.100   129729114.123 3      4396.082          21.375    24686628.620   101087653.540 3      3425.519          21.375    24686632.440   101087650.653 4      3425.519          29.125
R23  20396957.820   109109973.837 7      3066.274          45.812    20396957.440   109109973.847 7      3066.274          44.937
G16  20473545.980   107589213.624 7      1768.227          45.625    20473544.160   107589213.634 6      1768.227          40.187    20473548.440    83835755.575 6      1377.839          39.437
G21  21536537.440   113175268.890 7      4531.400          46.750    21536535.760   113175268.892 5      4531.400          35.937    21536541.340    88188493.794 6      3530.961          36.250
G08  21650305.760   113773127.494 7      3600.538          45.875    21650303.780   113773127.491 6      3600.538          36.000    21650311.900    88654410.022 5      2805.614          35.875    21650312.720    88654415.028 8      2805.614          48.812
G23  23240006.820   122127059.165 7      1276.692          44.187    23240007.000   122127059.164 5      1276.692          32.250    23240014.280    95163972.831 5       994.825          32.250    23240014.500    95163972.823 7       994.825          46.750
> 2024 05 10 11 53 59.0000000  0 13
R22  20424085.900   109025157.140 8       187.898          48.937    20424086.720   109025157.152 8       187.898          48.687    20424092.360    84797373.668 8       146.143          50.000    20424093.140    84797374.670 8       146.143          49.312
G10  22266682.880   117012208.959 7      3197.248          45.562    22266680.940   117012208.964 7      3197.248          45.937    22266690.640    91178378.428 7      2491.362          45.750    22266690.700    91178378.432 8      2491.362          48.062
G27  20854005.080   109588535.411 8      2076.697          48.562    20854004.220   109588535.408 8      2076.697          49.250    20854010.420    85393683.632 8      1618.206          49.437    20854010.980    85393687.635 8      1618.206          50.000
G02  23266781.320   122267768.969 7      5000.514          43.500    23266780.020   122267768.977 4      5000.514          28.750    23266786.580    95273601.025 4      3896.504          28.812
R12  19174252.640   102425414.426 8      2181.272          49.250    19174252.220   102425414.425 8      2181.272          49.250    19174261.620    79664246.803 8      1696.545          50.500    19174261.700    79664248.802 8      1696.545          50.750
G26  22012681.080   115677419.369 7      -163.886          45.875    22012679.640   115677419.366 7      -163.886          44.812    22012689.560    90138282.074 7      -127.703          44.250    22012690.020    90138283.079 7      -127.703          46.375
R11  21920379.720   117135854.248 7     -1547.478          46.500    21920379.620   117135854.260 7     -1547.478          45.250    21920394.500    91105762.320 7     -1203.594          47.000    21920394.420    91105728.319 7     -1203.594          46.750
G07  24685791.960   129724718.090 7      4395.792          44.437    24685793.500   129724718.102 3      4395.792          21.375    24685792.060   101084228.071 3      3425.293          21.375    24685796.400   101084225.202 4      3425.293          29.125
R23  20396384.440   109106907.783 7      3065.733          46.562    20396384.120   109106907.803 7      3065.733          44.875
G16  20473209.420   107587445.520 7      1767.809          45.812    20473207.580   107587445.530 6      1767.809          39.625    20473211.900    83834377.827 6      1377.513          39.375
G21  21535675.320   113170737.544 7      4530.981          46.250    21535673.400   113170737.546 5      4530.981          35.937    21535679.160    88184962.879 5      3530.635          35.625
G08  21649620.700   113769526.885 7      3600.421          46.375    21649619.020   113769526.882 6      3600.421          36.312    21649626.600    88651604.353 6      2805.523          36.062    21649627.260    88651609.353 8      2805.523          48.125
G23  23239763.940   122125782.653 7      1276.117          44.625    23239764.020   122125782.650 5      1276.117          32.250    23239771.300    95162978.143 5       994.377          32.250    23239771.280    95162978.131 7       994.377          47.125
> 2024 05 10 11 54  0.0000000  0 13
R22  20424050.620   109024969.128 8       188.021          48.312    20424051.360   109024969.134 8       188.021          48.437    20424057.600    84797227.426 8       146.239          49.687    20424058.000    84797228.425 8       146.239          49.125
G10  22266074.420   117009011.890 7      3196.915          45.437    22266072.280   117009011.892 7      3196.915          45.625    22266082.120    91175887.209 7      2491.103          45.500    22266082.280    91175887.213 7      2491.103          47.375
G27  20853609.980   109586458.676 8      2076.789          48.875    20853609.120   109586458.671 8      2076.789          49.625    20853615.300    85392065.393 8      1618.277          49.562    20853615.640    85392069.398 8      1618.277          48.500
G02  23265830.100   122262768.388 7      5000.405          43.062    23265828.560   122262768.398 4      5000.405          28.750    23265834.720    95269704.482 4      3896.419          28.812
R12  19173844.440   102423233.414 8      2180.673          48.875    19173844.080   102423233.416 8      2180.673          48.687    19173853.340    79662550.463 8      1696.079          50.375    19173853.280    79662552.466 8      1696.079          50.875
G26  22012712.160   115677583.286 7      -164.009          46.062    22012710.820   115677583.286 7      -164.009          44.500    22012720.680    90138409.796 7      -127.799          44.375    22012721.200    90138410.801 7      -127.799          46.687
R11  21920669.440   117137401.788 7     -1547.637          46.562    21920669.180   117137401.792 7     -1547.637          45.250    21920684.160    91106965.937 7     -1203.718          45.375    21920683.960    91106931.934 7     -1203.718          46.687
G07  24684955.160   129720322.442 7      4395.528          44.750    24684956.980   129720322.457 3      4395.528          21.375    24684955.740   101080802.897 3      3425.087          21.375    24684963.100   101080800.039 4      3425.087          29.125
R23  20395811.340   109103842.095 7      3065.629          45.437    20395810.820   109103842.102 7      3065.629          44.687
G16  20472873.080   107585677.813 7      1767.625          46.500    20472871.320   107585677.820 6      1767.625          39.937    20472875.600    83833000.393 6      1377.370          39.437
G21  21534813.120   113166206.610 7      4530.801          46.062    21534811.220   113166206.618 5      4530.801          35.312    21534816.880    88181432.281 5      3530.494          35.312
G08  21648935.560   113765926.300 7      3600.684          46.437    21648933.780   113765926.289 6      3600.684          36.312    21648941.440    88648798.699 6      2805.728          36.187    21648942.120    88648803.694 8      2805.728          48.625
G23  23239521.300   122124506.628 7      1275.878          44.812    23239521.220   122124506.628 5      1275.878          32.250    23239528.540    95161983.838 5       994.190          32.250    23239528.320    95161983.830 7       994.190          46.687
> 2024 05 10 11 54  1.0000000  0 13
R22  20424015.340   109024781.252 8       187.991          49.500    20424015.480   109024781.258 8       187.991          49.000    20424022.460    84797081.298 8       146.215          49.562    20424022.760    84797082.298 8       146.215          49.437
G10  22265465.960   117005815.267 7      3196.424          45.625    22265464.240   117005815.275 7      3196.424          45.750    22265473.540    91173396.343 7      2490.720          45.187    22265473.760    91173396.345 7      2490.720          47.437
G27  20853214.940   109584382.007 8      2076.832          49.187    20853214.060   109584382.007 8      2076.832          50.062    20853220.100    85390447.214 8      1618.311          49.375    20853220.320    85390451.219 8      1618.311          50.312
G02  23264878.220   122257768.069 7      5000.262          43.125    23264877.060   122257768.079 4      5000.262          28.750    23264883.260    95265808.132 4      3896.308          28.812
R12  19173436.320   102421053.172 8      2179.962          50.687    19173436.020   102421053.173 8      2179.962          50.125    19173445.320    79660854.710 8      1695.526          50.437    19173445.200    79660856.713 8      1695.526          50.187
G26  22012743.380   115677747.472 7      -164.194          45.812    22012742.240   115677747.477 7      -164.194          44.812    22012751.940    90138537.729 7      -127.943          44.750    22012752.760    90138538.730 7      -127.943          46.937
R11  21920958.940   117138949.608 7     -1547.835          46.437    21920958.560   117138949.610 7     -1547.835          45.437    21920973.900    91108169.785 7     -1203.871          46.500    21920973.700    91108135.782 7     -1203.871          47.000
G07  24684118.760   129715927.130 7      4395.287          43.562    24684120.380   129715927.148 3      4395.287          21.375    24684119.300   101077377.987 3      3424.899          21.375    24684126.600   101077375.108 4      3424.899          29.125
R23  20395238.780   109100776.798 7      3065.247          46.250    20395237.720   109100776.810 7      3065.247          45.187
G16  20472536.740   107583910.529 7      1767.201          47.125    20472535.120   107583910.536 6      1767.201          39.937    20472539.140    83831623.288 6      1377.040          39.500
G21  21533951.060   113161676.097 7      4530.465          47.312    21533949.260   113161676.102 5      4530.465          35.375    21533954.860    88177902.009 5      3530.233          35.312
G08  21648250.360   113762325.760 7      3600.681          46.062    21648248.680   113762325.755 6      3600.681          36.437    21648256.320    88645993.083 6      2805.725          36.312    21648257.160    88645998.085 8      2805.725          48.875
G23  23239278.380   122123231.110 7      1275.398          44.625    23239278.240   122123231.115 5      1275.398          32.437    23239285.660    95160989.930 5       993.816          32.125    23239285.600    95160989.924 7       993.816          46.375
> 2024 05 10 11 54  2.0000000  0 13
R22  20423980.460   109024593.939 8       187.185          49.000    20423980.440   109024593.943 8       187.185          48.750    20423987.300    84796935.606 8       145.588          50.187    20423987.660    84796936.608 8       145.588          50.187
G10  22264857.640   117002619.496 7      3195.356          45.750    22264855.920   117002619.504 7      3195.356          45.750    22264865.580    91170906.136 7      2489.888          45.625    22264865.600    91170906.144 7      2489.888          47.687
G27  20852819.720   109582305.845 8      2076.104          49.125    20852818.840   109582305.845 8      2076.104          49.812    20852825.020    85388829.425 8      1617.743          49.125    20852825.320    85388833.430 8      1617.743          50.250
G02  23263927.160   122252768.413 7      4999.504          43.687    23263925.580   122252768.417 4      4999.504          28.750    23263931.900    95261912.302 4      3895.717          28.812
R12  19173028.540   102418874.139 8      2178.567          50.500    19173028.260   102418874.137 8      2178.567          50.625    19173037.280    79659159.901 8      1694.441          50.375    19173037.140    79659161.904 8      1694.441          51.000
G26  22012774.680   115677912.344 7      -165.092          46.812    22012773.740   115677912.348 7      -165.092          45.562    22012783.260    90138666.192 7      -128.643          45.312    22012784.000    90138667.193 7      -128.643          46.625
R11  21921248.840   117140498.126 7     -1548.798          46.437    21921248.360   117140498.125 7     -1548.798          45.437    21921263.620    91109374.167 7     -1204.621          47.062    21921263.600    91109340.168 7     -1204.621          47.125
G07  24683282.520   129711532.609 7      4394.257          44.437    24683284.160   129711532.622 3      4394.257          21.375    24683283.420   101073953.687 3      3424.096          21.375    24683289.720   101073950.821 5      3424.096          31.062
R23  20394665.760   109097712.289 7      3064.253          46.500    20394664.860   109097712.307 7      3064.253          45.625
G16  20472200.540   107582144.056 7      1766.139          46.437    20472199.040   107582144.064 6      1766.139          40.562    20472203.000    83830246.812 6      1376.212          39.750
G21  21533089.060   113157146.419 7      4529.362          46.687    21533087.280   113157146.421 6      4529.362          36.062    21533092.800    88174372.392 5      3529.373          35.687
G08  21647565.400   113758725.669 7      3599.900          46.812    21647563.600   113758725.664 6      3599.900          36.500    21647571.340    88643187.819 6      2805.117          36.562    21647572.100    88643192.830 8      2805.117          48.750
G23  23239035.820   122121956.502 7      1274.215          44.687    23239035.940   122121956.501 5      1274.215          32.437    23239043.100    95159996.724 5       992.895          32.125    23239043.140    95159996.716 7       992.895          46.437
> 2024 05 10 11 54  3.0000000  0 13
R22  20423945.580   109024406.597 8       187.418          49.937    20423945.700   109024406.606 8       187.418          49.375    20423952.120    84796789.900 8       145.769          50.062    20423952.680    84796790.897 8       145.769          49.625
G10  22264249.640   116999424.022 7      3195.343          45.937    22264248.100   116999424.030 7      3195.343          45.812    22264257.500    91168416.150 7      2489.878          45.375    22264257.580    91168416.152 7      2489.878          47.687
G27  20852424.720   109580229.596 8      2076.312          49.562    20852423.800   109580229.596 8      2076.312          50.500    20852429.860    85387211.565 8      1617.905          49.812    20852430.200    85387215.572 8      1617.905          50.125
G02  23262975.580   122247768.869 7      4999.554          43.500    23262974.240   122247768.877 4      4999.554          28.562    23262980.540    95258016.556 4      3895.756          28.750
R12  19172620.560   102416695.747 8      2178.179          50.062    19172620.240   102416695.746 8      2178.179          50.125    19172629.200    79657465.598 8      1694.139          50.750    19172629.360    79657467.599 8      1694.139          50.875
G26  22012806.120   115678077.317 7      -164.909          46.187    22012805.100   115678077.322 7      -164.909          45.062    22012814.820    90138794.739 7      -128.501          45.250    22012815.380    90138795.740 7      -128.501          47.062
R11  21921538.720   117142046.751 7     -1548.648          46.937    21921538.240   117142046.747 7     -1548.648          46.125    21921553.140    91110578.645 7     -1204.504          47.250    21921553.180    91110544.646 7     -1204.504          47.062
G07  24682446.620   129707138.267 7      4394.294          44.812    24682447.940   129707138.280 3      4394.294          21.375    24682447.340   101070529.530 3      3424.125          22.062    24682454.200   101070526.658 5      3424.125          31.062
R23  20394093.020   109094648.011 7      3064.184          46.187    20394091.500   109094648.023 7      3064.184          45.375
G16  20471864.660   107580377.821 7      1766.154          46.687    20471862.980   107580377.825 6      1766.154          39.812    20471866.840    83828870.519 6      1376.224          39.187
G21  21532226.960   113152616.965 7      4529.343          46.937    21532225.500   113152616.967 6      4529.343          36.062    21532231.000    88170842.949 5      3529.358          35.812
G08  21646880.340   113755125.463 7      3600.171          46.062    21646878.500   113755125.460 6      3600.171          36.812    21646886.220    88640382.468 6      2805.328          36.625    21646887.140    88640387.468 8      2805.328          48.812
G23  23238793.400   122120682.216 7      1274.165          44.562    23238793.400   122120682.221 5      1274.165          32.437    23238800.580    95159003.772 5       992.856          32.250    23238801.000    95159003.762 7       992.856          46.750
> 2024 05 10 11 54  4.0000000  0 13
R22  20423910.460   109024219.460 7       186.838          47.125    20423910.360   109024219.466 8       186.838          48.625    20423917.160    84796644.343 8       145.319          49.875    20423917.620    84796645.344 8       145.319          49.312
G10  22263641.740   116996229.042 7      3194.572          46.437    22263640.200   116996229.050 7      3194.572          45.250    22263649.460    91165926.563 7      2489.277          45.437    22263649.540    91165926.563 7      2489.277          47.562
G27  20852029.660   109578153.469 8      2075.828          48.375    20852028.620   109578153.473 8      2075.828          49.375    20852034.760    85385593.807 8      1617.529          49.437    20852034.920    85385597.812 8      1617.529          50.187
G02  23262024.360   122242769.628 7      4998.895          43.375    23262022.840   122242769.635 4      4998.895          28.562    23262029.220    95254121.045 4      3895.243          28.750
R12  19172212.960   102414518.208 8      2176.931          48.812    19172212.640   102414518.211 8      2176.931          49.250    19172221.780    79655771.958 8      1693.169          50.250    19172221.820    79655773.955 8      1693.169          51.000
G26  22012837.700   115678242.628 7      -165.532          46.250    22012836.480   115678242.627 7      -165.532          44.812    22012846.260    90138923.538 7      -128.986          44.937    22012846.780    90138924.541 7      -128.986          46.750
R11  21921828.460   117143595.742 7     -1549.352          45.625    21921828.300   117143595.727 7     -1549.352          46.062    21921843.300    91111783.376 7     -1205.052          47.375    21921843.180    91111749.377 7     -1205.052          46.812
G07  24681610.440   129702744.366 7      4393.468          45.062    24681611.800   129702744.379 3      4393.468          21.375    24681611.400   101067105.716 3      3423.481          22.062    24681620.200   101067102.862 5      3423.481          31.062
R23  20393520.580   109091584.171 7      3063.437          45.125    20393519.020   109091584.189 7      3063.437          44.625
G16  20471528.440   107578612.037 7      1765.355          46.250    20471526.840   107578612.049 6      1765.355          39.812    20471530.860    83827494.589 6      1375.602          39.250
G21  21531365.040   113148087.989 7      4528.596          46.937    21531363.740   113148087.994 5      4528.596          35.687    21531368.920    88167313.881 5      3528.776          35.937
G08  21646195.060   113751525.330 7      3599.872          45.812    21646193.440   113751525.325 6      3599.872          36.687    21646201.120    88637577.169 6      2805.095          36.125    21646202.360    88637582.165 8      2805.095          49.000
G23  23238550.920   122119408.471 7      1273.317          44.750    23238551.020   122119408.474 5      1273.317          32.437    23238558.320    95158011.240 5       992.195          32.250    23238558.540    95158011.240 7       992.195          47.062
> 2024 05 10 11 54  5.0000000  0 13
R22  20423875.300   109024032.711 7       186.608          47.687    20423875.580   109024032.725 8       186.608          48.000    20423882.320    84796499.100 8       145.139          49.875    20423882.700    84796500.099 8       145.139          50.062
G10  22263033.880   116993034.814 7      3193.912          46.000    22263032.200   116993034.824 7      3193.912          46.062    22263041.720    91163437.556 7      2488.762          45.375    22263041.440    91163437.558 7      2488.762          47.437
G27  20851634.780   109576077.693 8      2075.714          48.750    20851634.000   109576077.692 8      2075.714          49.875    20851639.960    85383976.315 8      1617.440          49.812    20851639.960    85383980.318 8      1617.440          50.437
G02  23261073.040   122237770.917 7      4998.557          43.375    23261071.600   122237770.922 4      4998.557          28.562    23261078.020    95250225.948 4      3894.979          28.750
R12  19171805.600   102412341.710 8      2176.090          48.875    19171805.260   102412341.708 8      2176.090          49.312    19171814.300    79654079.118 8      1692.514          50.687    19171814.320    79654081.119 8      1692.514          50.812
G26  22012869.040   115678408.474 7      -166.041          46.500    22012868.060   115678408.479 7      -166.041          44.875    22012877.640    90139052.767 7      -129.382          45.000    22012878.480    90139053.772 7      -129.382          46.937
R11  21922118.260   117145145.261 7     -1549.735          45.437    21922118.080   117145145.260 7     -1549.735          45.187    21922133.380    91112988.558 7     -1205.350          47.062    21922133.160    91112954.559 7     -1205.350          47.187
G07  24680774.280   129698351.062 7      4393.044          43.625    24680775.660   129698351.077 3      4393.044          22.437    24680775.360   101063682.368 3      3423.151          22.062    24680785.820   101063679.485 5      3423.151          31.062
R23  20392947.320   109088521.006 7      3062.956          44.812    20392946.360   109088521.034 7      3062.956          44.500
G16  20471192.680   107576846.941 7      1764.829          46.312    20471191.020   107576846.949 6      1764.829          40.125    20471195.100    83826119.186 6      1375.192          39.500
G21  21530503.460   113143559.698 7      4528.046          45.937    21530501.820   113143559.706 5      4528.046          35.562    21530507.260    88163785.347 5      3528.348          35.937
G08  21645510.160   113747925.507 7      3599.711          46.500    21645508.500   113747925.502 6      3599.711          36.437    21645516.140    88634772.113 6      2804.970          36.437    21645517.180    88634777.115 8      2804.970          48.687
G23  23238308.740   122118135.500 7      1272.755          44.750    23238308.860   122118135.502 5      1272.755          32.625    23238316.100    95157019.316 5       991.758          32.437    23238316.480    95157019.308 7       991.758          46.750
> 2024 05 10 11 54  6.0000000  0 13
R22  20423840.560   109023846.004 8       186.701          48.437    20423840.480   109023846.015 8       186.701          48.562    20423847.360    84796353.877 8       145.212          50.250    20423847.640    84796354.878 8       145.212          50.250
G10  22262426.140   116989840.929 7      3193.690          45.562    22262424.300   116989840.937 7      3193.690          45.437    22262433.860    91160948.815 7      2488.589          44.812    22262433.940    91160948.817 7      2488.589          47.562
G27  20851239.800   109574001.901 8      2075.776          48.562    20851238.760   109574001.901 8      2075.776          49.437    20851245.020    85382358.817 8      1617.488          49.687    20851245.160    85382362.818 8      1617.488          50.437
G02  23260122.060   122232772.380 7      4998.453          43.500    23260120.340   122232772.390 4      4998.453          28.562    23260127.000    95246330.990 4      3894.899          28.750
R12  19171398.520   102410165.895 8      2175.481          49.437    19171397.960   102410165.894 8      2175.481          49.625    19171407.120    79652386.816 8      1692.041          50.562    19171406.880    79652388.817 8      1692.041          50.375
G26  22012900.720   115678574.491 7      -166.125          45.375    22012899.460   115678574.496 7      -166.125          44.937    22012909.320    90139182.124 7      -129.448          44.437    22012909.880    90139183.128 7      -129.448          46.687
R11  21922408.180   117146694.971 7     -1549.696          45.875    21922408.080   117146694.969 7     -1549.696          45.062    21922423.420    91114193.871 7     -1205.319          47.125    21922423.280    91114159.872 7     -1205.319          47.687
G07  24679938.380   129693958.034 7      4392.867          43.687    24679939.700   129693958.052 3      4392.867          22.437    24679939.740   101060259.235 3      3423.013          22.062    24679948.960   101060256.356 5      3423.013          31.062
R23  20392374.660   109085458.185 7      3062.694          44.625    20392373.600   109085458.208 7      3062.694          44.375
G16  20470856.920   107575082.145 7      1764.642          47.062    20470854.940   107575082.153 6      1764.642          39.500    20470859.280    83824744.018 6      1375.046          39.812
G21  21529641.760   113139031.718 7      4527.848          47.250    21529640.240   113139031.723 5      4527.848          35.500    21529645.480    88160257.055 5      3528.194          35.500
G08  21644825.140   113744325.606 7      3600.041          47.125    21644823.440   113744325.600 6      3600.041          36.625    21644831.220    88631966.991 6      2805.227          36.500    21644832.040    88631971.999 8      2805.227          49.000
G23  23238066.500   122116862.959 7      1272.264          44.937    23238066.680   122116862.961 5      1272.264          32.625    23238073.920    95156027.724 5       991.375          32.437    23238074.300    95156027.714 7       991.375          47.187
> 2024 05 10 11 54  7.0000000  0 13
R22  20423805.820   109023659.614 7       186.181          47.312    20423805.560   109023659.621 8       186.181          48.000    20423812.240    84796208.899 8       144.807          50.312    20423812.480    84796209.898 8       144.807          49.687
G10  22261818.800   116986647.649 7      3192.959          46.562    22261816.720   116986647.657 7      3192.959          45.437    22261826.220    91158460.544 7      2488.020          45.312    22261826.100    91158460.549 7      2488.020          47.625
G27  20850844.700   109571926.346 8      2075.470          48.750    20850843.560   109571926.343 8      2075.470          49.250    20850850.000    85380741.498 8      1617.249          49.500    20850850.100    85380745.499 8      1617.249          49.937
G02  23259170.820   122227774.266 7      4997.823          42.562    23259169.180   122227774.276 4      4997.823          28.562    23259175.660    95242436.364 4      3894.408          28.750
R12  19170991.380   102407991.048 8      2174.323          49.750    19170990.580   102407991.049 8      2174.323          48.750    19170999.980    79650695.268 8      1691.140          50.437    19170999.960    79650697.269 8      1691.140          50.937
G26  22012932.320   115678740.942 7      -166.671          46.375    22012931.300   115678740.944 7      -166.671          44.625    22012941.040    90139311.816 7      -129.874          45.062    22012941.720    90139312.819 7      -129.874          47.062
R11  21922697.620   117148245.191 7     -1550.556          46.000    21922698.060   117148245.181 7     -1550.556          45.125    21922713.300    91115399.568 7     -1205.988          47.187    21922713.600    91115365.565 7     -1205.988          47.250
G07  24679102.440   129689565.515 7      4392.302          45.437    24679103.720   129689565.536 3      4392.302          22.437    24679104.060   101056836.501 3      3422.573          22.062    24679113.920   101056833.635 5      3422.573          31.062
R23  20391802.640   109082395.902 7      3062.060          44.687    20391801.120   109082395.914 7      3062.060          44.375
G16  20470521.440   107573317.919 7      1763.954          46.500    20470519.380   107573317.927 6      1763.954          39.437    20470523.520    83823369.295 6      1374.509          39.187
G21  21528780.520   113134504.324 7      4527.163          45.687    21528778.580   113134504.326 5      4527.163          35.437    21528783.900    88156729.215 5      3527.660          35.687
G08  21644140.220   113740725.949 7      3599.547          46.500    21644138.380   113740725.946 6      3599.547          36.437    21644146.340    88629162.063 6      2804.842          36.437    21644147.260    88629167.067 8      2804.842          49.062
G23  23237824.620   122115591.030 7      1271.578          44.312    23237824.600   122115591.029 5      1271.578          32.437    23237831.700    95155036.608 5       990.840          32.437    23237831.580    95155036.596 7       990.840          46.500
> 2024 05 10 11 54  8.0000000  0 13
R22  20423770.900   109023473.391 7       186.080          46.625    20423770.900   109023473.399 8       186.080          48.250    20423777.500    84796064.056 8       144.729          49.937    20423777.740    84796065.056 8       144.729          49.937
G10  22261211.000   116983454.879 7      3192.442          45.437    22261209.140   116983454.886 7      3192.442          45.687    22261218.720    91155972.669 7      2487.617          45.437    22261218.560    91155972.674 7      2487.617          47.812
G27  20850449.880   109569850.925 8      2075.214          48.312    20850449.060   109569850.922 8      2075.214          49.625    20850455.060    85379124.286 8      1617.050          49.500    20850454.900    85379128.289 8      1617.050          50.125
G02  23258219.740   122222776.456 7      4997.466          43.750    23258218.180   122222776.464 4      4997.466          28.812    23258224.640    95238541.971 4      3894.129          28.625
R12  19170584.340   102405817.044 8      2173.479          49.437    19170583.700   102405817.043 8      2173.479          49.312    19170592.860    79649004.374 8      1690.484          50.187    19170592.720    79649006.375 8      1690.484          50.312
G26  22012963.880   115678907.700 7      -167.023          46.000    22012962.880   115678907.707 7      -167.023          45.437    22012972.780    90139441.753 7      -130.148          45.000    22012973.460    90139442.752 7      -130.148          47.187
R11  21922988.220   117149795.702 7     -1550.782          45.687    21922987.880   117149795.700 7     -1550.782          44.875    21923003.640    91116605.517 7     -1206.164          47.437    21923003.640    91116571.518 7     -1206.164          47.375
G07  24678266.760   129685173.412 7      4391.788          45.125    24678267.940   129685173.430 3      4391.788          22.437    24678268.840   101053414.091 3      3422.172          22.062    24678279.200   101053411.200 5      3422.172          35.312
R23  20391230.100   109079334.087 7      3061.450          44.812    20391228.540   109079334.097 7      3061.450          43.687
G16  20470185.760   107571554.159 7      1763.411          46.375    20470183.680   107571554.169 6      1763.411          40.000    20470187.820    83821994.934 6      1374.086          39.500
G21  21527918.860   113129977.389 7      4526.511          46.062    21527917.140   113129977.394 5      4526.511          35.437    21527922.680    88153201.740 5      3527.151          35.187
G08  21643455.160   113737126.344 7      3599.446          46.687    21643453.460   113737126.341 6      3599.446          36.750    21643461.220    88626357.178 6      2804.763          36.187    21643462.080    88626362.180 8      2804.763          48.375
G23  23237582.560   122114319.655 7      1271.025          44.062    23237582.580   122114319.655 5      1271.025          32.437    23237589.800    95154045.923 5       990.409          32.312    23237590.080    95154045.911 7       990.409          46.875
> 2024 05 10 11 54  9.0000000  0 13
R22  20423736.160   109023287.599 8       185.678          48.250    20423736.180   109023287.613 8       185.678          48.250    20423742.700    84795919.554 8       144.416          49.687    20423743.020    84795920.551 8       144.416          49.687
G10  22260603.660   116980262.833 7      3191.734          44.437    22260601.700   116980262.838 7      3191.734          45.750    22260611.260    91153485.363 7      2487.065          45.500    22260610.900    91153485.368 7      2487.065          47.000
G27  20850054.920   109567775.846 7      2074.986          47.625    20850053.900   109567775.848 8      2074.986          48.812    20850060.140    85377507.341 8      1616.872          49.375    20850060.280    85377511.342 8      1616.872          50.437
G02  23257268.800   122217779.188 7      4996.905          43.500    23257267.100   122217779.196 4      4996.905          28.812    23257273.600    95234648.006 4      3893.692          28.625
R12  19170177.620   102403644.077 8      2172.520          49.500    19170177.160   102403644.078 8      2172.520          49.437    19170185.980    79647314.289 8      1689.738          50.437    19170186.060    79647316.290 8      1689.738          50.812
G26  22012995.740   115679075.012 7      -167.549          46.000    22012994.860   115679075.017 7      -167.549          44.687    22013004.680    90139572.122 7      -130.558          44.562    22013005.140    90139573.124 7      -130.558          46.750
R11  21923278.720   117151346.819 7     -1551.336          45.375    21923278.100   117151346.818 7     -1551.336          44.250    21923294.140    91117811.917 7     -1206.595          47.125    21923293.980    91117777.918 7     -1206.595          47.250
G07  24677430.980   129680781.955 7      4391.178          44.687    24677432.360   129680781.967 3      4391.178          22.437    24677433.640   101049992.179 3      3421.697          22.062    24677443.660   101049989.272 5      3421.697          35.312
R23  20390657.920   109076272.893 7      3060.991          44.125    20390656.360   109076272.905 7      3060.991          44.437
G16  20469850.020   107569791.055 7      1762.827          45.062    20469848.140   107569791.068 6      1762.827          39.437    20469852.340    83820621.087 6      1373.631          39.562
G21  21527057.340   113125451.143 7      4525.929          45.875    21527055.820   113125451.145 5      4525.929          35.187    21527061.240    88149674.797 5      3526.698          35.187
G08  21642770.260   113733527.060 7      3599.191          46.000    21642768.480   113733527.054 6      3599.191          36.312    21642776.280    88623552.541 6      2804.564          36.000    21642777.060    88623557.545 8      2804.564          49.187
G23  23237340.920   122113049.067 7      1270.223          44.062    23237340.600   122113049.074 5      1270.223          32.437    23237348.160    95153055.854 5       989.784          32.312    23237348.320    95153055.844 7       989.784          46.562
> 2024 05 10 11 54 10.0000000  0 13
R22  20423700.980   109023102.125 8       185.478          48.937    20423701.460   109023102.142 8       185.478          48.687    20423708.080    84795775.298 8       144.261          50.250    20423708.000    84795776.298 8       144.261          50.187
G10  22259996.320   116977071.429 7      3191.198          45.750    22259994.600   116977071.437 7      3191.198          45.562    22260003.880    91150998.565 7      2486.648          45.437    22260003.860    91150998.570 7      2486.648          47.687
G27  20849659.980   109565701.045 8      2074.823          48.375    20849659.300   109565701.042 8      2074.823          49.750    20849665.300    85375890.611 8      1616.745          49.750    20849665.480    85375894.612 8      1616.745          50.250
G02  23256317.760   122212782.351 7      4996.732          43.062    23256316.340   122212782.359 4      4996.732          28.812    23256322.660    95230754.373 4      3893.557          28.625
R12  19169771.120   102401472.074 8      2171.633          49.437    19169770.320   102401472.078 8      2171.633          49.000    19169779.380    79645624.953 8      1689.048          50.625    19169779.400    79645626.954 8      1689.048          50.625
G26  22013027.760   115679242.774 7      -167.782          46.250    22013026.720   115679242.779 7      -167.782          45.000    22013036.580    90139702.836 7      -130.739          44.750    22013037.020    90139703.837 7      -130.739          47.250
R11  21923569.200   117152898.388 7     -1551.698          46.062    21923568.540   117152898.384 7     -1551.698          44.750    21923584.280    91119018.676 7     -1206.876          47.312    21923584.100    91118984.677 7     -1206.876          47.625
G07  24676595.540   129676391.012 7      4390.853          44.687    24676596.800   129676391.025 3      4390.853          22.437    24676598.560   101046570.674 3      3421.444          22.062    24676608.580   101046567.773 5      3421.444          35.312
R23  20390085.880   109073212.327 7      3060.521          45.437    20390084.160   109073212.339 7      3060.521          44.125
G16  20469514.640   107568028.569 7      1762.343          45.812    20469512.740   107568028.579 6      1762.343          40.062    20469516.980    83819247.717 6      1373.254          39.250
G21  21526196.220   113120925.480 7      4525.541          46.000    21526194.640   113120925.483 5      4525.541          34.750    21526200.180    88146148.307 5      3526.395          35.125
G08  21642085.480   113729927.999 7      3599.169          45.875    21642083.820   113729927.993 6      3599.169          36.187    21642091.460    88620748.080 6      2804.547          36.312    21642092.400    88620753.080 8      2804.547          49.000
G23  23237099.260   122111779.135 7      1269.851          44.312    23237098.960   122111779.137 5      1269.851          32.187    23237106.540    95152066.288 5       989.494          32.125    23237106.860    95152066.280 7       989.494          47.250
> 2024 05 10 11 54 11.0000000  0 13
R22  20423666.240   109022916.812 7       185.185          46.875    20423666.600   109022916.826 8       185.185          48.500    20423673.420    84795631.159 8       144.032          50.000    20423673.260    84795632.155 8       144.032          49.562
G10  22259388.720   116973880.490 7      3190.643          45.500    22259387.200   116973880.495 7      3190.643          45.875    22259396.700    91148512.113 7      2486.215          45.500    22259396.520    91148512.122 7      2486.215          47.500
G27  20849265.200   109563626.336 7      2074.538          47.750    20849264.560   109563626.333 8      2074.538          49.562    20849270.360    85374273.953 8      1616.523          49.437    20849270.660    85374277.954 8      1616.523          49.875
G02  23255367.420   122207785.806 7      4996.408          43.125    23255365.580   122207785.816 4      4996.408          28.812    23255371.920    95226860.965 4      3893.305          28.625
R12  19169364.900   102399300.899 8      2170.670          49.250    19169364.140   102399300.898 8      2170.670          49.187    19169372.860    79643936.255 8      1688.299          50.312    19169372.860    79643938.256 8      1688.299          50.875
G26  22013059.880   115679410.841 7      -168.288          45.125    22013058.420   115679410.845 7      -168.288          44.437    22013068.560    90139833.788 7      -131.134          44.125    22013069.340    90139834.792 7      -131.134          46.937
R11  21923859.960   117154450.305 7     -1552.236          45.625    21923859.140   117154450.285 7     -1552.236          44.812    21923874.760    91120225.696 7     -1207.294          47.562    21923874.700    91120191.698 7     -1207.294          47.375
G07  24675759.920   129672000.483 7      4390.215          44.500    24675761.240   129672000.493 3      4390.215          22.437    24675763.400   101043149.484 4      3420.947          24.125    24675773.040   101043146.581 5      3420.947          35.312
R23  20389514.080   109070152.157 7      3059.882          45.437    20389511.820   109070152.169 7      3059.882          44.125
G16  20469179.340   107566266.482 7      1761.824          46.000    20469177.380   107566266.497 6      1761.824          40.312    20469181.740    83817874.664 6      1372.850          39.375
G21  21525335.060   113116400.267 7      4524.817          45.875    21525333.520   113116400.272 5      4524.817          35.125    21525338.980    88142622.170 5      3525.831          35.375
G08  21641400.360   113726329.009 7      3598.810          47.187    21641399.020   113726329.003 6      3598.810          36.687    21641406.480    88617943.675 6      2804.267          36.687    21641407.700    88617948.681 8      2804.267          48.750
G23  23236857.720   122110509.731 7      1269.098          43.312    23236857.420   122110509.733 5      1269.098          32.187    23236864.880    95151077.142 5       988.908          32.125    23236865.360    95151077.130 7       988.908          46.625
> 2024 05 10 11 54 12.0000000  0 13
R22  20423631.740   109022731.703 8       185.117          48.750    20423632.020   109022731.715 8       185.117          48.562    20423638.880    84795487.188 8       143.980          48.500    20423638.920    84795488.184 8       143.980          48.625
G10  22258781.720   116970690.080 7      3190.289          45.625    22258780.320   116970690.087 7      3190.289          45.437    22258789.740    91146026.083 7      2485.939          45.125    22258789.540    91146026.087 7      2485.939          47.375
G27  20848870.300   109561551.766 8      2074.652          48.312    20848869.660   109561551.763 8      2074.652          49.500    20848875.600    85372657.405 8      1616.612          48.875    20848875.740    85372661.404 8      1616.612          49.062
G02  23254416.880   122202789.599 7      4996.244          43.875    23254414.780   122202789.606 4      4996.244          28.812    23254421.280    95222967.823 4      3893.177          28.937
R12  19168958.300   102397130.587 8      2170.054          49.562    19168957.780   102397130.588 8      2170.054          49.562    19168966.800    79642248.237 8      1687.820          50.187    19168966.860    79642250.238 8      1687.820          49.500
G26  22013091.880   115679579.222 7      -168.262          46.125    22013090.720   115679579.225 7      -168.262          44.625    22013100.720    90139964.987 7      -131.113          44.500    22013101.360    90139965.992 7      -131.113          47.187
R11  21924150.340   117156002.507 7     -1552.111          45.562    21924149.800   117156002.492 7     -1552.111          44.750    21924165.120    91121432.962 7     -1207.197          46.437    21924165.300    91121398.961 7     -1207.197          46.437
G07  24674924.720   129667610.345 7      4390.068          44.875    24674925.660   129667610.358 4      4390.068          24.187    24674928.300   101039728.603 4      3420.832          24.125    24674937.020   101039725.708 6      3420.832          37.312
R23  20388941.720   109067092.452 7      3059.605          44.312    20388939.800   109067092.462 7      3059.605          43.625
G16  20468844.120   107564504.886 7      1761.587          46.562    20468842.060   107564504.896 6      1761.587          39.750    20468846.660    83816501.990 6      1372.665          39.312
G21  21524473.980   113111875.505 7      4524.780          45.937    21524472.420   113111875.507 5      4524.780          35.125    21524478.080    88139096.386 5      3525.802          35.375
G08  21640715.580   113722730.093 7      3599.057          47.125    21640714.220   113722730.092 6      3599.057          36.562    21640721.760    88615139.328 6      2804.460          36.812    21640722.560    88615144.328 7      2804.460          47.875
G23  23236616.220   122109240.876 7      1268.915          43.187    23236615.940   122109240.881 5      1268.915          32.437    23236623.680    95150088.422 5       988.765          32.125    23236623.560    95150088.408 7       988.765          46.625
> 2024 05 10 11 54 13.0000000  0 13
R22  20423597.000   109022546.614 8       185.081          48.625    20423596.820   109022546.620 8       185.081          48.187    20423604.340    84795343.224 8       143.952          49.125    20423604.220    84795344.221 8       143.952          48.187
G10  22258174.580   116967499.989 7      3189.972          45.687    22258173.040   116967499.997 7      3189.972          45.312    22258182.640    91143540.304 7      2485.692          45.250    22258182.420    91143540.311 7      2485.692          47.875
G27  20848475.560   109559477.154 8      2074.663          48.375    20848475.000   109559477.151 8      2074.663          49.187    20848480.840    85371040.824 8      1616.620          49.062    20848481.180    85371044.823 8      1616.620          50.062
G02  23253466.160   122197793.537 7      4996.003          43.812    23253464.060   122197793.544 4      4996.003          28.812    23253470.420    95219074.792 4      3892.989          28.937
R12  19168552.340   102394960.943 8      2169.336          49.937    19168551.820   102394960.946 8      2169.336          49.312    19168560.640    79640560.733 8      1687.261          49.937    19168560.560    79640562.735 8      1687.261          49.250
G26  22013123.900   115679747.783 7      -168.666          45.625    22013122.580   115679747.790 7      -168.666          44.187    22013132.720    90140096.329 7      -131.428          44.125    22013133.440    90140097.332 7      -131.428          46.812
R11  21924440.900   117157554.905 7     -1552.443          45.937    21924439.860   117157554.906 7     -1552.443          44.812    21924455.960    91122640.382 7     -1207.456          46.750    21924455.900    91122606.381 7     -1207.456          46.937
G07  24674089.540   129663220.462 7      4389.871          44.812    24674090.460   129663220.477 4      4389.871          24.187    24674093.160   101036307.921 4      3420.679          24.125    24674101.440   101036305.012 6      3420.679          37.312
R23  20388369.780   109064033.010 7      3059.293          45.000    20388367.780   109064033.016 7      3059.293          43.875
G16  20468509.000   107562743.582 7      1761.230          45.687    20468506.920   107562743.587 6      1761.230          39.625    20468511.300    83815129.537 6      1372.387          39.187
G21  21523612.800   113107351.067 7      4524.277          46.625    21523611.420   113107351.069 5      4524.277          35.125    21523617.060    88135570.854 5      3525.411          34.875
G08  21640030.740   113719131.121 7      3599.082          47.312    21640029.340   113719131.113 6      3599.082          36.625    21640036.720    88612334.933 6      2804.479          36.312    21640037.720    88612339.935 8      2804.479          49.125
G23  23236374.980   122107972.429 7      1268.300          43.562    23236374.480   122107972.434 5      1268.300          32.437    23236382.220    95149100.020 5       988.285          32.125    23236382.040    95149100.012 7       988.285          45.812
> 2024 05 10 11 54 14.0000000  0 13
R22  20423562.300   109022361.722 7       184.748          47.625    20423562.240   109022361.731 8       184.748          48.500    20423569.620    84795199.427 8       143.693          50.437    20423569.700    84795200.424 8       143.693          50.625
G10  22257567.620   116964310.432 7      3189.192          45.437    22257566.160   116964310.445 7      3189.192          45.875    22257575.640    91141054.941 7      2485.085          45.875    22257575.600    91141054.948 7      2485.085          47.687
G27  20848080.760   109557402.700 8      2074.295          48.812    20848080.320   109557402.694 8      2074.295          49.187    20848086.080    85369424.367 8      1616.334          49.687    20848086.280    85369428.365 8      1616.334          50.437
G02  23252515.280   122192797.780 7      4995.519          44.187    23252513.480   122192797.787 4      4995.519          28.812    23252519.920    95215181.994 4      3892.613          28.937
R12  19168146.300   102392792.113 8      2168.278          49.875    19168145.920   102392792.117 8      2168.278          49.625    19168154.540    79638873.866 8      1686.439          50.500    19168154.420    79638875.867 8      1686.439          51.000
G26  22013156.120   115679916.664 7      -169.110          45.812    22013154.680   115679916.669 7      -169.110          44.687    22013164.860    90140227.914 7      -131.774          44.437    22013165.700    90140228.915 7      -131.774          46.875
R11  21924731.220   117159107.673 7     -1553.079          45.437    21924730.640   117159107.677 7     -1553.079          44.375    21924746.460    91123848.066 7     -1207.950          47.625    21924746.400    91123814.065 7     -1207.950          47.312
G07  24673254.500   129658831.001 7      4389.244          44.875    24673255.080   129658831.014 4      4389.244          24.187    24673258.040   101032887.566 4      3420.190          24.125    24673265.500   101032884.641 6      3420.190          37.312
R23  20387798.080   109060974.024 7      3058.634          44.062    20387795.860   109060974.029 7      3058.634          43.875
G16  20468173.780   107560982.756 7      1760.497          46.250    20468171.920   107560982.764 6      1760.497          40.000    20468176.280    83813757.465 6      1371.816          39.437
G21  21522752.060   113102827.096 7      4523.683          46.250    21522750.600   113102827.096 5      4523.683          35.062    21522755.960    88132045.686 5      3524.948          35.250
G08  21639345.940   113715532.239 7      3598.780          46.375    21639344.580   113715532.236 6      3598.780          37.000    21639351.960    88609530.611 6      2804.244          36.437    21639353.100    88609535.621 8      2804.244          49.125
G23  23236133.660   122106704.547 7      1267.438          43.875    23236133.180   122106704.552 5      1267.438          32.375    23236140.780    95148112.055 5       987.614          32.125    23236140.740    95148112.043 7       987.614          46.250
> 2024 05 10 11 54 15.0000000  0 13
R22  20423527.840   109022177.222 7       184.383          47.125    20423527.760   109022177.228 8       184.383          48.187    20423535.260    84795055.921 8       143.409          50.812    20423535.200    84795056.916 8       143.409          50.250
G10  22256960.780   116961121.587 7      3188.452          45.437    22256959.160   116961121.592 7      3188.452          45.375    22256968.880    91138570.117 7      2484.508          45.437    22256968.880    91138570.125 7      2484.508          47.750
G27  20847686.120   109555328.558 8      2074.008          48.187    20847685.700   109555328.555 8      2074.008          49.625    20847691.360    85367808.148 8      1616.110          49.625    20847691.680    85367812.147 8      1616.110          50.125
G02  23251564.800   122187802.548 7      4994.968          43.687    23251562.800   122187802.553 4      4994.968          28.812    23251569.360    95211289.612 4      3892.183          28.937
R12  19167740.280   102390624.295 8      2167.311          48.750    19167739.960   102390624.296 8      2167.311          49.187    19167748.720    79637187.781 8      1685.686          50.312    19167748.700    79637189.784 8      1685.686          50.937
G26  22013188.480   115680086.057 7      -169.574          46.125    22013187.000   115680086.057 7      -169.574          44.500    22013197.220    90140359.901 7      -132.136          44.625    22013198.200    90140360.902 7      -132.136          47.125
R11  21925021.940   117160660.968 7     -1553.532          45.625    21925021.160   117160660.964 7     -1553.532          44.687    21925037.100    91125056.158 7     -1208.303          47.375    21925037.280    91125022.152 7     -1208.303          47.187
G07  24672419.440   129654442.180 7      4388.456          44.312    24672419.800   129654442.192 4      4388.456          24.187    24672423.460   101029467.709 4      3419.576          24.125    24672430.280   101029464.778 6      3419.576          38.312
R23  20387226.060   109057915.676 7      3058.046          44.375    20387224.240   109057915.672 7      3058.046          44.000
G16  20467839.080   107559222.574 7      1759.865          46.312    20467837.100   107559222.584 6      1759.865          39.437    20467841.260    83812385.893 6      1371.324          39.062
G21  21521891.360   113098303.795 7      4522.913          46.187    21521889.940   113098303.800 5      4522.913          35.062    21521895.280    88128521.038 5      3524.348          35.187
G08  21638660.980   113711933.672 7      3598.410          47.062    21638659.820   113711933.667 6      3598.410          37.312    21638667.060    88606726.531 6      2803.955          36.750    21638668.240    88606731.529 8      2803.955          49.250
G23  23235892.480   122105437.363 7      1266.873          43.875    23235892.020   122105437.368 5      1266.873          32.375    23235899.700    95147124.640 5       987.174          32.062    23235899.700    95147124.628 7       987.174          46.437
> 2024 05 10 11 54 16.0000000  0 13
R22  20423493.280   109021992.982 7       184.094          47.312    20423493.040   109021992.988 8       184.094          48.000    20423500.680    84794912.617 8       143.184          50.687    20423500.700    84794913.612 8       143.184          50.312
G10  22256353.980   116957933.292 7      3187.886          44.625    22256352.460   116957933.302 7      3187.886          45.375    22256361.960    91136085.741 7      2484.067          45.562    22256362.220    91136085.756 7      2484.067          47.500
G27  20847291.560   109553254.624 7      2073.772          47.750    20847290.960   109553254.619 8      2073.772          49.875    20847296.700    85366192.094 8      1615.926          49.687    20847297.000    85366196.095 8      1615.926          50.312
G02  23250614.020   122182807.684 7      4994.665          43.937    23250612.340   122182807.691 4      4994.665          29.187    23250618.980    95207397.516 4      3891.947          29.062
R12  19167334.680   102388457.402 8      2166.418          49.937    19167334.460   102388457.411 8      2166.418          49.687    19167343.260    79635502.422 8      1684.992          50.687    19167343.260    79635504.427 8      1684.992          50.812
G26  22013220.620   115680255.850 7      -170.061          45.687    22013219.200   115680255.852 7      -170.061          44.812    22013229.440    90140492.203 7      -132.515          44.437    22013230.240    90140493.204 7      -132.515          46.562
R11  21925312.540   117162214.656 7     -1553.923          45.562    21925312.220   117162214.657 7     -1553.923          44.812    21925327.920    91126264.588 7     -1208.607          47.625    21925328.020    91126230.586 7     -1208.607          47.187
G07  24671584.320   129650053.792 7      4388.008          44.687    24671584.640   129650053.807 4      4388.008          24.187    24671588.680   101026048.190 4      3419.227          24.125    24671595.580   101026045.275 6      3419.227          38.312
R23  20386654.600   109054857.819 7      3057.556          44.500    20386652.700   109054857.824 7      3057.556          44.500
G16  20467504.260   107557462.913 7      1759.342          45.437    20467502.320   107557462.925 6      1759.342          39.750    20467506.320    83811014.730 6      1370.916          39.000
G21  21521030.680   113093780.997 7      4522.506          46.062    21521029.180   113093781.001 5      4522.506          35.187    21521034.460    88124996.783 5      3524.031          35.187
G08  21637976.420   113708335.232 7      3598.283          46.812    21637975.120   113708335.231 6      3598.283          37.187    21637982.440    88603922.555 6      2803.857          36.625    21637983.520    88603927.562 8      2803.857          48.937
G23  23235651.400   122104170.818 7      1266.182          44.250    23235651.080   122104170.823 5      1266.182          32.375    23235658.660    95146137.722 5       986.635          32.062    23235658.900    95146137.716 7       986.635          46.625
> 2024 05 10 11 54 17.0000000  0 13
R22  20423458.760   109021809.000 8       183.882          48.687    20423457.900   109021809.001 7       183.882          47.937    20423466.180    84794769.517 8       143.019          50.437    20423466.380    84794770.513 8       143.019          50.187
G10  22255747.600   116954745.577 7      3187.470          45.437    22255745.980   116954745.582 7      3187.470          45.375    22255755.240    91133601.807 7      2483.743          45.062    22255755.280    91133601.816 7      2483.743          47.250
G27  20846897.100   109551180.890 8      2073.664          48.500    20846896.240   109551180.885 8      2073.664          50.000    20846902.060    85364576.195 8      1615.842          49.625    20846902.440    85364580.192 8      1615.842          50.187
G02  23249663.280   122177813.230 7      4994.303          43.937    23249661.880   122177813.235 4      4994.303          29.187    23249668.600    95203505.734 4      3891.664          29.062
R12  19166929.200   102386291.465 8      2165.526          49.562    19166929.140   102386291.468 8      2165.526          49.875    19166937.700    79633817.800 8      1684.298          50.312    19166937.820    79633819.799 8      1684.298          51.187
G26  22013253.060   115680426.021 7      -170.373          46.312    22013251.640   115680426.024 7      -170.373          44.250    22013261.880    90140624.797 7      -132.758          44.500    22013262.700    90140625.797 7      -132.758          46.875
R11  21925603.420   117163768.761 7     -1554.237          45.812    21925603.160   117163768.762 7     -1554.237          44.437    21925618.900    91127473.309 7     -1208.851          46.937    21925618.860    91127439.312 7     -1208.851          47.250
G07  24670749.360   129645665.900 7      4387.709          44.500    24670749.560   129645665.910 4      4387.709          24.187    24670754.140   101022629.054 4      3418.994          25.937    24670760.900   101022626.124 6      3418.994          38.312
R23  20386083.080   109051800.514 7      3057.076          44.687    20386081.340   109051800.515 7      3057.076          44.250
G16  20467169.540   107555703.789 7      1758.908          45.937    20467167.560   107555703.800 6      1758.908          40.000    20467171.580    83809643.982 6      1370.578          39.562
G21  21520170.060   113089258.755 7      4522.096          45.187    21520168.640   113089258.757 5      4522.096          35.312    21520173.860    88121472.959 5      3523.711          35.500
G08  21637291.640   113704736.956 7      3598.233          46.437    21637290.240   113704736.959 6      3598.233          37.062    21637297.820    88601118.707 6      2803.818          37.062    21637298.580    88601123.709 8      2803.818          48.875
G23  23235410.540   122102904.899 7      1265.609          44.000    23235410.160   122102904.901 5      1265.609          32.062    23235417.520    95145151.287 5       986.189          32.062    23235417.880    95145151.283 7       986.189          46.125
> 2024 05 10 11 54 18.0000000  0 13
R22  20423424.300   109021625.303 7       183.613          46.375    20423423.720   109021625.302 7       183.613          47.875    20423432.020    84794626.643 8       142.810          50.375    20423431.960    84794627.638 8       142.810          49.937
G10  22255141.320   116951558.461 7      3186.889          44.750    22255139.280   116951558.471 7      3186.889          45.312    22255148.840    91131118.340 7      2483.290          45.562    22255148.540    91131118.347 7      2483.290          47.687
G27  20846502.380   109549107.356 8      2073.503          48.375    20846501.680   109549107.366 8      2073.503          49.625    20846507.580    85362960.464 8      1615.716          49.437    20846507.780    85362964.465 8      1615.716          49.875
G02  23248712.980   122172819.144 7      4994.006          43.875    23248711.520   122172819.146 4      4994.006          29.187    23248718.220    95199614.242 4      3891.433          29.062
R12  19166523.760   102384126.443 8      2164.665          49.875    19166523.480   102384126.447 8      2164.665          49.250    19166532.420    79632133.892 8      1683.628          50.687    19166532.320    79632135.893 8      1683.628          51.125
G26  22013285.640   115680596.608 7      -170.718          46.437    22013284.260   115680596.610 7      -170.718          44.187    22013294.400    90140757.714 7      -133.027          44.500    22013295.080    90140758.713 7      -133.027          46.937
R11  21925894.340   117165323.280 7     -1554.635          45.250    21925893.460   117165323.278 7     -1554.635          44.437    21925909.740    91128682.362 7     -1209.161          47.437    21925909.900    91128648.365 7     -1209.161          47.375
G07  24669914.120   129641278.505 7      4387.136          44.500    24669914.640   129641278.515 4      4387.136          26.000    24669919.580   101019210.307 4      3418.547          25.937    24669925.980   101019207.394 6      3418.547          39.062
R23  20385511.420   109048743.727 7      3056.631          45.500    20385510.120   109048743.726 7      3056.631          44.187
G16  20466834.800   107553945.208 7      1758.441          46.812    20466832.920   107553945.212 6      1758.441          39.625    20466837.040    83808273.653 6      1370.214          39.125
G21  21519309.640   113084737.065 7      4521.502          45.937    21519308.240   113084737.070 5      4521.502          35.062    21519313.580    88117949.570 5      3523.248          35.062
G08  21636607.060   113701138.860 7      3598.088          46.562    21636605.540   113701138.859 6      3598.088          37.062    21636612.980    88598314.991 6      2803.705          36.687    21636613.980    88598319.995 8      2803.705          49.125
G23  23235169.940   122101639.596 7      1265.081          43.500    23235169.220   122101639.596 5      1265.081          32.062    23235176.740    95144165.339 5       985.777          31.875    23235176.720    95144165.331 7       985.777          46.375
> 2024 05 10 11 54 19.0000000  0 13
R22  20423389.920   109021441.807 7       183.447          47.375    20423389.400   109021441.803 8       183.447          48.062    20423397.440    84794483.913 8       142.681          49.875    20423397.520    84794484.908 8       142.681          50.250
G10  22254534.960   116948371.852 7      3186.478          45.375    22254532.960   116948371.857 7      3186.478          45.250    22254542.540    91128635.271 7      2482.970          45.000    22254542.340    91128635.275 7      2482.970          47.625
G27  20846107.900   109547033.989 8      2073.410          49.000    20846107.240   109547033.989 8      2073.410          49.750    20846113.100    85361344.844 8      1615.644          49.625    20846113.260    85361348.843 8      1615.644          50.437
G02  23247762.920   122167825.412 7      4993.669          43.250    23247761.240   122167825.417 4      4993.669          29.187    23247767.820    95195723.027 4      3891.170          29.062
R12  19166118.800   102381962.266 8      2163.837          49.625    19166118.300   102381962.270 8      2163.837          49.875    19166127.300    79630450.641 8      1682.984          50.625    19166127.360    79630452.642 8      1682.984          50.875
G26  22013318.120   115680767.533 7      -170.973          46.500    22013316.820   115680767.533 7      -170.973          44.375    22013326.760    90140890.890 7      -133.225          44.250    22013327.300    90140891.891 7      -133.225          46.812
R11  21926185.360   117166878.167 7     -1555.079          45.625    21926184.740   117166878.158 7     -1555.079          44.437    21926200.700    91129891.701 7     -1209.506          47.875    21926200.800    91129857.703 7     -1209.506          47.562
G07  24669079.480   129636891.525 7      4386.906          43.875    24669079.740   129636891.535 4      4386.906          26.000    24669085.140   101015791.881 4      3418.368          25.937    24669091.300   101015788.937 6      3418.368          39.062
R23  20384940.020   109045687.409 7      3056.174          45.750    20384938.740   109045687.410 7      3056.174          44.375
G16  20466500.180   107552187.104 7      1757.973          46.625    20466498.460   107552187.109 6      1757.973          39.437    20466502.160    83806903.702 6      1369.849          39.312
G21  21518449.480   113080215.850 7      4521.053          47.312    21518448.140   113080215.855 5      4521.053          35.062    21518453.340    88114426.546 5      3522.899          35.062
G08  21635922.200   113697540.889 7      3597.920          46.437    21635920.820   113697540.889 6      3597.920          37.250    21635928.320    88595511.378 6      2803.574          36.937    21635929.420    88595516.378 8      2803.574          49.500
G23  23234928.700   122100374.867 7      1264.479          43.562    23234928.400   122100374.869 5      1264.479          31.875    23234936.020    95143179.831 5       985.308          31.875    23234936.080    95143179.825 7       985.308          45.937
> 2024 05 10 11 54 20.0000000  0 13
R22  20423355.440   109021258.645 7       183.096          46.875    20423354.800   109021258.651 8       183.096          48.000    20423363.100    84794341.455 8       142.408          50.750    20423363.000    84794342.455 8       142.408          50.062
G10  22253928.500   116945185.926 7      3185.667          44.812    22253926.740   116945185.934 7      3185.667          45.625    22253936.020    91126152.735 7      2482.338          45.187    22253936.080    91126152.744 7      2482.338          47.125
G27  20845713.400   109544960.902 8      2072.990          48.562    20845712.700   109544960.904 8      2072.990          49.250    20845718.560    85359729.451 8      1615.317          49.562    20845718.840    85359733.449 8      1615.317          50.375
G02  23246812.920   122162832.141 7      4993.117          43.687    23246811.040   122162832.143 4      4993.117          29.875    23246817.500    95191832.164 4      3890.741          29.875
R12  19165713.800   102379799.053 8      2162.769          48.625    19165713.660   102379799.060 8      2162.769          49.000    19165722.440    79628768.142 8      1682.154          50.062    19165722.220    79628770.143 8      1682.154          50.875
G26  22013350.600   115680938.939 7      -171.654          45.875    22013349.200   115680938.947 7      -171.654          44.625    22013359.580    90141024.451 7      -133.756          44.875    22013359.980    90141025.452 7      -133.756          46.750
R11  21926476.340   117168433.536 7     -1555.519          45.437    21926475.420   117168433.526 7     -1555.519          44.375    21926492.060    91131101.411 7     -1209.848          47.312    21926491.700    91131067.414 7     -1209.848          47.500
G07  24668244.880   129632505.126 7      4386.177          43.562    24668244.920   129632505.136 4      4386.177          26.000    24668250.620   101012373.914 4      3417.800          25.937    24668256.280   101012370.982 6      3417.800          39.062
R23  20384369.000   109042631.689 7      3055.461          44.312    20384367.440   109042631.696 7      3055.461          44.562
G16  20466165.600   107550429.620 7      1757.218          46.500    20466163.840   107550429.628 6      1757.218          39.687    20466167.920    83805534.234 6      1369.260          39.187
G21  21517589.180   113075695.251 7      4520.445          46.625    21517587.740   113075695.258 5      4520.445          35.187    21517592.980    88110904.007 5      3522.424          35.375
G08  21635237.640   113693943.137 7      3597.679          46.437    21635236.160   113693943.137 6      3597.679          37.000    21635243.760    88592707.934 6      2803.386          36.750    21635244.840    88592712.936 8      2803.386          49.000
G23  23234688.300   122099110.839 7      1263.712          43.687    23234687.700   122099110.841 5      1263.712          31.875    23234695.560    95142194.873 5       984.710          31.812    23234695.640    95142194.867 7       984.710          46.437
> 2024 05 10 11 54 21.0000000  0 13
R22  20423321.220   109021075.728 7       182.803          46.062    20423320.200   109021075.734 7       182.803          47.562    20423328.900    84794199.199 8       142.180          50.312    20423328.840    84794200.194 8       142.180          50.375
G10  22253322.400   116942000.547 7      3185.092          45.875    22253320.580   116942000.552 7      3185.092          45.312    22253329.580    91123670.621 7      2481.890          45.187    22253329.800    91123670.632 7      2481.890          46.937
G27  20845318.880   109542887.998 8      2072.780          48.312    20845318.300   109542887.997 8      2072.780          49.187    20845323.960    85358114.199 8      1615.154          49.687    20845324.380    85358118.200 8      1615.154          50.375
G02  23245863.160   122157839.232 7      4992.739          43.375    23245860.800   122157839.237 4      4992.739          29.875    23245867.560    95187941.594 4      3890.446          29.875
R12  19165308.780   102377636.740 8      2161.794          49.500    19165308.820   102377636.747 8      2161.794          49.812    19165317.800    79627086.343 8      1681.396          50.375    19165317.780    79627088.345 8      1681.396          50.875
G26  22013383.460   115681110.711 7      -171.974          44.937    22013382.020   115681110.715 7      -171.974          44.375    22013392.340    90141158.295 7      -134.006          44.250    22013392.840    90141159.300 7      -134.006          46.812
R11  21926767.500   117169989.316 7     -1556.073          45.312    21926767.040   117169989.311 7     -1556.073          44.187    21926782.880    91132311.443 7     -1210.279          47.687    21926782.920    91132277.446 7     -1210.279          47.312
G07  24667410.320   129628119.197 7      4385.662          43.625    24667410.220   129628119.207 4      4385.662          26.000    24667416.320   101008956.309 4      3417.399          25.937    24667421.160   101008953.371 6      3417.399          39.500
R23  20383798.000   109039576.478 7      3054.937          44.562    20383796.620   109039576.485 7      3054.937          44.187
G16  20465831.400   107548672.639 7      1756.753          45.437    20465829.720   107548672.641 6      1756.753          40.250    20465833.680    83804165.158 6      1368.899          39.625
G21  21516729.000   113071175.200 7      4519.793          44.937    21516727.460   113071175.205 5      4519.793          35.312    21516732.800    88107381.889 5      3521.917          35.187
G08  21634553.080   113690345.545 7      3597.428          45.500    21634551.440   113690345.545 6      3597.428          36.937    21634559.160    88589904.620 6      2803.191          36.875    21634560.220    88589909.624 8      2803.191          49.437
G23  23234448.020   122097847.403 7      1263.115          43.937    23234447.340   122097847.402 5      1263.115          31.875    23234455.060    95141210.374 5       984.246          31.812    23234455.200    95141210.373 7       984.246          45.750
> 2024 05 10 11 54 22.0000000  0 13
R22  20423287.160   109020892.878 8       182.828          48.437    20423286.600   109020892.881 8       182.828          48.000    20423294.620    84794056.974 8       142.200          50.500    20423294.720    84794057.967 8       142.200          50.375
G10  22252716.100   116938815.552 7      3184.843          44.937    22252714.460   116938815.551 7      3184.843          45.000    22252723.680    91121188.807 7      2481.696          45.000    22252723.460    91121188.813 7      2481.696          46.937
G27  20844924.380   109540815.091 8      2072.927          48.062    20844923.700   109540815.088 8      2072.927          49.875    20844929.500    85356498.943 8      1615.268          49.750    20844929.980    85356502.944 8      1615.268          50.125
G02  23244912.760   122152846.501 7      4992.766          43.750    23244910.760   122152846.506 4      4992.766          29.875    23244917.380    95184051.158 4      3890.467          29.875
R12  19164904.140   102375475.151 8      2161.276          49.500    19164904.020   102375475.158 8      2161.276          50.000    19164912.760    79625405.112 8      1680.993          50.875    19164913.220    79625407.117 8      1680.993          50.750
G26  22013416.100   115681282.674 7      -172.001          45.562    22013414.720   115681282.673 7      -172.001          44.000    22013424.820    90141292.278 7      -134.027          44.062    22013425.440    90141293.279 7      -134.027          46.500
R11  21927058.560   117171545.280 7     -1556.067          45.062    21927057.840   117171545.268 7     -1556.067          44.687    21927074.380    91133521.629 7     -1210.275          46.812    21927074.420    91133487.632 7     -1210.275          47.500
G07  24666575.760   129623733.537 7      4385.501          44.000    24666575.660   129623733.547 4      4385.501          26.000    24666581.900   101005538.917 4      3417.273          25.937    24666586.940   101005535.975 6      3417.273          39.500
R23  20383227.000   109036521.583 7      3054.789          45.437    20383226.020   109036521.587 7      3054.789          44.187
G16  20465497.280   107546915.996 7      1756.451          45.500    20465495.260   107546916.001 6      1756.451          40.500    20465499.280    83802796.341 6      1368.663          39.875
G21  21515868.680   113066655.455 7      4519.565          46.312    21515867.200   113066655.460 5      4519.565          35.312    21515872.540    88103860.014 5      3521.739          35.187
G08  21633868.360   113686747.890 7      3597.626          45.625    21633866.960   113686747.895 6      3597.626          36.687    21633874.660    88587101.250 6      2803.345          36.625    21633875.680    88587106.258 8      2803.345          49.250
G23  23234207.780   122096584.392 7      1262.782          43.812    23234206.940   122096584.394 5      1262.782          31.687    23234214.660    95140226.208 5       983.986          31.812    23234214.760    95140226.204 7       983.986          46.125
> 2024 05 10 11 54 23.0000000  0 13
R22  20423253.080   109020710.559 7       182.234          47.750    20423251.940   109020710.560 8       182.234          48.250    20423260.500    84793915.158 8       141.738          50.500    20423260.540    84793916.151 8       141.738          50.062
G10  22252110.260   116935631.371 7      3183.994          44.562    22252108.500   116935631.378 7      3183.994          45.250    22252117.740    91118707.635 7      2481.034          45.000    22252117.820    91118707.645 7      2481.034          47.125
G27  20844530.000   109538742.650 8      2072.369          48.312    20844529.280   109538742.649 8      2072.369          49.562    20844535.320    85354884.055 8      1614.833          49.750    20844535.460    85354888.052 8      1614.833          50.312
G02  23243962.960   122147854.441 7      4991.916          43.375    23243960.880   122147854.446 4      4991.916          29.875    23243967.480    95180161.249 4      3889.805          29.875
R12  19164499.400   102373314.799 8      2159.937          50.687    19164499.700   102373314.805 8      2159.937          49.812    19164508.560    79623724.835 8      1679.951          50.750    19164508.360    79623726.835 8      1679.951          50.562
G26  22013449.140   115681455.302 7      -172.774          45.312    22013447.620   115681455.304 7      -172.774          44.187    22013457.800    90141426.789 7      -134.629          43.875    22013458.280    90141427.790 7      -134.629          46.812
R11  21927350.260   117173101.936 7     -1556.736          45.062    21927348.680   117173101.924 7     -1556.736          44.187    21927365.560    91134732.339 7     -1210.795          47.500    21927365.620    91134698.344 7     -1210.795          47.625
G07  24665741.320   129619348.627 7      4384.693          43.937    24665741.280   129619348.637 4      4384.693          26.000    24665747.740   101002122.105 4      3416.644          26.562    24665752.660   101002119.169 6      3416.644          39.875
R23  20382655.860   109033467.473 7      3053.854          45.062    20382655.480   109033467.475 7      3053.854          44.625
G16  20465163.060   107545160.123 7      1755.700          45.500    20465161.160   107545160.128 6      1755.700          40.000    20465165.180    83801428.130 6      1368.078          39.875
G21  21515008.960   113062136.521 7      4518.709          45.625    21515007.080   113062136.531 5      4518.709          34.687    21515012.640    88100338.771 5      3521.072          34.750
G08  21633183.820   113683150.687 7      3597.112          46.437    21633182.700   113683150.689 6      3597.112          37.000    21633190.020    88584298.239 6      2802.945          36.812    21633191.020    88584303.245 8      2802.945          49.125
G23  23233967.420   122095322.253 7      1261.874          43.000    23233966.680   122095322.255 5      1261.874          31.687    23233974.480    95139242.723 5       983.279          31.437    23233974.680    95139242.723 7       983.279          45.812
> 2024 05 10 11 54 24.0000000  0 13
R22  20423219.080   109020528.448 7       181.799          47.375    20423217.600   109020528.446 7       181.799          47.750    20423226.100    84793773.510 8       141.400          49.875    20423226.320    84793774.505 8       141.400          49.562
G10  22251504.460   116932447.757 7      3183.146          45.625    22251503.000   116932447.762 7      3183.146          45.187    22251511.780    91116226.897 7      2480.374          44.312    22251512.020    91116226.904 7      2480.374          46.500
G27  20844135.600   109536670.358 8      2071.993          48.562    20844134.880   109536670.360 8      2071.993          48.375    20844140.980    85353269.285 7      1614.540          47.625    20844141.140    85353273.284 8      1614.540          49.687
G02  23243012.740   122142862.706 7      4991.372          43.375    23243010.820   122142862.709 4      4991.372          29.625    23243017.780    95176271.590 4      3889.381          29.625
R12  19164095.540   102371155.277 8      2158.904          49.062    19164095.380   102371155.281 8      2158.904          50.000    19164104.220    79622045.203 8      1679.147          48.625    19164104.080    79622047.207 8      1679.147          49.875
G26  22013482.100   115681628.279 7      -173.403          45.812    22013480.580   115681628.284 7      -173.403          44.062    22013490.640    90141561.572 7      -135.119          44.125    22013491.060    90141562.576 7      -135.119          46.687
R11  21927641.800   117174658.988 7     -1557.418          44.937    21927640.380   117174658.970 7     -1557.418          44.375    21927657.060    91135943.363 7     -1211.325          47.125    21927656.800    91135909.366 7     -1211.325          47.625
G07  24664907.060   129614964.149 7      4384.068          44.062    24664906.960   129614964.156 4      4384.068          26.687    24664913.660   100998705.630 4      3416.157          26.562    24664918.180   100998702.678 6      3416.157          39.875
R23  20382084.860   109030413.795 7      3053.179          46.187    20382084.460   109030413.807 7      3053.179          45.250
G16  20464829.120   107543404.760 7      1754.922          45.937    20464827.160   107543404.770 6      1754.922          39.875    20464831.120    83800060.315 6      1367.472          39.375
G21  21514148.920   113057618.081 7      4518.021          45.750    21514147.220   113057618.089 5      4518.021          34.750    21514152.820    88096817.905 5      3520.536          34.812
G08  21632499.620   113679553.584 7      3596.835          47.125    21632498.200   113679553.583 6      3596.835          37.000    21632505.420    88581495.301 6      2802.729          36.687    21632506.320    88581500.305 7      2802.729          47.812
G23  23233727.300   122094060.703 7      1261.019          43.000    23233726.660   122094060.708 5      1261.019          31.687    23233734.520    95138259.697 5       982.613          31.437    23233734.760    95138259.695 7       982.613          45.812
> 2024 05 10 11 54 25.0000000  0 13
R22  20423184.780   109020346.575 7       181.803          47.000    20423184.260   109020346.573 7       181.803          47.750    20423192.460    84793632.049 8       141.402          48.250    20423192.260    84793633.044 7       141.402          47.937
G10  22250898.920   116929264.674 7      3182.900          46.062    22250897.260   116929264.685 7      3182.900          44.562    22250905.920    91113746.573 7      2480.182          44.437    22250906.400    91113746.577 7      2480.182          46.812
G27  20843741.420   109534598.263 8      2071.999          48.812    20843740.840   109534598.260 8      2071.999          48.687    20843746.600    85351654.665 8      1614.545          48.500    20843746.740    85351658.662 8      1614.545          49.750
G02  23242062.740   122137871.361 7      4991.135          44.125    23242061.080   122137871.363 4      4991.135          29.625    23242067.940    95172382.236 4      3889.196          29.625
R12  19163691.120   102368996.605 8      2158.237          49.187    19163691.280   102368996.614 8      2158.237          49.250    19163700.060    79620366.236 8      1678.629          49.187    19163700.040    79620368.239 8      1678.629          48.125
G26  22013515.160   115681801.629 7      -173.546          46.375    22013513.540   115681801.637 7      -173.546          43.625    22013523.600    90141696.642 7      -135.231          43.562    22013524.120    90141697.640 7      -135.231          46.625
R11  21927933.000   117176216.414 7     -1557.627          44.312    21927931.940   117176216.399 7     -1557.627          44.375    21927948.640    91137154.675 7     -1211.487          46.312    21927948.600    91137120.676 7     -1211.487          46.187
G07  24664072.840   129610580.138 7      4383.850          44.187    24664072.500   129610580.146 4      4383.850          26.687    24664079.460   100995289.522 4      3415.987          26.562    24664082.920   100995286.566 6      3415.987          39.875
R23  20381514.180   109027360.640 7      3053.002          45.625    20381513.940   109027360.642 7      3053.002          44.625
G16  20464495.020   107541649.899 7      1754.681          46.312    20464493.300   107541649.903 6      1754.681          39.812    20464497.000    83798692.888 6      1367.284          39.375
G21  21513288.960   113053100.141 7      4517.732          45.437    21513287.500   113053100.148 5      4517.732          34.750    21513293.120    88093297.438 5      3520.311          34.812
G08  21631815.180   113675956.622 7      3596.910          47.125    21631813.480   113675956.624 6      3596.910          36.625    21631821.100    88578692.474 6      2802.787          36.312    21631822.040    88578697.476 8      2802.787          48.687
G23  23233487.620   122092799.744 7      1260.652          43.625    23233486.640   122092799.746 5      1260.652          31.687    23233494.520    95137277.128 5       982.327          31.437    23233494.660    95137277.126 7       982.327          45.250
> 2024 05 10 11 54 26.0000000  0 13
R22  20423151.080   109020165.000 7       181.481          47.312    20423150.240   109020164.998 8       181.481          48.125    20423158.520    84793490.826 8       141.152          50.250    20423158.460    84793491.826 8       141.152          50.312
G10  22250293.340   116926082.233 7      3182.170          45.437    22250291.660   116926082.246 7      3182.170          44.750    22250300.300    91111266.757 7      2479.613          44.750    22250300.540    91111266.767 7      2479.613          46.875
G27  20843347.180   109532526.389 7      2071.854          47.687    20843346.520   109532526.392 8      2071.854          49.125    20843352.600    85350040.220 8      1614.432          49.312    20843352.500    85350044.217 8      1614.432          50.562
G02  23241112.960   122132880.407 7      4990.792          43.812    23241111.340   122132880.409 4      4990.792          29.625    23241118.300    95168493.187 4      3888.929          29.625
R12  19163287.220   102366838.889 8      2157.327          49.437    19163287.340   102366838.898 8      2157.327          49.875    19163296.220    79618688.014 8      1677.921          50.125    19163296.300    79618690.017 8      1677.921          50.375
G26  22013548.140   115681975.392 7      -173.873          45.812    22013546.460   115681975.403 7      -173.873          43.875    22013556.660    90141832.032 7      -135.485          43.687    22013557.300    90141833.029 7      -135.485          46.937
R11  21928224.540   117177774.264 7     -1557.973          44.187    21928223.340   117177774.252 7     -1557.973          44.687    21928240.200    91138366.328 7     -1211.757          47.625    21928239.840    91138332.329 7     -1211.757          47.125
G07  24663238.180   129606196.642 7      4383.339          44.250    24663238.360   129606196.650 4      4383.339          26.687    24663245.320   100991873.811 4      3415.589          26.562    24663248.800   100991870.853 6      3415.589          39.937
R23  20380943.660   109024308.029 7      3052.350          45.375    20380943.100   109024308.033 7      3052.350          44.437
G16  20464161.200   107539895.615 7      1754.035          46.687    20464159.480   107539895.623 6      1754.035          39.812    20464163.180    83797325.917 6      1366.781          40.000
G21  21512429.580   113048582.802 7      4517.095          45.375    21512427.980   113048582.815 5      4517.095          34.625    21512433.340    88089777.441 5      3519.814          34.750
G08  21631130.640   113672359.855 7      3596.774          47.375    21631128.900   113672359.857 6      3596.774          36.812    21631136.660    88575889.801 6      2802.681          36.812    21631137.720    88575894.807 8      2802.681          49.187
G23  23233247.740   122091539.418 7      1260.187          42.562    23233246.700   122091539.423 5      1260.187          31.687    23233254.560    95136295.058 5       981.964          31.250    23233254.800    95136295.060 7       981.964          46.187
> 2024 05 10 11 54 27.0000000  0 13
R22  20423117.260   109019983.682 7       181.389          47.687    20423116.380   109019983.678 7       181.389          47.500    20423124.400    84793349.791 8       141.081          50.562    20423124.400    84793350.788 8       141.081          51.125
G10  22249688.060   116922900.330 7      3181.738          45.437    22249686.180   116922900.337 7      3181.738          45.312    22249694.980    91108787.354 7      2479.276          45.062    22249695.100    91108787.362 7      2479.276          47.125
G27  20842952.940   109530454.705 8      2071.745          49.187    20842952.260   109530454.709 8      2071.745          49.812    20842958.240    85348425.921 8      1614.347          49.687    20842958.480    85348429.919 8      1614.347          50.187
G02  23240163.620   122127889.831 7      4990.567          44.500    23240161.720   122127889.830 4      4990.567          29.625    23240168.620    95164604.431 4      3888.754          29.625
R12  19162883.520   102364682.089 8      2156.490          49.437    19162883.720   102364682.092 8      2156.490          49.375    19162892.500    79617010.497 8      1677.270          50.437    19162892.560    79617012.498 8      1677.270          50.750
G26  22013581.100   115682149.550 7      -174.252          46.312    22013579.800   115682149.557 7      -174.252          44.125    22013589.900    90141967.735 7      -135.781          43.812    22013590.120    90141968.732 7      -135.781          46.437
R11  21928516.420   117179332.513 7     -1558.208          45.062    21928515.020   117179332.511 7     -1558.208          44.500    21928531.640    91139578.291 7     -1211.939          47.187    21928531.600    91139544.296 7     -1211.939          47.875
G07  24662404.580   129601813.606 7      4382.929          44.625    24662404.240   129601813.617 4      4382.929          26.687    24662411.400   100988458.460 4      3415.269          26.562    24662414.920   100988455.502 6      3415.269          39.937
R23  20380372.980   109021255.923 7      3051.885          46.187    20380372.280   109021255.930 7      3051.885          44.750
G16  20463827.420   107538141.844 7      1753.663          45.875    20463825.560   107538141.847 6      1753.663          40.062    20463829.560    83795959.334 6      1366.491          39.375
G21  21511570.260   113044065.965 7      4516.642          45.687    21511568.300   113044065.978 5      4516.642          34.625    21511574.020    88086257.832 5      3519.461          34.750
G08  21630446.040   113668763.246 7      3596.676          46.937    21630444.680   113668763.248 6      3596.676          36.687    21630452.440    88573087.246 6      2802.605          36.437    21630453.080    88573092.250 8      2802.605          49.187
G23  23233008.040   122090279.723 7      1259.639          42.500    23233006.860   122090279.725 5      1259.639          31.187    23233014.720    95135313.473 5       981.537          31.250    23233014.960    95135313.467 7       981.537          46.062
> 2024 05 10 11 54 28.0000000  0 13
R22  20423083.440   109019802.588 7       180.962          47.375    20423082.280   109019802.584 8       180.962          48.062    20423090.460    84793208.944 8       140.748          51.125    20423090.580    84793209.941 8       140.748          50.250
G10  22249082.580   116919718.987 7      3181.041          45.625    22249080.640   116919718.991 7      3181.041          45.500    22249089.520    91106308.375 7      2478.733          45.000    22249089.720    91106308.387 7      2478.733          47.125
G27  20842558.800   109528383.214 8      2071.275          49.250    20842558.040   109528383.214 8      2071.275          49.812    20842564.040    85346811.766 8      1613.981          50.000    20842564.440    85346815.765 8      1613.981          50.062
G02  23239214.180   122122899.612 7      4989.946          43.250    23239212.040   122122899.614 5      4989.946          30.312    23239218.940    95160715.957 5      3888.270          30.375
R12  19162480.000   102362526.162 8      2155.433          48.750    19162480.000   102362526.163 8      2155.433          49.687    19162488.980    79615333.661 8      1676.448          50.562    19162488.700    79615335.662 8      1676.448          50.500
G26  22013614.200   115682324.069 7      -174.790          46.125    22013612.980   115682324.069 7      -174.790          44.750    22013623.120    90142103.710 7      -136.200          44.562    22013623.160    90142104.711 7      -136.200          46.812
R11  21928808.120   117180891.160 7     -1558.832          45.125    21928806.720   117180891.153 7     -1558.832          44.312    21928823.340    91140790.558 7     -1212.425          47.062    21928823.320    91140756.563 7     -1212.425          47.750
G07  24661570.900   129597431.036 7      4382.300          43.875    24661570.240   129597431.046 4      4382.300          26.687    24661577.480   100985043.470 4      3414.779          26.562    24661580.120   100985040.512 6      3414.779          40.437
R23  20379802.320   109018204.250 7      3051.396          45.375    20379801.760   109018204.273 7      3051.396          45.000
G16  20463493.820   107536388.557 7      1753.029          46.437    20463491.860   107536388.559 6      1753.029          39.687    20463495.960    83794593.134 6      1365.996          39.437
G21  21510711.040   113039549.653 7      4515.906          46.312    21510709.000   113039549.661 5      4515.906          34.625    21510714.480    88082738.633 5      3518.888          34.625
G08  21629761.780   113665166.760 7      3596.307          46.812    21629760.200   113665166.765 6      3596.307          37.062    21629768.000    88570284.791 6      2802.317          36.812    21629768.980    88570289.802 8      2802.317          49.125
G23  23232768.680   122089020.627 7      1258.613          42.250    23232767.060   122089020.632 5      1258.613          31.187    23232775.200    95134332.359 5       980.737          31.250    23232775.440    95134332.360 7       980.737          45.937
> 2024 05 10 11 54 29.0000000  0 13
R22  20423049.480   109019621.553 7       180.951          46.875    20423048.600   109019621.540 7       180.951          47.937    20423056.700    84793068.122 8       140.740          50.500    20423056.700    84793069.120 8       140.740          50.562
G10  22248477.200   116916538.001 7      3180.681          45.562    22248475.680   116916538.016 7      3180.681          45.562    22248484.380    91103829.695 7      2478.453          45.437    22248484.340    91103829.707 7      2478.453          46.812
G27  20842164.660   109526311.684 8      2071.510          48.562    20842163.600   109526311.681 8      2071.510          49.875    20842169.980    85345197.581 8      1614.164          49.875    20842170.000    85345201.580 8      1614.164          50.312
G02  23238264.440   122117909.580 7      4989.952          42.812    23238262.540   122117909.580 5      4989.952          30.312    23238269.320    95156827.620 5      3888.274          30.375
R12  19162076.340   102360370.897 8      2154.913          49.937    19162076.740   102360370.901 8      2154.913          49.000    19162085.380    79613657.346 8      1676.044          50.437    19162085.200    79613659.347 8      1676.044          50.687
G26  22013647.600   115682498.755 7      -174.834          45.625    22013645.880   115682498.757 7      -174.834          44.312    22013656.460    90142239.828 7      -136.235          44.000    22013656.820    90142240.825 7      -136.235          46.937
R11  21929099.560   117182449.994 7     -1558.919          44.500    21929098.320   117182449.981 7     -1558.919          43.687    21929115.220    91142002.957 7     -1212.493          47.375    21929114.980    91141968.962 7     -1212.493          47.625
G07  24660736.820   129593048.728 7      4382.191          44.375    24660736.140   129593048.732 4      4382.191          27.937    24660743.680   100981628.682 4      3414.694          28.000    24660745.980   100981625.708 6      3414.694          40.437
R23  20379232.040   109015152.936 7      3051.152          44.687    20379231.360   109015152.954 7      3051.152          44.937
G16  20463160.440   107534635.603 7      1752.799          47.000    20463158.560   107534635.608 6      1752.799          39.937    20463162.320    83793227.190 6      1365.817          39.500
G21  21509851.640   113035033.628 7      4515.846          45.500    21509849.480   113035033.636 5      4515.846          34.937    21509855.040    88079219.654 5      3518.841          35.000
G08  21629077.460   113661570.216 7      3596.524          47.250    21629075.680   113661570.219 6      3596.524          37.062    21629083.740    88567482.286 6      2802.486          36.625    21629084.460    88567487.300 8      2802.486          49.437
G23  23232528.700   122087761.910 7      1258.458          42.750    23232527.520   122087761.914 5      1258.458          31.187    23232535.800    95133351.536 5       980.616          30.937    23232535.840    95133351.530 7       980.616          46.437
> 2024 05 10 11 54 30.0000000  0 13
R22  20423015.660   109019440.806 8       180.623          48.187    20423014.440   109019440.796 8       180.623          48.000    20423022.280    84792927.539 8       140.484          50.500    20423022.700    84792928.532 8       140.484          50.125
G10  22247871.780   116913357.650 7      3179.965          45.875    22247870.280   116913357.663 7      3179.965          45.625    22247879.400    91101351.502 7      2477.895          45.437    22247879.260    91101351.514 7      2477.895          47.750
G27  20841770.320   109524240.428 8      2071.094          49.562    20841769.840   109524240.428 8      2071.094          49.687    20841775.680    85343583.619 8      1613.840          49.750    20841775.840    85343587.618 8      1613.840          50.125
G02  23237314.800   122112919.977 7      4989.399          42.625    23237313.020   122112919.979 5      4989.399          30.312    23237319.820    95152939.620 5      3887.844          30.375
R12  19161673.280   102358216.629 8      2153.752          48.312    19161673.620   102358216.628 8      2153.752          49.437    19161682.360    79611981.802 8      1675.140          50.250    19161681.940    79611983.805 8      1675.140          50.687
G26  22013681.120   115682673.897 7      -175.408          45.812    22013679.240   115682673.902 7      -175.408          44.500    22013689.840    90142376.288 7      -136.681          44.750    22013690.260    90142377.288 7      -136.681          46.437
R11  21929390.900   117184009.279 7     -1559.535          44.500    21929390.060   117184009.269 7     -1559.535          44.125    21929407.300    91143215.722 7     -1212.971          47.250    21929406.820    91143181.721 7     -1212.971          47.875
G07  24659902.760   129588666.961 7      4381.516          44.312    24659902.080   129588666.968 4      4381.516          27.937    24659910.060   100978214.323 4      3414.169          28.000    24659911.780   100978211.358 6      3414.169          40.562
R23  20378661.560   109012102.200 7      3050.441          45.687    20378661.460   109012102.220 7      3050.441          45.062
G16  20462827.040   107532883.243 7      1752.027          46.312    20462825.120   107532883.251 6      1752.027          40.187    20462828.840    83791861.712 6      1365.216          39.000
G21  21508992.400   113030518.242 7      4515.027          46.312    21508990.300   113030518.244 5      4515.027          35.250    21508995.960    88075701.171 5      3518.203          35.000
G08  21628392.880   113657973.914 7      3596.083          46.375    21628391.260   113657973.917 6      3596.083          37.187    21628399.240    88564679.975 6      2802.143          36.875    21628400.140    88564684.983 8      2802.143          48.937
G23  23232289.320   122086503.865 7      1257.740          42.750    23232288.040   122086503.867 5      1257.740          30.750    23232296.480    95132371.233 5       980.057          30.937    23232296.900    95132371.242 7       980.057          46.375
> 2024 05 10 11 54 31.0000000  0 13
R22  20422981.660   109019260.328 7       180.383          47.562    20422980.440   109019260.324 7       180.383          47.625    20422988.840    84792787.178 8       140.298          50.375    20422988.800    84792788.173 8       140.298          50.187
G10  22247266.640   116910177.878 7      3179.582          46.062    22247264.740   116910177.878 7      3179.582          45.875    22247274.500    91098873.751 7      2477.597          45.750    22247274.460    91098873.757 7      2477.597          47.500
G27  20841376.340   109522169.358 8      2070.978          48.500    20841375.700   109522169.358 8      2070.978          49.312    20841381.660    85341969.798 8      1613.749          49.187    20841381.700    85341973.793 8      1613.749          50.312
G02  23236365.380   122107930.757 7      4989.049          42.625    23236363.680   122107930.762 5      4989.049          30.062    23236370.400    95149051.916 5      3887.571          30.375
R12  19161270.000   102356063.310 8      2152.911          49.875    19161270.260   102356063.311 8      2152.911          49.375    19161279.140    79610306.992 8      1674.486          50.812    19161278.820    79610308.993 8      1674.486          50.875
G26  22013714.520   115682849.431 7      -175.757          44.750    22013712.620   115682849.438 7      -175.757          44.125    22013723.100    90142513.064 7      -136.953          43.875    22013723.460    90142514.063 7      -136.953          46.875
R11  21929683.120   117185568.957 7     -1559.841          44.437    21929682.000   117185568.950 7     -1559.841          43.812    21929699.340    91144428.793 7     -1213.210          47.250    21929698.700    91144394.791 7     -1213.210          47.875
G07  24659069.240   129584285.672 7      4381.116          43.625    24659068.260   129584285.680 4      4381.116          27.937    24659076.380   100974800.334 4      3413.857          28.000    24659078.140   100974797.373 6      3413.857          40.562
R23  20378091.680   109009051.993 7      3049.988          45.375    20378090.920   109009052.005 7      3049.988          45.062
G16  20462493.520   107531131.406 7      1751.559          45.687    20462491.800   107531131.411 6      1751.559          40.000    20462495.440    83790496.640 6      1364.851          39.125
G21  21508133.120   113026003.365 7      4514.697          46.250    21508131.560   113026003.367 5      4514.697          35.500    21508136.780    88072183.083 5      3517.945          35.437
G08  21627708.580   113654377.728 7      3596.123          46.062    21627707.060   113654377.733 6      3596.123          36.875    21627715.000    88561877.758 6      2802.174          37.000    21627715.540    88561882.762 8      2802.174          49.312
G23  23232050.360   122085246.461 7      1257.011          42.312    23232048.640   122085246.468 5      1257.011          30.750    23232057.040    95131391.440 5       979.489          30.937    23232057.320    95131391.432 7       979.489          45.937
> 2024 05 10 11 54 32.0000000  0 13
R22  20422947.900   109019080.033 7       180.224          47.562    20422946.800   109019080.036 7       180.224          47.750    20422955.340    84792646.948 8       140.174          50.687    20422955.340    84792647.943 8       140.174          50.562
G10  22246661.760   116906998.624 7      3179.017          46.312    22246660.120   116906998.629 7      3179.017          45.750    22246669.440    91096396.414 7      2477.156          45.312    22246669.380    91096396.425 7      2477.156          47.750
G27  20840982.280   109520098.448 8      2070.839          48.937    20840981.820   109520098.445 8      2070.839          49.750    20840987.700    85340356.094 8      1613.641          49.625    20840987.660    85340360.091 8      1613.641          50.312
G02  23235416.220   122102941.862 7      4988.734          43.500    23235414.200   122102941.867 5      4988.734          30.062    23235421.120    95145164.472 5      3887.325          30.000
R12  19160867.040   102353910.855 8      2152.075          48.750    19160867.320   102353910.859 8      2152.075          50.000    19160876.060    79608632.864 8      1673.836          50.437    19160875.900    79608634.866 8      1673.836          50.937
G26  22013747.840   115683025.301 7      -176.086          45.250    22013746.140   115683025.301 7      -176.086          44.000    22013756.500    90142650.091 7      -137.210          43.875    22013757.060    90142651.087 7      -137.210          46.375
R11  21929975.060   117187128.980 7     -1560.232          44.500    21929974.040   117187128.978 7     -1560.232          44.312    21929991.240    91145642.135 7     -1213.514          47.875    21929990.740    91145608.138 7     -1213.514          47.687
G07  24658235.520   129579904.799 7      4380.757          43.000    24658234.700   129579904.806 4      4380.757          27.937    24658242.820   100971386.662 4      3413.577          28.000    24658243.680   100971383.683 6      3413.577          40.562
R23  20377521.440   109006002.265 7      3049.498          45.250    20377520.420   109006002.274 7      3049.498          44.562
G16  20462160.220   107529380.032 7      1751.112          46.125    20462158.340   107529380.039 6      1751.112          40.375    20462162.380    83789131.933 6      1364.503          39.562
G21  21507274.240   113021488.971 7      4514.078          45.875    21507272.440   113021488.976 5      4514.078          35.500    21507277.660    88068665.380 5      3517.464          35.625
G08  21627024.300   113650781.678 7      3595.995          46.375    21627022.700   113650781.681 6      3595.995          36.937    21627030.740    88559075.637 6      2802.074          36.875    21627031.500    88559080.647 8      2802.074          49.187
G23  23231811.080   122083989.582 7      1256.606          42.250    23231809.500   122083989.587 5      1256.606          30.750    23231817.880    95130412.050 5       979.173          31.187    23231818.440    95130412.061 7       979.173          46.000
> 2024 05 10 11 54 33.0000000  0 13
R22  20422913.720   109018899.953 8       179.966          48.500    20422913.800   109018899.954 8       179.966          48.625    20422921.340    84792506.882 8       139.974          50.375    20422921.320    84792507.879 8       139.974          50.125
G10  22246057.140   116903819.856 7      3178.473          45.562    22246055.560   116903819.868 7      3178.473          45.625    22246064.520    91093919.466 7      2476.732          45.625    22246064.560    91093919.479 7      2476.732          46.750
G27  20840588.180   109518027.647 8      2070.707          49.062    20840587.700   109518027.646 8      2070.707          49.562    20840593.680    85338742.486 8      1613.538          49.562    20840593.560    85338746.481 8      1613.538          50.375
G02  23234466.940   122097953.278 7      4988.311          44.562    23234464.900   122097953.283 5      4988.311          30.062    23234471.880    95141277.266 5      3886.995          30.000
R12  19160464.300   102351759.194 8      2151.219          49.500    19160464.500   102351759.195 8      2151.219          49.937    19160473.280    79606959.346 8      1673.170          50.000    19160473.020    79606961.345 8      1673.170          51.125
G26  22013781.160   115683201.468 7      -176.398          45.125    22013779.100   115683201.473 7      -176.398          43.875    22013790.020    90142787.365 7      -137.453          43.812    22013790.660    90142788.360 7      -137.453          46.500
R11  21930267.340   117188689.318 7     -1560.514          45.000    21930265.920   117188689.311 7     -1560.514          45.187    21930283.160    91146855.717 7     -1213.733          47.625    21930282.680    91146821.722 7     -1213.733          47.687
G07  24657401.760   129575524.335 7      4380.356          42.437    24657401.020   129575524.340 4      4380.356          27.937    24657409.240   100967973.310 4      3413.264          28.000    24657410.800   100967970.343 6      3413.264          40.562
R23  20376951.460   109002952.956 7      3048.989          45.687    20376950.760   109002952.971 7      3048.989          44.562
G16  20461827.080   107527629.115 7      1750.608          45.812    20461825.220   107527629.125 6      1750.608          39.750    20461828.980    83787767.584 6      1364.111          39.312
G21  21506415.120   113016975.027 7      4513.685          45.750    21506413.400   113016975.035 5      4513.685          35.125    21506418.860    88065148.027 5      3517.157          35.250
G08  21626339.960   113647185.697 7      3595.866          46.562    21626338.320   113647185.699 6      3595.866          37.125    21626346.580    88556273.578 6      2801.973          37.312    21626347.560    88556278.592 8      2801.973          49.625
G23  23231571.980   122082733.269 7      1256.040          43.062    23231570.700   122082733.276 5      1256.040          31.375    23231578.900    95129433.103 5       978.732          31.187    23231579.320    95129433.093 7       978.732          46.187
> 2024 05 10 11 54 34.0000000  0 13
R22  20422880.040   109018720.223 7       179.603          47.937    20422879.580   109018720.224 7       179.603          47.937    20422887.640    84792367.081 8       139.691          50.437    20422887.800    84792368.075 8       139.691          50.562
G10  22245452.200   116900641.805 7      3177.761          45.375    22245450.360   116900641.810 7      3177.761          45.625    22245459.500    91091443.061 7      2476.177          45.625    22245459.620    91091443.069 7      2476.177          47.125
G27  20840194.080   109515957.155 8      2070.465          48.500    20840193.400   109515957.152 8      2070.465          49.625    20840199.500    85337129.112 8      1613.349          49.687    20840199.800    85337133.109 8      1613.349          50.500
G02  23233517.720   122092965.175 7      4987.971          44.125    23233515.700   122092965.183 5      4987.971          30.062    23233522.780    95137390.438 5      3886.731          30.000
R12  19160061.900   102349608.505 8      2150.259          49.937    19160062.200   102349608.508 8      2150.259          49.875    19160070.740    79605286.582 8      1672.424          50.500    19160070.420    79605288.585 8      1672.424          50.750
G26  22013814.760   115683378.143 7      -176.875          45.437    22013813.400   115683378.150 7      -176.875          44.062    22013823.760    90142925.025 7      -137.824          43.625    22013824.220    90142926.024 7      -137.824          46.437
R11  21930559.260   117190250.212 7     -1561.084          44.562    21930557.700   117190250.208 7     -1561.084          44.375    21930575.400    91148069.727 7     -1214.177          46.937    21930574.900    91148035.732 7     -1214.177          46.687
G07  24656568.600   129571144.460 6      4379.729          41.875    24656567.460   129571144.468 4      4379.729          28.187    24656575.780   100964560.422 4      3412.776          28.250    24656577.460   100964557.445 6      3412.776          40.875
R23  20376381.520   108999904.285 7      3048.287          45.187    20376380.460   108999904.300 7      3048.287          44.750
G16  20461494.000   107525878.828 7      1750.028          46.937    20461492.600   107525878.835 6      1750.028          40.125    20461496.080    83786403.726 6      1363.658          39.312
G21  21505556.280   113012461.732 7      4513.099          45.750    21505554.640   113012461.742 5      4513.099          35.000    21505559.940    88061631.172 5      3516.701          35.250
G08  21625655.620   113643589.989 7      3595.601          46.000    21625654.020   113643589.991 6      3595.601          36.937    21625662.220    88553471.727 6      2801.767          36.750    21625663.160    88553476.731 8      2801.767          49.625
G23  23231333.360   122081477.673 7      1255.264          42.625    23231331.840   122081477.680 5      1255.264          31.375    23231339.840    95128454.712 5       978.128          31.187    23231340.340    95128454.706 7       978.128          45.687
> 2024 05 10 11 54 35.0000000  0 13
R22  20422846.520   109018540.802 8       179.214          48.062    20422846.240   109018540.800 8       179.214          48.250    20422854.240    84792227.536 8       139.388          50.125    20422854.280    84792228.534 8       139.388          50.312
G10  22244847.400   116897464.326 7      3177.149          45.000    22244845.540   116897464.337 7      3177.149          45.250    22244855.100    91088967.106 7      2475.700          45.062    22244855.060    91088967.116 7      2475.700          47.312
G27  20839800.100   109513886.907 8      2070.090          48.250    20839799.560   109513886.907 8      2070.090          49.687    20839805.680    85335515.934 8      1613.057          49.500    20839805.840    85335519.931 8      1613.057          50.250
G02  23232568.540   122087977.513 7      4987.425          44.000    23232566.540   122087977.521 5      4987.425          30.312    23232573.720    95133503.950 5      3886.305          30.000
R12  19159659.300   102347458.734 8      2149.291          49.875    19159659.740   102347458.741 8      2149.291          49.812    19159668.140    79603614.544 8      1671.671          50.250    19159668.120    79603616.546 8      1671.671          50.500
G26  22013848.520   115683555.251 7      -177.464          45.000    22013847.220   115683555.261 7      -177.464          44.312    22013857.500    90143063.031 7      -138.284          44.125    22013857.900    90143064.030 7      -138.284          46.812
R11  21930851.220   117191811.523 7     -1561.633          44.500    21930849.500   117191811.516 7     -1561.633          44.375    21930867.500    91149284.055 7     -1214.604          46.937    21930867.080    91149250.060 7     -1214.604          47.625
G07  24655735.240   129566765.113 7      4379.059          42.437    24655733.940   129566765.121 4      4379.059          28.187    24655742.540   100961147.944 4      3412.254          28.250    24655744.280   100961144.973 6      3412.254          40.875
R23  20375811.220   108996856.135 7      3047.863          45.125    20375811.080   108996856.147 7      3047.863          44.437
G16  20461161.060   107524129.124 7      1749.360          46.687    20461159.600   107524129.132 6      1749.360          40.312    20461163.100    83785040.319 6      1363.138          39.750
G21  21504697.520   113007949.013 7      4512.380          46.062    21504695.900   113007949.020 5      4512.380          34.937    21504701.240    88058114.767 5      3516.140          35.000
G08  21624971.420   113639994.483 7      3595.297          46.125    21624970.060   113639994.485 6      3595.297          37.125    21624978.100    88550670.032 6      2801.530          37.312    21624978.840    88550675.041 8      2801.530          48.687
G23  23231093.980   122080222.705 7      1254.687          42.812    23231092.980   122080222.715 5      1254.687          31.375    23231101.220    95127476.815 5       977.678          31.250    23231101.340    95127476.813 7       977.678          45.625
> 2024 05 10 11 54 36.0000000  0 13
R22  20422813.200   109018361.694 7       179.024          47.812    20422813.000   109018361.695 7       179.024          47.875    20422820.840    84792088.226 8       139.241          50.000    20422821.060    84792089.223 8       139.241          49.875
G10  22244242.980   116894287.534 7      3176.494          45.875    22244241.760   116894287.542 7      3176.494          45.375    22244250.140    91086491.687 7      2475.190          45.187    22244250.440    91086491.695 7      2475.190          46.812
G27  20839406.380   109511816.928 8      2069.999          48.437    20839405.500   109511816.927 8      2069.999          49.187    20839411.880    85333902.959 8      1612.987          48.750    20839411.780    85333906.958 8      1612.987          50.125
G02  23231619.520   122082990.295 7      4987.132          44.562    23231617.460   122082990.303 5      4987.132          30.312    23231624.720    95129617.811 5      3886.077          30.250
R12  19159256.800   102345310.003 8      2148.364          49.812    19159257.380   102345310.010 8      2148.364          49.187    19159266.040    79601943.311 8      1670.950          49.875    19159265.800    79601945.316 8      1670.950          50.437
G26  22013881.960   115683732.808 7      -177.672          45.562    22013880.660   115683732.813 7      -177.672          43.812    22013891.220    90143201.371 7      -138.446          43.812    22013891.580    90143202.366 7      -138.446          46.562
R11  21931143.860   117193373.317 7     -1561.992          43.500    21931142.100   117193373.313 7     -1561.992          43.500    21931160.120    91150498.773 7     -1214.882          46.812    21931159.380    91150464.774 7     -1214.882          47.125
G07  24654901.560   129562386.323 7      4378.676          42.562    24654900.620   129562386.331 4      4378.676          28.187    24654909.320   100957735.896 4      3411.955          28.250    24654910.680   100957732.917 6      3411.955          41.000
R23  20375241.380   108993808.576 7      3047.382          44.437    20375240.920   108993808.590 7      3047.382          44.500
G16  20460828.300   107522380.009 7      1748.971          47.000    20460826.640   107522380.017 6      1748.971          40.250    20460830.260    83783677.368 6      1362.835          39.812
G21  21503838.740   113003436.900 7      4511.987          46.812    21503837.220   113003436.905 5      4511.987          34.937    21503842.580    88054598.841 5      3515.834          35.375
G08  21624287.460   113636399.172 7      3595.366          46.625    21624285.620   113636399.172 6      3595.366          37.125    21624293.780    88547868.491 6      2801.584          36.937    21624294.580    88547873.510 8      2801.584          49.062
G23  23230855.680   122078968.470 7      1253.980          42.125    23230854.180   122078968.480 5      1253.980          31.125    23230862.360    95126499.489 5       977.127          31.250    23230862.720    95126499.501 7       977.127          45.625
> 2024 05 10 11 54 37.0000000  0 13
R22  20422779.280   109018182.762 7       178.838          47.750    20422778.960   109018182.763 8       178.838          48.500    20422787.440    84791949.056 8       139.097          48.625    20422787.140    84791950.052 8       139.097          48.437
G10  22243638.480   116891111.204 7      3176.170          46.437    22243636.980   116891111.209 7      3176.170          44.562    22243645.580    91084016.621 7      2474.938          44.250    22243646.040    91084016.633 7      2474.938          46.625
G27  20839012.280   109509747.080 7      2069.706          47.937    20839011.660   109509747.084 7      2069.706          47.812    20839018.040    85332290.093 7      1612.758          47.625    20839018.440    85332294.091 8      1612.758          50.562
G02  23230670.780   122078003.380 7      4986.815          43.812    23230668.580   122078003.384 5      4986.815          30.312    23230675.720    95125731.910 5      3885.830          30.250
R12  19158854.900   102343162.124 8      2147.509          48.437    19158855.440   102343162.128 8      2147.509          48.937    19158863.900    79600272.734 8      1670.285          48.250    19158863.840    79600274.735 8      1670.285          48.250
G26  22013915.960   115683910.704 7      -178.081          44.875    22013914.440   115683910.706 7      -178.081          43.500    22013925.100    90143339.979 7      -138.764          43.062    22013925.780    90143340.974 7      -138.764          45.937
R11  21931435.500   117194935.421 7     -1562.240          43.250    21931434.080   117194935.419 7     -1562.240          43.687    21931452.340    91151713.733 7     -1215.076          45.687    21931452.200    91151679.738 7     -1215.076          46.875
G07  24654068.440   129558007.938 7      4378.068          43.375    24654067.340   129558007.943 4      4378.068          28.187    24654076.140   100954324.167 4      3411.481          28.250    24654077.500   100954321.209 6      3411.481          41.000
R23  20374671.940   108990761.455 7      3046.951          44.750    20374671.000   108990761.465 7      3046.951          44.625
G16  20460495.420   107520631.349 7      1748.455          46.687    20460493.680   107520631.354 6      1748.455          40.250    20460497.620    83782314.773 6      1362.433          39.500
G21  21502980.360   112998925.252 7      4511.457          46.187    21502978.860   112998925.254 5      4511.457          35.125    21502984.080    88051083.278 5      3515.421          35.500
G08  21623603.380   113632803.984 7      3595.171          46.875    21623601.580   113632803.981 6      3595.171          36.812    21623609.680    88545067.052 6      2801.432          36.562    21623610.420    88545072.060 8      2801.432          49.500
G23  23230616.900   122077714.755 7      1253.358          42.687    23230615.740   122077714.765 5      1253.358          31.125    23230623.860    95125522.568 5       976.643          31.250    23230624.380    95125522.570 7       976.643          45.437
> 2024 05 10 11 54 38.0000000  0 13
R22  20422745.980   109018004.025 7       178.650          47.250    20422746.020   109018004.023 8       178.650          48.000    20422753.800    84791810.030 8       138.950          50.625    20422753.860    84791811.026 8       138.950          50.250
G10  22243033.980   116887935.397 7      3175.658          46.000    22243032.440   116887935.402 7      3175.658          45.625    22243041.240    91081541.962 7      2474.539          45.187    22243041.920    91081541.966 7      2474.539          47.062
G27  20838618.660   109507677.331 8      2069.672          48.750    20838617.840   109507677.334 8      2069.672          49.312    20838624.060    85330677.304 8      1612.732          49.375    20838624.440    85330681.303 8      1612.732          50.625
G02  23229721.460   122073016.798 7      4986.465          45.500    23229719.620   122073016.800 5      4986.465          30.437    23229726.920    95121846.268 5      3885.557          30.250
R12  19158453.200   102341015.078 8      2146.636          49.812    19158453.200   102341015.079 8      2146.636          49.375    19158461.880    79598602.809 8      1669.605          50.312    19158461.740    79598604.813 8      1669.605          50.687
G26  22013949.720   115684088.897 7      -178.477          44.875    22013948.460   115684088.899 7      -178.477          43.750    22013958.900    90143478.830 7      -139.073          43.875    22013959.500    90143479.832 7      -139.073          46.625
R11  21931727.920   117196497.889 7     -1562.606          43.750    21931727.360   117196497.884 7     -1562.606          43.375    21931744.340    91152928.960 7     -1215.360          47.312    21931744.140    91152894.965 7     -1215.360          47.062
G07  24653235.700   129553629.939 7      4377.736          42.375    24653234.280   129553629.947 4      4377.736          28.312    24653242.940   100950912.739 4      3411.223          28.250    24653244.360   100950909.771 6      3411.223          41.125
R23  20374102.560   108987714.758 7      3046.449          44.187    20374101.440   108987714.775 7      3046.449          44.250
G16  20460162.760   107518883.151 7      1747.896          46.500    20460161.100   107518883.161 6      1747.896          40.125    20460164.900    83780952.543 6      1361.997          39.562
G21  21502121.980   112994414.054 7      4510.950          46.062    21502120.340   112994414.056 5      4510.950          35.375    21502125.580    88047568.068 5      3515.026          35.500
G08  21622919.240   113629208.865 7      3594.975          46.750    21622917.380   113629208.864 6      3594.975          37.250    21622925.460    88542265.662 6      2801.279          37.187    21622926.440    88542270.673 8      2801.279          49.437
G23  23230378.360   122076461.565 7      1252.915          42.187    23230377.320   122076461.573 5      1252.915          30.937    23230385.260    95124546.053 5       976.297          30.812    23230385.380    95124546.057 7       976.297          45.750
> 2024 05 10 11 54 39.0000000  0 13
R22  20422712.400   109017825.544 7       178.302          47.625    20422712.860   109017825.539 8       178.302          48.000    20422720.480    84791671.216 8       138.680          51.125    20422720.300    84791672.209 8       138.680          50.250
G10  22242429.780   116884760.181 7      3174.808          45.562    22242428.420   116884760.189 7      3174.808          45.250    22242437.300    91079067.776 7      2473.876          45.125    22242437.520    91079067.780 7      2473.876          46.937
G27  20838224.640   109505607.809 8      2069.332          48.750    20838223.860   109505607.814 8      2069.332          49.750    20838230.340    85329064.691 8      1612.467          49.875    20838230.640    85329068.690 8      1612.467          50.812
G02  23228772.600   122068030.578 7      4985.994          44.812    23228770.820   122068030.581 5      4985.994          30.437    23228778.040    95117960.905 5      3885.190          30.687
R12  19158051.360   102338868.916 8      2145.611          49.937    19158051.380   102338868.917 8      2145.611          49.437    19158060.100    79596933.572 8      1668.809          50.000    19158060.040    79596935.576 8      1668.809          50.750
G26  22013984.180   115684267.481 7      -178.912          45.187    22013982.420   115684267.489 7      -178.912          43.625    22013992.840    90143617.985 7      -139.412          43.437    22013993.760    90143618.980 7      -139.412          46.375
R11  21932020.660   117198060.778 7     -1563.213          43.875    21932018.780   117198060.777 7     -1563.213          43.375    21932037.140    91154144.525 7     -1215.832          46.937    21932036.640    91154110.527 7     -1215.832          46.937
G07  24652402.700   129549252.447 7      4377.138          42.812    24652401.160   129549252.458 4      4377.138          28.312    24652409.700   100947501.709 4      3410.757          28.250    24652411.300   100947498.734 6      3410.757          41.125
R23  20373533.240   108984668.579 7      3045.879          45.000    20373531.980   108984668.588 7      3045.879          44.187
G16  20459830.180   107517135.479 7      1747.336          45.812    20459828.500   107517135.486 6      1747.336          39.937    20459832.200    83779590.717 6      1361.560          39.437
G21  21501263.780   112989903.418 7      4510.224          47.062    21501262.060   112989903.417 5      4510.224          35.750    21501267.280    88044053.285 5      3514.461          35.937
G08  21622235.000   113625613.911 7      3594.759          45.875    21622233.260   113625613.910 6      3594.759          36.875    21622241.240    88539464.400 6      2801.111          37.187    21622242.260    88539469.404 8      2801.111          49.062
G23  23230139.980   122075209.025 7      1252.074          43.125    23230138.920   122075209.035 5      1252.074          30.937    23230147.000    95123570.047 5       975.642          30.812    23230146.800    95123570.056 7       975.642          45.875
> 2024 05 10 11 54 40.0000000  0 13
R22  20422679.180   109017647.338 8       178.116          48.875    20422679.500   109017647.339 8       178.116          48.812    20422686.900    84791532.611 8       138.535          50.875    20422687.020    84791533.602 8       138.535          50.500
G10  22241825.740   116881585.525 7      3174.309          45.875    22241824.160   116881585.532 7      3174.309          45.687    22241833.260    91076594.022 7      2473.488          45.437    22241833.320    91076594.026 7      2473.488          47.250
G27  20837830.920   109503538.481 8      2069.264          49.062    20837830.400   109503538.481 8      2069.264          49.937    20837836.600    85327452.224 8      1612.414          49.562    20837836.960    85327456.214 8      1612.414          50.875
G02  23227824.000   122063044.766 7      4985.562          44.062    23227822.060   122063044.766 5      4985.562          30.437    23227829.500    95114075.858 5      3884.854          30.687
R12  19157649.680   102336723.654 8      2144.797          49.000    19157649.940   102336723.655 8      2144.797          50.062    19157658.540    79595265.033 8      1668.176          50.187    19157658.540    79595267.035 8      1668.176          50.437
G26  22014018.180   115684446.460 7      -179.154          45.687    22014016.560   115684446.462 7      -179.154          44.062    22014027.140    90143757.433 7      -139.601          43.875    22014027.720    90143758.436 7      -139.601          47.000
R11  21932313.600   117199624.066 7     -1563.472          44.187    21932311.800   117199624.059 7     -1563.472          43.562    21932329.520    91155360.411 7     -1216.034          46.875    21932329.180    91155326.414 7     -1216.034          47.625
G07  24651569.640   129544875.400 7      4376.816          42.500    24651568.180   129544875.410 4      4376.816          28.312    24651576.700   100944091.024 4      3410.506          28.250    24651578.360   100944088.058 6      3410.506          41.562
R23  20372963.940   108981622.911 7      3045.418          45.125    20372962.800   108981622.925 7      3045.418          44.375
G16  20459497.720   107515388.337 7      1746.840          45.937    20459496.080   107515388.347 6      1746.840          39.750    20459499.720    83778229.305 6      1361.174          39.375
G21  21500405.400   112985393.286 7      4509.864          46.250    21500403.880   112985393.288 6      4509.864          36.125    21500408.920    88040538.899 6      3514.180          36.062
G08  21621551.040   113622019.109 7      3594.709          46.375    21621549.420   113622019.109 6      3594.709          37.312    21621557.200    88536663.253 6      2801.072          37.000    21621557.980    88536668.266 8      2801.072          49.500
G23  23229902.160   122073957.079 7      1251.569          42.562    23229900.660   122073957.089 5      1251.569          30.937    23229908.780    95122594.501 5       975.248          30.812    23229909.320    95122594.505 7       975.248          45.625
> 2024 05 10 11 54 41.0000000  0 13
R22  20422645.780   109017469.332 7       177.953          47.437    20422646.000   109017469.333 8       177.953          48.250    20422653.940    84791394.162 8       138.408          51.062    20422653.580    84791395.155 8       138.408          50.875
G10  22241221.760   116878411.399 7      3173.874          45.687    22241220.340   116878411.409 7      3173.874          45.375    22241229.140    91074120.679 7      2473.149          45.562    22241229.220    91074120.692 7      2473.149          47.062
G27  20837437.240   109501469.321 8      2069.132          48.625    20837436.760   109501469.318 8      2069.132          49.750    20837442.840    85325839.887 8      1612.311          49.500    20837443.160    85325843.882 8      1612.311          51.000
G02  23226875.420   122058059.275 7      4985.331          44.750    23226873.440   122058059.277 5      4985.331          31.125    23226880.860    95110191.064 5      3884.673          30.687
R12  19157248.260   102334579.287 8      2143.973          49.625    19157248.580   102334579.294 8      2143.973          49.750    19157257.020    79593597.194 8      1667.535          50.437    19157257.060    79593599.196 8      1667.535          50.500
G26  22014052.540   115684625.798 7      -179.499          46.062    22014050.680   115684625.801 7      -179.499          44.375    22014061.260    90143897.173 7      -139.870          44.000    22014061.660    90143898.172 7      -139.870          46.875
R11  21932606.220   117201187.752 7     -1563.818          44.187    21932604.100   117201187.740 7     -1563.818          43.750    21932622.240    91156576.582 7     -1216.303          47.375    21932621.880    91156542.589 7     -1216.303          47.625
G07  24650736.400   129540498.835 7      4376.489          42.312    24650735.420   129540498.845 4      4376.489          28.312    24650744.000   100940680.714 4      3410.251          28.250    24650745.340   100940677.740 6      3410.251          41.812
R23  20372394.700   108978577.721 7      3045.025          44.750    20372393.360   108978577.734 7      3045.025          44.562
G16  20459165.220   107513641.679 7      1746.492          46.125    20459163.660   107513641.689 6      1746.492          40.250    20459167.380    83776868.273 6      1360.903          39.875
G21  21499547.280   112980883.656 7      4509.469          46.875    21499545.760   112980883.661 6      4509.469          36.125    21499550.780    88037024.910 6      3513.872          36.125
G08  21620866.620   113618424.447 7      3594.636          46.812    21620865.420   113618424.441 6      3594.636          37.562    21620873.240    88533862.216 6      2801.015          37.312    21620874.160    88533867.218 8      2801.015          48.687
G23  23229663.880   122072705.697 7      1251.187          42.250    23229662.620   122072705.707 5      1251.187          30.937    23229670.460    95121619.396 5       974.951          31.062    23229670.820    95121619.407 7       974.951          45.312
> 2024 05 10 11 54 42.0000000  0 13
R22  20422612.520   109017291.465 8       177.742          48.812    20422613.060   109017291.468 8       177.742          48.062    20422620.320    84791255.817 8       138.244          51.187    20422620.460    84791256.810 8       138.244          50.250
G10  22240617.800   116875237.752 7      3173.421          45.937    22240616.280   116875237.757 7      3173.421          45.125    22240625.020    91071647.697 7      2472.795          45.062    22240625.360    91071647.703 7      2472.795          46.562
G27  20837043.480   109499400.233 8      2069.005          48.875    20837042.860   109499400.230 8      2069.005          49.437    20837049.020    85324227.610 8      1612.212          49.375    20837049.280    85324231.605 8      1612.212          50.687
G02  23225926.800   122053074.064 7      4985.025          45.125    23225924.860   122053074.069 5      4985.025          31.125    23225932.320    95106306.486 5      3884.435          31.437
R12  19156847.040   102332435.730 8      2143.079          49.562    19156847.220   102332435.728 8      2143.079          49.375    19156855.700    79591929.977 8      1666.839          50.062    19156855.840    79591931.978 8      1666.839          50.250
G26  22014086.460   115684805.384 7      -179.771          45.125    22014084.800   115684805.392 7      -179.771          44.687    22014095.540    90144037.101 7      -140.081          44.250    22014096.060    90144038.105 7      -140.081          47.000
R11  21932898.920   117202751.697 7     -1563.987          44.187    21932897.160   117202751.680 7     -1563.987          43.750    21932914.820    91157792.950 7     -1216.435          47.187    21932914.580    91157758.951 7     -1216.435          47.375
G07  24649903.640   129536122.634 6      4375.936          41.812    24649902.560   129536122.641 4      4375.936          28.312    24649911.540   100937270.685 4      3409.820          28.250    24649912.720   100937267.706 6      3409.820          41.812
R23  20371825.420   108975532.936 7      3044.532          44.875    20371824.460   108975532.951 7      3044.532          44.312
G16  20458833.020   107511895.446 7      1745.912          45.812    20458831.380   107511895.454 6      1745.912          40.187    20458835.140    83775507.572 6      1360.451          39.687
G21  21498689.360   112976374.468 7      4508.931          47.750    21498687.780   112976374.476 5      4508.931          35.687    21498692.580    88033511.263 6      3513.452          36.062
G08  21620182.700   113614829.789 7      3594.590          46.437    21620181.200   113614829.792 6      3594.590          37.437    21620189.060    88531061.190 6      2800.979          36.687    21620190.060    88531066.203 8      2800.979          48.750
G23  23229425.600   122071454.830 7      1250.674          42.375    23229424.280   122071454.840 5      1250.674          30.937    23229432.500    95120644.693 5       974.551          31.062    23229432.860    95120644.693 7       974.551          45.625
> 2024 05 10 11 54 43.0000000  0 13
R22  20422579.380   109017114.108 8       176.944          48.062    20422579.260   109017114.114 8       176.944          48.000    20422587.480    84791117.870 8       137.623          50.437    20422587.300    84791118.864 8       137.623          51.062
G10  22240013.880   116872064.903 7      3172.351          45.812    22240012.800   116872064.911 7      3172.351          45.187    22240021.280    91069175.358 7      2471.962          45.000    22240021.600    91069175.368 7      2471.962          46.687
G27  20836649.940   109497331.585 8      2068.284          48.437    20836649.020   109497331.590 8      2068.284          49.812    20836655.180    85322615.679 8      1611.650          49.875    20836655.400    85322619.676 8      1611.650          50.062
G02  23224978.000   122048089.469 7      4984.216          44.062    23224976.360   122048089.473 5      4984.216          31.687    23224983.900    95102422.396 5      3883.804          31.437
R12  19156445.820   102330293.283 8      2141.730          50.125    19156446.000   102330293.284 8      2141.730          49.875    19156454.420    79590263.631 8      1665.790          50.875    19156454.700    79590265.633 8      1665.790          50.375
G26  22014120.640   115684985.629 7      -180.676          45.000    22014119.240   115684985.631 7      -180.676          44.000    22014129.760    90144177.546 7      -140.787          43.875    22014130.360    90144178.547 7      -140.787          46.750
R11  21933191.380   117204316.307 7     -1565.057          44.312    21933190.000   117204316.293 7     -1565.057          43.375    21933207.680    91159009.857 7     -1217.266          47.500    21933207.520    91158975.860 7     -1217.266          46.687
G07  24649071.100   129531747.139 7      4374.989          42.625    24649069.940   129531747.141 4      4374.989          28.500    24649078.820   100933861.204 4      3409.082          28.312    24649079.920   100933858.224 7      3409.082          42.062
R23  20371256.240   108972488.894 7      3043.560          44.562    20371255.400   108972488.906 7      3043.560          44.500
G16  20458500.660   107510149.981 7      1744.917          46.687    20458499.340   107510149.983 6      1744.917          40.062    20458502.940    83774147.468 6      1359.676          39.750
G21  21497831.200   112971866.042 7      4507.952          46.750    21497829.860   112971866.049 5      4507.952          35.562    21497834.740    88029998.201 6      3512.690          36.062
G08  21619498.900   113611235.582 7      3593.776          46.875    21619497.140   113611235.579 6      3593.776          37.500    21619505.140    88528260.509 6      2800.345          37.312    21619505.940    88528265.513 8      2800.345          49.250
G23  23229187.820   122070204.831 7      1249.519          42.875    23229186.460   122070204.841 5      1249.519          30.937    23229194.840    95119670.667 5       973.651          31.062    23229195.100    95119670.665 7       973.651          45.312
> 2024 05 10 11 54 44.0000000  0 13
R22  20422546.160   109016936.932 7       177.014          47.000    20422546.600   109016936.935 8       177.014          48.500    20422553.620    84790980.073 8       137.677          50.937    20422553.920    84790981.071 8       137.677          51.062
G10  22239410.140   116868892.567 7      3172.157          46.437    22239408.980   116868892.575 7      3172.157          45.500    22239417.540    91066703.405 7      2471.811          45.437    22239417.760    91066703.412 7      2471.811          47.187
G27  20836256.280   109495263.069 8      2068.470          48.437    20836255.380   109495263.074 8      2068.470          49.562    20836261.980    85321003.847 8      1611.795          49.687    20836262.000    85321007.841 8      1611.795          51.000
G02  23224029.400   122043105.199 7      4984.142          44.062    23224027.880   122043105.201 5      4984.142          31.687    23224035.260    95098538.551 5      3883.747          31.437
R12  19156045.040   102328151.667 8      2141.262          49.125    19156045.140   102328151.663 8      2141.262          49.750    19156053.700    79588597.920 8      1665.426          49.812    19156053.740    79588599.923 8      1665.426          49.875
G26  22014154.940   115685166.176 7      -180.699          46.187    22014153.720   115685166.181 7      -180.699          44.437    22014164.100    90144318.228 7      -140.804          44.312    22014164.740    90144319.227 7      -140.804          46.812
R11  21933484.220   117205881.217 7     -1565.170          44.187    21933482.540   117205881.208 7     -1565.170          43.250    21933500.560    91160227.013 7     -1217.354          46.812    21933500.360    91160193.016 7     -1217.354          47.375
G07  24648238.480   129527372.051 6      4374.780          41.375    24648237.220   129527372.058 4      4374.780          28.500    24648246.080   100930452.045 4      3408.919          28.312    24648247.260   100930449.064 7      3408.919          42.062
R23  20370687.360   108969445.321 7      3043.286          44.812    20370686.440   108969445.333 7      3043.286          44.312
G16  20458168.760   107508404.962 7      1744.825          46.375    20458167.280   107508404.967 6      1744.825          39.687    20458170.900    83772787.709 6      1359.604          39.312
G21  21496973.720   112967358.075 7      4507.786          46.875    21496972.080   112967358.083 5      4507.786          35.750    21496976.860    88026485.508 6      3512.561          36.250
G08  21618814.960   113607641.413 7      3594.131          46.750    21618813.360   113607641.410 6      3594.131          37.562    21618821.300    88525459.852 6      2800.622          37.375    21618822.140    88525464.858 8      2800.622          50.000
G23  23228950.060   122068955.415 7      1248.907          42.937    23228948.680   122068955.419 5      1248.907          30.312    23228956.800    95118697.094 5       973.175          30.187    23228957.240    95118697.082 7       973.175          45.625
> 2024 05 10 11 54 45.0000000  0 13
R22  20422513.020   109016760.082 7       176.902          47.687    20422513.100   109016760.085 8       176.902          48.187    20422521.220    84790842.515 8       137.591          50.625    20422520.900    84790843.512 8       137.591          50.312
G10  22238806.760   116865720.862 7      3171.621          45.437    22238805.500   116865720.869 7      3171.621          45.625    22238814.000    91064231.951 7      2471.393          45.500    22238814.120    91064231.955 7      2471.393          47.000
G27  20835862.520   109493194.793 8      2068.378          48.312    20835861.940   109493194.803 8      2068.378          49.625    20835868.320    85319392.206 8      1611.723          49.375    20835868.600    85319396.203 8      1611.723          51.062
G02  23223081.160   122038121.357 7      4983.811          44.562    23223079.440   122038121.362 5      4983.811          31.687    23223087.080    95094655.045 5      3883.489          31.500
R12  19155644.300   102326011.013 8      2140.486          49.812    19155644.420   102326011.008 8      2140.486          49.687    19155652.700    79586932.970 8      1664.823          50.187    19155653.120    79586934.974 8      1664.823          50.375
G26  22014189.540   115685347.176 7      -181.019          45.562    22014188.060   115685347.183 7      -181.019          44.562    22014198.760    90144459.256 7      -141.054          44.125    22014199.440    90144460.258 7      -141.054          46.625
R11  21933777.420   117207446.584 7     -1565.257          43.250    21933775.480   117207446.574 7     -1565.257          43.000    21933793.520    91161444.496 7     -1217.422          46.937    21933793.020    91161410.496 7     -1217.422          47.187
G07  24647406.100   129522997.491 6      4374.464          40.937    24647404.560   129522997.502 4      4374.464          28.500    24647413.800   100927043.300 4      3408.673          28.312    24647414.760   100927040.327 7      3408.673          42.312
R23  20370118.380   108966402.284 7      3043.058          44.875    20370117.660   108966402.288 7      3043.058          44.437
G16  20457836.720   107506660.522 7      1744.440          46.875    20457835.460   107506660.529 6      1744.440          39.875    20457838.920    83771428.406 6      1359.304          39.687
G21  21496115.860   112962850.692 7      4507.374          46.937    21496114.340   112962850.700 5      4507.374          35.437    21496119.220    88022973.260 5      3512.240          35.875
G08  21618130.900   113604047.468 7      3594.052          46.250    21618129.360   113604047.471 6      3594.052          37.375    21618137.320    88522659.384 6      2800.560          36.875    21618138.120    88522664.398 8      2800.560          49.000
G23  23228712.320   122067706.571 7      1248.692          42.125    23228710.940   122067706.579 5      1248.692          30.312    23228719.220    95117723.965 5       973.007          30.187    23228719.780    95117723.976 7       973.007          45.250
> 2024 05 10 11 54 46.0000000  0 13
R22  20422479.960   109016583.450 7       176.506          47.937    20422479.820   109016583.451 8       176.506          48.125    20422487.900    84790705.133 8       137.282          50.937    20422488.000    84790706.130 8       137.282          50.875
G10  22238203.220   116862549.726 7      3170.812          46.500    22238201.880   116862549.731 7      3170.812          45.687    22238210.860    91061760.940 7      2470.762          45.625    22238210.620    91061760.944 7      2470.762          46.937
G27  20835469.140   109491126.723 8      2067.977          48.750    20835468.580   109491126.723 8      2067.977          49.750    20835474.800    85317780.716 8      1611.411          49.750    20835475.240    85317784.706 8      1611.411          51.187
G02  23222132.940   122033137.894 7      4983.251          43.375    23222131.140   122033137.899 5      4983.251          31.625    23222138.740    95090771.833 5      3883.053          31.500
R12  19155243.820   102323871.312 8      2139.175          49.875    19155243.980   102323871.310 8      2139.175          49.125    19155252.160    79585268.761 8      1663.803          49.937    19155252.660    79585270.764 8      1663.803          50.187
G26  22014224.180   115685528.545 7      -181.656          45.750    22014222.560   115685528.553 7      -181.656          44.125    22014233.080    90144600.581 7      -141.550          43.875    22014233.620    90144601.583 7      -141.550          46.437
R11  21934070.740   117209012.370 7     -1566.090          43.375    21934068.440   117209012.363 7     -1566.090          43.187    21934086.460    91162662.321 7     -1218.070          46.937    21934086.080    91162628.324 7     -1218.070          47.187
G07  24646574.100   129518623.421 6      4373.700          40.312    24646572.200   129518623.431 4      4373.700          28.500    24646581.500   100923634.933 4      3408.078          28.312    24646583.000   100923631.958 7      3408.078          42.562
R23  20369549.780   108963359.775 7      3042.247          44.937    20369548.320   108963359.779 7      3042.247          44.437
G16  20457504.800   107504916.623 7      1743.603          46.125    20457503.800   107504916.630 6      1743.603          40.250    20457507.160    83770069.520 6      1358.652          39.750
G21  21495258.280   112958343.850 7      4506.506          46.687    21495256.700   112958343.855 5      4506.506          35.937    21495261.580    88019461.437 5      3511.563          35.812
G08  21617447.240   113600453.699 7      3593.578          46.812    21617445.720   113600453.702 6      3593.578          37.312    21617453.340    88519859.044 6      2800.191          37.000    21617454.260    88519864.052 8      2800.191          48.875
G23  23228475.080   122066458.406 7      1247.751          42.625    23228473.440   122066458.413 5      1247.751          30.312    23228481.720    95116751.365 5       972.273          30.187    23228481.960    95116751.365 7       972.273          45.875
> 2024 05 10 11 54 47.0000000  0 13
R22  20422446.660   109016407.112 8       176.259          48.437    20422447.140   109016407.113 8       176.259          48.250    20422454.580    84790567.979 8       137.090          50.437    20422454.760    84790568.972 8       137.090          50.437
G10  22237599.740   116859379.198 7      3170.240          45.562    22237598.580   116859379.211 7      3170.240          44.937    22237607.160    91059290.398 7      2470.317          44.875    22237607.400    91059290.407 7      2470.317          46.812
G27  20835075.600   109489058.890 8      2067.756          48.625    20835074.800   109489058.890 8      2067.756          49.562    20835081.160    85316169.417 8      1611.238          49.312    20835081.620    85316173.416 8      1611.238          50.812
G02  23221184.740   122028154.841 7      4982.860          45.937    23221182.840   122028154.846 5      4982.860          31.625    23221190.420    95086888.938 5      3882.748          32.187
R12  19154843.340   102321732.538 8      2138.383          50.375    19154843.520   102321732.536 8      2138.383          49.625    19154852.000    79583605.270 8      1663.187          49.937    19154851.960    79583607.273 8      1663.187          50.187
G26  22014258.460   115685710.338 7      -181.928          45.250    22014257.000   115685710.345 7      -181.928          44.625    22014267.940    90144742.228 7      -141.762          44.125    22014268.200    90144743.229 7      -141.762          46.687
R11  21934364.100   117210578.580 7     -1566.459          43.375    21934362.080   117210578.571 7     -1566.459          43.187    21934379.780    91163880.454 7     -1218.357          47.625    21934379.400    91163846.456 7     -1218.357          46.750
G07  24645741.820   129514249.849 6      4373.369          40.375    24645739.900   129514249.857 4      4373.369          28.750    24645749.320   100920226.953 4      3407.820          28.312    24645750.340   100920223.968 7      3407.820          43.000
R23  20368980.940   108960317.798 7      3041.684          44.750    20368980.080   108960317.805 7      3041.684          44.125
G16  20457173.320   107503173.275 7      1743.083          46.312    20457171.840   107503173.283 6      1743.083          39.687    20457175.340    83768711.067 6      1358.247          39.625
G21  21494400.560   112953837.552 7      4506.072          46.875    21494399.300   112953837.562 6      4506.072          36.062    21494404.160    88015950.042 6      3511.225          36.125
G08  21616763.340   113596860.088 7      3593.534          46.812    21616761.840   113596860.093 6      3593.534          37.375    21616769.760    88517058.830 6      2800.156          37.312    21616770.420    88517063.834 8      2800.156          49.062
G23  23228237.700   122065210.873 7      1247.188          42.187    23228235.960   122065210.881 5      1247.188          30.500    23228244.300    95115779.255 5       971.835          30.437    23228244.580    95115779.256 7       971.835          45.625
> 2024 05 10 11 54 48.0000000  0 13
R22  20422413.780   109016230.873 7       176.188          47.312    20422413.820   109016230.869 7       176.188          47.750    20422421.860    84790430.902 8       137.035          50.500    20422421.780    84790431.897 8       137.035          50.750
G10  22236996.460   116856209.061 7      3169.920          44.687    22236995.540   116856209.071 7      3169.920          45.000    22237004.040    91056820.172 7      2470.067          44.875    22237004.380    91056820.176 7      2470.067          46.750
G27  20834681.940   109486991.081 8      2067.730          48.875    20834681.460   109486991.084 8      2067.730          49.250    20834687.700    85314558.140 8      1611.218          49.125    20834688.120    85314562.130 8      1611.218          50.437
G02  23220236.580   122023171.995 7      4982.778          44.500    23220234.660   122023172.000 5      4982.778          31.625    23220242.340    95083006.208 5      3882.684          32.187
R12  19154442.960   102319594.482 8      2137.661          50.312    19154443.420   102319594.483 8      2137.661          49.250    19154451.580    79581942.342 8      1662.626          49.812    19154451.920    79581944.347 8      1662.626          50.312
G26  22014293.080   115685892.357 7      -182.140          44.937    22014291.840   115685892.364 7      -182.140          43.812    22014302.360    90144884.058 7      -141.927          43.875    22014302.760    90144885.058 7      -141.927          46.562
R11  21934657.280   117212145.024 7     -1566.586          43.937    21934654.700   117212145.011 7     -1566.586          43.812    21934672.680    91165098.790 7     -1218.456          47.437    21934672.440    91165064.789 7     -1218.456          47.000
G07  24644909.340   129509876.585 6      4373.032          41.687    24644907.660   129509876.598 4      4373.032          28.750    24644917.060   100916819.219 4      3407.557          28.562    24644918.240   100916816.252 7      3407.557          43.000
R23  20368412.300   108957276.172 7      3041.385          44.312    20368411.080   108957276.173 7      3041.385          44.187
G16  20456841.500   107501430.282 7      1742.841          46.000    20456840.240   107501430.290 6      1742.841          40.187    20456843.840    83767352.887 6      1358.058          39.437
G21  21493543.060   112949331.635 7      4505.766          46.937    21493541.860   112949331.640 5      4505.766          35.687    21493546.700    88012438.940 6      3510.987          36.125
G08  21616079.560   113593266.492 7      3593.567          47.375    21616077.960   113593266.497 6      3593.567          37.250    21616085.800    88514258.627 6      2800.182          36.875    21616086.580    88514263.640 8      2800.182          48.875
G23  23228000.480   122063963.767 6      1246.801          41.375    23227998.820   122063963.772 5      1246.801          30.500    23228007.060    95114807.480 5       971.533          30.437    23228007.500    95114807.480 7       971.533          45.562
> 2024 05 10 11 54 49.0000000  0 13
R22  20422380.820   109016054.835 7       176.041          46.250    20422380.600   109016054.833 8       176.041          48.312    20422388.920    84790293.985 8       136.921          50.437    20422388.880    84790294.983 8       136.921          50.875
G10  22236393.420   116853039.494 7      3169.325          46.187    22236392.280   116853039.496 7      3169.325          45.312    22236400.620    91054350.374 7      2469.604          44.875    22236400.980    91054350.372 7      2469.604          46.312
G27  20834288.680   109484923.419 8      2067.633          48.937    20834288.040   109484923.422 8      2067.633          48.250    20834294.400    85312946.974 8      1611.143          48.312    20834294.860    85312950.969 8      1611.143          50.875
G02  23219288.460   122018189.507 7      4982.410          45.062    23219286.440   122018189.509 5      4982.410          32.187    23219294.180    95079123.757 5      3882.398          32.187
R12  19154043.160   102317457.281 8      2136.809          50.250    19154043.320   102317457.277 8      2136.809          49.500    19154051.500    79580280.070 8      1661.962          48.625    19154051.820    79580282.073 8      1661.962          50.125
G26  22014328.140   115686074.738 7      -182.469          44.937    22014326.460   115686074.740 7      -182.469          44.500    22014337.300    90145026.151 7      -142.184          44.125    22014337.700    90145027.159 7      -142.184          46.250
R11  21934950.060   117213711.846 7     -1566.914          43.250    21934947.860   117213711.823 7     -1566.914          43.125    21934966.000    91166317.401 7     -1218.711          46.625    21934965.680    91166283.404 7     -1218.711          46.187
G07  24644077.520   129505503.799 6      4372.490          40.250    24644075.520   129505503.814 4      4372.490          28.750    24644085.060   100913411.855 4      3407.135          28.562    24644086.320   100913408.878 7      3407.135          42.687
R23  20367843.840   108954235.018 7      3040.987          45.187    20367842.520   108954235.020 7      3040.987          43.875
G16  20456509.660   107499687.791 7      1742.246          46.500    20456508.680   107499687.804 6      1742.246          40.125    20456512.380    83765995.102 6      1357.594          39.562
G21  21492685.800   112944826.233 7      4505.215          47.187    21492684.460   112944826.236 5      4505.215          35.687    21492689.440    88008928.239 6      3510.557          36.125
G08  21615395.720   113589673.015 7      3593.404          46.812    21615394.060   113589673.017 6      3593.404          37.312    21615401.840    88511458.513 6      2800.055          36.875    21615402.800    88511463.525 8      2800.055          48.687
G23  23227762.860   122062717.257 7      1246.215          42.812    23227761.600   122062717.264 5      1246.215          30.500    23227769.960    95113836.175 5       971.077          30.437    23227770.580    95113836.176 7       971.077          45.125
> 2024 05 10 11 54 50.0000000  0 13
R22  20422347.920   109015878.977 7       175.639          46.812    20422348.060   109015878.976 8       175.639          48.375    20422356.040    84790157.201 8       136.608          50.687    20422355.960    84790158.196 8       136.608          51.000
G10  22235790.500   116849870.398 7      3168.651          47.125    22235788.960   116849870.408 7      3168.651          45.125    22235797.540    91051880.944 7      2469.079          44.937    22235797.720    91051880.952 7      2469.079          46.812
G27  20833895.360   109482855.889 8      2067.327          49.062    20833894.480   109482855.888 8      2067.327          49.625    20833900.900    85311335.907 8      1610.904          49.312    20833901.300    85311339.906 8      1610.904          50.687
G02  23218340.240   122013207.329 7      4981.877          45.500    23218338.520   122013207.331 5      4981.877          32.187    23218346.200    95075241.545 5      3881.982          32.125
R12  19153643.100   102315320.908 8      2135.755          48.937    19153643.480   102315320.904 8      2135.755          49.687    19153651.520    79578618.443 8      1661.143          49.937    19153651.860    79578620.448 8      1661.143          50.062
G26  22014363.100   115686257.400 7      -182.991          45.750    22014361.040   115686257.408 7      -182.991          44.125    22014372.100    90145168.487 7      -142.591          43.937    22014372.680    90145169.491 7      -142.591          46.812
R11  21935243.600   117215278.960 7     -1567.432          43.437    21935242.120   117215278.953 7     -1567.432          43.250    21935259.020    91167536.261 7     -1219.113          47.187    21935258.760    91167502.264 7     -1219.113          46.437
G07  24643244.900   129501131.368 6      4372.162          39.875    24643243.540   129501131.383 4      4372.162          28.750    24643253.140   100910004.764 4      3406.879          28.562    24643253.540   100910001.773 7      3406.879          43.062
R23  20367275.460   108951194.291 7      3040.312          45.312    20367274.620   108951194.297 7      3040.312          44.250
G16  20456178.140   107497945.739 7      1741.628          46.312    20456177.100   107497945.749 6      1741.628          40.062    20456180.800    83764637.656 6      1357.113          39.687
G21  21491828.600   112940321.252 7      4504.613          46.625    21491827.200   112940321.254 5      4504.613          35.500    21491832.260    88005417.864 5      3510.088          35.812
G08  21614711.940   113586079.601 7      3593.143          46.437    21614710.060   113586079.606 6      3593.143          36.750    21614718.060    88508658.452 6      2799.852          37.250    21614718.680    88508663.464 8      2799.852          49.125
G23  23227525.660   122061471.261 7      1245.502          43.312    23227524.700   122061471.269 5      1245.502          30.500    23227532.820    95112865.266 5       970.521          30.437    23227533.500    95112865.274 7       970.521          46.375
> 2024 05 10 11 54 51.0000000  0 13
R22  20422314.940   109015703.499 7       175.415          47.187    20422315.260   109015703.497 8       175.415          48.250    20422322.960    84790020.716 8       136.434          50.687    20422322.900    84790021.711 8       136.434          51.125
G10  22235187.660   116846701.990 7      3168.181          46.875    22235186.320   116846701.997 7      3168.181          45.250    22235194.820    91049412.063 7      2468.713          45.125    22235195.160    91049412.073 7      2468.713          47.000
G27  20833501.800   109480788.679 8      2067.149          49.750    20833500.940   109480788.678 8      2067.149          49.687    20833507.700    85309725.090 8      1610.765          49.750    20833508.000    85309729.081 8      1610.765          51.125
G02  23217392.520   122008225.637 7      4981.528          46.062    23217390.800   122008225.644 5      4981.528          32.375    23217398.200    95071359.711 5      3881.710          32.125
R12  19153243.300   102313185.585 8      2134.869          50.562    19153243.740   102313185.588 8      2134.869          49.687    19153251.900    79576957.638 8      1660.453          50.250    19153252.120    79576959.641 8      1660.453          50.687
G26  22014397.880   115686440.578 7      -183.287          45.437    22014396.180   115686440.588 7      -183.287          43.937    22014406.920    90145311.217 7      -142.821          43.937    22014407.260    90145312.216 7      -142.821          46.875
R11  21935537.240   117216846.643 7     -1567.877          44.375    21935534.960   117216846.634 7     -1567.877          43.125    21935552.480    91168755.551 7     -1219.460          47.437    21935552.100    91168721.554 7     -1219.460          47.125
G07  24642413.160   129496759.578 6      4371.622          40.562    24642411.480   129496759.585 4      4371.622          28.750    24642421.260   100906598.170 4      3406.459          28.562    24642421.660   100906595.179 7      3406.459          43.062
R23  20366707.080   108948154.210 7      3039.961          45.187    20366705.880   108948154.214 7      3039.961          44.500
G16  20455846.860   107496204.341 7      1741.161          47.375    20455845.880   107496204.351 6      1741.161          40.187    20455849.300    83763280.715 6      1356.749          39.687
G21  21490971.460   112935816.932 7      4504.099          47.000    21490969.980   112935816.934 6      4504.099          36.187    21490975.020    88001908.008 6      3509.688          36.187
G08  21614028.160   113582486.457 7      3593.104          46.500    21614026.500   113582486.459 6      3593.104          37.312    21614034.540    88505858.598 6      2799.822          37.187    21614035.180    88505863.614 8      2799.822          49.250
G23  23227288.980   122060225.999 7      1245.049          42.187    23227287.740   122060226.009 5      1245.049          30.750    23227295.840    95111894.934 5       970.168          30.562    23227296.240    95111894.932 7       970.168          45.875
> 2024 05 10 11 54 52.0000000  0 13
R22  20422282.240   109015528.120 7       175.119          46.187    20422282.520   109015528.126 7       175.119          47.750    20422290.380    84789884.326 8       136.204          50.437    20422290.260    84789885.324 8       136.204          51.250
G10  22234585.020   116843534.026 7      3167.628          46.312    22234583.360   116843534.028 7      3167.628          45.500    22234591.840    91046943.509 7      2468.282          45.687    22234591.980    91046943.515 7      2468.282          46.437
G27  20833108.420   109478721.492 8      2066.970          48.875    20833107.700   109478721.497 8      2066.970          49.687    20833114.120    85308114.300 8      1610.626          49.687    20833114.440    85308118.295 8      1610.626          50.437
G02  23216444.660   122003244.168 7      4981.206          45.562    23216442.760   122003244.170 5      4981.206          32.375    23216450.140    95067478.049 5      3881.460          32.125
R12  19152843.560   102311051.047 8      2133.904          49.062    19152844.240   102311051.050 8      2133.904          49.937    19152852.100    79575297.443 8      1659.703          50.000    19152852.420    79575299.447 8      1659.703          50.687
G26  22014432.740   115686624.007 7      -183.743          45.375    22014430.940   115686624.015 7      -183.743          44.812    22014441.920    90145454.141 7      -143.176          44.187    22014442.100    90145455.146 7      -143.176          46.812
R11  21935830.380   117218414.569 7     -1568.275          43.562    21935828.500   117218414.557 7     -1568.275          43.125    21935846.060    91169975.029 7     -1219.770          47.000    21935845.720    91169941.029 7     -1219.770          47.312
G07  24641581.320   129492388.097 6      4371.110          39.750    24641579.520   129492388.105 4      4371.110          28.625    24641589.380   100903191.818 4      3406.060          28.562    24641589.600   100903188.827 7      3406.060          43.312
R23  20366139.100   108945114.496 7      3039.328          45.187    20366137.920   108945114.502 7      3039.328          44.250
G16  20455515.880   107494463.317 7      1740.683          46.687    20455514.260   107494463.321 6      1740.683          40.000    20455518.000    83761924.070 6      1356.377          39.562
G21  21490114.140   112931312.996 7      4503.580          46.375    21490112.840   112931313.001 5      4503.580          35.625    21490117.980    87998398.458 6      3509.283          36.062
G08  21613344.440   113578893.335 7      3592.888          47.062    21613342.900   113578893.342 6      3592.888          37.437    21613350.720    88503058.768 6      2799.653          36.937    21613351.480    88503063.770 8      2799.653          48.937
G23  23227052.060   122058981.229 7      1244.351          43.187    23227050.800   122058981.239 5      1244.351          30.750    23227059.060    95110924.978 5       969.624          30.562    23227059.020    95110924.968 7       969.624          46.312
> 2024 05 10 11 54 53.0000000  0 13
R22  20422249.480   109015353.039 7       174.949          47.125    20422249.140   109015353.037 8       174.949          48.750    20422257.560    84789748.132 8       136.071          50.812    20422257.560    84789749.127 8       136.071          50.937
G10  22233982.300   116840366.666 7      3167.040          45.437    22233980.540   116840366.674 7      3167.040          45.187    22233989.320    91044475.449 7      2467.823          45.125    22233989.440    91044475.455 7      2467.823          46.875
G27  20832715.060   109476654.568 8      2066.851          48.625    20832714.340   109476654.568 8      2066.851          49.875    20832720.840    85306503.702 8      1610.533          49.687    20832721.220    85306507.694 8      1610.533          50.937
G02  23215496.700   121998263.148 7      4980.885          45.187    23215494.800   121998263.150 5      4980.885          32.375    23215502.300    95063596.741 5      3881.209          32.500
R12  19152444.240   102308917.435 8      2133.195          50.312    19152444.780   102308917.436 8      2133.195          49.312    19152453.000    79573637.962 8      1659.152          50.812    19152453.240    79573639.969 8      1659.152          50.687
G26  22014467.640   115686807.849 7      -184.070          45.375    22014465.940   115686807.860 7      -184.070          44.375    22014476.860    90145597.395 7      -143.431          44.000    22014477.100    90145598.398 7      -143.431          47.312
R11  21936123.940   117219982.939 7     -1568.553          44.000    21936121.920   117219982.924 7     -1568.553          43.437    21936139.700    91171194.843 7     -1219.986          47.312    21936139.060    91171160.843 7     -1219.986          47.437
G07  24640749.860   129488017.143 6      4370.665          39.562    24640747.620   129488017.153 4      4370.665          28.625    24640757.740   100899785.879 4      3405.713          28.562    24640758.140   100899782.892 7      3405.713          43.312
R23  20365570.860   108942075.319 7      3039.014          44.562    20365569.600   108942075.323 7      3039.014          44.312
G16  20455184.640   107492722.854 7      1740.207          46.750    20455183.280   107492722.862 6      1740.207          40.187    20455187.060    83760567.866 6      1356.006          39.937
G21  21489257.160   112926809.641 7      4503.126          46.062    21489255.800   112926809.643 6      4503.126          36.000    21489261.040    87994889.348 6      3508.929          36.125
G08  21612660.740   113575300.398 7      3592.887          46.875    21612659.460   113575300.401 6      3592.887          37.250    21612666.760    88500259.076 6      2799.652          37.250    21612667.380    88500264.078 8      2799.652          48.687
G23  23226815.300   122057737.073 7      1243.974          43.250    23226814.060   122057737.077 5      1243.974          31.125    23226822.180    95109955.500 5       969.331          30.875    23226822.660    95109955.494 7       969.331          45.687
> 2024 05 10 11 54 54.0000000  0 13
R22  20422216.800   109015178.281 7       174.478          47.000    20422216.480   109015178.277 8       174.478          48.375    20422224.780    84789612.207 8       135.705          50.687    20422224.820    84789613.204 8       135.705          51.000
G10  22233379.680   116837199.945 7      3166.253          46.875    22233378.120   116837199.950 7      3166.253          45.250    22233386.540    91042007.876 7      2467.210          45.562    22233386.440    91042007.886 7      2467.210          47.062
G27  20832321.560   109474587.902 8      2066.358          48.625    20832320.960   109474587.904 8      2066.358          49.625    20832327.660    85304893.317 8      1610.149          49.750    20832327.900    85304897.311 8      1610.149          50.937
G02  23214548.740   121993282.573 7      4980.206          45.000    23214547.080   121993282.575 5      4980.206          32.375    23214554.560    95059715.775 5      3880.680          32.500
R12  19152044.980   102306784.796 8      2131.973          49.875    19152045.460   102306784.803 8      2131.973          49.562    19152053.660    79571979.247 8      1658.202          50.500    19152053.740    79571981.252 8      1658.202          50.625
G26  22014502.780   115686992.159 7      -184.732          46.312    22014501.220   115686992.167 7      -184.732          44.312    22014511.860    90145741.000 7      -143.947          44.187    22014512.200    90145742.002 7      -143.947          47.250
R11  21936417.500   117221551.768 7     -1569.412          44.000    21936415.280   117221551.772 7     -1569.412          43.500    21936432.900    91172415.049 7     -1220.654          47.187    21936432.800    91172381.052 7     -1220.654          46.937
G07  24639918.380   129483646.787 6      4369.545          38.812    24639915.900   129483646.800 4      4369.545          28.625    24639926.000   100896380.407 4      3404.840          28.562    24639926.240   100896377.432 7      3404.840          43.312
R23  20365002.820   108939036.739 7      3038.118          45.000    20365001.640   108939036.743 7      3038.118          44.312
G16  20454853.380   107490982.991 7      1739.413          46.687    20454852.080   107490983.003 6      1739.413          40.437    20454855.860    83759212.128 6      1355.387          40.000
G21  21488400.260   112922306.893 7      4502.262          46.812    21488398.980   112922306.898 6      4502.262          36.000    21488404.360    87991380.721 6      3508.256          36.312
G08  21611977.040   113571707.701 7      3592.452          46.625    21611975.800   113571707.704 6      3592.452          37.062    21611983.000    88497459.570 6      2799.313          37.312    21611983.820    88497464.576 8      2799.313          49.000
G23  23226578.800   122056493.634 7      1242.957          43.687    23226577.440   122056493.641 5      1242.957          31.125    23226585.580    95108986.587 5       968.538          30.875    23226586.080    95108986.589 7       968.538          45.812
> 2024 05 10 11 54 55.0000000  0 13
R22  20422184.240   109015003.705 7       174.436          47.000    20422183.580   109015003.703 7       174.436          47.937    20422192.320    84789476.417 8       135.672          51.187    20422192.200    84789477.412 8       135.672          51.500
G10  22232777.120   116834033.728 7      3166.033          46.250    22232775.500   116834033.733 7      3166.033          45.187    22232784.120    91039540.694 7      2467.039          45.312    22232784.140    91039540.701 7      2467.039          46.875
G27  20831928.500   109472521.357 8      2066.423          48.937    20831927.840   109472521.357 8      2066.423          49.937    20831934.300    85303283.017 8      1610.200          49.500    20831934.740    85303287.014 8      1610.200          50.812
G02  23213601.220   121988302.294 7      4980.073          45.562    23213599.600   121988302.294 5      4980.073          32.375    23213606.720    95055835.045 5      3880.576          32.437
R12  19151645.920   102304652.964 8      2131.456          50.125    19151646.440   102304652.965 8      2131.456          49.875    19151654.500    79570321.144 8      1657.799          50.375    19151654.880    79570323.154 8      1657.799          50.625
G26  22014537.880   115687176.774 7      -184.770          45.937    22014536.320   115687176.776 7      -184.770          44.625    22014547.260    90145884.844 7      -143.977          44.562    22014547.480    90145885.843 7      -143.977          46.750
R11  21936710.940   117223120.910 7     -1569.314          43.687    21936709.080   117223120.906 7     -1569.314          42.687    21936726.900    91173635.462 7     -1220.578          47.062    21936726.720    91173601.465 7     -1220.578          47.125
G07  24639087.120   129479276.737 6      4369.833          38.562    24639084.100   129479276.744 4      4369.833          28.625    24639094.420   100892975.171 4      3405.065          28.562    24639094.540   100892972.192 7      3405.065          43.375
R23  20364434.720   108935998.595 7      3037.852          44.125    20364433.860   108935998.599 7      3037.852          44.375
G16  20454522.280   107489243.590 7      1739.188          46.812    20454521.300   107489243.597 6      1739.188          40.312    20454524.940    83757856.748 6      1355.212          39.875
G21  21487543.440   112917804.607 7      4502.065          46.375    21487542.140   112917804.609 5      4502.065          35.937    21487547.520    87987872.449 6      3508.102          36.312
G08  21611293.420   113568115.083 7      3592.557          47.687    21611292.220   113568115.088 6      3592.557          37.375    21611299.300    88494660.131 6      2799.395          37.187    21611300.360    88494665.141 8      2799.395          48.937
G23  23226341.960   122055250.692 7      1242.727          43.312    23226340.980   122055250.705 5      1242.727          31.125    23226349.120    95108018.063 5       968.358          30.875    23226349.380    95108018.071 7       968.358          45.812
> 2024 05 10 11 54 56.0000000  0 13
R22  20422151.520   109014829.412 7       174.053          46.812    20422151.000   109014829.407 7       174.053          47.687    20422159.340    84789340.854 8       135.375          50.750    20422159.300    84789341.849 8       135.375          51.375
G10  22232174.760   116830868.116 7      3165.287          46.500    22232173.260   116830868.126 7      3165.287          45.750    22232181.840    91037073.993 7      2466.457          45.500    22232182.200    91037074.002 7      2466.457          47.062
G27  20831535.320   109470455.027 8      2066.166          49.375    20831534.720   109470455.029 8      2066.166          50.125    20831541.180    85301672.892 8      1610.000          49.812    20831541.560    85301676.885 8      1610.000          50.937
G02  23212653.580   121983322.436 7      4979.514          45.000    23212652.040   121983322.438 5      4979.514          32.500    23212659.120    95051954.640 5      3880.140          32.437
R12  19151246.900   102302522.074 8      2130.390          50.000    19151247.520   102302522.078 8      2130.390          50.125    19151255.600    79568663.790 8      1656.970          51.062    19151256.080    79568665.795 8      1656.970          50.250
G26  22014573.200   115687361.799 7      -185.255          46.000    22014571.820   115687361.809 7      -185.255          44.812    22014582.360    90146029.017 7      -144.354          44.750    22014582.920    90146030.018 7      -144.354          46.937
R11  21937004.840   117224690.493 7     -1569.804          43.500    21937003.040   117224690.489 7     -1569.804          42.687    21937020.460    91174856.230 7     -1220.958          46.875    21937020.300    91174822.230 7     -1220.958          47.250
G07  24638255.400   129474907.238 6      4369.238          37.875    24638252.480   129474907.245 4      4369.238          28.500    24638262.940   100889570.364 4      3404.601          28.562    24638263.340   100889567.379 7      3404.601          43.562
R23  20363867.200   108932960.985 7      3037.136          44.125    20363866.040   108932961.003 7      3037.136          44.812
G16  20454191.480   107487504.740 7      1738.492          47.812    20454190.520   107487504.751 6      1738.492          40.500    20454193.900    83756501.801 6      1354.669          40.000
G21  21486687.000   112913302.881 7      4501.403          47.312    21486685.480   112913302.886 6      4501.403          36.062    21486690.900    87984364.612 6      3507.587          36.062
G08  21610609.800   113564522.652 7      3592.250          47.125    21610608.540   113564522.654 6      3592.250          37.000    21610615.820    88491860.832 6      2799.156          37.312    21610616.700    88491865.836 8      2799.156          48.562
G23  23226105.620   122054008.441 7      1241.818          43.500    23226104.580   122054008.454 5      1241.818          31.187    23226112.920    95107050.077 5       967.650          31.187    23226113.080    95107050.085 7       967.650          46.250
> 2024 05 10 11 54 57.0000000  0 13
R22  20422119.180   109014655.439 7       173.609          47.625    20422118.380   109014655.440 7       173.609          47.937    20422126.740    84789205.545 8       135.029          50.687    20422126.780    84789206.541 8       135.029          50.687
G10  22231572.380   116827703.145 7      3164.500          46.375    22231570.880   116827703.160 7      3164.500          45.062    22231579.260    91034607.780 7      2465.844          44.875    22231579.600    91034607.782 7      2465.844          46.875
G27  20831141.980   109468388.973 7      2065.725          47.812    20831141.160   109468388.981 8      2065.725          49.937    20831148.040    85300062.982 8      1609.656          49.312    20831148.360    85300066.975 8      1609.656          51.062
G02  23211706.100   121978343.014 7      4978.957          44.187    23211704.500   121978343.014 5      4978.957          32.500    23211711.660    95048074.577 5      3879.707          32.437
R12  19150848.060   102300392.168 8      2129.236          50.062    19150848.960   102300392.174 8      2129.236          49.500    19150857.020    79567007.196 8      1656.072          50.500    19150857.180    79567009.201 8      1656.072          49.937
G26  22014608.320   115687547.278 7      -185.768          45.937    22014607.080   115687547.288 7      -185.768          44.000    22014617.760    90146173.537 7      -144.755          43.562    22014618.120    90146174.543 7      -144.755          47.125
R11  21937298.860   117226260.540 7     -1570.354          43.687    21937297.000   117226260.531 7     -1570.354          43.500    21937314.540    91176077.351 7     -1221.387          47.312    21937314.280    91176043.349 7     -1221.387          46.375
G07  24637423.860   129470538.314 6      4368.381          38.125    24637420.780   129470538.319 4      4368.381          28.500    24637431.780   100886166.006 4      3403.933          28.500    24637432.000   100886163.021 7      3403.933          43.812
R23  20363298.980   108929923.935 7      3036.561          44.125    20363298.020   108929923.945 7      3036.561          44.312
G16  20453860.780   107485766.485 7      1737.830          46.562    20453859.820   107485766.498 6      1737.830          40.750    20453863.180    83755147.316 6      1354.153          40.062
G21  21485830.400   112908801.756 7      4500.631          46.937    21485829.080   112908801.756 6      4500.631          36.187    21485834.480    87980857.243 6      3506.985          36.250
G08  21609926.180   113560930.430 7      3591.965          47.250    21609925.120   113560930.433 6      3591.965          37.562    21609932.140    88489061.694 6      2798.934          36.625    21609933.160    88489066.704 8      2798.934          48.875
G23  23225869.700   122052766.834 7      1241.151          42.937    23225868.220   122052766.847 5      1241.151          31.187    23225876.640    95106082.585 5       967.131          31.187    23225876.720    95106082.585 7       967.131          46.125
> 2024 05 10 11 54 58.0000000  0 13
R22  20422086.440   109014481.821 8       173.551          48.687    20422086.120   109014481.816 8       173.551          48.500    20422094.640    84789070.513 8       134.984          51.437    20422094.200    84789071.511 8       134.984          51.187
G10  22230970.380   116824538.862 7      3163.955          46.125    22230968.920   116824538.869 7      3163.955          45.250    22230977.180    91032142.105 7      2465.420          45.062    22230977.680    91032142.116 7      2465.420          46.750
G27  20830749.020   109466323.213 8      2065.641          48.875    20830748.140   109466323.223 8      2065.641          49.750    20830755.020    85298453.299 8      1609.590          49.937    20830755.400    85298457.294 8      1609.590          50.875
G02  23210758.460   121973364.081 7      4978.711          44.437    23210757.040   121973364.083 5      4978.711          32.500    23210764.260    95044194.895 5      3879.515          32.625
R12  19150449.680   102298263.295 8      2128.389          50.187    19150450.460   102298263.293 8      2128.389          49.750    19150458.540    79565351.399 8      1655.414          50.625    19150458.560    79565353.407 8      1655.414          50.500
G26  22014643.680   115687733.256 7      -186.119          45.500    22014642.300   115687733.263 7      -186.119          43.750    22014653.120    90146318.450 7      -145.027          43.937    22014653.820    90146319.453 7      -145.027          47.125
R11  21937592.760   117227831.072 7     -1570.753          44.000    21937590.600   117227831.073 7     -1570.753          43.375    21937608.340    91177298.883 7     -1221.697          47.250    21937608.040    91177264.886 7     -1221.697          47.000
G07  24636592.720   129466169.924 6      4368.116          38.500    24636589.400   129466169.932 4      4368.116          28.500    24636600.540   100882762.066 4      3403.726          28.500    24636600.780   100882759.091 7      3403.726          43.812
R23  20362731.860   108926887.519 7      3036.134          44.500    20362730.240   108926887.528 7      3036.134          43.937
G16  20453530.120   107484028.873 7      1737.374          47.250    20453529.040   107484028.884 6      1737.374          40.437    20453532.760    83753793.329 6      1353.798          39.625
G21  21484974.060   112904301.263 7      4500.231          45.062    21484972.680   112904301.265 6      4500.231          36.187    21484978.040    87977350.368 6      3506.674          36.312
G08  21609242.660   113557338.485 7      3591.846          46.062    21609241.460   113557338.487 6      3591.846          37.937    21609248.640    88486262.777 6      2798.841          37.562    21609249.560    88486267.784 8      2798.841          48.812
G23  23225633.340   122051525.970 7      1240.509          43.062    23225632.200   122051525.983 5      1240.509          31.187    23225640.480    95105115.676 5       966.630          31.187    23225640.840    95105115.678 7       966.630          45.500
> 2024 05 10 11 54 59.0000000  0 13
R22  20422053.840   109014308.582 7       173.065          46.312    20422052.920   109014308.577 8       173.065          48.187    20422061.860    84788935.757 8       134.606          50.812    20422061.800    84788936.753 8       134.606          51.000
G10  22230368.080   116821375.270 7      3163.213          46.000    22230366.660   116821375.272 7      3163.213          45.312    22230375.500    91029676.969 7      2464.842          45.187    22230375.780    91029676.977 7      2464.842          47.437
G27  20830355.980   109464257.779 8      2065.246          48.500    20830355.380   109464257.784 8      2065.246          49.625    20830361.900    85296843.868 8      1609.283          49.562    20830362.280    85296847.863 8      1609.283          50.937
G02  23209811.060   121968385.652 7      4978.190          45.062    23209809.600   121968385.657 5      4978.190          32.625    23209816.860    95040315.602 5      3879.109          32.625
R12  19150051.340   102296135.452 8      2127.341          49.750    19150052.080   102296135.454 8      2127.341          49.687    19150060.300    79563696.409 8      1654.599          50.812    19150060.260    79563698.419 8      1654.599          50.750
G26  22014679.080   115687919.749 7      -186.728          45.875    22014678.180   115687919.757 7      -186.728          44.250    22014688.600    90146463.761 7      -145.502          44.625    22014689.200    90146464.768 7      -145.502          47.062
R11  21937886.540   117229402.159 7     -1571.354          44.000    21937884.960   117229402.157 7     -1571.354          42.875    21937902.700    91178520.815 7     -1222.164          47.562    21937901.980    91178486.816 7     -1222.164          46.875
G07  24635761.020   129461802.204 6      4367.383          38.500    24635758.160   129461802.214 4      4367.383          28.500    24635769.140   100879358.646 4      3403.156          28.500    24635769.840   100879355.646 7      3403.156          43.750
R23  20362164.400   108923851.736 7      3035.500          44.562    20362163.060   108923851.738 7      3035.500          44.375
G16  20453199.620   107482291.913 7      1736.654          47.125    20453198.620   107482291.921 6      1736.654          40.625    20453202.100    83752439.850 6      1353.237          40.000
G21  21484117.580   112899801.423 7      4499.546          46.437    21484116.240   112899801.428 5      4499.546          35.875    21484121.680    87973844.004 6      3506.140          36.187
G08  21608559.220   113553746.805 7      3591.524          46.812    21608557.960   113553746.807 6      3591.524          37.625    21608565.140    88483464.070 6      2798.590          37.062    21608566.100    88483469.076 8      2798.590          49.000
G23  23225397.340   122050285.816 7      1239.723          43.625    23225396.140   122050285.831 5      1239.723          31.062    23225404.560    95104149.322 5       966.018          31.062    23225405.200    95104149.337 7       966.018          46.062
> 2024 05 10 11 55  0.0000000  0 13
R22  20422021.320   109014135.583 7       173.193          46.625    20422020.640   109014135.576 8       173.193          48.375    20422029.400    84788801.197 8       134.706          50.375    20422029.300    84788802.194 8       134.706          50.125
G10  22229766.160   116818212.259 7      3162.883          46.437    22229764.940   116818212.269 7      3162.883          45.312    22229773.440    91027212.291 7      2464.584          45.062    22229773.440    91027212.299 7      2464.584          46.937
G27  20829963.020   109462192.543 8      2065.370          48.375    20829962.180   109462192.548 8      2065.370          49.500    20829968.840    85295234.587 8      1609.380          49.375    20829969.320    85295238.581 8      1609.380          50.625
G02  23208863.440   121963407.599 7      4978.101          44.625    23208862.200   121963407.606 5      4978.101          32.625    23208869.480    95036436.607 5      3879.040          32.875
R12  19149653.120   102294008.481 8      2126.772          49.500    19149653.660   102294008.488 8      2126.772          49.750    19149662.200    79562042.104 8      1654.156          50.125    19149662.300    79562044.108 8      1654.156          50.437
G26  22014714.720   115688106.621 7      -186.821          44.812    22014713.600   115688106.629 7      -186.821          44.687    22014724.200    90146609.369 7      -145.575          44.500    22014724.600    90146610.370 7      -145.575          46.500
R11  21938180.680   117230973.633 7     -1571.418          43.375    21938178.940   117230973.626 7     -1571.418          42.875    21938196.700    91179743.048 7     -1222.214          47.312    21938196.340    91179709.049 7     -1222.214          47.437
G07  24634929.200   129457434.902 6      4367.186          37.312    24634927.020   129457434.912 4      4367.186          28.500    24634937.900   100875955.555 4      3403.002          28.500    24634938.640   100875952.572 7      3403.002          43.937
R23  20361596.740   108920816.441 7      3035.338          45.250    20361595.100   108920816.445 7      3035.338          44.000
G16  20452869.300   107480555.482 7      1736.376          47.312    20452868.220   107480555.492 6      1736.376          40.312    20452871.520    83751086.782 6      1353.020          39.875
G21  21483261.580   112895302.122 7      4499.271          46.250    21483260.140   112895302.130 6      4499.271          36.062    21483265.620    87970338.057 6      3505.926          36.062
G08  21607875.800   113550155.290 7      3591.652          47.250    21607874.660   113550155.292 6      3591.652          37.687    21607881.840    88480665.485 6      2798.690          37.375    21607882.560    88480670.491 8      2798.690          48.500
G23  23225161.580   122049046.298 7      1239.329          43.125    23225160.340   122049046.310 5      1239.329          31.062    23225168.640    95103183.459 5       965.711          31.062    23225169.300    95103183.472 7       965.711          46.312
> 2024 05 10 11 55  1.0000000  0 13
R22  20421988.980   109013962.747 8       172.516          49.375    20421988.480   109013962.743 8       172.516          48.250    20421996.940    84788666.773 8       134.179          50.000    20421997.040    84788667.766 8       134.179          50.312
G10  22229164.280   116815049.708 7      3162.044          46.250    22229162.980   116815049.713 7      3162.044          44.812    22229171.620    91024747.963 7      2463.930          44.812    22229171.880    91024747.972 7      2463.930          46.312
G27  20829570.080   109460127.393 8      2064.870          49.312    20829569.280   109460127.395 8      2064.870          49.750    20829575.860    85293625.381 8      1608.990          49.437    20829576.380    85293629.378 8      1608.990          50.875
G02  23207916.540   121958429.877 7      4977.187          45.375    23207914.980   121958429.882 5      4977.187          32.437    23207922.320    95032557.867 5      3878.328          32.875
R12  19149255.180   102291882.308 8      2125.513          50.625    19149255.600   102291882.309 8      2125.513          50.437    19149264.380    79560388.408 8      1653.177          49.937    19149264.300    79560390.413 8      1653.177          49.562
G26  22014750.440   115688293.769 7      -187.497          46.000    22014749.100   115688293.776 7      -187.497          44.187    22014759.820    90146755.192 7      -146.101          43.687    22014760.100    90146756.196 7      -146.101          46.062
R11  21938474.680   117232545.398 7     -1572.192          43.562    21938473.000   117232545.394 7     -1572.192          43.312    21938490.440    91180965.513 7     -1222.816          47.312    21938490.140    91180931.516 7     -1222.816          47.250
G07  24634099.040   129453068.041 6      4366.281          37.750    24634095.880   129453068.046 4      4366.281          27.750    24634107.100   100872552.802 4      3402.297          28.500    24634107.240   100872549.819 7      3402.297          43.500
R23  20361029.580   108917781.570 7      3034.426          45.500    20361027.680   108917781.569 7      3034.426          44.750
G16  20452538.860   107478819.454 7      1735.493          47.500    20452537.780   107478819.464 6      1735.493          40.625    20452541.460    83749734.035 6      1352.332          39.937
G21  21482405.460   112890803.255 7      4498.377          46.812    21482404.180   112890803.262 5      4498.377          35.750    21482409.520    87966832.448 6      3505.229          36.125
G08  21607192.380   113546563.831 7      3591.076          47.437    21607191.240   113546563.830 6      3591.076          37.312    21607198.280    88477866.947 6      2798.241          37.187    21607199.100    88477871.957 8      2798.241          48.062
G23  23224925.800   122047807.273 7      1238.450          44.000    23224924.480   122047807.283 5      1238.450          31.062    23224932.860    95102217.986 5       965.026          31.062    23224933.280    95102217.990 7       965.026          45.812
> 2024 05 10 11 55  2.0000000  0 13
R22  20421956.880   109013790.312 8       172.297          48.500    20421956.460   109013790.315 8       172.297          48.625    20421964.240    84788532.656 8       134.009          50.375    20421964.860    84788533.656 8       134.009          50.187
G10  22228562.640   116811887.879 7      3161.521          46.937    22228561.480   116811887.894 7      3161.521          45.437    22228570.260    91022284.215 7      2463.523          45.250    22228570.220    91022284.223 7      2463.523          47.250
G27  20829177.420   109458062.613 8      2064.614          49.250    20829176.440   109458062.620 8      2064.614          49.687    20829182.900    85292016.460 8      1608.790          49.187    20829183.640    85292020.456 8      1608.790          50.937
G02  23206969.240   121953452.636 7      4976.897          45.187    23206968.080   121953452.643 5      4976.897          32.437    23206975.200    95028679.501 5      3878.102          32.375
R12  19148857.460   102289757.231 8      2124.566          50.312    19148857.800   102289757.232 8      2124.566          50.375    19148866.800    79558735.570 8      1652.440          50.375    19148866.580    79558737.573 8      1652.440          50.625
G26  22014785.960   115688481.478 7      -187.989          46.812    22014784.940   115688481.486 7      -187.989          44.187    22014795.540    90146901.453 7      -146.485          43.375    22014795.760    90146902.459 7      -146.485          46.562
R11  21938769.280   117234117.741 7     -1572.637          45.000    21938768.020   117234117.740 7     -1572.637          44.562    21938784.340    91182188.428 7     -1223.162          47.062    21938784.260    91182154.429 7     -1223.162          47.187
G07  24633267.920   129448701.761 6      4365.926          37.750    24633264.880   129448701.763 4      4365.926          27.750    24633276.240   100869150.502 4      3402.020          27.500    24633276.840   100869147.513 7      3402.020          44.000
R23  20360462.300   108914747.377 7      3033.918          45.875    20360460.640   108914747.370 7      3033.918          44.750
G16  20452208.660   107477084.129 7      1734.965          47.500    20452207.680   107477084.139 6      1734.965          40.312    20452211.380    83748381.829 6      1351.921          40.000
G21  21481549.820   112886305.081 7      4497.882          46.937    21481548.080   112886305.083 5      4497.882          35.687    21481553.580    87963327.378 5      3504.843          35.750
G08  21606508.980   113542972.666 8      3591.010          48.562    21606507.920   113542972.668 6      3591.010          37.500    21606514.960    88475068.639 6      2798.190          37.187    21606515.980    88475073.649 8      2798.190          48.687
G23  23224690.180   122046569.029 7      1237.825          43.625    23224688.980   122046569.042 5      1237.825          31.062    23224697.380    95101253.116 5       964.539          31.062    23224698.020    95101253.123 7       964.539          46.062
> 2024 05 10 11 55  3.0000000  0 13
R22  20421924.320   109013618.129 8       172.121          49.312    20421924.380   109013618.125 8       172.121          48.812    20421932.380    84788398.726 8       133.872          50.750    20421932.440    84788399.722 8       133.872          51.125
G10  22227961.060   116808726.639 7      3161.076          46.625    22227959.800   116808726.646 7      3161.076          45.875    22227968.540    91019820.903 7      2463.176          45.312    22227968.940    91019820.909 7      2463.176          47.125
G27  20828784.400   109455998.009 8      2064.580          48.750    20828783.680   109455998.009 8      2064.580          50.875    20828789.980    85290407.671 8      1608.764          50.437    20828790.480    85290411.668 8      1608.764          50.937
G02  23206022.240   121948475.768 7      4976.744          46.625    23206020.980   121948475.773 5      4976.744          32.625    23206028.160    95024801.431 5      3877.982          32.375
R12  19148459.740   102287633.064 8      2123.823          50.687    19148460.000   102287633.062 8      2123.823          50.625    19148468.880    79557083.436 8      1651.862          50.750    19148468.860    79557085.441 8      1651.862          50.687
G26  22014821.840   115688669.543 7      -188.197          46.375    22014821.080   115688669.551 7      -188.197          44.750    22014831.540    90147047.989 7      -146.647          44.312    22014831.600    90147048.997 7      -146.647          46.937
R11  21939063.260   117235690.439 7     -1572.823          44.750    21939061.920   117235690.440 7     -1572.823          44.625    21939078.900    91183411.617 7     -1223.307          46.687    21939078.480    91183377.615 7     -1223.307          47.000
G07  24632437.380   129444335.964 6      4365.433          37.062    24632433.960   129444335.971 4      4365.433          27.750    24632445.540   100865748.586 4      3401.636          27.500    24632446.400   100865745.616 7      3401.636          43.500
R23  20359895.320   108911713.646 7      3033.493          46.187    20359893.400   108911713.650 7      3033.493          44.875
G16  20451878.680   107475349.289 7      1734.641          46.500    20451877.340   107475349.302 6      1734.641          40.875    20451881.040    83747030.006 6      1351.668          40.562
G21  21480693.760   112881807.422 7      4497.415          46.687    21480692.260   112881807.425 6      4497.415          36.312    21480697.720    87959822.713 5      3504.480          35.750
G08  21605825.500   113539381.653 7      3590.991          47.500    21605824.500   113539381.655 6      3590.991          37.625    21605831.500    88472270.451 6      2798.175          37.625    21605832.520    88472275.451 8      2798.175          49.000
G23  23224454.780   122045331.374 7      1237.377          43.250    23224453.540   122045331.386 5      1237.377          31.062    23224461.900    95100288.703 5       964.190          31.062    23224462.700    95100288.710 7       964.190          46.625
> 2024 05 10 11 55  4.0000000  0 13
R22  20421891.840   109013446.014 7       172.055          47.687    20421891.520   109013446.007 8       172.055          48.250    20421900.000    84788264.857 8       133.820          50.625    20421899.860    84788265.856 8       133.820          51.125
G10  22227359.580   116805565.793 7      3160.559          46.312    22227358.400   116805565.803 7      3160.559          45.312    22227367.080    91017357.914 7      2462.774          45.250    22227367.360    91017357.920 7      2462.774          47.125
G27  20828391.520   109453933.411 8      2064.551          48.062    20828390.520   109453933.411 8      2064.551          49.437    20828396.900    85288798.896 8      1608.741          49.750    20828397.520    85288802.890 8      1608.741          50.750
G02  23205075.060   121943499.115 7      4976.453          45.937    23205073.840   121943499.123 5      4976.453          32.625    23205081.120    95020923.528 5      3877.756          32.375
R12  19148062.300   102285509.645 8      2123.072          49.687    19148062.380   102285509.638 8      2123.072          49.625    19148071.600    79555431.884 8      1651.278          51.000    19148071.480    79555433.887 8      1651.278          51.312
G26  22014857.680   115688857.836 7      -188.567          46.875    22014856.980   115688857.846 7      -188.567          44.687    22014867.400    90147194.707 7      -146.935          44.312    22014867.960    90147195.714 7      -146.935          47.250
R11  21939357.680   117237263.346 7     -1573.090          44.562    21939356.420   117237263.355 7     -1573.090          43.625    21939373.440    91184634.980 7     -1223.515          47.187    21939373.160    91184600.981 7     -1223.515          47.125
G07  24631606.360   129439970.524 6      4364.990          37.062    24631603.140   129439970.529 4      4364.990          27.750    24631614.780   100862346.943 4      3401.291          27.500    24631615.620   100862343.946 7      3401.291          44.000
R23  20359328.380   108908680.278 7      3033.129          44.812    20359326.460   108908680.277 7      3033.129          44.875
G16  20451548.620   107473614.823 7      1734.223          45.937    20451547.300   107473614.833 6      1734.223          40.500    20451550.960    83745678.472 6      1351.342          39.875
G21  21479837.580   112877310.121 7      4497.043          47.062    21479836.480   112877310.126 6      4497.043          36.312    21479841.920    87956318.324 6      3504.189          36.500
G08  21605142.420   113535790.632 7      3590.907          47.125    21605141.200   113535790.632 6      3590.907          37.687    21605148.160    88469472.253 6      2798.109          37.562    21605149.100    88469477.257 8      2798.109          48.812
G23  23224219.320   122044094.162 7      1236.817          42.375    23224218.100   122044094.178 5      1236.817          31.437    23224226.520    95099324.643 5       963.754          31.062    23224227.080    95099324.647 7       963.754          46.437
> 2024 05 10 11 55  5.0000000  0 13
R22  20421859.720   109013274.227 7       171.651          47.812    20421859.280   109013274.217 7       171.651          47.937    20421867.800    84788131.243 8       133.506          50.750    20421867.740    84788132.244 8       133.506          50.625
G10  22226758.340   116802405.590 7      3159.906          46.937    22226757.120   116802405.595 7      3159.906          45.250    22226765.720    91014895.415 7      2462.264          45.125    22226765.980    91014895.427 7      2462.264          47.437
G27  20827998.580   109451869.117 8      2064.087          48.375    20827997.880   109451869.117 8      2064.087          49.562    20828004.460    85287190.353 8      1608.379          49.312    20828004.760    85287194.350 8      1608.379          50.937
G02  23204128.260   121938522.933 7      4975.914          45.250    23204126.900   121938522.938 5      4975.914          32.875    23204134.160    95017045.983 5      3877.336          33.000
R12  19147664.860   102283387.187 8      2121.882          49.125    19147664.980   102283387.188 8      2121.882          49.250    19147674.240    79553781.085 8      1650.352          50.625    19147673.980    79553783.089 8      1650.352          51.000
G26  22014893.600   115689046.579 7      -189.050          46.250    22014892.580   115689046.589 7      -189.050          44.937    22014903.360    90147341.773 7      -147.312          44.562    22014903.760    90147342.780 7      -147.312          46.750
R11  21939652.160   117238836.770 7     -1573.802          43.687    21939651.200   117238836.785 7     -1573.802          43.562    21939667.860    91185858.736 7     -1224.068          46.437    21939667.800    91185824.737 7     -1224.068          47.312
G07  24630775.280   129435605.574 6      4364.613          36.625    24630772.340   129435605.576 4      4364.613          27.750    24630784.180   100858945.679 4      3400.997          27.500    24630784.540   100858942.673 7      3400.997          43.687
R23  20358760.940   108905647.502 7      3032.428          45.250    20358759.720   108905647.506 7      3032.428          43.687
G16  20451218.860   107471880.958 7      1733.546          45.875    20451217.500   107471880.965 6      1733.546          41.000    20451221.040    83744327.408 6      1350.815          40.312
G21  21478981.940   112872813.440 7      4496.349          47.562    21478980.740   112872813.439 6      4496.349          36.687    21478986.380    87952814.417 6      3503.649          36.687
G08  21604459.140   113532199.843 7      3590.547          46.500    21604457.840   113532199.843 6      3590.547          37.500    21604464.820    88466674.235 6      2797.829          37.250    21604465.620    88466679.240 8      2797.829          49.062
G23  23223983.660   122042857.645 7      1236.102          43.125    23223982.740   122042857.660 5      1236.102          31.437    23223991.260    95098361.120 5       963.196          31.250    23223991.880    95098361.112 7       963.196          46.750
> 2024 05 10 11 55  6.0000000  0 13
R22  20421827.560   109013102.784 7       171.301          47.187    20421826.940   109013102.783 8       171.301          48.125    20421835.820    84787997.900 8       133.234          50.625    20421835.600    84787998.900 8       133.234          50.687
G10  22226156.960   116799246.058 7      3159.257          46.187    22226155.880   116799246.066 7      3159.257          45.437    22226164.480    91012433.447 7      2461.759          45.125    22226164.980    91012433.452 7      2461.759          47.500
G27  20827605.820   109449805.095 8      2063.878          48.500    20827604.840   109449805.094 8      2063.878          49.562    20827611.540    85285582.024 8      1608.217          50.250    20827612.160    85285586.022 8      1608.217          50.875
G02  23203181.300   121933547.208 7      4975.427          45.625    23203180.080   121933547.215 5      4975.427          32.875    23203187.140    95013168.807 5      3876.956          33.000
R12  19147267.460   102281265.672 8      2120.937          50.000    19147267.760   102281265.676 8      2120.937          49.062    19147277.020    79552131.018 8      1649.618          50.375    19147276.760    79552133.024 8      1649.618          51.125
G26  22014929.580   115689235.791 7      -189.454          45.250    22014928.800   115689235.810 7      -189.454          44.625    22014939.520    90147489.209 7      -147.627          44.812    22014940.000    90147490.217 7      -147.627          47.000
R11  21939946.760   117240410.652 7     -1574.116          44.000    21939945.520   117240410.659 7     -1574.116          43.562    21939962.360    91187082.850 7     -1224.312          47.062    21939962.120    91187048.851 7     -1224.312          47.437
G07  24629945.700   129431241.193 6      4364.239          36.625    24629941.700   129431241.195 4      4364.239          27.500    24629953.640   100855544.859 4      3400.706          27.500    24629954.000   100855541.864 7      3400.706          43.687
R23  20358194.260   108902615.341 7      3031.807          44.875    20358192.640   108902615.345 7      3031.807          44.750
G16  20450889.040   107470147.708 7      1732.882          46.687    20450887.620   107470147.718 6      1732.882          40.750    20450891.280    83742976.822 6      1350.298          40.187
G21  21478126.200   112868317.378 7      4495.735          46.437    21478125.000   112868317.378 6      4495.735          36.187    21478130.680    87949310.997 6      3503.170          36.375
G08  21603775.880   113528609.301 7      3590.334          46.625    21603774.600   113528609.300 6      3590.334          38.062    21603781.680    88463876.408 6      2797.663          37.562    21603782.600    88463881.412 8      2797.663          49.000
G23  23223748.940   122041621.849 7      1235.233          43.625    23223747.520   122041621.862 5      1235.233          31.437    23223756.300    95097398.159 5       962.519          31.250    23223756.460    95097398.157 7       962.519          46.562
> 2024 05 10 11 55  7.0000000  0 13
R22  20421795.660   109012931.563 7       171.175          47.125    20421795.120   109012931.559 8       171.175          48.000    20421803.760    84787864.724 8       133.136          51.062    20421803.740    84787865.726 8       133.136          50.625
G10  22225555.940   116796087.086 7      3158.705          46.250    22225554.700   116796087.093 7      3158.705          45.875    22225563.480    91009971.908 7      2461.329          45.875    22225563.660    91009971.915 7      2461.329          47.000
G27  20827213.000   109447741.248 8      2063.754          48.187    20827211.940   109447741.242 8      2063.754          49.875    20827218.900    85283973.825 8      1608.120          49.625    20827219.200    85283977.820 8      1608.120          50.750
G02  23202234.520   121928571.851 7      4975.106          45.187    23202233.360   121928571.858 5      4975.106          32.500    23202240.440    95009291.905 5      3876.706          32.687
R12  19146870.620   102279145.039 8      2120.142          48.687    19146870.800   102279145.040 8      2120.142          49.000    19146880.100    79550481.631 8      1648.999          50.937    19146879.980    79550483.632 8      1648.999          51.437
G26  22014965.840   115689425.377 7      -189.758          45.625    22014964.780   115689425.388 7      -189.758          44.750    22014975.560    90147636.924 7      -147.864          44.687    22014975.820    90147637.932 7      -147.864          46.875
R11  21940241.480   117241984.935 7     -1574.521          44.000    21940240.240   117241984.944 7     -1574.521          43.812    21940257.140    91188307.271 7     -1224.627          47.250    21940257.220    91188273.272 7     -1224.627          46.750
G07  24629115.700   129426877.251 6      4364.003          36.625    24629111.100   129426877.259 4      4364.003          27.500    24629123.280   100852144.387 4      3400.522          27.312    24629123.300   100852141.402 7      3400.522          43.562
R23  20357627.640   108899583.675 7      3031.352          43.500    20357625.940   108899583.677 7      3031.352          44.187
G16  20450559.120   107468414.957 7      1732.478          46.750    20450557.820   107468414.967 6      1732.478          40.312    20450561.500    83741626.625 6      1349.983          39.937
G21  21477270.760   112863821.814 7      4495.299          46.375    21477269.560   112863821.813 6      4495.299          36.187    21477275.160    87945807.963 6      3502.831          36.375
G08  21603092.520   113525018.884 7      3590.281          47.187    21603091.400   113525018.884 6      3590.281          37.687    21603098.500    88461078.683 6      2797.621          37.500    21603099.440    88461083.693 8      2797.621          48.812
G23  23223513.620   122040386.596 7      1234.835          42.687    23223512.460   122040386.611 5      1234.835          31.312    23223521.360    95096435.619 5       962.209          31.250    23223521.600    95096435.619 7       962.209          46.375
