     3.05           OBSERVATION DATA    MIXED               RINEX VERSION / TYPE
TPS2RIN 1.0.29.3920 TPS-USER            20240511 200040 UTC PGM / RUN BY / DATE
Win64 build Feb 23, 2024 (c) Topcon Positioning Systems     COMMENT
SRC: 20240510_MI06.tps                                      COMMENT
OPT: -S -v 3.05                                             COMMENT
Observer            Agency                                  OBSERVER / AGENCY
O0M3X53SBGM         TPS HIPER_SR        4.8 HSR Jul,08,2022 REC # / TYPE / VERS
FW: 4.8 HSR Jul,08,2022 p3                                  COMMENT
SN: HiPer SR 1212-12575                                     COMMENT
000                 TPSHIPER_SR     NONE                    ANT # / TYPE
        1.8000        0.0000        0.0000                  ANTENNA: DELTA H/E/N
MI06                                                        MARKER NAME
  5383476.5043 -1589691.6422  3019652.9703                  APPROX POSITION XYZ
  2024     5    10    12    20    5.0000000     GPS         TIME OF FIRST OBS
  2024     5    10    12    35    5.0000000     GPS         TIME OF LAST OBS
     1.000                                                  INTERVAL
   901 EPOCHS                                               COMMENT
G   16 C1C L1C D1C S1C C1W L1W D1W S1W C2W L2W D2W S2W C2X  SYS / # / OBS TYPES
       L2X D2X S2X                                          SYS / # / OBS TYPES
R   16 C1C L1C D1C S1C C1P L1P D1P S1P C2P L2P D2P S2P C2C  SYS / # / OBS TYPES
       L2C D2C S2C                                          SYS / # / OBS TYPES
    15                                                      # OF SATELLITES
   G02   901   901   901   901   901   901   901   901   901PRN / # OF OBS
         901   901   901     0     0     0     0            PRN / # OF OBS
   G07   901   901   901   901   901   901   901   901   901PRN / # OF OBS
         901   901   901   901   901   901   901            PRN / # OF OBS
   G08   901   901   901   901   901   901   901   901   901PRN / # OF OBS
         901   901   901   901   901   901   901            PRN / # OF OBS
   G10   901   901   901   901   901   901   901   901   901PRN / # OF OBS
         901   901   901   901   901   901   901            PRN / # OF OBS
   G16   901   901   901   901   901   901   901   901   901PRN / # OF OBS
         901   901   901     0     0     0     0            PRN / # OF OBS
   G21   901   901   901   901   901   901   901   901   901PRN / # OF OBS
         901   901   901     0     0     0     0            PRN / # OF OBS
   G23   901   901   901   901   901   901   901   901   901PRN / # OF OBS
         901   901   901   901   901   901   901            PRN / # OF OBS
   G26   901   901   901   901   901   901   901   901   901PRN / # OF OBS
         901   901   901   901   901   901   901            PRN / # OF OBS
   G27   901   901   901   901   901   901   901   901   901PRN / # OF OBS
         901   901   901   901   901   901   901            PRN / # OF OBS
   R07   860   860   860   860   856   856   856   856   856PRN / # OF OBS
         856   856   856   855   855   855   855            PRN / # OF OBS
   R11   216   216   216   216   216   216   216   216   216PRN / # OF OBS
         216   216   216   216   216   216   216            PRN / # OF OBS
   R12   901   901   901   901   901   901   901   901   901PRN / # OF OBS
         901   901   901   901   901   901   901            PRN / # OF OBS
   R22   901   901   901   901   901   901   901   901   901PRN / # OF OBS
         901   901   901   901   901   901   901            PRN / # OF OBS
   R23   901   901   901   901   901   901   901   901     0PRN / # OF OBS
           0     0     0     0     0     0     0            PRN / # OF OBS
   R24   195   195   195   195   190   190   190   190   190PRN / # OF OBS
         190   190   190   189   189   189   189            PRN / # OF OBS
G L1C                                                       SYS / PHASE SHIFT
G L1W -0.25000                                              SYS / PHASE SHIFT
G L2W  0.00000                                              SYS / PHASE SHIFT
G L2X  0.25000                                              SYS / PHASE SHIFT
R L1C                                                       SYS / PHASE SHIFT
R L1P -0.25000                                              SYS / PHASE SHIFT
R L2P -0.25000                                              SYS / PHASE SHIFT
R L2C                                                       SYS / PHASE SHIFT
  6 R07  5 R11  0 R12 -1 R22 -3 R23  3 R24  2               GLONASS SLOT / FRQ #
                                                            GLONASS COD/PHS/BIS
    18    18  1929     7GPS                                 LEAP SECONDS
                                                            END OF HEADER
> 2024 05 10 12 20  5.0000000  0 13
G27  20875292.180   109700402.909 7      1807.115          47.375    20875291.220   109700402.914 8      1807.115          48.250    20875297.560    85480855.785 8      1408.141          48.687    20875298.320    85480866.782 8      1408.141          49.937
G21  20904123.420   109851911.675 7      3718.469          47.687    20904122.060   109851911.680 6      3718.469          37.687    20904126.500    85598905.784 6      2897.509          37.937
G10  22047504.580   115860414.171 7      2284.207          46.875    22047503.260   115860414.176 7      2284.207          45.125    22047511.960    90280881.904 7      1779.902          45.437    22047512.120    90280880.905 7      1779.902          47.250
R23  20202526.080   108069898.541 7      2378.173          44.437    20202526.240   108069898.564 7      2378.173          44.500
G16  20664039.140   108590259.109 7       971.803          46.437    20664037.220   108590259.122 6       971.803          39.625    20664042.200    84615797.455 6       757.249          39.187
R12  19335242.560   103285399.991 8       815.261          49.000    19335242.080   103285399.984 8       815.261          48.562    19335252.520    80333124.822 8       634.092          51.062    19335252.820    80333125.824 8       634.092          51.562
R22  21011016.400   112158230.852 7       -58.350          44.125    21011015.040   112158230.842 7       -58.350          45.562    21011024.100    87234212.790 8       -45.384          48.687    21011024.340    87234212.789 8       -45.384          48.625
R11  23044204.640   123141247.912 6     -1984.251          41.625    23044203.480   123141247.903 6     -1984.251          41.000    23044225.320    95776608.953 7     -1543.307          46.250    23044225.140    95776606.953 7     -1543.307          46.937
G23  23593422.500   123984270.486 7       399.551          42.562    23593420.920   123984270.496 5       399.551          30.750    23593430.560    96611134.212 5       311.338          30.750    23593430.580    96611155.212 7       311.338          45.625
G26  22739317.880   119495915.440 7      -671.317          43.750    22739316.480   119495915.442 6      -671.317          41.687    22739330.460    93113750.566 6      -523.104          41.312    22739331.000    93113757.560 7      -523.104          46.312
G02  22461236.700   118034596.228 7      4407.908          44.812    22461234.760   118034596.233 5      4407.908          34.687    22461241.160    91975028.573 5      3434.733          34.750
G07  24086612.000   126576011.773 7      3629.202          43.250    24086610.180   126576011.778 4      3629.202          26.625    24086617.180    98630639.387 4      2827.949          26.250    24086619.140    98630691.382 6      2827.949          38.375
G08  21206802.360   111442500.295 7      3393.637          46.875    21206801.520   111442500.295 6      3393.637          37.875    21206808.640    86838337.970 6      2644.392          37.562    21206809.260    86838341.977 8      2644.392          49.375
> 2024 05 10 12 20  6.0000000  0 13
G27  20874948.500   109698595.865 8      1806.998          48.437    20874947.360   109698595.870 8      1806.998          48.937    20874953.720    85479447.697 8      1408.051          48.875    20874954.520    85479458.692 8      1408.051          49.937
G21  20903415.880   109848193.432 8      3718.025          48.312    20903414.660   109848193.437 6      3718.025          38.125    20903419.060    85596008.453 6      2897.163          38.187
G10  22047069.880   115858130.243 7      2283.636          47.437    22047068.740   115858130.248 7      2283.636          45.812    22047077.380    90279102.220 7      1779.456          45.687    22047077.420    90279101.223 7      1779.456          47.000
R23  20202081.300   108067520.613 7      2377.786          44.750    20202081.620   108067520.634 7      2377.786          44.375
G16  20663854.140   108589287.561 7       971.262          46.125    20663852.400   108589287.571 6       971.262          39.250    20663857.400    84615040.396 6       756.828          38.875
R12  19335090.020   103284585.182 8       814.436          48.500    19335089.440   103284585.175 8       814.436          48.687    19335099.900    80332491.079 8       633.450          51.437    19335100.320    80332492.081 8       633.450          51.687
R22  21011027.660   112158289.192 7       -58.449          46.375    21011025.960   112158289.188 7       -58.449          46.125    21011035.040    87234258.168 8       -45.460          49.000    21011035.000    87234258.167 8       -45.460          49.187
R11  23044576.040   123143232.035 6     -1984.322          40.000    23044574.620   123143232.031 6     -1984.322          39.375    23044596.620    95778152.158 7     -1543.361          46.687    23044596.360    95778150.159 7     -1543.361          46.437
G23  23593346.740   123983871.300 7       398.950          42.625    23593344.900   123983871.310 5       398.950          30.750    23593354.600    96610823.154 5       310.870          30.812    23593354.640    96610844.150 7       310.870          45.875
G26  22739445.440   119496586.926 7      -671.570          43.875    22739444.300   119496586.923 6      -671.570          41.500    22739458.320    93114273.781 6      -523.301          41.437    22739458.900    93114280.775 7      -523.301          46.125
G02  22460398.020   118030188.604 7      4407.404          45.375    22460396.080   118030188.606 5      4407.404          34.687    22460402.380    91971594.062 5      3434.341          34.437
G07  24085921.400   126572382.887 7      3628.612          43.437    24085919.760   126572382.887 4      3628.612          26.625    24085926.700    98627811.682 4      2827.490          26.250    24085927.860    98627863.674 6      2827.490          38.375
G08  21206156.640   111439106.759 7      3393.570          46.187    21206155.660   111439106.758 6      3393.570          37.625    21206162.880    86835693.658 6      2644.340          37.812    21206163.240    86835697.665 8      2644.340          49.312
> 2024 05 10 12 20  7.0000000  0 13
G27  20874604.580   109696789.071 8      1806.588          48.062    20874603.560   109696789.078 8      1806.588          49.687    20874609.980    85478039.803 8      1407.731          49.375    20874610.720    85478050.802 8      1407.731          49.937
G21  20902708.300   109844475.789 8      3717.257          48.562    20902707.180   109844475.791 6      3717.257          37.562    20902711.520    85593111.588 6      2896.564          37.687
G10  22046635.320   115855846.991 7      2282.891          47.750    22046634.200   115855846.993 7      2282.891          45.187    22046642.780    90277323.056 7      1778.876          45.750    22046642.780    90277322.062 7      1778.876          47.312
R23  20201636.920   108065143.140 7      2377.124          44.625    20201637.240   108065143.166 7      2377.124          44.687
G16  20663669.460   108588316.567 7       970.681          46.625    20663667.600   108588316.577 6       970.681          39.312    20663672.660    84614283.775 6       756.375          39.125
R12  19334937.920   103283771.273 8       813.377          49.125    19334937.220   103283771.268 8       813.377          49.250    19334947.600    80331858.035 8       632.627          50.875    19334947.820    80331859.035 8       632.627          51.375
R22  21011038.500   112158347.679 7       -58.648          43.937    21011036.960   112158347.671 7       -58.648          46.187    21011046.020    87234303.649 8       -45.615          49.062    21011046.000    87234303.648 8       -45.615          49.250
R11  23044947.380   123145216.403 6     -1984.486          40.000    23044946.200   123145216.391 6     -1984.486          39.375    23044967.820    95779695.547 7     -1543.489          47.000    23044967.960    95779693.547 7     -1543.489          46.312
G23  23593270.320   123983472.687 6       398.160          41.437    23593269.040   123983472.698 5       398.160          30.750    23593278.640    96610512.544 5       310.255          30.812    23593278.960    96610533.543 7       310.255          45.687
G26  22739573.300   119497258.753 7      -672.087          43.437    22739572.220   119497258.756 6      -672.087          41.937    22739586.120    93114797.275 6      -523.704          41.437    22739586.360    93114804.263 7      -523.704          46.062
G02  22459559.140   118025781.408 7      4406.820          45.125    22459557.460   118025781.413 5      4406.820          34.562    22459563.640    91968159.892 5      3433.886          34.750
G07  24085230.820   126568754.582 7      3627.877          43.625    24085229.280   126568754.582 4      3627.877          26.625    24085236.260    98624984.429 4      2826.917          26.250    24085237.660    98625036.424 6      2826.917          38.250
G08  21205510.900   111435713.451 7      3393.158          46.062    21205509.980   111435713.451 6      3393.158          37.625    21205517.100    86833049.522 6      2644.019          37.375    21205517.760    86833053.525 8      2644.019          50.000
> 2024 05 10 12 20  8.0000000  0 13
G27  20874260.680   109694982.311 8      1806.930          48.500    20874259.720   109694982.321 8      1806.930          48.812    20874266.000    85476631.940 8      1407.997          49.187    20874266.500    85476642.937 8      1407.997          49.687
G21  20902000.920   109840758.521 8      3717.271          48.687    20901999.680   109840758.524 6      3717.271          37.375    20902004.160    85590215.016 6      2896.575          37.812
G10  22046200.880   115853564.227 7      2282.680          47.562    22046199.880   115853564.232 7      2282.680          45.500    22046208.400    90275544.286 7      1778.712          45.750    22046208.640    90275543.291 7      1778.712          46.937
R23  20201192.280   108062765.913 7      2377.266          44.625    20201192.820   108062765.928 7      2377.266          44.500
G16  20663484.720   108587345.975 7       970.595          46.875    20663482.860   108587345.982 6       970.595          39.687    20663487.980    84613527.464 6       756.308          39.250
R12  19334785.440   103282958.069 8       813.108          49.437    19334784.940   103282958.067 8       813.108          49.000    19334795.200    80331225.539 8       632.418          51.437    19334795.460    80331226.539 8       632.418          51.375
R22  21011049.720   112158406.128 7       -58.272          45.937    21011047.860   112158406.113 7       -58.272          46.562    21011057.020    87234349.101 8       -45.323          48.812    21011056.980    87234349.104 8       -45.323          49.187
R11  23045318.860   123147200.847 6     -1984.312          40.500    23045318.020   123147200.851 6     -1984.312          39.375    23045339.220    95781239.001 7     -1543.354          46.812    23045339.120    95781237.005 7     -1543.354          46.687
G23  23593194.540   123983074.471 6       398.123          41.562    23593193.240   123983074.482 5       398.123          30.750    23593202.820    96610202.244 5       310.226          30.812    23593203.100    96610223.236 7       310.226          45.562
G26  22739701.200   119497930.725 7      -671.806          43.812    22739700.080   119497930.730 6      -671.806          41.687    22739714.040    93115320.877 6      -523.485          41.250    22739714.800    93115327.869 7      -523.485          45.937
G02  22458720.560   118021374.488 7      4406.953          45.375    22458718.800   118021374.490 5      4406.953          34.937    22458724.980    91964725.930 5      3433.990          34.750
G07  24084540.620   126565126.661 7      3627.907          43.250    24084538.920   126565126.663 4      3627.907          26.625    24084546.020    98622157.474 4      2826.940          26.562    24084547.420    98622209.466 6      2826.940          38.250
G08  21204865.060   111432320.130 7      3393.596          46.375    21204864.200   111432320.124 6      3393.596          37.687    21204871.440    86830405.373 6      2644.361          37.812    21204871.920    86830409.372 8      2644.361          50.000
> 2024 05 10 12 20  9.0000000  0 13
G27  20873916.900   109693175.695 7      1806.498          47.375    20873916.000   109693175.700 8      1806.498          48.437    20873922.220    85475224.184 8      1407.661          48.562    20873922.960    85475235.181 8      1407.661          49.937
G21  20901293.680   109837041.748 8      3716.489          48.750    20901292.460   109837041.747 6      3716.489          37.687    20901296.900    85587318.826 6      2895.965          37.625
G10  22045766.580   115851282.033 7      2281.773          47.125    22045765.640   115851282.038 7      2281.773          45.562    22045774.220    90273765.951 7      1778.005          45.687    22045774.600    90273764.960 7      1778.005          46.875
R23  20200748.280   108060389.029 7      2376.598          44.312    20200748.280   108060389.044 7      2376.598          44.500
G16  20663300.120   108586375.830 7       969.879          45.625    20663298.220   108586375.835 6       969.879          39.500    20663303.360    84612771.504 6       755.750          39.187
R12  19334633.660   103282145.714 8       811.841          48.875    19334632.880   103282145.710 8       811.841          49.500    19334643.200    80330593.703 8       631.432          51.312    19334643.420    80330594.705 8       631.432          51.500
R22  21011060.480   112158464.598 7       -58.583          46.000    21011058.860   112158464.594 7       -58.583          46.250    21011068.100    87234394.585 8       -45.565          48.812    21011068.260    87234394.583 8       -45.565          48.500
R11  23045690.280   123149185.429 6     -1984.758          40.500    23045689.360   123149185.433 6     -1984.758          39.625    23045710.680    95782782.559 7     -1543.701          46.875    23045710.780    95782780.560 7     -1543.701          46.875
G23  23593119.220   123982676.723 6       397.358          41.437    23593117.660   123982676.728 5       397.358          30.625    23593127.260    96609892.302 5       309.630          30.437    23593127.740    96609913.290 7       309.630          45.750
G26  22739829.240   119498602.960 7      -672.372          43.000    22739827.880   119498602.959 6      -672.372          41.750    22739842.020    93115844.678 6      -523.926          41.812    22739842.460    93115851.672 7      -523.926          46.000
G02  22457882.080   118016967.909 7      4406.329          45.250    22457880.300   118016967.909 5      4406.329          34.937    22457886.300    91961292.239 5      3433.503          34.687
G07  24083850.220   126561499.220 7      3627.127          42.750    24083848.700   126561499.225 4      3627.127          26.625    24083855.820    98619330.894 4      2826.333          26.562    24083857.180    98619382.889 6      2826.333          38.250
G08  21204219.460   111428926.914 7      3393.111          46.562    21204218.580   111428926.909 6      3393.111          38.062    21204225.660    86827761.309 6      2643.983          38.062    21204226.520    86827765.312 8      2643.983          50.062
> 2024 05 10 12 20 10.0000000  0 13
G27  20873573.300   109691369.498 7      1806.166          47.750    20873572.240   109691369.508 8      1806.166          48.875    20873578.560    85473816.763 8      1407.402          49.312    20873579.360    85473827.762 8      1407.402          49.812
G21  20900586.540   109833325.736 7      3715.831          47.875    20900585.340   109833325.738 6      3715.831          37.375    20900589.840    85584423.237 6      2895.453          37.625
G10  22045332.500   115849000.680 8      2281.090          48.125    22045331.640   115849000.683 7      2281.090          45.812    22045340.100    90271988.277 7      1777.472          46.062    22045340.420    90271987.285 7      1777.472          47.187
R23  20200303.820   108058012.794 7      2376.038          44.375    20200304.380   108058012.806 7      2376.038          44.375
G16  20663115.720   108585406.452 7       969.211          46.750    20663113.780   108585406.459 6       969.211          39.437    20663118.760    84612016.145 6       755.230          39.125
R12  19334481.460   103281334.436 8       810.955          48.437    19334480.940   103281334.434 8       810.955          49.562    19334491.400    80329962.711 8       630.743          50.812    19334491.760    80329963.713 8       630.743          51.312
R22  21011071.740   112158523.442 7       -58.769          44.875    21011070.060   112158523.435 7       -58.769          46.250    21011079.080    87234440.342 8       -45.709          49.250    21011078.980    87234440.341 8       -45.709          48.500
R11  23046061.360   123151170.412 6     -1984.970          40.500    23046060.460   123151170.413 6     -1984.970          39.625    23046082.280    95784326.434 7     -1543.865          47.125    23046082.280    95784324.438 7     -1543.865          46.875
G23  23593043.520   123982279.752 7       396.596          42.125    23593042.060   123982279.757 5       396.596          30.625    23593051.620    96609582.976 5       309.036          30.437    23593052.120    96609603.969 7       309.036          45.687
G26  22739957.020   119499275.725 7      -672.930          43.375    22739955.960   119499275.730 7      -672.930          42.062    22739969.940    93116368.900 6      -524.361          41.500    22739970.460    93116375.895 7      -524.361          45.812
G02  22457043.640   118012561.990 7      4405.772          44.812    22457041.840   118012561.993 5      4405.772          34.562    22457048.040    91957859.058 5      3433.069          34.687
G07  24083160.360   126557872.555 7      3626.498          43.125    24083158.600   126557872.554 4      3626.498          26.625    24083165.660    98616504.919 4      2825.843          26.562    24083166.960    98616556.922 6      2825.843          38.812
G08  21203573.880   111425534.093 7      3392.744          47.062    21203572.860   111425534.090 6      3392.744          38.625    21203580.000    86825117.554 6      2643.697          38.125    21203580.540    86825121.557 8      2643.697          49.500
> 2024 05 10 12 20 11.0000000  0 13
G27  20873229.720   109689563.374 8      1805.904          48.500    20873228.600   109689563.384 8      1805.904          49.062    20873234.840    85472409.388 8      1407.198          48.875    20873235.520    85472420.389 8      1407.198          49.312
G21  20899879.420   109829610.134 8      3715.226          48.937    20899878.220   109829610.137 6      3715.226          37.625    20899882.780    85581527.967 6      2894.982          37.625
G10  22044898.540   115846719.822 8      2280.471          48.187    22044897.560   115846719.824 7      2280.471          45.562    22044906.120    90270210.987 7      1776.990          45.500    22044906.420    90270209.994 7      1776.990          46.875
R23  20199859.720   108055636.827 7      2375.563          45.812    20199860.280   108055636.847 7      2375.563          44.750
G16  20662931.280   108584437.476 7       968.624          46.187    20662929.420   108584437.483 6       968.624          39.687    20662934.540    84611261.097 6       754.772          39.500
R12  19334330.000   103280523.903 8       809.987          48.500    19334329.280   103280523.904 8       809.987          49.375    19334339.740    80329332.292 8       629.990          51.250    19334339.740    80329333.292 8       629.990          51.437
R22  21011082.580   112158582.233 7       -58.853          46.500    21011081.260   112158582.226 7       -58.853          45.687    21011090.120    87234486.064 8       -45.775          49.125    21011090.160    87234486.065 8       -45.775          48.500
R11  23046432.940   123153155.446 6     -1985.167          40.937    23046432.060   123153155.455 6     -1985.167          40.250    23046453.760    95785870.354 7     -1544.018          47.062    23046453.460    95785868.355 7     -1544.018          47.562
G23  23592967.680   123981883.152 6       396.307          41.500    23592966.580   123981883.157 5       396.307          30.625    23592976.240    96609273.937 5       308.810          30.437    23592976.320    96609294.925 7       308.810          46.000
G26  22740085.260   119499948.640 7      -673.269          43.937    22740084.080   119499948.648 6      -673.269          41.875    22740098.120    93116893.240 6      -524.625          41.375    22740098.580    93116900.236 7      -524.625          46.375
G02  22456205.540   118008156.353 7      4405.263          44.625    22456203.400   118008156.363 5      4405.263          34.500    22456209.560    91954426.103 5      3432.672          34.437
G07  24082470.180   126554246.302 7      3625.930          43.062    24082468.600   126554246.304 4      3625.930          26.500    24082475.780    98613679.268 4      2825.400          26.562    24082476.100    98613731.264 6      2825.400          38.812
G08  21202928.320   111422141.247 7      3392.748          46.687    21202927.180   111422141.247 6      3392.748          38.062    21202934.400    86822473.781 6      2643.700          37.625    21202935.080    86822477.786 8      2643.700          49.562
> 2024 05 10 12 20 12.0000000  0 13
G27  20872886.060   109687757.386 8      1805.999          48.312    20872885.020   109687757.391 8      1805.999          48.937    20872891.180    85471002.123 8      1407.272          49.125    20872891.800    85471013.120 8      1407.272          49.625
G21  20899172.580   109825895.016 8      3714.978          48.125    20899171.160   109825895.021 6      3714.978          37.625    20899175.680    85578633.072 6      2894.788          37.625
G10  22044464.560   115844439.549 7      2280.031          47.687    22044463.700   115844439.554 7      2280.031          45.875    22044472.120    90268434.153 7      1776.647          45.875    22044472.280    90268433.164 7      1776.647          46.812
R23  20199415.720   108053261.202 7      2375.527          45.250    20199416.100   108053261.217 7      2375.527          44.625
G16  20662747.080   108583468.973 7       968.379          46.687    20662745.180   108583468.978 6       968.379          39.687    20662750.260    84610506.415 6       754.581          39.375
R12  19334178.440   103279714.160 8       809.427          48.750    19334177.740   103279714.161 8       809.427          49.312    19334188.080    80328702.490 8       629.554          51.250    19334188.120    80328703.492 8       629.554          51.375
R22  21011093.520   112158641.107 7       -58.743          46.062    21011092.300   112158641.086 7       -58.743          46.375    21011101.180    87234531.840 8       -45.689          48.750    21011101.220    87234531.839 8       -45.689          48.250
R11  23046804.260   123155140.680 6     -1985.223          40.937    23046803.360   123155140.684 6     -1985.223          40.250    23046825.260    95787414.410 7     -1544.063          47.000    23046825.180    95787412.414 7     -1544.063          47.437
G23  23592892.540   123981487.072 6       395.989          41.125    23592891.140   123981487.080 5       395.989          30.500    23592900.720    96608965.297 5       308.563          30.500    23592901.100    96608986.292 7       308.563          45.437
G26  22740213.620   119500621.787 7      -673.037          43.375    22740212.240   119500621.789 6      -673.037          41.500    22740226.260    93117417.751 6      -524.444          41.312    22740226.700    93117424.747 7      -524.444          46.000
G02  22455367.020   118003751.070 7      4405.156          44.937    22455365.120   118003751.077 5      4405.156          34.500    22455371.160    91950993.417 5      3432.589          34.250
G07  24081780.460   126550620.530 7      3625.600          43.187    24081778.640   126550620.535 4      3625.600          26.500    24081785.800    98610853.988 4      2825.143          26.562    24081786.540    98610906.014 6      2825.143          38.812
G08  21202282.680   111418748.546 7      3392.823          47.062    21202281.600   111418748.549 6      3392.823          37.812    21202288.840    86819830.118 6      2643.758          37.750    21202289.580    86819834.123 8      2643.758          49.187
> 2024 05 10 12 20 13.0000000  0 13
G27  20872542.420   109685951.433 7      1805.835          47.937    20872541.340   109685951.435 8      1805.835          49.125    20872547.500    85469594.884 8      1407.144          49.187    20872548.220    85469605.885 8      1407.144          50.125
G21  20898465.580   109822180.284 7      3714.431          47.250    20898464.200   109822180.289 6      3714.431          37.500    20898468.800    85575738.479 6      2894.362          38.125
G10  22044030.780   115842159.728 7      2279.502          47.062    22044029.900   115842159.730 7      2279.502          45.312    22044038.280    90266657.669 7      1776.236          45.562    22044038.140    90266656.678 7      1776.236          46.500
R23  20198971.880   108050885.802 7      2375.353          45.250    20198972.000   108050885.817 7      2375.353          44.875
G16  20662562.820   108582500.838 7       967.829          46.062    20662560.760   108582500.848 6       967.829          39.625    20662566.080    84609752.024 6       754.152          39.437
R12  19334026.940   103278905.128 8       808.601          49.187    19334026.380   103278905.132 8       808.601          49.250    19334036.540    80328073.239 8       628.912          51.375    19334036.640    80328074.243 8       628.912          51.812
R22  21011104.520   112158699.892 7       -58.838          46.000    21011103.140   112158699.882 7       -58.838          46.812    21011112.300    87234577.568 8       -45.763          49.187    21011112.000    87234577.563 8       -45.763          48.687
R11  23047175.420   123157125.906 6     -1985.301          40.687    23047175.420   123157125.915 6     -1985.301          40.250    23047196.660    95788958.475 7     -1544.123          46.750    23047196.640    95788956.478 7     -1544.123          46.750
G23  23592817.460   123981091.400 6       395.257          41.750    23592815.840   123981091.405 5       395.257          30.500    23592825.440    96608656.979 5       307.993          30.500    23592826.100    96608677.967 7       307.993          45.812
G26  22740341.760   119501295.104 7      -673.450          43.625    22740340.460   119501295.106 7      -673.450          42.000    22740354.180    93117942.403 6      -524.767          41.500    22740354.820    93117949.398 7      -524.767          45.875
G02  22454528.800   117999346.039 7      4404.785          44.500    22454526.800   117999346.041 5      4404.785          34.562    22454532.980    91947560.928 5      3432.300          34.250
G07  24081090.400   126546995.138 7      3625.201          43.812    24081088.640   126546995.141 4      3625.201          26.500    24081095.980    98608029.006 4      2824.832          26.562    24081096.820    98608081.013 6      2824.832          38.750
G08  21201637.080   111415355.838 7      3392.601          47.937    21201635.900   111415355.843 6      3392.601          37.750    21201643.220    86817186.451 6      2643.585          37.625    21201643.920    86817190.451 8      2643.585          49.750
> 2024 05 10 12 20 14.0000000  0 13
G27  20872198.840   109684145.479 8      1805.972          48.250    20872197.640   109684145.484 8      1805.972          48.562    20872203.780    85468187.652 8      1407.251          49.125    20872204.440    85468198.651 8      1407.251          49.812
G21  20897758.560   109818465.899 7      3714.253          47.875    20897757.360   109818465.901 6      3714.253          37.562    20897761.920    85572844.153 6      2894.223          37.812
G10  22043597.040   115839880.356 7      2279.184          47.375    22043596.260   115839880.358 7      2279.184          45.937    22043604.500    90264881.537 7      1775.987          45.937    22043604.220    90264880.547 7      1775.987          47.250
R23  20198527.860   108048510.640 7      2375.097          45.437    20198527.540   108048510.655 7      2375.097          44.937
G16  20662378.800   108581533.036 7       967.689          45.937    20662376.700   108581533.044 6       967.689          39.375    20662381.780    84608997.891 6       754.043          38.750
R12  19333875.420   103278096.742 8       808.146          49.312    19333875.140   103278096.741 8       808.146          49.250    19333885.260    80327444.490 8       628.558          50.562    19333885.520    80327445.492 8       628.558          51.062
R22  21011115.680   112158758.611 7       -58.661          44.500    21011114.240   112158758.596 7       -58.661          46.312    21011123.120    87234623.232 8       -45.625          48.687    21011123.020    87234623.227 8       -45.625          48.937
R11  23047546.900   123159111.129 6     -1985.038          40.687    23047546.560   123159111.146 6     -1985.038          39.937    23047568.160    95790502.542 7     -1543.919          46.562    23047568.240    95790500.543 7     -1543.919          46.437
G23  23592742.240   123980696.029 6       395.178          41.500    23592740.720   123980696.037 5       395.178          30.500    23592750.220    96608348.896 5       307.931          30.500    23592750.800    96608369.886 7       307.931          46.000
G26  22740469.660   119501968.518 7      -673.413          43.875    22740468.500   119501968.521 7      -673.413          42.000    22740482.340    93118467.128 6      -524.737          41.562    22740482.780    93118474.128 7      -524.737          46.062
G02  22453690.520   117994941.244 7      4404.561          44.375    22453688.420   117994941.241 5      4404.561          34.562    22453694.800    91944128.622 5      3432.125          34.375
G07  24080400.560   126543370.128 7      3624.782          42.562    24080399.000   126543370.131 4      3624.782          26.500    24080406.340    98605204.323 4      2824.506          26.937    24080407.660    98605256.332 6      2824.506          38.750
G08  21200991.340   111411963.092 7      3392.785          46.812    21200990.380   111411963.094 6      3392.785          37.812    21200997.600    86814542.753 6      2643.728          37.812    21200998.420    86814546.754 8      2643.728          49.875
> 2024 05 10 12 20 15.0000000  0 13
G27  20871855.040   109682339.673 8      1805.806          48.812    20871854.080   109682339.683 8      1805.806          48.437    20871860.140    85466780.530 8      1407.121          48.437    20871860.980    85466791.529 8      1407.121          50.062
G21  20897051.660   109814752.016 7      3713.665          47.562    20897050.580   109814752.015 6      3713.665          37.187    20897055.200    85569950.218 6      2893.765          37.812
G10  22043163.400   115837601.557 7      2278.612          47.187    22043162.680   115837601.562 7      2278.612          45.625    22043170.960    90263105.850 7      1775.542          45.812    22043170.720    90263104.857 7      1775.542          47.000
R23  20198084.160   108046135.820 7      2374.648          44.375    20198083.480   108046135.835 7      2374.648          44.125
G16  20662194.540   108580565.731 7       967.113          45.937    20662192.520   108580565.739 6       967.113          39.500    20662197.720    84608244.147 6       753.595          39.500
R12  19333724.360   103277289.174 8       807.231          48.937    19333724.060   103277289.167 8       807.231          49.750    19333734.180    80326816.373 8       627.847          50.812    19333734.240    80326817.373 8       627.847          50.625
R22  21011126.560   112158817.383 7       -58.866          45.875    21011125.380   112158817.379 7       -58.866          46.375    21011134.060    87234668.950 8       -45.784          48.875    21011134.360    87234668.947 8       -45.784          48.687
R11  23047918.500   123161096.537 6     -1985.396          40.625    23047917.680   123161096.538 6     -1985.396          39.937    23047939.660    95792046.725 7     -1544.197          46.500    23047939.580    95792044.728 7     -1544.197          46.687
G23  23592667.160   123980301.161 6       394.737          41.250    23592665.740   123980301.163 5       394.737          30.750    23592675.140    96608041.206 5       307.587          30.500    23592675.740    96608062.192 7       307.587          45.562
G26  22740598.000   119502642.211 7      -673.876          43.812    22740596.840   119502642.219 6      -673.876          41.437    22740610.540    93118992.077 6      -525.098          41.000    22740611.260    93118999.073 7      -525.098          45.937
G02  22452852.580   117990536.810 7      4404.146          45.125    22452850.340   117990536.812 5      4404.146          34.625    22452856.800    91940696.600 5      3431.802          34.375
G07  24079710.940   126539745.586 7      3624.266          43.500    24079709.280   126539745.588 4      3624.266          26.500    24079716.700    98602380.004 4      2824.103          26.937    24079717.940    98602432.013 6      2824.103          38.750
G08  21200345.900   111408570.449 7      3392.664          47.125    21200344.840   111408570.449 6      3392.664          37.500    21200352.040    86811899.135 6      2643.634          37.375    21200352.880    86811903.134 8      2643.634          49.375
> 2024 05 10 12 20 16.0000000  0 13
G27  20871511.520   109680534.085 8      1805.631          48.500    20871510.540   109680534.090 8      1805.631          49.125    20871516.580    85465373.574 8      1406.985          49.375    20871517.480    85465384.571 8      1406.985          50.000
G21  20896345.200   109811038.681 7      3713.107          47.812    20896344.000   109811038.684 6      3713.107          37.250    20896348.660    85567056.713 6      2893.330          37.687
G10  22042729.920   115835323.418 7      2277.900          47.937    22042729.200   115835323.420 7      2277.900          45.750    22042737.400    90261330.674 7      1774.987          45.937    22042737.720    90261329.682 7      1774.987          46.812
R23  20197640.440   108043761.393 7      2374.267          44.750    20197639.940   108043761.400 7      2374.267          44.562
G16  20662010.560   108579598.970 7       966.534          46.875    20662008.540   108579598.978 6       966.534          39.500    20662013.880    84607490.816 6       753.144          39.250
R12  19333573.320   103276482.482 8       806.319          49.000    19333573.100   103276482.475 8       806.319          49.062    19333583.100    80326188.942 8       627.137          51.562    19333583.320    80326189.944 8       627.137          51.437
R22  21011137.560   112158876.262 7       -58.927          45.375    21011136.240   112158876.258 7       -58.927          45.937    21011145.220    87234714.738 8       -45.832          48.562    21011145.040    87234714.731 8       -45.832          48.625
R11  23048290.300   123163082.135 6     -1985.839          40.625    23048289.040   123163082.136 6     -1985.839          39.750    23048311.240    95793591.068 7     -1544.542          46.875    23048311.400    95793589.074 7     -1544.542          46.375
G23  23592592.160   123979906.857 7       394.102          42.687    23592590.600   123979906.857 5       394.102          30.750    23592600.060    96607733.950 5       307.093          30.625    23592600.220    96607754.941 7       307.093          45.812
G26  22740726.180   119503316.175 7      -673.976          43.500    22740725.020   119503316.174 6      -673.976          41.687    22740738.900    93119517.223 6      -525.176          41.250    22740739.240    93119524.219 7      -525.176          45.937
G02  22452014.320   117986132.772 7      4403.931          44.500    22452012.140   117986132.774 5      4403.931          34.312    22452018.720    91937264.886 5      3431.634          34.250
G07  24079021.340   126536121.577 7      3623.877          43.500    24079019.820   126536121.582 4      3623.877          27.000    24079027.220    98599556.103 4      2823.800          26.937    24079028.460    98599608.124 6      2823.800          39.125
G08  21199700.280   111405177.985 7      3392.400          47.062    21199699.220   111405177.985 6      3392.400          37.687    21199706.460    86809255.652 6      2643.429          37.500    21199707.460    86809259.655 8      2643.429          49.375
> 2024 05 10 12 20 17.0000000  0 13
G27  20871167.960   109678728.657 8      1805.411          48.312    20871166.920   109678728.662 8      1805.411          48.625    20871173.020    85463966.745 8      1406.813          48.750    20871173.960    85463977.748 8      1406.813          50.125
G21  20895638.700   109807325.844 7      3712.606          47.562    20895637.460   109807325.846 6      3712.606          37.312    20895642.080    85564163.597 6      2892.940          37.562
G10  22042296.460   115833045.844 8      2277.353          48.187    22042295.860   115833045.846 7      2277.353          45.312    22042303.780    90259555.945 7      1774.560          46.062    22042304.220    90259554.950 7      1774.560          47.062
R23  20197196.460   108041387.309 7      2373.921          45.125    20197195.720   108041387.327 7      2373.921          44.812
G16  20661826.660   108578632.672 7       966.099          46.000    20661824.780   108578632.679 6       966.099          39.687    20661830.080    84606737.858 6       752.805          39.500
R12  19333422.420   103275676.615 8       805.571          49.500    19333422.280   103275676.613 8       805.571          49.500    19333432.300    80325562.154 8       626.555          51.500    19333432.520    80325563.158 8       626.555          51.750
R22  21011148.720   112158935.218 7       -59.020          45.187    21011147.040   112158935.214 7       -59.020          46.625    21011156.260    87234760.585 8       -45.904          48.312    21011156.100    87234760.582 8       -45.904          48.875
R11  23048661.800   123165067.812 6     -1985.708          40.625    23048661.100   123165067.808 6     -1985.708          39.750    23048683.000    95795135.484 7     -1544.439          46.937    23048682.960    95795133.488 7     -1544.439          46.812
G23  23592517.320   123979513.031 7       393.640          42.312    23592515.680   123979513.039 5       393.640          30.750    23592525.140    96607427.073 5       306.733          30.625    23592525.280    96607448.064 7       306.733          45.937
G26  22740854.560   119503990.412 7      -674.312          43.562    22740853.420   119503990.417 6      -674.312          41.875    22740867.060    93120042.594 6      -525.438          41.750    22740867.760    93120049.590 7      -525.438          46.187
G02  22451176.420   117981729.131 7      4403.609          43.562    22451174.200   117981729.134 5      4403.609          34.312    22451180.600    91933833.480 5      3431.383          34.250
G07  24078331.700   126532498.083 7      3623.390          44.125    24078330.420   126532498.082 4      3623.390          27.000    24078337.660    98596732.603 4      2823.421          26.937    24078338.700    98596784.608 6      2823.421          39.125
G08  21199054.700   111401785.618 7      3392.249          47.250    21199053.560   111401785.617 6      3392.249          37.437    21199060.960    86806612.251 6      2643.311          37.187    21199061.880    86806616.256 8      2643.311          49.625
> 2024 05 10 12 20 18.0000000  0 13
G27  20870824.380   109676923.366 7      1805.123          47.687    20870823.500   109676923.371 8      1805.123          48.875    20870829.540    85462560.025 8      1406.589          48.875    20870830.440    85462571.026 8      1406.589          49.687
G21  20894932.380   109803613.495 7      3711.972          47.437    20894931.040   109803613.503 6      3711.972          37.312    20894935.500    85561270.860 6      2892.445          37.562
G10  22041863.400   115830768.860 8      2276.604          48.062    22041862.500   115830768.863 7      2276.604          45.500    22041870.560    90257781.673 7      1773.977          45.562    22041870.520    90257780.680 7      1773.977          46.937
R23  20196752.760   108039013.581 7      2373.445          45.625    20196751.840   108039013.593 7      2373.445          44.625
G16  20661642.660   108577666.883 7       965.416          46.312    20661640.700   108577666.888 6       965.416          39.812    20661646.320    84605985.289 6       752.273          39.187
R12  19333271.860   103274871.591 8       804.464          49.000    19333271.720   103274871.590 8       804.464          49.750    19333281.580    80324936.023 8       625.694          51.562    19333281.680    80324937.025 8       625.694          51.937
R22  21011159.740   112158994.217 7       -59.167          45.687    21011158.160   112158994.218 7       -59.167          45.750    21011167.240    87234806.475 8       -46.019          48.687    21011167.140    87234806.470 8       -46.019          48.500
R11  23049033.940   123167053.674 6     -1986.095          40.062    23049032.640   123167053.689 6     -1986.095          39.750    23049054.480    95796680.048 7     -1544.740          46.687    23049054.500    95796678.055 7     -1544.740          47.250
G23  23592442.600   123979119.726 7       392.899          42.500    23592440.800   123979119.731 5       392.899          30.625    23592450.080    96607120.602 5       306.155          30.625    23592450.520    96607141.596 7       306.155          46.000
G26  22740982.760   119504664.919 7      -674.706          43.375    22740981.760   119504664.919 6      -674.706          41.562    22740995.520    93120568.164 6      -525.745          41.437    22740995.980    93120575.162 7      -525.745          46.312
G02  22450338.660   117977325.892 7      4402.871          43.125    22450336.200   117977325.895 5      4402.871          34.375    22450342.700    91930402.388 5      3430.809          34.187
G07  24077642.200   126528875.101 7      3622.697          43.312    24077640.980   126528875.098 4      3622.697          27.000    24077648.320    98593909.492 4      2822.880          26.937    24077649.300    98593961.497 6      2822.880          39.125
G08  21198409.300   111398393.374 7      3392.013          46.312    21198408.020   111398393.374 6      3392.013          37.625    21198415.480    86803968.944 6      2643.127          37.562    21198416.180    86803972.941 8      2643.127          49.437
> 2024 05 10 12 20 19.0000000  0 13
G27  20870480.780   109675118.248 7      1805.055          47.812    20870479.860   109675118.255 8      1805.055          48.750    20870486.000    85461153.440 8      1406.536          49.500    20870486.880    85461164.443 8      1406.536          49.687
G21  20894225.880   109799901.666 7      3711.607          47.437    20894224.460   109799901.671 6      3711.607          37.500    20894229.080    85558378.526 6      2892.161          37.812
G10  22041430.180   115828492.474 7      2276.142          47.750    22041429.540   115828492.481 7      2276.142          46.000    22041437.440    90256007.869 7      1773.617          45.875    22041437.420    90256006.876 7      1773.617          46.750
R23  20196309.040   108036640.221 7      2373.259          45.250    20196308.020   108036640.228 7      2373.259          44.312
G16  20661459.100   108576701.575 7       965.108          46.500    20661457.120   108576701.577 6       965.108          39.500    20661462.480    84605233.097 6       752.032          39.062
R12  19333121.340   103274067.380 8       803.796          49.250    19333121.140   103274067.384 8       803.796          49.875    19333131.100    80324310.528 8       625.175          50.937    19333131.220    80324311.528 8       625.175          51.687
R22  21011170.740   112159053.315 7       -59.128          45.500    21011169.320   112159053.308 7       -59.128          46.562    21011178.260    87234852.434 8       -45.989          48.875    21011178.400    87234852.433 8       -45.989          49.125
R11  23049405.620   123169039.707 6     -1986.123          40.062    23049405.060   123169039.714 6     -1986.123          39.937    23049426.340    95798224.732 7     -1544.762          47.000    23049426.260    95798222.735 7     -1544.762          46.812
G23  23592368.100   123978726.920 7       392.557          42.500    23592366.160   123978726.925 5       392.557          30.625    23592375.340    96606814.515 5       305.889          30.375    23592375.860    96606835.514 7       305.889          45.562
G26  22741111.020   119505339.681 7      -674.823          43.312    22741110.100   119505339.681 6      -674.823          41.625    22741124.100    93121093.940 6      -525.836          41.687    22741124.680    93121100.943 7      -525.836          46.000
G02  22449500.760   117972923.016 7      4402.569          44.687    22449498.280   117972923.021 5      4402.569          34.375    22449504.840    91926971.586 5      3430.573          34.187
G07  24076953.160   126525252.618 7      3622.250          44.062    24076951.620   126525252.618 4      3622.250          27.000    24076959.160    98591086.779 4      2822.532          27.312    24076960.320    98591138.779 6      2822.532          38.937
G08  21197763.540   111395001.233 7      3392.202          46.625    21197762.460   111395001.227 6      3392.202          38.125    21197769.920    86801325.713 6      2643.275          37.500    21197770.740    86801329.712 8      2643.275          49.187
> 2024 05 10 12 20 20.0000000  0 13
G27  20870137.360   109673313.406 8      1804.780          48.562    20870136.500   109673313.414 8      1804.780          48.812    20870142.480    85459747.069 8      1406.322          49.125    20870143.240    85459758.068 8      1406.322          49.812
G21  20893519.820   109796190.468 8      3710.914          48.062    20893518.040   109796190.473 6      3710.914          37.625    20893523.020    85555486.687 6      2891.621          37.250
G10  22040997.220   115826216.812 7      2275.416          47.937    22040996.360   115826216.812 7      2275.416          45.750    22041004.400    90254234.624 7      1773.052          45.625    22041004.540    90254233.631 7      1773.052          46.937
R23  20195864.980   108034267.378 7      2372.660          45.125    20195864.620   108034267.388 7      2372.660          44.062
G16  20661275.540   108575736.890 7       964.464          46.000    20661273.600   108575736.897 6       964.464          39.437    20661278.900    84604481.392 6       751.530          38.937
R12  19332970.780   103273264.117 8       802.888          50.375    19332970.920   103273264.119 8       802.888          49.375    19332980.720    80323685.761 8       624.469          50.875    19332980.960    80323686.763 8       624.469          51.812
R22  21011181.840   112159112.592 7       -59.261          46.125    21011180.840   112159112.593 7       -59.261          45.937    21011189.360    87234898.536 8       -46.092          48.812    21011189.440    87234898.530 8       -46.092          48.375
R11  23049777.580   123171026.010 6     -1986.471          40.437    23049776.100   123171026.017 6     -1986.471          39.937    23049797.720    95799769.640 7     -1545.033          46.875    23049797.720    95799767.637 7     -1545.033          46.750
G23  23592293.120   123978334.753 7       391.882          42.875    23592291.500   123978334.760 5       391.882          30.625    23592300.880    96606508.930 5       305.362          30.375    23592301.300    96606529.929 7       305.362          45.812
G26  22741239.540   119506014.848 7      -675.368          43.437    22741238.700   119506014.853 6      -675.368          41.750    22741252.540    93121620.040 6      -526.261          41.250    22741253.100    93121627.041 7      -526.261          45.750
G02  22448663.100   117968520.621 7      4402.297          44.187    22448660.560   117968520.623 5      4402.297          34.000    22448666.940    91923541.150 5      3430.361          34.125
G07  24076264.020   126521630.756 7      3621.662          44.187    24076262.520   126521630.756 4      3621.662          27.000    24076269.980    98588264.548 4      2822.074          27.312    24076270.440    98588316.553 6      2822.074          38.937
G08  21197118.140   111391609.357 7      3391.909          46.687    21197116.960   111391609.357 6      3391.909          37.687    21197124.440    86798682.697 6      2643.046          37.062    21197125.180    86798686.698 8      2643.046          49.187
> 2024 05 10 12 20 21.0000000  0 13
G27  20869794.040   109671508.698 8      1804.783          48.375    20869793.140   109671508.703 8      1804.783          49.000    20869799.180    85458340.801 8      1406.325          49.062    20869799.760    85458351.804 8      1406.325          50.250
G21  20892813.720   109792479.751 7      3710.481          47.250    20892812.020   109792479.761 6      3710.481          37.250    20892816.920    85552595.221 6      2891.284          37.312
G10  22040564.060   115823941.715 7      2274.971          47.750    22040563.460   115823941.715 7      2274.971          45.750    22040571.460    90252461.821 7      1772.705          45.750    22040571.540    90252460.827 7      1772.705          47.000
R23  20195421.660   108031894.877 7      2372.388          44.625    20195420.860   108031894.887 7      2372.388          44.250
G16  20661091.940   108574772.680 7       964.027          46.812    20661090.100   108574772.687 6       964.027          39.062    20661095.380    84603730.060 6       751.190          38.875
R12  19332820.880   103272461.677 8       802.098          50.062    19332820.660   103272461.673 8       802.098          49.312    19332830.460    80323061.633 8       623.854          51.250    19332830.740    80323062.633 8       623.854          51.625
R22  21011193.060   112159171.938 7       -59.350          45.875    21011191.700   112159171.941 7       -59.350          45.812    21011200.600    87234944.696 7       -46.161          47.875    21011200.420    87234944.693 8       -46.161          49.062
R11  23050149.100   123173012.439 6     -1986.415          40.437    23050147.760   123173012.437 6     -1986.415          39.937    23050169.300    95801314.640 7     -1544.990          46.500    23050169.520    95801312.639 7     -1544.990          46.125
G23  23592218.560   123977943.066 7       391.375          42.562    23592217.000   123977943.068 5       391.375          30.437    23592226.180    96606203.718 5       304.967          30.375    23592226.740    96606224.714 7       304.967          45.562
G26  22741367.880   119506690.239 7      -675.434          43.312    22741367.140   119506690.241 6      -675.434          41.687    22741381.060    93122146.304 6      -526.312          41.125    22741381.580    93122153.305 7      -526.312          45.937
G02  22447825.080   117964118.625 7      4401.792          44.687    22447822.960   117964118.627 5      4401.792          34.000    22447829.200    91920111.027 5      3429.968          34.187
G07  24075574.660   126518009.401 7      3621.168          44.125    24075573.320   126518009.403 4      3621.168          27.500    24075580.880    98585442.707 4      2821.689          27.312    24075581.560    98585494.705 6      2821.689          38.937
G08  21196472.740   111388217.579 7      3391.858          46.625    21196471.720   111388217.576 6      3391.858          37.687    21196479.180    86796039.749 6      2643.007          37.937    21196479.600    86796043.754 8      2643.007          49.437
> 2024 05 10 12 20 22.0000000  0 13
G27  20869450.700   109669704.122 8      1804.481          48.687    20869449.720   109669704.126 8      1804.481          48.937    20869455.780    85456934.638 8      1406.089          49.312    20869456.380    85456945.643 8      1406.089          49.437
G21  20892107.600   109788769.465 7      3710.056          47.687    20892106.080   109788769.470 6      3710.056          36.937    20892110.920    85549704.089 6      2890.953          37.562
G10  22040131.180   115821667.157 7      2274.306          47.937    22040130.760   115821667.160 7      2274.306          45.437    22040138.620    90250689.441 7      1772.186          45.750    22040138.800    90250688.448 7      1772.186          47.000
R23  20194978.040   108029522.708 7      2371.898          43.562    20194977.320   108029522.720 7      2371.898          44.062
G16  20660908.740   108573808.906 7       963.556          45.750    20660906.760   108573808.914 6       963.556          39.125    20660912.040    84602979.064 6       750.823          38.875
R12  19332670.440   103271660.009 8       801.271          48.687    19332670.720   103271660.007 8       801.271          49.500    19332680.480    80322438.113 8       623.211          51.062    19332680.740    80322439.113 8       623.211          52.187
R22  21011204.100   112159231.273 7       -59.306          46.687    21011203.040   112159231.274 7       -59.306          46.625    21011211.660    87234990.839 8       -46.127          48.625    21011211.540    87234990.834 8       -46.127          49.062
R11  23050520.700   123174999.009 6     -1986.625          40.437    23050519.360   123174998.996 6     -1986.625          39.687    23050541.060    95802859.725 7     -1545.153          46.937    23050541.340    95802857.729 7     -1545.153          46.500
G23  23592144.260   123977551.797 7       391.031          43.312    23592142.560   123977551.799 5       391.031          30.437    23592151.700    96605898.831 5       304.699          30.375    23592152.060    96605919.825 7       304.699          45.625
G26  22741496.620   119507365.850 7      -675.776          43.687    22741495.860   119507365.855 6      -675.776          41.562    22741509.600    93122672.736 6      -526.579          41.437    22741509.980    93122679.730 7      -526.579          46.187
G02  22446987.540   117959716.920 7      4401.501          44.000    22446985.300   117959716.922 5      4401.501          34.062    22446991.420    91916681.132 5      3429.741          34.187
G07  24074885.740   126514388.479 7      3620.713          43.875    24074884.080   126514388.481 4      3620.713          27.500    24074891.800    98582621.205 4      2821.335          27.312    24074892.100    98582673.222 6      2821.335          39.750
G08  21195827.200   111384825.876 7      3391.573          46.687    21195826.200   111384825.876 6      3391.573          37.437    21195833.660    86793396.868 6      2642.784          37.187    21195834.540    86793400.871 8      2642.784          49.562
> 2024 05 10 12 20 23.0000000  0 13
G27  20869107.240   109667899.574 8      1804.687          49.437    20869106.340   109667899.584 8      1804.687          48.875    20869112.420    85455528.499 8      1406.249          49.500    20869112.960    85455539.506 8      1406.249          49.625
G21  20891401.560   109785059.607 7      3709.745          47.812    20891400.060   109785059.614 6      3709.745          37.750    20891404.860    85546813.297 6      2890.710          37.687
G10  22039698.580   115819393.099 8      2273.964          48.000    22039697.900   115819393.103 7      2273.964          45.687    22039705.820    90248917.451 7      1771.920          45.750    22039706.020    90248916.456 7      1771.920          47.437
R23  20194534.840   108027150.793 7      2371.872          44.812    20194533.860   108027150.805 7      2371.872          44.500
G16  20660725.300   108572845.540 7       963.271          46.375    20660723.420   108572845.550 6       963.271          39.187    20660728.660    84602228.387 6       750.601          39.062
R12  19332520.620   103270859.056 8       800.754          50.375    19332520.640   103270859.060 8       800.754          49.625    19332530.620    80321815.148 8       622.809          50.812    19332530.560    80321816.148 8       622.809          51.812
R22  21011215.380   112159290.600 7       -59.148          45.625    21011214.160   112159290.601 7       -59.148          46.437    21011222.900    87235036.983 8       -46.004          48.687    21011222.820    87235036.980 8       -46.004          48.750
R11  23050892.880   123176985.573 6     -1986.426          40.187    23050891.340   123176985.580 6     -1986.426          39.687    23050912.940    95804404.833 7     -1544.998          46.687    23050913.220    95804402.837 7     -1544.998          46.625
G23  23592069.560   123977160.962 7       390.759          42.875    23592068.300   123977160.966 5       390.759          30.437    23592077.180    96605594.284 5       304.487          30.375    23592077.760    96605615.276 7       304.487          45.500
G26  22741625.520   119508041.613 7      -675.740          43.562    22741624.440   119508041.621 7      -675.740          42.000    22741638.160    93123199.299 6      -526.551          41.750    22741638.680    93123206.303 7      -526.551          46.250
G02  22446149.880   117955315.502 7      4401.409          43.562    22446147.680   117955315.507 5      4401.409          33.687    22446153.940    91913251.460 5      3429.669          33.937
G07  24074196.580   126510767.967 7      3620.413          43.500    24074195.040   126510767.967 4      3620.413          27.500    24074202.980    98579800.023 4      2821.101          27.312    24074203.740    98579852.040 6      2821.101          39.750
G08  21195181.680   111381434.174 7      3391.870          47.187    21195180.780   111381434.174 6      3391.870          37.687    21195188.100    86790753.983 6      2643.016          37.750    21195188.980    86790757.986 8      2643.016          49.562
> 2024 05 10 12 20 24.0000000  0 13
G27  20868763.820   109666095.000 8      1804.408          48.875    20868763.020   109666095.007 8      1804.408          49.000    20868769.020    85454122.337 8      1406.032          48.937    20868769.740    85454133.340 8      1406.032          49.875
G21  20890695.860   109781350.043 7      3709.163          47.687    20890694.080   109781350.046 6      3709.163          37.750    20890699.080    85543922.730 6      2890.257          38.375
G10  22039265.940   115817119.429 7      2273.248          47.750    22039265.320   115817119.431 7      2273.248          45.750    22039273.320    90247145.760 7      1771.362          45.750    22039273.400    90247144.767 7      1771.362          47.062
R23  20194091.660   108024779.041 7      2371.414          44.125    20194090.180   108024779.053 7      2371.414          44.125
G16  20660542.200   108571882.445 7       962.731          46.062    20660540.220   108571882.457 6       962.731          39.875    20660545.400    84601477.921 6       750.180          39.937
R12  19332370.940   103270058.726 8       799.779          50.187    19332370.900   103270058.724 8       799.779          49.875    19332380.740    80321192.662 8       622.050          51.000    19332380.860    80321193.660 8       622.050          51.875
R22  21011226.380   112159349.781 7       -59.403          46.125    21011225.140   112159349.787 7       -59.403          46.687    21011233.880    87235083.008 8       -46.203          48.750    21011233.860    87235083.003 8       -46.203          48.812
R11  23051264.860   123178972.122 6     -1986.727          40.187    23051263.920   123178972.118 6     -1986.727          39.937    23051285.040    95805949.916 7     -1545.232          47.187    23051284.820    95805947.917 7     -1545.232          46.750
G23  23591995.220   123976770.426 7       390.164          42.750    23591994.100   123976770.431 5       390.164          30.437    23592002.740    96605289.970 5       304.024          30.375    23592003.020    96605310.954 7       304.024          45.125
G26  22741754.340   119508717.445 7      -676.105          42.937    22741753.060   119508717.447 6      -676.105          41.687    22741766.840    93123725.902 6      -526.835          41.500    22741767.500    93123732.901 7      -526.835          46.250
G02  22445312.300   117950914.252 7      4401.074          43.937    22445310.180   117950914.257 5      4401.074          33.687    22445316.380    91909821.922 5      3429.408          33.937
G07  24073507.700   126507147.763 7      3619.741          42.750    24073506.240   126507147.765 4      3619.741          27.500    24073514.160    98576979.089 4      2820.578          27.312    24073515.100    98577031.108 6      2820.578          39.750
G08  21194536.160   111378042.398 7      3391.632          47.000    21194535.180   111378042.398 6      3391.632          37.500    21194542.760    86788111.041 6      2642.830          37.625    21194543.460    86788115.044 8      2642.830          49.312
> 2024 05 10 12 20 25.0000000  0 13
G27  20868420.280   109664290.810 8      1804.022          48.750    20868419.660   109664290.817 8      1804.022          49.250    20868425.600    85452716.473 8      1405.731          49.062    20868426.580    85452727.480 8      1405.731          49.687
G21  20889990.020   109777641.189 7      3708.558          46.562    20889988.180   109777641.194 6      3708.558          37.312    20889993.120    85541032.713 6      2889.786          37.562
G10  22038833.260   115814846.563 7      2272.490          47.250    22038832.740   115814846.565 7      2272.490          45.250    22038840.720    90245374.696 7      1770.771          45.187    22038841.120    90245373.703 7      1770.771          47.187
R23  20193648.420   108022407.888 7      2370.912          44.250    20193647.300   108022407.890 7      2370.912          44.125
G16  20660359.140   108570920.071 7       962.100          46.562    20660357.180   108570920.079 6       962.100          39.500    20660362.300    84600728.019 6       749.688          39.125
R12  19332221.020   103269259.429 8       798.767          48.625    19332221.300   103269259.428 8       798.767          49.750    19332231.320    80320570.981 8       621.263          51.437    19332231.120    80320571.981 8       621.263          51.750
R22  21011237.480   112159409.249 7       -59.595          46.000    21011236.240   112159409.248 7       -59.595          45.687    21011245.120    87235129.251 8       -46.351          48.500    21011244.960    87235129.246 8       -46.351          48.625
R11  23051636.760   123180959.023 6     -1987.050          40.812    23051635.380   123180959.030 6     -1987.050          39.937    23051657.100    95807495.286 7     -1545.483          47.437    23051657.040    95807493.289 7     -1545.483          47.375
G23  23591921.040   123976380.607 7       389.383          42.625    23591919.920   123976380.612 5       389.383          30.437    23591928.460    96604986.209 5       303.416          30.375    23591928.860    96605007.206 7       303.416          45.000
G26  22741882.580   119509393.742 7      -676.412          43.125    22741881.800   119509393.752 7      -676.412          42.187    22741895.520    93124252.879 6      -527.074          41.875    22741896.280    93124259.879 7      -527.074          46.000
G02  22444474.640   117946513.633 7      4400.326          44.000    22444472.880   117946513.635 5      4400.326          33.750    22444479.160    91906392.873 5      3428.825          33.687
G07  24072818.800   126503528.254 7      3619.331          43.437    24072817.380   126503528.251 4      3619.331          27.500    24072825.380    98574158.691 4      2820.258          27.687    24072825.660    98574210.706 6      2820.258          39.500
G08  21193891.080   111374650.950 7      3391.371          46.250    21193889.700   111374650.950 6      3391.371          37.625    21193897.260    86785468.354 6      2642.627          37.562    21193897.920    86785472.359 8      2642.627          48.937
> 2024 05 10 12 20 26.0000000  0 13
G27  20868077.080   109662486.824 8      1803.900          48.437    20868076.400   109662486.829 8      1803.900          49.312    20868082.420    85451310.768 8      1405.637          49.500    20868083.000    85451321.777 8      1405.637          49.437
G21  20889284.420   109773932.908 7      3707.978          46.562    20889282.440   109773932.915 6      3707.978          37.687    20889287.560    85538143.148 6      2889.334          37.250
G10  22038400.880   115812574.338 7      2271.931          47.125    22038400.340   115812574.338 7      2271.931          45.250    22038408.340    90243604.133 7      1770.336          45.562    22038408.640    90243603.138 7      1770.336          47.062
R23  20193204.960   108020037.155 7      2370.496          44.375    20193203.740   108020037.162 7      2370.496          44.000
G16  20660176.080   108569958.271 7       961.459          46.000    20660174.060   108569958.279 6       961.459          39.687    20660179.480    84599978.561 6       749.189          39.062
R12  19332071.560   103268461.030 8       797.958          49.625    19332071.720   103268461.029 8       797.958          49.500    19332081.720    80319950.004 8       620.634          51.062    19332081.800    80319951.002 8       620.634          51.812
R22  21011248.640   112159468.846 7       -59.630          45.875    21011247.320   112159468.847 7       -59.630          45.937    21011256.180    87235175.604 8       -46.379          48.562    21011256.140    87235175.601 8       -46.379          48.875
R11  23052008.380   123182946.144 6     -1987.267          40.812    23052007.420   123182946.142 6     -1987.267          40.375    23052029.100    95809040.824 7     -1545.652          47.625    23052028.900    95809038.828 7     -1545.652          47.375
G23  23591846.880   123975991.346 7       388.938          42.625    23591845.940   123975991.351 5       388.938          30.437    23591854.400    96604682.884 5       303.069          30.250    23591854.800    96604703.879 7       303.069          45.125
G26  22742011.360   119510070.396 7      -676.822          43.500    22742010.340   119510070.395 6      -676.822          41.562    22742024.280    93124780.125 6      -527.394          41.375    22742025.120    93124787.126 7      -527.394          46.062
G02  22443637.460   117942113.411 7      4400.108          43.250    22443635.360   117942113.418 5      4400.108          33.750    22443641.960    91902964.136 5      3428.656          33.687
G07  24072130.340   126499909.343 7      3618.592          43.500    24072128.820   126499909.340 4      3618.592          27.500    24072136.780    98571338.759 4      2819.682          27.687    24072137.220    98571390.783 6      2819.682          39.500
G08  21193245.660   111371259.711 7      3391.124          46.625    21193244.380   111371259.708 6      3391.124          37.875    21193252.020    86782825.830 6      2642.434          37.062    21193252.620    86782829.829 8      2642.434          49.500
> 2024 05 10 12 20 27.0000000  0 13
G27  20867733.940   109660682.913 8      1803.812          48.750    20867733.120   109660682.920 8      1803.812          48.750    20867739.120    85449905.122 8      1405.568          49.375    20867739.640    85449916.131 8      1405.568          49.125
G21  20888579.040   109770225.031 7      3707.597          46.937    20888576.820   109770225.036 6      3707.597          37.187    20888582.080    85535253.895 6      2889.036          37.625
G10  22037968.600   115810302.610 7      2271.399          47.625    22037968.100   115810302.615 7      2271.399          45.625    22037976.080    90241833.959 7      1769.921          45.750    22037976.340    90241832.966 7      1769.921          46.937
R23  20192762.060   108017666.679 7      2370.196          44.312    20192760.500   108017666.694 7      2370.196          44.062
G16  20659993.080   108568996.849 7       961.072          46.312    20659990.980   108568996.857 6       961.072          39.250    20659996.600    84599229.395 6       748.887          39.062
R12  19331922.440   103267663.363 8       797.248          49.500    19331922.520   103267663.367 8       797.248          49.937    19331932.340    80319329.596 8       620.082          50.687    19331932.400    80319330.594 8       620.082          51.812
R22  21011259.540   112159528.414 7       -59.546          45.062    21011258.400   112159528.409 7       -59.546          45.875    21011267.440    87235221.924 7       -46.314          47.875    21011267.520    87235221.919 8       -46.314          48.375
R11  23052380.220   123184933.352 6     -1987.452          41.562    23052379.820   123184933.367 6     -1987.452          40.375    23052400.940    95810586.429 7     -1545.796          47.187    23052400.700    95810584.430 7     -1545.796          47.000
G23  23591772.740   123975602.494 7       388.539          43.500    23591772.080   123975602.496 5       388.539          30.437    23591780.460    96604379.879 5       302.757          30.250    23591780.880    96604400.873 7       302.757          45.000
G26  22742140.540   119510747.181 7      -676.882          43.750    22742139.260   119510747.181 6      -676.882          41.562    22742153.080    93125307.476 6      -527.441          41.187    22742153.520    93125314.477 7      -527.441          46.312
G02  22442800.360   117937713.517 7      4399.571          43.812    22442798.120   117937713.521 5      4399.571          33.937    22442804.640    91899535.651 5      3428.237          33.875
G07  24071441.420   126496290.836 7      3618.254          43.812    24071440.300   126496290.830 4      3618.254          27.500    24071448.300    98568519.144 4      2819.419          27.687    24071448.640    98568571.158 6      2819.419          39.687
G08  21192600.340   111367868.465 7      3391.087          47.312    21192598.940   111367868.462 6      3391.087          37.375    21192606.660    86780183.301 6      2642.405          37.375    21192607.060    86780187.304 8      2642.405          49.312
> 2024 05 10 12 20 28.0000000  0 13
G27  20867390.540   109658879.064 8      1803.746          48.937    20867389.800   109658879.066 8      1803.746          48.937    20867395.740    85448499.524 8      1405.516          49.125    20867396.560    85448510.531 8      1405.516          50.000
G21  20887873.540   109766517.572 7      3707.199          46.937    20887871.240   109766517.577 6      3707.199          37.500    20887876.820    85532364.968 6      2888.727          38.125
G10  22037536.500   115808031.391 8      2270.921          48.000    22037535.800   115808031.394 7      2270.921          45.875    22037543.860    90240064.179 7      1769.549          46.187    22037544.100    90240063.186 7      1769.549          46.875
R23  20192319.280   108015296.473 7      2369.975          45.000    20192317.480   108015296.485 7      2369.975          43.937
G16  20659810.240   108568035.824 7       960.758          46.250    20659808.120   108568035.832 6       960.758          39.000    20659813.620    84598480.540 6       748.643          38.562
R12  19331773.000   103266866.427 8       796.493          49.312    19331773.240   103266866.436 8       796.493          49.750    19331783.160    80318709.757 8       619.495          51.625    19331782.960    80318710.757 8       619.495          51.562
R22  21011270.920   112159587.957 7       -59.607          45.937    21011269.640   112159587.964 7       -59.607          46.562    21011278.520    87235268.234 8       -46.361          48.375    21011278.240    87235268.230 8       -46.361          49.312
R11  23052752.160   123186920.609 6     -1987.361          41.562    23052751.300   123186920.629 6     -1987.361          40.875    23052772.700    95812132.064 7     -1545.726          47.187    23052772.380    95812130.072 7     -1545.726          47.125
G23  23591698.900   123975214.034 7       388.193          43.312    23591698.160   123975214.042 5       388.193          30.250    23591706.500    96604077.183 5       302.488          30.250    23591706.480    96604098.187 7       302.488          45.187
G26  22742269.120   119511424.166 7      -677.049          43.250    22742267.860   119511424.166 6      -677.049          41.500    22742281.960    93125834.981 6      -527.571          41.375    22742282.380    93125841.979 7      -527.571          46.250
G02  22441963.260   117933313.859 7      4399.542          42.875    22441960.780   117933313.864 5      4399.542          33.937    22441967.480    91896107.351 5      3428.215          33.875
G07  24070752.660   126492672.746 7      3617.748          44.437    24070751.860   126492672.743 4      3617.748          27.500    24070759.840    98565699.857 4      2819.025          27.687    24070760.760    98565751.870 6      2819.025          39.687
G08  21191954.960   111364477.267 7      3391.021          46.312    21191953.760   111364477.267 6      3391.021          37.500    21191961.400    86777540.809 6      2642.354          37.000    21191962.120    86777544.808 8      2642.354          49.437
> 2024 05 10 12 20 29.0000000  0 13
G27  20867047.220   109657075.310 7      1803.769          47.812    20867046.680   109657075.315 8      1803.769          49.250    20867052.700    85447094.001 8      1405.534          49.375    20867053.560    85447105.008 8      1405.534          49.562
G21  20887167.940   109762810.549 7      3706.844          46.187    20887165.820   109762810.556 6      3706.844          37.000    20887171.400    85529476.383 6      2888.450          37.375
G10  22037104.160   115805760.714 7      2270.427          47.187    22037103.660   115805760.714 7      2270.427          46.062    22037111.780    90238294.818 7      1769.164          46.312    22037111.600    90238293.825 7      1769.164          47.000
R23  20191875.860   108012926.564 7      2369.749          43.875    20191874.280   108012926.576 7      2369.749          44.000
G16  20659627.400   108567075.235 7       960.351          45.500    20659625.480   108567075.243 6       960.351          39.625    20659630.860    84597732.029 6       748.325          39.312
R12  19331623.940   103266070.282 8       795.792          48.812    19331624.280   103266070.281 8       795.792          49.312    19331634.160    80318090.525 8       618.949          51.375    19331634.020    80318091.525 8       618.949          51.562
R22  21011282.080   112159647.514 7       -59.620          46.125    21011280.840   112159647.518 7       -59.620          46.250    21011289.600    87235314.553 8       -46.371          48.750    21011289.500    87235314.548 8       -46.371          48.937
R11  23053123.980   123188907.994 6     -1987.405          41.875    23053123.020   123188907.990 6     -1987.405          40.875    23053144.360    95813677.790 7     -1545.759          47.375    23053144.480    95813675.795 7     -1545.759          47.000
G23  23591625.280   123974826.044 7       387.813          43.187    23591624.140   123974826.054 5       387.813          30.250    23591632.620    96603774.855 5       302.192          30.125    23591633.060    96603795.841 7       302.192          44.937
G26  22742398.140   119512101.357 7      -677.449          43.312    22742396.820   119512101.359 7      -677.449          42.125    22742410.860    93126362.653 6      -527.882          41.625    22742411.520    93126369.652 7      -527.882          45.937
G02  22441125.840   117928914.546 7      4399.294          43.312    22441123.600   117928914.548 5      4399.294          33.750    22441130.320    91892679.318 5      3428.022          33.750
G07  24070064.700   126489055.088 7      3617.541          43.375    24070063.520   126489055.082 4      3617.541          27.500    24070071.540    98562880.901 4      2818.863          27.687    24070072.540    98562932.911 6      2818.863          39.687
G08  21191309.660   111361086.125 7      3390.997          45.500    21191308.520   111361086.122 6      3390.997          37.500    21191316.160    86774898.358 6      2642.335          37.375    21191316.860    86774902.361 8      2642.335          49.750
> 2024 05 10 12 20 30.0000000  0 13
G27  20866704.140   109655271.821 8      1803.428          48.437    20866703.480   109655271.828 8      1803.428          49.000    20866709.420    85445688.687 8      1405.268          49.625    20866710.180    85445699.696 8      1405.268          50.312
G21  20886462.880   109759104.172 7      3706.007          46.625    20886460.280   109759104.177 6      3706.007          37.812    20886466.020    85526588.297 6      2887.798          37.687
G10  22036672.220   115803490.733 7      2269.618          47.125    22036671.700   115803490.735 7      2269.618          45.312    22036679.780    90236525.999 7      1768.533          45.312    22036679.780    90236525.005 7      1768.533          46.937
R23  20191433.200   108010557.120 7      2369.364          43.875    20191431.740   108010557.125 7      2369.364          43.937
G16  20659444.820   108566115.245 7       959.746          45.937    20659442.700   108566115.253 6       959.746          39.000    20659448.060    84596983.983 6       747.854          38.687
R12  19331475.120   103265275.067 8       794.797          50.000    19331475.200   103265275.068 8       794.797          49.562    19331485.340    80317472.022 8       618.175          51.125    19331485.400    80317473.024 8       618.175          51.812
R22  21011293.140   112159707.242 7       -59.800          46.312    21011291.860   112159707.248 7       -59.800          46.062    21011300.840    87235361.000 8       -46.511          48.937    21011300.760    87235360.995 8       -46.511          48.312
R11  23053496.040   123190895.644 6     -1987.805          41.625    23053495.160   123190895.647 6     -1987.805          40.437    23053516.160    95815223.743 7     -1546.071          47.062    23053516.240    95815221.749 7     -1546.071          46.625
G23  23591551.740   123974438.659 7       387.152          43.062    23591550.420   123974438.664 5       387.152          30.250    23591558.760    96603472.990 5       301.677          30.125    23591559.380    96603493.989 7       301.677          44.937
G26  22742527.320   119512778.904 7      -677.815          43.000    22742525.760   119512778.909 6      -677.815          41.687    22742539.740    93126890.602 6      -528.167          41.187    22742539.920    93126897.596 7      -528.167          46.062
G02  22440288.880   117924515.721 7      4398.740          44.125    22440286.520   117924515.723 5      4398.740          33.750    22440293.200    91889251.663 5      3427.590          33.750
G07  24069376.400   126485438.052 7      3616.779          43.312    24069375.240   126485438.055 4      3616.779          27.500    24069383.180    98560062.431 4      2818.269          27.750    24069383.440    98560114.444 6      2818.269          40.062
G08  21190664.360   111357695.190 7      3390.786          45.937    21190663.300   111357695.189 6      3390.786          37.312    21190670.960    86772256.075 6      2642.171          37.062    21190671.480    86772260.078 8      2642.171          49.375
> 2024 05 10 12 20 31.0000000  0 13
G27  20866361.020   109653468.532 8      1803.197          48.062    20866360.380   109653468.539 8      1803.197          49.125    20866366.360    85444283.525 8      1405.088          49.750    20866367.180    85444294.532 8      1405.088          49.750
G21  20885757.680   109755398.282 7      3705.648          46.187    20885755.100   109755398.287 6      3705.648          37.375    20885760.720    85523700.590 6      2887.518          37.562
G10  22036240.380   115801221.359 7      2269.049          46.687    22036239.880   115801221.359 7      2269.049          45.437    22036247.840    90234757.658 7      1768.090          45.437    22036247.820    90234756.667 7      1768.090          46.812
R23  20190990.460   108008188.099 7      2368.851          44.312    20190988.920   108008188.111 7      2368.851          44.062
G16  20659262.080   108565155.781 7       959.235          46.750    20659260.320   108565155.789 6       959.235          39.562    20659265.500    84596236.346 6       747.456          39.062
R12  19331326.480   103264480.712 8       793.930          49.375    19331326.640   103264480.713 8       793.930          48.625    19331336.660    80316854.190 8       617.501          50.875    19331336.640    80316855.192 8       617.501          51.625
R22  21011304.220   112159767.065 7       -59.860          45.687    21011303.300   112159767.069 7       -59.860          46.187    21011312.040    87235407.525 8       -46.558          48.625    21011311.960    87235407.520 8       -46.558          48.375
R11  23053867.620   123192883.424 6     -1987.827          41.625    23053867.680   123192883.428 6     -1987.827          40.437    23053888.360    95816769.795 7     -1546.088          47.375    23053888.500    95816767.796 7     -1546.088          46.812
G23  23591478.000   123974051.825 7       386.509          43.187    23591476.860   123974051.827 5       386.509          30.312    23591485.220    96603171.559 5       301.176          30.125    23591485.740    96603192.552 7       301.176          45.062
G26  22742656.320   119513456.738 7      -677.985          43.625    22742654.840   119513456.740 6      -677.985          41.312    22742668.660    93127418.762 6      -528.300          41.062    22742669.040    93127425.762 7      -528.300          46.062
G02  22439451.840   117920117.330 7      4398.088          44.375    22439449.480   117920117.332 5      4398.088          33.750    22439456.260    91885824.351 5      3427.082          33.812
G07  24068688.280   126481821.545 7      3616.305          44.187    24068687.080   126481821.547 4      3616.305          27.937    24068695.160    98557244.371 4      2817.900          27.750    24068695.580    98557296.380 6      2817.900          40.062
G08  21190019.180   111354304.417 7      3390.709          45.875    21190017.940   111354304.417 6      3390.709          37.375    21190025.660    86769613.919 6      2642.111          37.250    21190025.900    86769617.914 8      2642.111          49.125
> 2024 05 10 12 20 32.0000000  0 13
G27  20866017.900   109651665.424 8      1802.910          48.125    20866017.220   109651665.426 8      1802.910          49.625    20866023.240    85442878.502 8      1404.865          49.375    20866024.280    85442889.513 8      1404.865          50.062
G21  20885052.520   109751692.941 7      3704.988          46.250    20885049.980   109751692.943 6      3704.988          37.062    20885055.660    85520813.311 6      2887.004          37.125
G10  22035808.740   115798952.608 7      2268.272          46.062    22035808.060   115798952.613 7      2268.272          45.312    22035816.200    90232989.806 7      1767.484          45.437    22035815.800    90232988.813 7      1767.484          46.625
R23  20190547.620   108005819.466 7      2368.172          44.437    20190545.920   108005819.481 7      2368.172          44.062
G16  20659079.420   108564196.829 7       958.624          46.375    20659077.720   108564196.837 6       958.624          39.750    20659083.060    84595489.111 6       746.980          39.250
R12  19331177.800   103263687.211 8       792.940          49.125    19331177.900   103263687.212 8       792.940          49.562    19331188.140    80316237.021 8       616.731          51.062    19331188.000    80316238.023 8       616.731          51.812
R22  21011315.440   112159826.972 7       -60.025          45.750    21011314.420   112159826.978 7       -60.025          46.187    21011323.160    87235454.121 8       -46.686          49.062    21011323.020    87235454.116 8       -46.686          48.812
R11  23054240.120   123194871.394 7     -1988.117          42.125    23054239.860   123194871.398 6     -1988.117          41.625    23054260.600    95818315.985 7     -1546.313          47.375    23054260.260    95818313.987 7     -1546.313          47.125
G23  23591404.740   123973665.485 7       385.922          43.312    23591403.420   123973665.485 5       385.922          30.312    23591411.780    96602870.515 5       300.718          30.125    23591412.320    96602891.510 7       300.718          44.875
G26  22742785.420   119514134.869 7      -678.404          43.562    22742783.880   119514134.871 7      -678.404          42.312    22742797.880    93127947.167 6      -528.626          41.937    22742798.200    93127954.166 7      -528.626          46.500
G02  22438614.900   117915719.291 7      4397.709          43.875    22438612.500   117915719.298 5      4397.709          33.750    22438619.320    91882397.316 5      3426.786          33.812
G07  24067999.880   126478205.576 7      3615.613          43.500    24067999.100   126478205.576 4      3615.613          27.937    24068007.220    98554426.733 4      2817.361          27.750    24068007.840    98554478.736 6      2817.361          40.125
G08  21189373.920   111350913.795 7      3390.352          46.125    21189372.720   111350913.795 6      3390.352          37.437    21189380.320    86766971.876 6      2641.833          37.187    21189381.040    86766975.873 8      2641.833          49.062
> 2024 05 10 12 20 33.0000000  0 13
G27  20865674.920   109649862.463 8      1802.712          49.500    20865674.160   109649862.471 8      1802.712          49.312    20865680.140    85441473.599 8      1404.711          49.562    20865680.980    85441484.606 8      1404.711          50.000
G21  20884347.600   109747988.096 7      3704.419          46.687    20884345.000   109747988.101 6      3704.419          37.125    20884350.540    85517926.423 6      2886.560          37.375
G10  22035377.220   115796684.435 7      2267.737          46.625    22035376.360   115796684.440 7      2267.737          45.625    22035384.580    90231222.396 7      1767.068          45.750    22035384.400    90231221.406 7      1767.068          46.812
R23  20190105.080   108003451.159 7      2367.947          44.375    20190103.160   108003451.171 7      2367.947          44.187
G16  20658896.960   108563238.363 7       958.096          47.187    20658895.400   108563238.373 6       958.096          39.562    20658900.480    84594742.252 6       746.568          39.437
R12  19331029.800   103262894.527 8       792.067          49.375    19331029.460   103262894.529 8       792.067          49.500    19331039.780    80315620.483 8       616.052          51.437    19331039.660    80315621.487 8       616.052          52.062
R22  21011326.600   112159886.961 7       -60.232          45.812    21011325.640   112159886.965 7       -60.232          46.250    21011334.400    87235500.775 8       -46.847          48.562    21011334.540    87235500.772 8       -46.847          49.000
R11  23054612.460   123196859.506 7     -1988.441          42.625    23054612.100   123196859.512 6     -1988.441          41.625    23054632.720    95819862.299 7     -1546.565          47.375    23054632.440    95819860.300 7     -1546.565          47.250
G23  23591331.220   123973279.648 7       385.447          44.000    23591330.180   123973279.645 5       385.447          30.312    23591338.080    96602569.858 5       300.348          30.250    23591339.040    96602590.847 7       300.348          44.750
G26  22742914.640   119514813.252 7      -678.718          43.375    22742913.020   119514813.257 6      -678.718          41.687    22742926.820    93128475.765 6      -528.871          41.375    22742927.560    93128482.757 7      -528.871          46.562
G02  22437777.980   117911321.651 7      4397.319          44.062    22437775.800   117911321.659 5      4397.319          33.750    22437782.500    91878970.584 5      3426.482          33.687
G07  24067311.980   126474590.083 7      3615.115          42.937    24067311.060   126474590.085 4      3615.115          27.937    24067319.240    98551609.468 4      2816.973          27.750    24067319.300    98551661.479 6      2816.973          40.125
G08  21188728.800   111347523.270 7      3390.212          46.125    21188727.540   111347523.269 6      3390.212          37.250    21188735.120    86764329.906 6      2641.723          37.187    21188735.900    86764333.913 8      2641.723          49.187
> 2024 05 10 12 20 34.0000000  0 13
G27  20865331.760   109648059.702 8      1802.572          49.187    20865331.100   109648059.707 8      1802.572          49.312    20865337.060    85440068.851 8      1404.602          49.312    20865337.760    85440079.858 8      1404.602          49.812
G21  20883642.580   109744283.814 7      3703.817          46.250    20883640.060   109744283.816 6      3703.817          37.125    20883645.820    85515039.974 6      2886.091          37.312
G10  22034945.620   115794416.908 7      2267.091          47.250    22034944.820   115794416.913 7      2267.091          45.312    22034953.080    90229455.497 7      1766.565          45.562    22034952.820    90229454.510 7      1766.565          47.000
R23  20189662.320   108001083.272 7      2367.493          44.312    20189660.760   108001083.292 7      2367.493          44.625
G16  20658714.860   108562280.449 7       957.505          47.625    20658713.120   108562280.459 6       957.505          39.750    20658718.140    84593995.821 6       746.108          39.375
R12  19330881.360   103262102.707 8       791.270          50.062    19330881.300   103262102.705 8       791.270          50.062    19330891.500    80315004.616 8       615.432          50.875    19330891.580    80315005.618 8       615.432          52.000
R22  21011338.260   112159947.052 7       -60.320          46.062    21011336.820   112159947.061 7       -60.320          46.375    21011345.760    87235547.511 8       -46.915          49.187    21011345.680    87235547.505 8       -46.915          48.812
R11  23054984.380   123198847.810 7     -1988.452          42.625    23054982.980   123198847.814 6     -1988.452          41.312    23055004.920    95821408.743 7     -1546.574          47.500    23055004.640    95821406.740 7     -1546.574          47.437
G23  23591257.960   123972894.348 7       384.955          44.062    23591256.960   123972894.348 5       384.955          30.312    23591264.720    96602269.625 5       299.965          30.250    23591265.460    96602290.632 7       299.965          44.750
G26  22743043.380   119515491.924 7      -678.891          43.125    22743042.060   119515491.931 6      -678.891          41.875    22743056.160    93129004.584 6      -529.006          41.187    22743056.680    93129011.578 7      -529.006          46.312
G02  22436941.240   117906924.424 7      4396.891          44.625    22436938.960   117906924.431 5      4396.891          34.062    22436945.620    91875544.183 5      3426.149          33.687
G07  24066623.880   126470975.154 7      3614.619          43.375    24066623.080   126470975.159 4      3614.619          27.937    24066631.440    98548792.641 4      2816.586          27.750    24066631.300    98548844.645 6      2816.586          40.125
G08  21188083.520   111344132.918 7      3390.144          46.562    21188082.160   111344132.918 6      3390.144          37.625    21188089.840    86761688.076 6      2641.671          37.250    21188090.680    86761692.070 8      2641.671          49.312
> 2024 05 10 12 20 35.0000000  0 13
G27  20864988.880   109646257.162 8      1802.368          48.125    20864988.140   109646257.170 8      1802.368          49.250    20864994.060    85438664.274 8      1404.442          49.750    20864994.720    85438675.281 8      1404.442          49.562
G21  20882937.820   109740580.059 7      3703.442          46.375    20882935.260   109740580.062 6      3703.442          37.062    20882941.000    85512153.927 6      2885.799          37.250
G10  22034514.180   115792150.017 7      2266.501          46.875    22034513.540   115792150.022 7      2266.501          45.437    22034521.680    90227689.090 7      1766.104          45.062    22034521.660    90227688.099 7      1766.104          46.687
R23  20189219.500   107998715.810 7      2367.139          44.312    20189218.080   107998715.833 7      2367.139          44.000
G16  20658532.740   108561323.063 7       957.012          45.937    20658531.060   108561323.073 6       957.012          39.312    20658535.860    84593249.804 6       745.724          39.250
R12  19330733.340   103261311.770 8       790.431          49.250    19330733.060   103261311.768 8       790.431          49.062    19330743.540    80314389.445 8       614.779          51.062    19330743.340    80314390.447 8       614.779          51.875
R22  21011349.260   112160007.268 7       -60.411          46.000    21011348.120   112160007.285 7       -60.411          45.875    21011357.040    87235594.345 8       -46.986          48.875    21011357.080    87235594.344 8       -46.986          48.812
R11  23055356.640   123200836.384 7     -1988.756          42.000    23055355.360   123200836.380 6     -1988.756          41.312    23055376.780    95822955.397 7     -1546.810          47.000    23055376.760    95822953.396 7     -1546.810          47.000
G23  23591184.580   123972509.614 7       384.507          44.062    23591183.740   123972509.614 5       384.507          30.312    23591191.680    96601969.834 5       299.616          30.250    23591192.260    96601990.825 7       299.616          44.750
G26  22743172.700   119516170.940 7      -679.199          43.562    22743171.380   119516170.945 7      -679.199          42.125    22743185.340    93129533.673 6      -529.246          41.875    22743185.800    93129540.665 7      -529.246          46.187
G02  22436104.680   117902527.638 7      4396.516          44.500    22436102.100   117902527.643 5      4396.516          34.062    22436108.980    91872118.119 5      3425.857          34.062
G07  24065936.080   126467360.791 7      3614.057          42.875    24065935.200   126467360.790 4      3614.057          27.937    24065943.780    98545976.249 4      2816.149          28.125    24065944.300    98546028.252 6      2816.149          40.062
G08  21187438.440   111340742.742 7      3389.995          46.000    21187437.080   111340742.737 6      3389.995          37.062    21187444.720    86759046.374 6      2641.554          37.187    21187445.700    86759050.373 8      2641.554          49.312
> 2024 05 10 12 20 36.0000000  0 13
G27  20864645.880   109644454.948 8      1802.196          48.250    20864645.100   109644454.953 8      1802.196          49.312    20864651.120    85437259.949 8      1404.308          48.812    20864651.600    85437270.956 8      1404.308          50.312
G21  20882232.740   109736876.999 7      3702.857          46.125    20882230.640   109736877.004 6      3702.857          37.312    20882236.280    85509268.428 6      2885.343          37.250
G10  22034082.800   115789883.896 7      2265.844          46.812    22034082.280   115789883.901 7      2265.844          45.687    22034090.440    90225923.284 7      1765.592          45.500    22034090.520    90225922.291 7      1765.592          46.687
R23  20188777.000   107996348.889 7      2366.843          44.187    20188775.540   107996348.901 7      2366.843          44.250
G16  20658350.500   108560366.347 7       956.519          45.750    20658349.080   108560366.354 6       956.519          39.500    20658353.900    84592504.307 6       745.339          39.375
R12  19330585.740   103260521.838 8       789.635          49.187    19330585.140   103260521.839 8       789.635          49.187    19330595.580    80313775.049 8       614.161          51.375    19330595.660    80313776.049 8       614.161          52.062
R22  21011360.380   112160067.721 7       -60.454          46.250    21011359.620   112160067.733 7       -60.454          46.062    21011368.520    87235641.359 8       -47.019          48.937    21011368.580    87235641.355 8       -47.019          48.750
R11  23055728.400   123202825.212 7     -1988.829          42.000    23055727.780   123202825.215 6     -1988.829          40.750    23055748.720    95824502.267 7     -1546.867          47.375    23055749.220    95824500.271 7     -1546.867          47.187
G23  23591111.380   123972125.563 7       383.843          43.750    23591110.800   123972125.568 5       383.843          30.312    23591118.620    96601670.574 5       299.099          30.375    23591119.160    96601691.572 7       299.099          44.437
G26  22743301.880   119516850.385 7      -679.566          43.750    22743300.820   119516850.384 7      -679.566          42.000    22743314.520    93130063.098 6      -529.532          41.500    22743314.920    93130070.093 7      -529.532          46.125
G02  22435267.980   117898131.399 7      4396.154          44.312    22435265.660   117898131.404 5      4396.154          33.687    22435272.460    91868692.476 5      3425.574          34.062
G07  24065248.540   126463747.087 7      3613.471          43.562    24065247.620   126463747.086 4      3613.471          27.937    24065256.220    98543160.374 4      2815.692          28.125    24065256.780    98543212.385 6      2815.692          40.062
G08  21186793.360   111337352.842 7      3389.925          46.750    21186792.140   111337352.834 6      3389.925          37.125    21186799.580    86756404.891 6      2641.500          37.000    21186800.400    86756408.890 8      2641.500          49.375
> 2024 05 10 12 20 37.0000000  0 13
G27  20864303.020   109642652.592 8      1802.388          48.562    20864302.160   109642652.596 8      1802.388          49.375    20864308.180    85435855.513 8      1404.458          49.125    20864308.820    85435866.522 8      1404.458          49.937
G21  20881528.080   109733174.130 7      3702.736          46.500    20881526.040   109733174.135 6      3702.736          37.312    20881531.640    85506383.079 6      2885.249          37.562
G10  22033651.740   115787618.056 7      2265.634          47.250    22033650.900   115787618.059 7      2265.634          45.750    22033659.120    90224157.694 7      1765.429          45.500    22033659.040    90224156.703 7      1765.429          47.000
R23  20188334.760   107993982.013 7      2366.887          44.562    20188332.940   107993982.028 7      2366.887          44.250
G16  20658168.560   108559409.818 7       956.352          46.250    20658166.980   108559409.833 6       956.352          39.562    20658171.960    84591758.962 6       745.209          39.312
R12  19330437.660   103259732.415 8       789.131          49.062    19330437.240   103259732.411 8       789.131          49.437    19330447.820    80313161.048 8       613.769          51.437    19330448.060    80313162.050 8       613.769          51.812
R22  21011371.860   112160127.932 7       -60.157          44.812    21011370.720   112160127.941 7       -60.157          46.062    21011379.760    87235688.191 8       -46.788          48.687    21011380.060    87235688.190 8       -46.788          48.625
R11  23056101.020   123204813.930 6     -1988.745          41.937    23056099.900   123204813.931 6     -1988.745          40.750    23056120.980    95826049.054 7     -1546.801          47.062    23056121.200    95826047.056 7     -1546.801          47.375
G23  23591038.200   123971741.693 7       383.746          44.625    23591037.720   123971741.698 5       383.746          30.312    23591045.480    96601371.452 5       299.023          30.375    23591045.860    96601392.447 7       299.023          44.562
G26  22743431.320   119517529.764 7      -679.426          43.312    22743430.020   119517529.766 7      -679.426          42.187    22743443.680    93130592.474 6      -529.423          41.625    22743444.200    93130599.473 7      -529.423          46.125
G02  22434431.860   117893735.231 7      4396.136          43.375    22434429.180   117893735.233 5      4396.136          33.687    22434435.720    91865266.896 5      3425.560          33.812
G07  24064561.100   126460133.585 7      3613.369          43.875    24064559.960   126460133.585 4      3613.369          27.937    24064568.440    98540344.657 4      2815.612          28.125    24064568.820    98540396.665 6      2815.612          40.312
G08  21186148.240   111333962.748 7      3390.203          45.937    21186146.900   111333962.745 6      3390.203          37.437    21186154.620    86753763.266 6      2641.717          37.312    21186155.340    86753767.269 8      2641.717          49.500
> 2024 05 10 12 20 38.0000000  0 13
G27  20863960.000   109640850.440 8      1802.110          48.875    20863959.300   109640850.442 8      1802.110          49.312    20863965.300    85434451.237 8      1404.242          49.250    20863965.780    85434462.245 8      1404.242          49.562
G21  20880823.600   109729471.818 7      3702.041          46.750    20880821.560   109729471.826 6      3702.041          37.000    20880827.120    85503498.167 6      2884.707          37.437
G10  22033220.760   115785352.857 7      2264.980          46.875    22033219.900   115785352.857 7      2264.980          45.687    22033228.140    90222392.600 7      1764.919          45.250    22033227.860    90222391.605 7      1764.919          46.687
R23  20187892.220   107991615.573 7      2366.304          44.562    20187890.600   107991615.588 7      2366.304          43.812
G16  20657986.500   108558453.829 7       955.765          46.875    20657985.020   108558453.839 6       955.765          39.812    20657990.000    84591014.030 6       744.752          39.500
R12  19330290.280   103258943.843 8       788.179          49.625    19330289.600   103258943.836 8       788.179          50.062    19330300.200    80312547.707 8       613.028          51.125    19330300.120    80312548.709 8       613.028          51.750
R22  21011382.960   112160188.276 7       -60.435          45.375    21011382.100   112160188.291 7       -60.435          45.687    21011391.040    87235735.121 8       -47.005          48.937    21011391.100    87235735.116 8       -47.005          48.750
R11  23056472.720   123206802.859 6     -1989.041          41.937    23056472.280   123206802.860 6     -1989.041          40.750    23056493.300    95827595.991 7     -1547.032          46.750    23056493.220    95827593.988 7     -1547.032          47.062
G23  23590965.420   123971358.393 7       383.056          44.187    23590964.880   123971358.396 5       383.056          30.500    23590972.580    96601072.773 5       298.485          30.375    23590972.900    96601093.768 7       298.485          44.250
G26  22743560.900   119518209.476 7      -679.825          43.250    22743559.460   119518209.478 6      -679.825          41.875    22743573.180    93131122.106 6      -529.734          41.437    22743573.540    93131129.102 7      -529.734          46.000
G02  22433595.060   117889339.501 7      4395.533          43.625    22433592.720   117889339.506 5      4395.533          34.125    22433599.280    91861841.659 5      3425.091          33.812
G07  24063873.400   126456520.633 7      3612.730          43.437    24063872.480   126456520.635 4      3612.730          27.937    24063880.980    98537529.369 4      2815.114          28.125    24063881.220    98537581.378 6      2815.114          40.312
G08  21185503.140   111330572.866 7      3389.838          46.437    21185501.840   111330572.861 6      3389.838          37.625    21185509.720    86751121.796 6      2641.433          37.250    21185510.480    86751125.792 8      2641.433          49.125
> 2024 05 10 12 20 39.0000000  0 13
G27  20863617.060   109639048.399 8      1801.847          49.000    20863616.380   109639048.401 8      1801.847          48.937    20863622.380    85433047.048 8      1404.037          49.125    20863623.120    85433058.053 8      1404.037          50.187
G21  20880119.180   109725769.969 7      3701.472          46.937    20880116.960   109725769.971 6      3701.472          37.000    20880122.580    85500613.607 6      2884.264          36.937
G10  22032789.760   115783088.203 7      2264.239          46.312    22032789.040   115783088.207 7      2264.239          45.312    22032797.020    90220627.938 7      1764.342          45.187    22032796.720    90220626.951 7      1764.342          46.375
R23  20187449.600   107989249.440 7      2365.803          43.500    20187448.280   107989249.458 7      2365.803          44.437
G16  20657804.740   108557498.285 7       955.202          46.562    20657803.080   108557498.295 6       955.202          39.437    20657808.240    84590269.446 6       744.313          39.000
R12  19330142.800   103258156.044 8       787.275          48.750    19330142.120   103258156.040 8       787.275          50.437    19330152.780    80311934.975 8       612.325          50.875    19330152.600    80311935.979 8       612.325          51.250
R22  21011394.420   112160248.621 7       -60.564          45.937    21011393.520   112160248.640 7       -60.564          46.562    21011402.420    87235782.052 8       -47.105          48.500    21011402.480    87235782.048 8       -47.105          48.312
R11  23056844.960   123208791.869 7     -1989.153          42.187    23056844.680   123208791.864 6     -1989.153          40.750    23056865.260    95829142.992 7     -1547.119          46.937    23056865.580    95829140.993 7     -1547.119          46.687
G23  23590892.420   123970975.527 7       382.565          43.625    23590892.060   123970975.527 5       382.565          30.500    23590899.520    96600774.436 5       298.103          30.500    23590900.060    96600795.426 7       298.103          44.500
G26  22743690.500   119518889.386 7      -680.151          43.250    22743688.780   119518889.393 7      -680.151          42.062    22743702.580    93131651.896 6      -529.988          41.875    22743703.040    93131658.902 7      -529.988          46.187
G02  22432758.420   117884944.108 7      4395.036          43.562    22432756.400   117884944.116 5      4395.036          34.125    22432762.900    91858416.683 5      3424.703          33.937
G07  24063186.120   126452908.140 7      3612.138          43.437    24063185.120   126452908.142 4      3612.138          27.937    24063193.660    98534714.442 4      2814.653          28.125    24063194.460    98534766.448 6      2814.653          40.312
G08  21184858.140   111327183.024 7      3389.638          46.625    21184856.820   111327183.016 6      3389.638          37.437    21184864.600    86748480.358 6      2641.276          37.312    21184865.340    86748484.363 8      2641.276          49.625
> 2024 05 10 12 20 40.0000000  0 13
G27  20863274.260   109637246.695 8      1801.575          48.687    20863273.480   109637246.694 8      1801.575          49.375    20863279.520    85431643.116 8      1403.825          49.562    20863280.260    85431654.125 8      1403.825          50.000
G21  20879414.980   109722068.782 7      3700.913          46.937    20879412.320   109722068.787 6      3700.913          37.062    20879418.240    85497729.568 6      2883.828          37.500
G10  22032359.140   115780824.336 7      2263.480          46.125    22032358.280   115780824.333 7      2263.480          45.437    22032366.440    90218863.880 7      1763.751          45.437    22032366.200    90218862.885 7      1763.751          46.812
R23  20187007.480   107986883.853 7      2365.362          44.250    20187006.260   107986883.871 7      2365.362          44.062
G16  20657623.160   108556543.414 7       954.560          46.437    20657621.480   108556543.427 6       954.560          39.562    20657626.480    84589525.388 6       743.813          39.187
R12  19329995.660   103257369.285 8       786.267          48.562    19329994.760   103257369.286 8       786.267          49.625    19330005.460    80311323.051 8       611.541          51.687    19330005.540    80311324.055 8       611.541          51.812
R22  21011405.820   112160309.194 7       -60.567          45.750    21011404.780   112160309.209 7       -60.567          45.875    21011413.740    87235829.158 8       -47.108          48.812    21011413.800    87235829.153 8       -47.108          48.625
R11  23057217.460   123210781.244 7     -1989.489          42.312    23057216.620   123210781.240 6     -1989.489          41.250    23057237.840    95830690.274 7     -1547.381          47.062    23057237.740    95830688.275 7     -1547.381          46.875
G23  23590819.680   123970593.347 7       381.925          44.625    23590819.440   123970593.349 5       381.925          30.500    23590826.820    96600476.627 5       297.604          30.500    23590827.580    96600497.628 7       297.604          44.875
G26  22743819.820   119519569.737 7      -680.383          43.750    22743818.400   119519569.739 6      -680.383          41.687    22743831.940    93132182.021 6      -530.169          41.312    22743832.580    93132189.019 7      -530.169          45.812
G02  22431922.120   117880549.243 7      4394.669          43.687    22431919.900   117880549.248 5      4394.669          33.562    22431926.620    91854992.119 5      3424.418          33.625
G07  24062498.840   126449296.325 7      3611.640          42.812    24062497.880   126449296.325 4      3611.640          27.937    24062506.160    98531900.038 4      2814.265          27.750    24062506.780    98531952.035 6      2814.265          39.937
G08  21184213.260   111323793.463 7      3389.548          46.562    21184211.840   111323793.458 6      3389.548          37.375    21184219.460    86745839.144 6      2641.206          36.687    21184220.260    86745843.145 8      2641.206          49.437
> 2024 05 10 12 20 41.0000000  0 13
G27  20862931.400   109635445.111 8      1801.338          48.375    20862930.640   109635445.110 8      1801.338          49.500    20862936.760    85430239.286 8      1403.640          49.500    20862937.260    85430250.293 8      1403.640          50.062
G21  20878710.720   109718368.078 7      3700.272          45.937    20878708.180   109718368.083 6      3700.272          37.187    20878714.080    85494845.906 6      2883.329          37.125
G10  22031928.340   115778561.003 7      2262.877          46.312    22031927.500   115778561.002 7      2262.877          45.562    22031935.780    90217100.246 7      1763.281          45.625    22031935.720    90217099.253 7      1763.281          46.875
R23  20186565.260   107984518.604 7      2364.828          43.625    20186563.560   107984518.618 7      2364.828          44.125
G16  20657441.480   108555588.989 7       954.089          46.437    20657439.920   108555588.996 6       954.089          39.875    20657444.860    84588781.676 6       743.446          39.375
R12  19329848.200   103256583.329 8       785.306          49.375    19329847.760   103256583.333 8       785.306          49.312    19329858.400    80310711.751 8       610.793          51.562    19329858.300    80310712.753 8       610.793          52.000
R22  21011417.300   112160369.840 7       -60.859          46.062    21011416.200   112160369.852 7       -60.859          45.937    21011425.060    87235876.323 8       -47.335          48.625    21011425.100    87235876.320 8       -47.335          48.875
R11  23057589.620   123212770.724 7     -1989.862          42.312    23057588.920   123212770.714 6     -1989.862          41.250    23057610.020    95832237.640 7     -1547.671          46.875    23057610.140    95832235.644 7     -1547.671          47.312
G23  23590747.100   123970211.653 7       381.294          44.750    23590746.640   123970211.650 5       381.294          30.312    23590754.220    96600179.199 5       297.112          30.500    23590754.300    96600200.187 7       297.112          44.500
G26  22743949.240   119520250.353 7      -681.007          43.687    22743947.940   119520250.355 7      -681.007          42.187    22743961.580    93132712.357 6      -530.655          41.875    22743961.860    93132719.357 7      -530.655          45.625
G02  22431085.980   117876154.757 7      4394.014          43.687    22431083.700   117876154.767 5      4394.014          33.562    22431090.320    91851567.850 5      3423.907          33.625
G07  24061811.680   126445685.012 7      3610.857          43.750    24061810.560   126445685.009 4      3610.857          27.875    24061818.980    98529086.022 4      2813.655          27.750    24061819.180    98529138.033 6      2813.655          39.937
G08  21183568.140   111320404.015 7      3389.264          47.000    21183566.780   111320404.010 6      3389.264          37.562    21183574.460    86743198.016 6      2640.985          37.375    21183575.380    86743202.012 8      2640.985          49.375
> 2024 05 10 12 20 42.0000000  0 13
G27  20862588.840   109633643.903 8      1801.009          49.187    20862587.860   109633643.908 8      1801.009          49.250    20862593.980    85428835.750 8      1403.383          49.250    20862594.480    85428846.757 8      1403.383          49.937
G21  20878006.660   109714668.068 7      3699.753          47.125    20878004.100   109714668.070 6      3699.753          37.312    20878010.040    85491962.780 6      2882.924          37.562
G10  22031497.960   115776298.471 7      2262.116          46.750    22031497.000   115776298.476 7      2262.116          45.875    22031505.340    90215337.238 7      1762.688          46.062    22031505.180    90215336.247 7      1762.688          47.125
R23  20186123.300   107982153.899 7      2364.488          43.750    20186121.680   107982153.906 7      2364.488          44.437
G16  20657260.020   108554635.260 7       953.447          46.062    20657258.400   108554635.271 6       953.447          39.750    20657263.380    84588038.507 6       742.946          39.187
R12  19329701.160   103255798.368 8       784.494          48.875    19329700.900   103255798.369 8       784.494          49.250    19329711.580    80310101.219 8       610.162          51.437    19329711.400    80310102.223 8       610.162          51.625
R22  21011428.680   112160430.721 7       -60.960          46.125    21011427.720   112160430.735 7       -60.960          46.625    21011436.560    87235923.675 8       -47.413          48.875    21011436.300    87235923.667 8       -47.413          49.125
R11  23057962.160   123214760.537 7     -1989.992          42.000    23057961.240   123214760.547 6     -1989.992          41.250    23057982.580    95833785.280 7     -1547.772          46.812    23057982.560    95833783.281 7     -1547.772          46.812
G23  23590674.760   123969830.634 7       380.701          43.937    23590674.200   123969830.633 5       380.701          30.312    23590681.840    96599882.297 5       296.650          30.500    23590681.900    96599903.295 7       296.650          44.500
G26  22744078.740   119520931.377 7      -681.214          43.500    22744077.520   119520931.382 6      -681.214          41.500    22744091.220    93133243.015 6      -530.816          41.062    22744091.560    93133250.017 7      -530.816          46.312
G02  22430249.740   117871760.835 7      4393.594          44.312    22430247.520   117871760.842 5      4393.594          33.687    22430253.940    91848144.017 5      3423.579          33.687
G07  24061124.820   126442074.380 7      3610.214          42.687    24061123.380   126442074.380 4      3610.214          27.875    24061131.760    98526272.544 4      2813.154          27.750    24061132.560    98526324.551 6      2813.154          40.125
G08  21182923.060   111317014.891 7      3388.943          46.625    21182921.740   111317014.882 6      3388.943          37.062    21182929.520    86740557.139 6      2640.735          36.687    21182930.500    86740561.140 8      2640.735          49.375
> 2024 05 10 12 20 43.0000000  0 13
G27  20862245.900   109631842.624 8      1801.285          48.187    20862245.000   109631842.626 8      1801.285          49.312    20862251.180    85427432.151 8      1403.599          49.750    20862251.820    85427443.156 8      1403.599          50.187
G21  20877302.780   109710968.360 7      3699.505          46.187    20877300.220   109710968.365 6      3699.505          38.062    20877305.940    85489079.892 6      2882.732          38.000
G10  22031067.360   115774036.323 7      2261.881          46.437    22031066.420   115774036.327 7      2261.881          45.562    22031074.760    90213574.523 7      1762.505          45.937    22031074.480    90213573.536 7      1762.505          46.625
R23  20185681.340   107979789.366 7      2364.405          45.312    20185679.720   107979789.370 7      2364.405          44.125
G16  20657078.560   108553681.831 7       953.219          47.187    20657076.860   108553681.844 6       953.219          39.750    20657081.980    84587295.573 6       742.768          39.437
R12  19329554.480   103255014.023 8       784.013          48.250    19329554.040   103255014.024 8       784.013          50.062    19329564.720    80309491.168 8       609.788          51.250    19329564.540    80309492.170 8       609.788          51.937
R22  21011439.860   112160491.495 7       -60.691          46.187    21011439.140   112160491.504 7       -60.691          46.125    21011447.860    87235970.931 8       -47.204          48.562    21011447.900    87235970.921 8       -47.204          48.812
R11  23058334.360   123216750.332 7     -1989.856          42.000    23058334.020   123216750.339 6     -1989.856          41.250    23058355.240    95835332.877 7     -1547.666          47.187    23058355.020    95835330.877 7     -1547.666          47.312
G23  23590602.360   123969449.922 7       380.520          44.750    23590601.920   123969449.919 5       380.520          30.312    23590609.400    96599585.638 5       296.509          30.437    23590609.680    96599606.629 7       296.509          44.500
G26  22744208.080   119521612.500 7      -681.198          44.125    22744207.080   119521612.503 6      -681.198          41.562    22744220.780    93133773.742 6      -530.804          41.375    22744221.580    93133780.740 7      -530.804          46.062
G02  22429413.940   117867367.079 7      4393.660          44.250    22429411.400   117867367.081 5      4393.660          33.687    22429417.920    91844720.311 5      3423.631          33.687
G07  24060437.660   126438464.026 7      3610.169          43.312    24060436.460   126438464.028 4      3610.169          27.875    24060444.640    98523459.278 4      2813.118          27.750    24060445.000    98523511.292 6      2813.118          40.125
G08  21182278.020   111313625.658 7      3389.247          45.812    21182276.780   111313625.650 6      3389.247          37.125    21182284.720    86737916.179 6      2640.972          37.000    21182285.540    86737920.178 8      2640.972          49.187
> 2024 05 10 12 20 44.0000000  0 13
G27  20861903.020   109630041.486 8      1800.958          48.875    20861902.360   109630041.486 8      1800.958          49.500    20861908.480    85426028.668 8      1403.344          49.750    20861909.140    85426039.671 8      1403.344          50.375
G21  20876598.920   109707269.125 7      3698.791          47.250    20876596.340   109707269.130 6      3698.791          37.312    20876601.940    85486197.378 6      2882.175          37.500
G10  22030636.960   115771774.734 7      2261.118          46.375    22030636.140   115771774.736 7      2261.118          45.625    22030644.360    90211812.246 7      1761.910          45.500    22030644.540    90211811.255 7      1761.910          46.687
R23  20185239.440   107977425.146 7      2363.943          43.312    20185237.600   107977425.150 7      2363.943          44.000
G16  20656897.020   108552728.847 7       952.571          46.687    20656895.660   108552728.859 6       952.571          39.375    20656900.620    84586552.984 6       742.263          39.000
R12  19329407.540   103254230.503 8       782.912          49.812    19329407.480   103254230.510 8       782.912          49.437    19329418.060    80308881.764 8       608.932          51.187    19329418.080    80308882.766 8       608.932          51.562
R22  21011451.500   112160552.295 7       -61.044          44.937    21011450.700   112160552.304 7       -61.044          46.312    21011459.360    87236018.214 8       -47.479          48.875    21011459.180    87236018.209 8       -47.479          48.562
R11  23058706.980   123218740.234 6     -1990.165          41.500    23058706.980   123218740.233 6     -1990.165          40.750    23058727.420    95836880.574 7     -1547.906          47.375    23058727.320    95836878.574 7     -1547.906          46.875
G23  23590530.340   123969069.665 7       379.984          44.187    23590529.600   123969069.662 5       379.984          30.625    23590537.040    96599289.334 5       296.092          30.437    23590537.560    96599310.323 7       296.092          44.500
G26  22744337.880   119522293.832 7      -681.574          43.312    22744336.720   119522293.829 6      -681.574          41.625    22744350.640    93134304.633 6      -531.096          41.437    22744351.000    93134311.635 7      -531.096          45.812
G02  22428577.960   117862973.693 7      4392.846          44.187    22428575.520   117862973.698 5      4392.846          33.625    22428581.980    91841296.904 5      3422.997          33.250
G07  24059750.800   126434854.179 7      3609.431          43.250    24059749.480   126434854.179 4      3609.431          27.875    24059757.680    98520646.412 4      2812.544          27.750    24059758.280    98520698.410 6      2812.544          40.125
G08  21181633.280   111310236.523 7      3388.986          46.187    21181631.920   111310236.517 6      3388.986          37.375    21181639.780    86735275.292 6      2640.769          36.625    21181640.440    86735279.295 8      2640.769          49.687
> 2024 05 10 12 20 45.0000000  0 13
G27  20861560.320   109628240.636 8      1800.773          48.437    20861559.560   109628240.643 8      1800.773          48.750    20861565.840    85424625.410 8      1403.200          49.250    20861566.400    85424636.413 8      1403.200          50.062
G21  20875895.100   109703570.523 7      3698.365          47.187    20875892.420   109703570.531 6      3698.365          37.937    20875898.280    85483315.355 6      2881.843          37.875
G10  22030206.760   115769513.873 7      2260.625          47.125    22030205.860   115769513.873 7      2260.625          45.937    22030214.140    90210050.534 7      1761.526          45.750    22030214.220    90210049.543 7      1761.526          46.812
R23  20184797.300   107975061.429 7      2363.514          44.000    20184795.540   107975061.439 7      2363.514          43.812
G16  20656716.060   108551776.500 7       952.111          46.375    20656714.420   108551776.510 6       952.111          40.125    20656719.440    84585810.891 6       741.905          39.562
R12  19329261.260   103253447.945 8       782.177          49.250    19329261.120   103253447.949 8       782.177          49.812    19329271.600    80308273.100 8       608.360          50.875    19329271.340    80308274.104 8       608.360          52.000
R22  21011462.960   112160613.283 7       -61.030          46.000    21011462.100   112160613.294 7       -61.030          45.750    21011470.700    87236065.649 8       -47.467          49.125    21011470.500    87236065.641 8       -47.467          48.562
R11  23059079.580   123220730.403 7     -1990.213          42.000    23059078.960   123220730.404 6     -1990.213          40.750    23059099.700    95838428.486 7     -1547.944          46.937    23059099.700    95838426.487 7     -1547.944          47.312
G23  23590458.140   123968690.070 7       379.380          44.625    23590457.300   123968690.070 5       379.380          30.625    23590464.800    96598993.544 5       295.621          30.437    23590465.260    96599014.526 7       295.621          44.187
G26  22744467.640   119522975.559 7      -681.793          43.625    22744466.560   119522975.559 6      -681.793          41.562    22744480.220    93134835.839 6      -531.267          41.062    22744480.620    93134842.843 7      -531.267          46.000
G02  22427741.620   117858580.780 7      4392.765          43.500    22427739.660   117858580.783 5      4392.765          33.625    22427745.980    91837873.857 5      3422.933          33.250
G07  24059063.820   126431244.955 7      3609.017          42.312    24059062.640   126431244.960 4      3609.017          27.875    24059071.080    98517834.028 4      2812.221          27.875    24059071.460    98517886.032 6      2812.221          39.875
G08  21180988.260   111306847.653 7      3388.747          45.562    21180987.080   111306847.650 6      3388.747          37.125    21180994.900    86732634.616 6      2640.582          37.125    21180995.600    86732638.619 8      2640.582          49.250
> 2024 05 10 12 20 46.0000000  0 14
G27  20861217.660   109626439.901 8      1800.740          48.937    20861216.860   109626439.903 8      1800.740          48.687    20861223.180    85423222.233 8      1403.174          49.250    20861223.840    85423233.236 8      1403.174          50.187
G21  20875190.940   109699872.368 7      3698.062          46.937    20875188.640   109699872.373 6      3698.062          37.625    20875194.600    85480433.673 6      2881.607          37.687
G10  22029776.540   115767253.538 7      2260.192          47.812    22029775.780   115767253.537 7      2260.192          45.875    22029784.060    90208289.234 7      1761.188          45.875    22029783.940    90208288.239 7      1761.188          46.750
R23  20184355.340   107972698.017 7      2363.365          44.062    20184354.100   107972698.021 7      2363.365          44.000
G16  20656534.660   108550824.569 7       951.839          47.250    20656533.220   108550824.579 6       951.839          39.875    20656538.300    84585069.125 6       741.693          39.375
R07  23347203.680   124979408.129 6      4611.630          40.562
R12  19329114.880   103252666.135 8       781.541          49.125    19329114.740   103252666.139 8       781.541          49.125    19329125.240    80307665.027 8       607.865          51.187    19329125.080    80307666.027 8       607.865          52.375
R22  21011474.260   112160674.291 7       -60.965          45.437    21011473.800   112160674.306 7       -60.965          46.062    21011482.040    87236113.098 8       -47.417          49.000    21011482.040    87236113.090 8       -47.417          48.875
R11  23059452.320   123222720.687 7     -1990.327          42.000    23059451.780   123222720.688 6     -1990.327          40.812    23059472.120    95839976.486 7     -1548.032          46.562    23059472.020    95839974.490 7     -1548.032          46.937
G23  23590385.760   123968310.896 7       379.148          44.500    23590385.040   123968310.896 5       379.148          30.625    23590392.540    96598698.077 5       295.440          30.312    23590392.680    96598719.066 7       295.440          44.437
G26  22744597.620   119523657.498 7      -681.875          43.812    22744596.320   119523657.492 6      -681.875          41.187    22744609.960    93135367.201 6      -531.332          41.187    22744610.320    93135374.197 7      -531.332          46.000
G02  22426905.980   117854188.209 7      4392.556          43.875    22426903.760   117854188.214 5      4392.556          33.312    22426910.180    91834451.078 5      3422.771          33.250
G07  24058377.140   126427636.202 6      3608.526          41.937    24058375.780   126427636.201 4      3608.526          27.875    24058384.540    98515022.014 4      2811.839          27.875    24058384.320    98515074.020 6      2811.839          39.875
G08  21180343.520   111303458.828 7      3388.888          45.500    21180342.000   111303458.820 6      3388.888          37.250    21180350.060    86729993.973 6      2640.692          37.000    21180350.580    86729997.972 8      2640.692          49.625
> 2024 05 10 12 20 47.0000000  0 14
G27  20860875.080   109624639.339 8      1800.420          48.562    20860874.300   109624639.344 8      1800.420          49.125    20860880.580    85421819.202 8      1402.924          49.437    20860881.060    85421830.209 8      1402.924          50.125
G21  20874487.480   109696174.765 7      3697.204          46.937    20874485.020   109696174.770 6      3697.204          37.562    20874491.000    85477552.426 6      2880.938          37.750
G10  22029346.460   115764993.833 7      2259.297          47.250    22029345.760   115764993.833 7      2259.297          45.312    22029353.900    90206528.431 7      1760.491          45.687    22029353.960    90206527.441 7      1760.491          46.625
R23  20183913.540   107970335.003 7      2362.781          43.875    20183912.280   107970335.010 7      2362.781          44.250
G16  20656353.620   108549873.174 7       951.130          46.500    20656352.220   108549873.181 6       951.130          39.750    20656357.240    84584327.778 6       741.140          39.500
R07  23346342.740   124974796.735 6      4611.057          40.562
R12  19328968.580   103251885.158 8       780.460          49.000    19328968.700   103251885.157 8       780.460          49.687    19328979.100    80307057.595 8       607.024          51.437    19328979.020    80307058.595 8       607.024          51.312
R22  21011485.780   112160735.386 7       -61.185          45.312    21011484.720   112160735.400 7       -61.185          46.000    21011493.440    87236160.611 8       -47.588          48.812    21011493.400    87236160.606 8       -47.588          49.125
R11  23059824.600   123224711.137 6     -1990.501          41.937    23059823.820   123224711.119 6     -1990.501          40.812    23059844.560    95841524.603 7     -1548.168          47.000    23059844.780    95841522.603 7     -1548.168          46.375
G23  23590313.700   123967932.271 7       378.321          44.562    23590312.920   123967932.270 5       378.321          30.500    23590320.400    96598403.043 5       294.796          30.312    23590320.900    96598424.039 7       294.796          44.500
G26  22744727.360   119524339.706 7      -682.329          43.062    22744726.240   119524339.706 7      -682.329          42.000    22744739.880    93135898.788 6      -531.685          41.562    22744740.220    93135905.782 7      -531.685          46.187
G02  22426070.100   117849796.056 7      4391.963          44.312    22426067.960   117849796.061 5      4391.963          33.312    22426074.520    91831028.625 5      3422.309          33.250
G07  24057690.560   126424027.958 7      3607.866          43.437    24057689.100   126424027.960 4      3607.866          27.875    24057697.960    98512210.393 4      2811.324          27.875    24057697.640    98512262.400 6      2811.324          39.812
G08  21179698.380   111300070.150 7      3388.574          45.562    21179697.240   111300070.144 6      3388.574          37.375    21179705.060    86727353.445 6      2640.447          37.000    21179706.000    86727357.448 8      2640.447          49.500
> 2024 05 10 12 20 48.0000000  0 14
G27  20860532.500   109622839.019 8      1800.216          49.125    20860531.720   109622839.021 8      1800.216          49.187    20860537.960    85420416.353 8      1402.766          49.250    20860538.540    85420427.361 8      1402.766          50.062
G21  20873784.180   109692477.714 7      3696.781          47.562    20873781.560   109692477.721 6      3696.781          37.937    20873787.480    85474671.611 6      2880.609          37.937
G10  22028916.540   115762734.796 7      2258.677          47.000    22028915.960   115762734.798 7      2258.677          45.500    22028924.180    90204768.145 7      1760.008          45.875    22028924.100    90204767.154 7      1760.008          46.750
R23  20183472.260   107967972.449 7      2362.318          44.125    20183470.740   107967972.453 7      2362.318          44.250
G16  20656172.500   108548922.359 7       950.470          46.687    20656171.240   108548922.369 6       950.470          39.625    20656176.320    84583586.879 6       740.626          39.625
R07  23345481.360   124970185.803 6      4610.813          40.562
R12  19328822.660   103251105.087 8       779.635          49.687    19328822.700   103251105.085 8       779.635          49.562    19328833.020    80306450.868 8       606.383          51.312    19328832.660    80306451.868 8       606.383          51.937
R22  21011496.840   112160796.643 7       -61.323          44.375    21011496.320   112160796.654 7       -61.323          46.000    21011504.960    87236208.252 8       -47.695          48.375    21011505.040    87236208.242 8       -47.695          48.625
R11  23060197.340   123226701.854 6     -1990.802          41.937    23060196.400   123226701.841 6     -1990.802          41.125    23060216.920    95843072.939 7     -1548.401          46.437    23060217.100    95843070.942 7     -1548.401          45.937
G23  23590242.020   123967554.210 7       377.883          45.250    23590241.080   123967554.212 5       377.883          30.500    23590248.380    96598108.452 5       294.454          30.312    23590248.920    96598129.438 7       294.454          44.750
G26  22744857.280   119525022.288 7      -682.808          43.375    22744855.980   119525022.296 6      -682.808          41.562    22744869.760    93136430.664 6      -532.058          41.125    22744870.200    93136437.662 7      -532.058          46.000
G02  22425234.380   117845404.370 7      4391.436          44.687    22425232.260   117845404.372 5      4391.436          34.000    22425238.760    91827606.534 5      3421.898          34.000
G07  24057004.100   126420420.318 7      3607.321          43.000    24057002.420   126420420.317 4      3607.321          27.875    24057011.260    98509399.243 4      2810.900          27.875    24057011.000    98509451.254 6      2810.900          39.812
G08  21179053.600   111296681.677 7      3388.480          46.875    21179052.480   111296681.671 6      3388.480          37.375    21179060.240    86724713.078 6      2640.374          37.312    21179061.240    86724717.081 8      2640.374          49.500
> 2024 05 10 12 20 49.0000000  0 14
G27  20860190.040   109621038.925 7      1800.121          47.875    20860189.100   109621038.925 8      1800.121          49.250    20860195.440    85419013.677 8      1402.692          49.437    20860196.020    85419024.682 8      1402.692          50.125
G21  20873081.000   109688781.238 7      3696.381          47.437    20873078.140   109688781.245 6      3696.381          37.687    20873084.020    85471791.242 6      2880.297          37.937
G10  22028486.940   115760476.392 7      2258.256          46.250    22028486.180   115760476.394 7      2258.256          45.812    22028494.340    90203008.349 7      1759.680          45.687    22028494.400    90203007.356 7      1759.680          46.937
R23  20183030.780   107965610.286 7      2362.172          44.687    20183029.060   107965610.285 7      2362.172          44.000
G16  20655991.960   108547972.065 7       950.210          46.187    20655990.340   108547972.072 6       950.210          39.687    20655995.460    84582846.384 6       740.423          39.125
R07  23344620.240   124965575.327 6      4610.277          39.937
R12  19328676.920   103250325.926 8       778.857          49.312    19328676.940   103250325.930 8       778.857          49.375    19328687.180    80305844.857 8       605.778          51.562    19328687.040    80305845.857 8       605.778          51.812
R22  21011508.780   112160858.001 7       -61.293          45.500    21011507.740   112160858.013 7       -61.293          46.000    21011516.640    87236255.971 8       -47.672          49.500    21011516.500    87236255.965 8       -47.672          48.687
R11  23060569.660   123228692.755 7     -1990.896          42.187    23060568.900   123228692.748 6     -1990.896          41.125    23060589.520    95844621.426 7     -1548.475          46.312    23060589.760    95844619.427 7     -1548.475          46.000
G23  23590170.020   123967176.723 7       377.398          44.312    23590169.380   123967176.720 5       377.398          30.500    23590176.560    96597814.304 5       294.076          30.312    23590177.360    96597835.288 7       294.076          44.437
G26  22744987.060   119525705.154 7      -682.803          44.187    22744985.920   119525705.159 7      -682.803          42.000    22744999.700    93136962.748 6      -532.054          41.500    22745000.360    93136969.751 7      -532.054          46.375
G02  22424398.720   117841013.100 7      4391.150          44.250    22424396.780   117841013.107 5      4391.150          34.000    22424403.080    91824184.769 5      3421.675          34.000
G07  24056317.520   126416813.230 7      3606.966          42.750    24056316.000   126416813.230 4      3606.966          27.875    24056324.800    98506588.523 4      2810.623          27.875    24056324.920    98506640.524 6      2810.623          39.812
G08  21178408.800   111293293.393 7      3388.316          46.500    21178407.460   111293293.384 6      3388.316          37.437    21178415.520    86722072.853 6      2640.246          37.000    21178416.440    86722076.856 8      2640.246          49.687
> 2024 05 10 12 20 50.0000000  0 14
G27  20859847.740   109619239.120 8      1799.579          48.812    20859846.580   109619239.122 8      1799.579          49.062    20859852.980    85417611.237 8      1402.270          49.125    20859853.300    85417622.240 8      1402.270          50.062
G21  20872377.660   109685085.411 7      3695.511          46.937    20872374.980   109685085.413 6      3695.511          37.375    20872380.640    85468911.377 6      2879.619          37.625
G10  22028057.460   115758218.742 7      2257.262          46.562    22028056.580   115758218.749 7      2257.262          45.687    22028064.740    90201249.144 7      1758.905          45.937    22028065.020    90201248.155 7      1758.905          47.000
R23  20182589.500   107963248.647 7      2361.341          44.687    20182587.800   107963248.646 7      2361.341          44.000
G16  20655811.460   108547022.425 7       949.290          47.312    20655809.500   108547022.432 6       949.290          39.500    20655814.740    84582106.403 6       739.707          39.250
R07  23343759.420   124960965.355 6      4609.603          39.937    23343758.520   124960965.376 6      4609.603          39.375    23343780.720    97191955.197 7      3585.247          45.125
R12  19328531.220   103249547.749 8       777.647          49.500    19328531.160   103249547.750 8       777.647          49.937    19328541.480    80305239.603 8       604.837          51.812    19328541.200    80305240.603 8       604.837          51.750
R22  21011520.260   112160919.581 7       -61.714          43.625    21011519.240   112160919.595 7       -61.714          46.000    21011528.180    87236303.866 8       -47.999          48.687    21011527.940    87236303.859 8       -47.999          49.312
R11  23060942.100   123230683.944 7     -1991.253          42.187    23060941.580   123230683.940 6     -1991.253          41.000    23060962.080    95846170.133 7     -1548.752          46.312    23060962.260    95846168.136 7     -1548.752          46.875
G23  23590098.360   123966799.866 7       376.547          45.125    23590097.900   123966799.865 5       376.547          30.437    23590104.920    96597520.647 5       293.413          30.500    23590105.320    96597541.637 7       293.413          44.687
G26  22745116.780   119526388.448 7      -683.512          43.500    22745116.060   119526388.452 7      -683.512          42.062    22745129.760    93137495.173 6      -532.607          41.875    22745130.280    93137502.169 7      -532.607          46.000
G02  22423563.320   117836622.357 7      4390.410          44.500    22423561.340   117836622.367 5      4390.410          34.000    22423567.520    91820763.418 5      3421.098          34.187
G07  24055631.260   126413206.794 6      3606.043          41.875    24055629.640   126413206.793 4      3606.043          27.875    24055638.560    98503778.311 4      2809.903          27.875    24055638.620    98503830.314 6      2809.903          39.812
G08  21177764.080   111289905.348 7      3387.927          46.562    21177762.860   111289905.342 6      3387.927          36.750    21177770.820    86719432.816 6      2639.943          36.687    21177771.860    86719436.825 8      2639.943          49.687
> 2024 05 10 12 20 51.0000000  0 14
G27  20859505.000   109617439.462 8      1799.817          48.375    20859504.100   109617439.464 8      1799.817          48.625    20859510.540    85416208.900 8      1402.455          48.937    20859511.040    85416219.906 8      1402.455          50.000
G21  20871674.280   109681390.075 7      3695.254          47.125    20871671.760   109681390.080 6      3695.254          37.562    20871677.440    85466031.897 6      2879.419          37.625
G10  22027627.940   115755961.667 7      2257.001          47.125    22027627.080   115755961.672 7      2257.001          45.500    22027635.360    90199490.384 7      1758.702          45.500    22027635.340    90199489.387 7      1758.702          46.625
R23  20182147.980   107960887.331 7      2361.320          43.812    20182146.300   107960887.341 7      2361.320          44.000
G16  20655630.920   108546073.247 7       949.179          46.500    20655629.080   108546073.257 6       949.179          39.500    20655634.140    84581366.782 6       739.620          39.187
R07  23342898.480   124956355.729 6      4609.626          39.937    23342897.380   124956355.757 6      4609.626          39.375    23342919.460    97188369.940 7      3585.265          45.562    23342920.420    97188372.946 7      3585.265          45.062
R12  19328385.820   103248770.372 8       777.176          49.500    19328385.760   103248770.370 8       777.176          49.312    19328396.020    80304634.971 8       604.470          50.812    19328395.760    80304635.971 8       604.470          51.250
R22  21011531.520   112160981.214 7       -61.399          44.750    21011531.020   112160981.221 7       -61.399          45.875    21011539.840    87236351.795 8       -47.755          48.500    21011539.620    87236351.787 8       -47.755          48.750
R11  23061314.800   123232675.284 6     -1991.143          41.562    23061314.120   123232675.290 6     -1991.143          41.000    23061334.640    95847718.957 7     -1548.667          46.312    23061334.840    95847716.960 7     -1548.667          46.125
G23  23590026.420   123966423.508 7       376.329          44.375    23590026.240   123966423.505 5       376.329          30.437    23590033.280    96597227.381 5       293.244          30.500    23590033.740    96597248.370 7       293.244          44.375
G26  22745246.920   119527071.991 7      -683.420          43.562    22745246.160   119527071.988 7      -683.420          42.187    22745259.920    93138027.786 6      -532.535          41.437    22745260.340    93138034.782 7      -532.535          46.187
G02  22422728.040   117832231.980 7      4390.429          45.437    22422725.700   117832231.982 5      4390.429          34.062    22422732.040    91817342.348 5      3421.113          34.187
G07  24054945.080   126409600.836 7      3605.920          42.312    24054943.660   126409600.835 4      3605.920          27.625    24054952.240    98500968.474 4      2809.808          27.875    24054952.480    98501020.478 6      2809.808          39.812
G08  21177119.600   111286517.418 7      3388.109          45.562    21177118.200   111286517.415 6      3388.109          37.125    21177126.060    86716792.875 6      2640.085          36.562    21177127.020    86716796.884 8      2640.085          49.375
> 2024 05 10 12 20 52.0000000  0 14
G27  20859162.740   109615639.925 8      1799.409          49.312    20859161.620   109615639.927 8      1799.409          49.125    20859168.060    85414806.660 8      1402.137          49.187    20859168.600    85414817.667 8      1402.137          50.187
G21  20870971.040   109677695.191 7      3694.601          47.875    20870968.600   109677695.193 6      3694.601          37.562    20870974.240    85463152.764 6      2878.910          37.562
G10  22027198.300   115753705.134 7      2256.242          47.437    22027197.640   115753705.136 7      2256.242          45.312    22027205.800    90197732.045 7      1758.111          45.562    22027206.040    90197731.052 7      1758.111          46.937
R23  20181706.260   107958526.353 7      2360.775          44.687    20181704.920   107958526.357 7      2360.775          44.000
G16  20655450.420   108545124.532 7       948.397          46.875    20655448.480   108545124.542 6       948.397          39.375    20655453.720    84580627.521 6       739.010          39.000
R07  23342037.540   124951746.474 6      4608.992          41.062    23342036.440   124951746.492 6      4608.992          39.375    23342058.780    97184784.968 7      3584.771          45.500    23342059.180    97184787.975 7      3584.771          45.687
R12  19328240.180   103247993.760 8       776.160          49.750    19328240.280   103247993.758 8       776.160          48.937    19328250.620    80304030.933 8       603.680          51.312    19328250.360    80304031.935 8       603.680          51.750
R22  21011543.300   112161042.874 7       -61.768          45.375    21011542.420   112161042.891 7       -61.768          46.250    21011551.360    87236399.755 8       -48.042          48.875    21011551.360    87236399.745 8       -48.042          49.250
R11  23061687.660   123234666.757 6     -1991.667          41.562    23061686.800   123234666.758 6     -1991.667          41.000    23061707.520    95849267.867 7     -1549.074          46.625    23061707.620    95849265.867 7     -1549.074          46.125
G23  23589954.720   123966047.599 7       375.548          45.125    23589954.920   123966047.596 5       375.548          30.437    23589961.620    96596934.464 5       292.635          30.500    23589962.260    96596955.446 7       292.635          44.625
G26  22745377.080   119527755.755 7      -684.064          43.125    22745376.240   119527755.755 6      -684.064          41.750    22745389.960    93138560.575 6      -533.037          41.437    22745390.660    93138567.577 7      -533.037          46.125
G02  22421892.600   117827841.926 7      4389.890          44.312    22421890.200   117827841.926 5      4389.890          34.062    22421896.720    91813921.529 5      3420.694          34.000
G07  24054258.980   126405995.364 7      3605.064          43.062    24054257.380   126405995.358 4      3605.064          27.625    24054266.140    98498159.013 4      2809.141          27.875    24054266.560    98498211.011 6      2809.141          39.812
G08  21176475.020   111283129.568 7      3387.787          46.250    21176473.540   111283129.562 6      3387.787          37.125    21176481.340    86714152.992 6      2639.834          37.125    21176482.340    86714156.990 8      2639.834          49.375
> 2024 05 10 12 20 53.0000000  0 14
G27  20858820.200   109613840.688 8      1799.097          48.437    20858819.200   109613840.690 8      1799.097          48.875    20858825.720    85413404.657 8      1401.894          49.500    20858826.340    85413415.662 8      1401.894          50.312
G21  20870267.960   109674000.956 7      3693.966          46.937    20870265.800   109674000.961 6      3693.966          37.562    20870271.200    85460274.144 6      2878.415          37.687
G10  22026769.180   115751449.329 7      2255.495          47.375    22026768.460   115751449.336 7      2255.495          45.062    22026776.820    90195974.278 7      1757.529          45.750    22026776.760    90195973.289 7      1757.529          47.187
R23  20181265.000   107956165.867 7      2360.288          45.375    20181263.800   107956165.874 7      2360.288          44.125
G16  20655269.900   108544176.450 7       947.706          46.375    20655268.220   108544176.460 6       947.706          39.500    20655273.280    84579888.748 6       738.472          39.375
R07  23341176.440   124947137.749 6      4608.343          41.062    23341175.380   124947137.770 6      4608.343          39.375    23341197.600    97181200.415 7      3584.267          45.625    23341198.320    97181203.424 7      3584.267          45.750
R12  19328095.060   103247218.114 8       775.179          48.250    19328095.020   103247218.118 8       775.179          49.187    19328105.340    80303427.655 8       602.917          51.437    19328105.140    80303428.657 8       602.917          51.812
R22  21011554.980   112161104.737 7       -61.976          44.687    21011553.880   112161104.754 7       -61.976          45.687    21011562.740    87236447.864 8       -48.203          48.812    21011562.820    87236447.857 8       -48.203          48.687
R11  23062060.480   123236658.507 6     -1991.988          41.625    23062059.120   123236658.516 6     -1991.988          40.500    23062080.240    95850817.015 7     -1549.324          46.062    23062080.180    95850815.017 7     -1549.324          46.250
G23  23589883.580   123965672.314 7       375.069          44.875    23589883.380   123965672.316 5       375.069          30.437    23589890.220    96596642.033 5       292.262          30.562    23589891.060    96596663.021 7       292.262          44.687
G26  22745507.420   119528439.895 7      -684.371          43.437    22745506.400   119528439.900 6      -684.371          41.375    22745520.180    93139093.660 6      -533.276          41.125    22745520.780    93139100.661 7      -533.276          46.125
G02  22421057.180   117823452.395 7      4389.352          45.250    22421054.860   117823452.402 5      4389.352          33.812    22421061.320    91810501.124 5      3420.274          34.000
G07  24053573.080   126402390.517 7      3604.512          42.500    24053571.380   126402390.514 4      3604.512          27.625    24053580.340    98495350.040 4      2808.710          27.875    24053580.020    98495402.042 6      2808.710          39.750
G08  21175830.620   111279741.978 7      3387.477          46.375    21175828.980   111279741.972 6      3387.477          37.437    21175836.800    86711513.309 6      2639.592          36.812    21175837.780    86711517.312 8      2639.592          49.625
> 2024 05 10 12 20 54.0000000  0 14
G27  20858477.740   109612041.653 8      1799.075          49.125    20858476.820   109612041.655 8      1799.075          49.125    20858483.460    85412002.811 8      1401.877          49.062    20858483.780    85412013.816 8      1401.877          50.000
G21  20869565.060   109670307.279 7      3693.536          47.375    20869563.000   109670307.281 6      3693.536          37.437    20869568.480    85457395.953 6      2878.080          37.625
G10  22026339.760   115749194.191 7      2254.983          47.750    22026339.340   115749194.196 7      2254.983          45.625    22026347.460    90194217.030 7      1757.129          45.750    22026347.760    90194216.037 7      1757.129          47.125
R23  20180823.560   107953805.827 7      2359.978          45.312    20180822.440   107953805.834 7      2359.978          44.125
G16  20655089.840   108543228.896 7       947.421          46.812    20655087.820   108543228.909 6       947.421          39.875    20655092.960    84579150.394 6       738.250          39.687
R07  23340315.920   124942529.383 6      4608.348          41.062    23340314.360   124942529.409 6      4608.348          39.375    23340336.540    97177616.155 7      3584.271          45.562    23340337.660    97177619.160 7      3584.271          45.562
R12  19327949.980   103246443.371 8       774.387          49.750    19327950.060   103246443.372 8       774.387          49.375    19327960.400    80302825.073 8       602.301          51.500    19327959.980    80302826.075 8       602.301          51.937
R22  21011567.020   112161166.734 7       -61.970          44.875    21011565.680   112161166.750 7       -61.970          46.187    21011574.360    87236496.079 8       -48.199          48.562    21011574.220    87236496.070 8       -48.199          48.687
R11  23062433.420   123238650.429 6     -1991.911          41.937    23062432.660   123238650.433 6     -1991.911          40.500    23062452.780    95852366.273 7     -1549.264          46.937    23062452.880    95852364.275 7     -1549.264          46.000
G23  23589812.580   123965297.617 7       374.588          43.812    23589812.200   123965297.619 5       374.588          30.625    23589819.160    96596350.059 5       291.887          30.562    23589819.620    96596371.043 7       291.887          44.687
G26  22745637.740   119529124.366 7      -684.485          43.437    22745636.560   119529124.366 6      -684.485          41.937    22745650.300    93139627.000 6      -533.365          41.312    22745650.740    93139633.998 7      -533.365          45.875
G02  22420222.060   117819063.324 7      4388.866          44.687    22420219.780   117819063.331 5      4388.866          33.812    22420226.220    91807081.076 5      3419.896          33.812
G07  24052887.120   126398786.235 7      3604.180          42.062    24052885.600   126398786.230 4      3604.180          27.625    24052894.280    98492541.508 4      2808.452          27.875    24052894.120    98492593.519 6      2808.452          39.750
G08  21175185.960   111276354.558 7      3387.494          46.500    21175184.400   111276354.553 6      3387.494          37.562    21175192.180    86708873.761 6      2639.606          37.187    21175193.080    86708877.764 8      2639.606          49.875
> 2024 05 10 12 20 55.0000000  0 14
G27  20858135.560   109610242.770 8      1798.902          49.312    20858134.520   109610242.775 8      1798.902          49.562    20858141.100    85410601.082 8      1401.742          49.625    20858141.580    85410612.085 8      1401.742          50.125
G21  20868862.200   109666614.090 7      3692.991          47.250    20868860.260   109666614.095 6      3692.991          37.062    20868865.660    85454518.148 6      2877.655          37.562
G10  22025910.820   115746939.618 7      2254.349          47.500    22025910.260   115746939.620 7      2254.349          45.812    22025918.540    90192460.215 7      1756.636          46.000    22025918.240    90192459.221 7      1756.636          46.812
R23  20180382.520   107951446.125 7      2359.629          44.437    20180381.600   107951446.123 7      2359.629          44.250
G16  20654909.600   108542281.818 7       946.963          46.750    20654907.580   108542281.830 6       946.963          39.500    20654912.660    84578412.409 6       737.893          39.000
R07  23339455.020   124937921.416 6      4607.914          39.750    23339454.040   124937921.436 6      4607.914          39.375    23339475.480    97174032.202 7      3583.933          45.375    23339476.440    97174035.210 7      3583.933          45.937
R12  19327805.200   103245669.427 8       773.582          49.875    19327805.100   103245669.428 8       773.582          48.937    19327815.580    80302223.112 8       601.675          51.187    19327815.540    80302224.112 8       601.675          51.312
R22  21011578.520   112161228.765 7       -61.930          45.312    21011577.180   112161228.781 7       -61.930          45.500    21011586.160    87236544.321 8       -48.168          48.812    21011586.120    87236544.312 8       -48.168          49.000
R11  23062806.000   123240642.463 6     -1992.045          41.937    23062805.280   123240642.470 6     -1992.045          40.250    23062825.900    95853915.637 7     -1549.368          46.500    23062825.820    95853913.643 7     -1549.368          46.250
G23  23589741.160   123964923.390 7       373.998          44.562    23589740.920   123964923.395 5       373.998          30.625    23589747.960    96596058.452 5       291.427          30.562    23589748.420    96596079.444 7       291.427          44.375
G26  22745767.840   119529809.066 7      -684.671          43.437    22745766.900   119529809.071 6      -684.671          41.500    22745780.580    93140160.524 6      -533.510          41.312    22745781.360    93140167.518 7      -533.510          45.875
G02  22419386.700   117814674.586 7      4388.509          44.625    22419384.620   117814674.593 5      4388.509          33.937    22419391.100    91803661.285 5      3419.618          34.125
G07  24052201.740   126395182.442 7      3603.615          42.437    24052199.800   126395182.439 4      3603.615          28.125    24052208.480    98489733.358 4      2808.011          28.062    24052208.420    98489785.359 6      2808.011          39.750
G08  21174541.240   111272967.233 7      3387.326          46.687    21174539.740   111272967.228 6      3387.326          36.812    21174547.600    86706234.291 6      2639.475          37.250    21174548.460    86706238.296 8      2639.475          49.375
> 2024 05 10 12 20 56.0000000  0 14
G27  20857793.360   109608443.958 8      1798.719          48.937    20857792.200   109608443.960 8      1798.719          49.062    20857798.840    85409199.409 8      1401.599          49.187    20857799.420    85409210.412 8      1401.599          50.562
G21  20868159.420   109662921.319 7      3692.448          47.125    20868157.560   109662921.326 6      3692.448          37.187    20868162.820    85451640.666 6      2877.232          37.312
G10  22025481.980   115744685.536 7      2253.791          47.562    22025481.300   115744685.538 7      2253.791          45.875    22025489.660    90190703.786 7      1756.201          45.562    22025489.560    90190702.789 7      1756.201          47.250
R23  20179941.840   107949086.700 7      2359.189          45.750    20179940.220   107949086.702 7      2359.189          44.250
G16  20654729.360   108541335.160 7       946.428          46.062    20654727.380   108541335.173 6       946.428          39.687    20654732.580    84577674.749 6       737.476          39.062
R07  23338593.620   124933313.740 6      4607.489          39.750    23338593.540   124933313.758 6      4607.489          39.375    23338614.840    97170448.462 7      3583.603          45.250    23338615.560    97170451.469 7      3583.603          45.812
R12  19327660.580   103244896.211 8       772.779          49.312    19327660.360   103244896.207 8       772.779          49.812    19327670.780    80301621.718 8       601.050          51.562    19327670.700    80301622.720 8       601.050          51.687
R22  21011590.140   112161290.796 7       -62.104          45.812    21011588.580   112161290.815 7       -62.104          46.125    21011597.620    87236592.564 8       -48.303          48.937    21011597.600    87236592.552 8       -48.303          48.875
R11  23063179.120   123242634.585 6     -1992.275          41.625    23063178.340   123242634.586 6     -1992.275          40.250    23063198.300    95855465.059 7     -1549.547          46.875    23063198.500    95855463.063 7     -1549.547          46.250
G23  23589669.940   123964549.575 7       373.514          43.250    23589669.820   123964549.578 5       373.514          30.625    23589676.900    96595767.162 5       291.050          30.562    23589677.520    96595788.156 7       291.050          44.875
G26  22745898.280   119530493.962 7      -685.038          43.312    22745897.420   119530493.967 6      -685.038          41.625    22745910.920    93140694.193 6      -533.796          41.625    22745911.380    93140701.192 7      -533.796          45.812
G02  22418551.600   117810286.135 7      4388.226          44.875    22418549.560   117810286.142 5      4388.226          34.250    22418555.960    91800241.714 5      3419.397          34.125
G07  24051516.080   126391579.062 6      3603.207          40.687    24051514.000   126391579.056 4      3603.207          28.125    24051522.780    98486925.527 4      2807.694          28.062    24051522.560    98486977.534 6      2807.694          39.750
G08  21173896.640   111269579.958 7      3387.137          45.937    21173895.180   111269579.953 6      3387.137          36.875    21173903.160    86703594.856 6      2639.327          36.812    21173903.940    86703598.857 8      2639.327          49.437
> 2024 05 10 12 20 57.0000000  0 14
G27  20857450.880   109606645.375 8      1798.566          48.875    20857449.940   109606645.377 8      1798.566          48.875    20857456.620    85407797.915 8      1401.480          49.375    20857457.200    85407808.918 8      1401.480          50.250
G21  20867456.800   109659229.104 7      3692.076          47.250    20867454.880   109659229.109 6      3692.076          37.687    20867460.220    85448763.620 6      2876.942          37.750
G10  22025053.120   115742432.132 7      2253.217          47.750    22025052.560   115742432.134 7      2253.217          45.750    22025060.740    90188947.889 7      1755.754          46.000    22025060.880    90188946.894 7      1755.754          47.000
R23  20179500.840   107946727.720 7      2358.827          44.875    20179499.740   107946727.719 7      2358.827          43.687
G16  20654549.400   108540389.075 7       945.902          45.875    20654547.420   108540389.085 6       945.902          39.812    20654552.480    84576937.534 6       737.067          39.562
R07  23337732.680   124928706.498 6      4607.114          39.750    23337732.560   124928706.524 6      4607.114          39.000    23337754.120    97166865.067 7      3583.311          44.500    23337754.800    97166868.073 7      3583.311          45.375
R12  19327515.840   103244123.912 8       771.940          49.375    19327515.660   103244123.911 8       771.940          49.562    19327526.240    80301021.041 8       600.398          51.000    19327526.140    80301022.041 8       600.398          51.750
R22  21011601.840   112161352.955 7       -62.086          46.750    21011600.260   112161352.969 7       -62.086          45.937    21011609.080    87236640.899 8       -48.289          48.750    21011609.140    87236640.888 8       -48.289          48.625
R11  23063551.580   123244626.905 6     -1992.165          41.625    23063551.040   123244626.896 6     -1992.165          40.937    23063571.420    95857014.631 7     -1549.461          46.625    23063571.680    95857012.637 7     -1549.461          46.500
G23  23589599.240   123964176.337 7       372.995          44.125    23589598.720   123964176.341 5       372.995          30.187    23589605.860    96595476.326 5       290.646          30.312    23589606.620    96595497.317 7       290.646          44.625
G26  22746028.740   119531179.193 7      -685.238          43.937    22746027.820   119531179.190 6      -685.238          41.937    22746041.400    93141228.121 6      -533.951          41.562    22746042.100    93141235.115 7      -533.951          46.062
G02  22417716.700   117805898.159 7      4387.792          45.250    22417714.620   117805898.161 5      4387.792          34.250    22417720.880    91796822.515 5      3419.059          34.312
G07  24050830.320   126387976.262 6      3602.678          41.812    24050828.320   126387976.257 4      3602.678          28.125    24050837.120    98484118.147 4      2807.282          28.062    24050836.860    98484170.145 6      2807.282          39.750
G08  21173252.020   111266192.846 7      3387.200          45.312    21173250.620   111266192.843 6      3387.200          37.500    21173258.460    86700955.548 6      2639.377          37.125    21173259.340    86700959.549 8      2639.377          49.687
> 2024 05 10 12 20 58.0000000  0 14
G27  20857108.820   109604846.863 7      1798.467          47.812    20857107.640   109604846.860 8      1798.467          49.000    20857114.460    85406396.473 8      1401.403          48.875    20857114.820    85406407.476 8      1401.403          50.125
G21  20866754.420   109655537.334 7      3691.521          47.625    20866752.240   109655537.336 6      3691.521          37.500    20866757.780    85445886.914 6      2876.510          38.187
G10  22024624.560   115740179.233 8      2252.634          48.312    22024623.840   115740179.237 7      2252.634          45.562    22024632.120    90187192.389 7      1755.299          45.875    22024632.420    90187191.394 7      1755.299          46.937
R23  20179059.900   107944368.999 7      2358.566          45.625    20179058.820   107944368.998 7      2358.566          44.312
G16  20654369.380   108539443.368 7       945.477          46.687    20654367.540   108539443.381 6       945.477          39.875    20654372.560    84576200.620 6       736.735          39.562
R07  23336872.520   124924099.586 6      4606.701          40.750    23336872.160   124924099.606 6      4606.701          39.000    23336893.420    97163281.916 7      3582.990          45.250    23336894.260    97163284.921 7      3582.990          45.937
R12  19327371.480   103243352.332 8       771.174          48.750    19327371.060   103243352.333 8       771.174          49.187    19327381.700    80300420.919 8       599.802          51.312    19327381.700    80300421.923 8       599.802          51.625
R22  21011613.520   112161415.085 7       -62.105          45.625    21011611.900   112161415.101 7       -62.105          45.687    21011620.860    87236689.225 8       -48.304          48.750    21011620.720    87236689.213 8       -48.304          48.562
R11  23063924.840   123246619.348 6     -1992.446          41.812    23063923.780   123246619.338 6     -1992.446          40.937    23063944.600    95858564.304 7     -1549.680          46.437    23063944.400    95858562.308 7     -1549.680          47.000
G23  23589528.320   123963803.500 7       372.661          44.500    23589527.780   123963803.499 5       372.661          30.187    23589534.880    96595185.800 5       290.385          30.312    23589535.600    96595206.784 7       290.385          44.687
G26  22746158.980   119531864.586 7      -685.562          44.000    22746158.260   119531864.588 6      -685.562          41.937    22746171.760    93141762.185 6      -534.204          41.375    22746172.460    93141769.179 7      -534.204          45.937
G02  22416882.000   117801510.444 7      4387.535          45.500    22416879.740   117801510.448 5      4387.535          34.250    22416886.000    91793403.520 5      3418.858          34.312
G07  24050144.880   126384373.880 7      3602.148          42.062    24050142.720   126384373.877 4      3602.148          28.125    24050151.660    98481311.096 4      2806.868          28.062    24050151.940    98481363.098 6      2806.868          39.750
G08  21172607.420   111262805.781 7      3387.076          45.750    21172606.120   111262805.781 6      3387.076          37.375    21172613.820    86698316.277 6      2639.280          37.375    21172614.700    86698320.288 8      2639.280          49.187
> 2024 05 10 12 20 59.0000000  0 14
G27  20856766.660   109603048.463 8      1798.368          48.625    20856765.480   109603048.466 8      1798.368          49.062    20856772.200    85404995.125 8      1401.326          49.187    20856772.640    85405006.128 8      1401.326          49.875
G21  20866051.880   109651846.013 8      3691.065          48.000    20866049.740   109651846.018 6      3691.065          37.375    20866055.320    85443010.564 6      2876.155          37.625
G10  22024196.020   115737926.872 8      2252.143          48.437    22024195.020   115737926.879 7      2252.143          46.187    22024203.500    90185437.305 7      1754.917          46.000    22024203.680    90185436.306 7      1754.917          47.062
R23  20178618.660   107942010.585 7      2358.312          44.812    20178617.880   107942010.590 7      2358.312          44.875
G16  20654189.460   108538498.129 7       944.972          46.312    20654187.580   108538498.139 6       944.972          40.125    20654192.600    84575464.066 6       736.342          39.562
R07  23336012.260   124919493.037 6      4606.329          40.750    23336011.640   124919493.065 6      4606.329          40.375    23336033.060    97159699.060 7      3582.701          45.000    23336033.680    97159702.064 7      3582.701          45.125
R12  19327227.160   103242581.499 8       770.453          49.187    19327226.760   103242581.503 8       770.453          49.250    19327237.520    80299821.382 8       599.241          51.250    19327237.320    80299822.384 8       599.241          51.562
R22  21011625.280   112161477.241 7       -62.108          44.687    21011623.640   112161477.255 7       -62.108          46.062    21011632.380    87236737.564 8       -48.306          48.750    21011632.360    87236737.555 8       -48.306          48.437
R11  23064297.840   123248611.871 6     -1992.526          41.812    23064296.380   123248611.853 6     -1992.526          40.500    23064317.320    95860114.042 7     -1549.742          46.750    23064317.220    95860112.046 7     -1549.742          46.437
G23  23589457.200   123963431.146 7       371.995          43.937    23589456.900   123963431.148 5       371.995          30.187    23589463.980    96594895.657 5       289.866          30.312    23589464.700    96594916.645 7       289.866          45.000
G26  22746289.720   119532550.192 7      -685.706          43.437    22746288.800   119532550.194 6      -685.706          41.812    22746302.100    93142296.409 6      -534.316          41.312    22746302.920    93142303.400 7      -534.316          46.000
G02  22416046.920   117797123.083 7      4387.140          44.562    22416044.660   117797123.088 5      4387.140          34.250    22416051.080    91789984.803 5      3418.550          34.250
G07  24049459.360   126380771.963 6      3601.762          41.687    24049457.260   126380771.966 4      3601.762          28.125    24049466.180    98478504.403 4      2806.568          28.062    24049466.800    98478556.401 6      2806.568          39.750
G08  21171962.680   111259418.793 7      3387.032          45.875    21171961.620   111259418.792 6      3387.032          37.000    21171969.280    86695677.069 6      2639.245          36.937    21171970.220    86695681.074 8      2639.245          49.687
> 2024 05 10 12 21  0.0000000  0 14
G27  20856424.440   109601250.353 8      1797.827          48.375    20856423.240   109601250.361 8      1797.827          49.187    20856430.020    85403594.002 8      1400.904          48.937    20856430.600    85403605.003 8      1400.904          50.312
G21  20865349.680   109648155.310 7      3690.323          47.562    20865347.500   109648155.315 6      3690.323          37.437    20865352.940    85440134.693 6      2875.576          37.500
G10  22023767.480   115735675.249 7      2251.181          47.250    22023766.660   115735675.252 7      2251.181          45.687    22023775.080    90183682.788 7      1754.167          45.625    22023775.240    90183681.795 7      1754.167          47.625
R23  20178177.820   107939652.691 7      2357.519          44.500    20178177.060   107939652.692 7      2357.519          44.437
G16  20654009.600   108537553.489 7       944.219          46.125    20654007.800   108537553.502 6       944.219          40.000    20654012.980    84574727.981 6       735.755          39.437
R07  23335151.500   124914887.032 6      4605.558          40.625    23335151.220   124914887.055 6      4605.558          40.375    23335172.600    97156116.605 7      3582.100          45.062    23335173.280    97156119.611 7      3582.100          45.375
R12  19327082.960   103241811.612 8       769.278          48.937    19327082.700   103241811.608 8       769.278          49.312    19327093.340    80299222.573 8       598.328          51.312    19327093.140    80299223.575 8       598.328          51.375
R22  21011636.900   112161539.587 7       -62.475          44.875    21011635.180   112161539.604 7       -62.475          46.250    21011644.160    87236786.051 8       -48.592          48.875    21011644.160    87236786.040 8       -48.592          48.750
R11  23064670.880   123250604.672 6     -1993.136          41.125    23064669.380   123250604.670 6     -1993.136          40.500    23064690.380    95861664.009 7     -1550.217          46.687    23064690.300    95861662.013 7     -1550.217          46.187
G23  23589386.600   123963059.384 7       371.289          44.937    23589386.160   123963059.386 5       371.289          30.500    23589393.160    96594605.968 5       289.316          30.312    23589393.980    96594626.958 7       289.316          44.812
G26  22746420.080   119533236.184 7      -686.230          43.750    22746419.300   119533236.187 6      -686.230          41.500    22746432.740    93142830.939 6      -534.725          41.562    22746433.340    93142837.929 7      -534.725          45.750
G02  22415212.040   117792736.198 7      4386.601          45.437    22415209.780   117792736.202 5      4386.601          34.500    22415216.380    91786566.455 5      3418.131          34.250
G07  24048773.960   126377170.693 6      3600.766          41.500    24048771.820   126377170.692 4      3600.766          27.687    24048780.900    98475698.216 4      2805.792          27.812    24048781.560    98475750.215 6      2805.792          39.812
G08  21171318.360   111256032.059 7      3386.538          46.562    21171317.080   111256032.061 6      3386.538          37.125    21171324.900    86693038.058 6      2638.861          36.875    21171325.780    86693042.063 8      2638.861          49.312
> 2024 05 10 12 21  1.0000000  0 14
G27  20856082.380   109599452.569 8      1797.741          48.687    20856081.120   109599452.574 8      1797.741          49.562    20856088.000    85402193.127 8      1400.837          49.875    20856088.600    85402204.132 8      1400.837          50.312
G21  20864647.440   109644465.290 7      3689.866          47.750    20864645.420   109644465.295 6      3689.866          37.187    20864650.760    85437259.355 6      2875.220          37.500
G10  22023339.240   115733424.360 7      2250.673          47.500    22023338.400   115733424.365 7      2250.673          45.875    22023346.740    90181928.854 7      1753.772          45.625    22023346.660    90181927.859 7      1753.772          46.750
R23  20177737.280   107937295.299 7      2357.257          46.500    20177736.220   107937295.306 7      2357.257          45.687
G16  20653829.820   108536609.509 7       943.805          46.312    20653828.180   108536609.524 6       943.805          40.187    20653833.360    84573992.414 6       735.432          39.875
R07  23334291.760   124910281.556 6      4605.355          40.625    23334290.700   124910281.566 6      4605.355          40.375    23334312.020    97152534.571 7      3581.943          44.812    23334313.020    97152537.573 7      3581.943          44.937
R12  19326938.980   103241042.726 8       768.481          50.687    19326938.560   103241042.722 8       768.481          51.062    19326949.400    80298624.548 8       597.708          51.000    19326949.260    80298625.550 8       597.708          51.562
R22  21011648.340   112161602.176 7       -62.606          47.125    21011646.880   112161602.193 7       -62.606          46.375    21011655.880    87236834.732 8       -48.693          48.687    21011655.820    87236834.724 8       -48.693          48.750
R11  23065043.820   123252597.788 6     -1993.077          41.125    23065042.100   123252597.775 6     -1993.077          40.500    23065063.480    95863214.194 7     -1550.171          46.875    23065063.160    95863212.195 7     -1550.171          47.062
G23  23589315.880   123962688.289 7       370.963          44.437    23589315.600   123962688.289 5       370.963          30.500    23589322.420    96594316.799 5       289.062          30.312    23589323.400    96594337.783 7       289.062          44.812
G26  22746550.840   119533922.610 7      -686.441          43.250    22746549.940   119533922.610 6      -686.441          41.937    22746563.380    93143365.800 6      -534.889          41.375    22746563.700    93143372.790 7      -534.889          45.500
G02  22414377.420   117788349.893 7      4386.173          45.812    22414375.040   117788349.898 5      4386.173          34.500    22414381.660    91783148.562 5      3417.797          34.312
G07  24048089.000   126373570.053 6      3600.497          41.375    24048086.720   126373570.052 4      3600.497          27.687    24048095.660    98472892.523 4      2805.582          27.812    24048096.660    98472944.525 6      2805.582          39.812
G08  21170673.860   111252645.601 7      3386.486          46.312    21170672.780   111252645.601 6      3386.486          37.375    21170680.500    86690399.255 6      2638.820          37.125    21170681.440    86690403.260 8      2638.820          49.500
> 2024 05 10 12 21  2.0000000  0 14
G27  20855740.120   109597654.816 8      1797.519          49.375    20855739.060   109597654.815 8      1797.519          50.312    20855745.860    85400792.277 8      1400.664          49.687    20855746.240    85400803.280 8      1400.664          50.125
G21  20863945.460   109640775.656 7      3689.259          47.812    20863943.300   109640775.658 6      3689.259          37.500    20863948.800    85434384.316 6      2874.747          37.812
G10  22022910.940   115731173.957 7      2249.949          47.062    22022910.160   115731173.964 7      2249.949          46.437    22022918.500    90180175.295 7      1753.207          46.187    22022918.880    90180174.296 7      1753.207          47.000
R23  20177296.620   107934938.148 7      2356.861          47.000    20177295.560   107934938.152 7      2356.861          46.187
G16  20653650.320   108535665.909 7       943.214          47.000    20653648.620   108535665.925 6       943.214          40.625    20653653.800    84573257.139 6       734.972          40.250
R07  23333431.860   124905676.311 7      4605.016          42.562    23333430.460   124905676.315 6      4605.016          41.187    23333451.880    97148952.722 7      3581.679          44.500    23333452.700    97148955.724 7      3581.679          45.437
R12  19326794.860   103240274.580 8       767.544          51.125    19326794.780   103240274.579 8       767.544          50.625    19326805.660    80298027.098 8       596.979          51.375    19326805.640    80298028.100 8       596.979          52.000
R22  21011659.780   112161664.695 7       -62.692          46.875    21011658.640   112161664.707 7       -62.692          47.000    21011667.620    87236883.354 8       -48.761          48.687    21011667.800    87236883.346 8       -48.761          48.625
R11  23065416.600   123254590.930 6     -1993.444          41.125    23065415.080   123254590.942 6     -1993.444          40.375    23065436.420    95864764.428 7     -1550.457          46.750    23065436.020    95864762.428 7     -1550.457          46.500
G23  23589245.280   123962317.588 7       370.309          45.187    23589245.120   123962317.593 5       370.309          30.500    23589251.880    96594027.941 5       288.552          30.312    23589252.820    96594048.933 7       288.552          45.125
G26  22746681.520   119534609.186 7      -686.948          44.312    22746680.660   119534609.186 6      -686.948          41.562    22746693.940    93143900.783 6      -535.284          41.187    22746694.260    93143907.778 7      -535.284          45.750
G02  22413542.920   117783963.809 7      4385.733          45.375    22413540.440   117783963.822 5      4385.733          34.250    22413546.980    91779730.842 5      3417.454          34.187
G07  24047403.640   126369969.828 6      3599.874          41.562    24047401.520   126369969.825 4      3599.874          27.687    24047410.460    98470087.149 4      2805.096          27.812    24047411.060    98470139.149 6      2805.096          39.812
G08  21170029.460   111249259.143 7      3386.283          47.250    21170028.280   111249259.143 6      3386.283          37.375    21170036.100    86687760.457 6      2638.662          37.562    21170036.800    86687764.462 8      2638.662          49.625
> 2024 05 10 12 21  3.0000000  0 14
G27  20855398.060   109595857.473 8      1797.359          48.687    20855396.880   109595857.478 8      1797.359          49.812    20855403.840    85399391.750 8      1400.539          49.062    20855404.300    85399402.753 8      1400.539          49.812
G21  20863243.540   109637086.776 7      3688.693          47.750    20863241.280   109637086.778 6      3688.693          37.562    20863246.900    85431509.864 6      2874.306          37.750
G10  22022482.820   115728924.397 8      2249.381          48.000    22022482.120   115728924.399 7      2249.381          46.062    22022490.380    90178422.385 7      1752.765          45.687    22022490.780    90178421.390 7      1752.765          47.062
R23  20176855.820   107932581.618 7      2356.397          46.687    20176855.240   107932581.622 7      2356.397          46.312
G16  20653471.040   108534723.059 7       942.652          46.812    20653469.300   108534723.071 6       942.652          39.937    20653474.420    84572522.444 6       734.534          39.500
R07  23332571.400   124901071.703 7      4604.488          42.562    23332569.940   124901071.715 6      4604.488          41.187    23332591.340    97145371.376 7      3581.269          44.375    23332592.200    97145374.380 7      3581.269          45.062
R12  19326651.320   103239507.524 8       766.693          49.875    19326651.140   103239507.528 8       766.693          50.937    19326662.080    80297430.500 8       596.316          51.000    19326661.860    80297431.505 8       596.316          50.812
R22  21011671.960   112161727.532 7       -62.871          46.812    21011670.380   112161727.555 7       -62.871          46.875    21011679.340    87236932.223 8       -48.900          48.437    21011679.380    87236932.215 8       -48.900          49.250
R11  23065789.680   123256584.501 6     -1993.656          41.125    23065787.900   123256584.497 6     -1993.656          40.375    23065809.420    95866314.966 7     -1550.621          47.000    23065809.340    95866312.964 7     -1550.621          46.625
G23  23589174.920   123961947.639 7       369.818          44.375    23589174.720   123961947.641 5       369.818          30.500    23589181.380    96593739.665 5       288.170          30.562    23589182.400    96593760.657 7       288.170          44.687
G26  22746812.300   119535296.242 7      -687.126          44.062    22746811.400   119535296.245 6      -687.126          41.500    22746824.580    93144436.140 6      -535.423          40.875    22746824.980    93144443.130 7      -535.423          45.312
G02  22412708.540   117779578.385 7      4385.378          44.062    22412705.800   117779578.392 5      4385.378          34.500    22412712.480    91776313.630 5      3417.178          34.187
G07  24046718.840   126366370.342 6      3599.405          41.562    24046716.400   126366370.341 4      3599.405          27.687    24046725.440    98467282.352 4      2804.731          27.812    24046726.180    98467334.354 6      2804.731          39.750
G08  21169385.200   111245873.072 7      3386.053          46.687    21169384.020   111245873.069 6      3386.053          37.375    21169391.740    86685121.958 6      2638.483          37.000    21169392.560    86685125.958 8      2638.483          49.125
> 2024 05 10 12 21  4.0000000  0 14
G27  20855056.140   109594060.274 8      1797.120          48.750    20855054.900   109594060.274 8      1797.120          49.562    20855061.860    85397991.333 8      1400.354          49.500    20855062.060    85398002.334 8      1400.354          50.312
G21  20862541.840   109633398.374 7      3688.167          47.062    20862539.520   109633398.379 6      3688.167          37.875    20862545.000    85428635.784 6      2873.896          37.812
G10  22022054.880   115726675.405 7      2248.690          47.375    22022054.040   115726675.407 7      2248.690          45.812    22022062.380    90176669.924 7      1752.226          45.500    22022062.560    90176668.923 7      1752.226          47.312
R23  20176415.720   107930225.406 7      2356.031          44.312    20176414.940   107930225.410 7      2356.031          44.000
G16  20653291.680   108533780.665 7       942.111          46.375    20653289.960   108533780.678 6       942.111          39.812    20653295.000    84571788.108 6       734.113          39.437
R07  23331710.680   124896467.437 7      4604.099          42.375    23331710.300   124896467.444 6      4604.099          41.187    23331731.280    97141790.281 7      3580.966          44.250    23331732.040    97141793.281 7      3580.966          44.625
R12  19326507.980   103238741.254 8       765.801          49.500    19326507.580   103238741.255 8       765.801          49.937    19326518.560    80296834.506 8       595.623          50.812    19326518.360    80296835.508 8       595.623          51.562
R22  21011683.920   112161790.407 7       -62.881          45.312    21011681.920   112161790.418 7       -62.881          46.062    21011691.040    87236981.115 8       -48.907          49.187    21011691.280    87236981.107 8       -48.907          49.187
R11  23066162.380   123258578.213 6     -1993.839          41.125    23066160.760   123258578.203 6     -1993.839          40.375    23066182.580    95867865.611 7     -1550.764          46.687    23066182.300    95867863.608 7     -1550.764          46.625
G23  23589104.580   123961578.166 7       369.175          45.000    23589104.140   123961578.170 5       369.175          30.500    23589111.100    96593451.763 5       287.669          30.562    23589112.180    96593472.749 7       287.669          44.750
G26  22746943.020   119535983.556 7      -687.482          42.750    22746942.160   119535983.559 6      -687.482          41.625    22746955.520    93144971.693 6      -535.701          41.375    22746955.880    93144978.681 7      -535.701          45.312
G02  22411873.960   117775193.307 7      4384.947          44.625    22411871.400   117775193.318 5      4384.947          34.500    22411878.100    91772896.691 5      3416.842          34.187
G07  24046033.720   126362771.360 6      3598.763          41.375    24046031.540   126362771.359 4      3598.763          27.687    24046040.560    98464477.948 4      2804.231          27.812    24046041.260    98464529.937 6      2804.231          39.750
G08  21168741.000   111242487.061 7      3385.946          46.500    21168739.780   111242487.055 6      3385.946          37.312    21168747.280    86682483.507 6      2638.400          37.125    21168747.960    86682487.514 8      2638.400          49.437
> 2024 05 10 12 21  5.0000000  0 14
G27  20854714.020   109592262.994 8      1797.418          48.562    20854712.940   109592262.994 8      1797.418          49.125    20854719.900    85396590.851 8      1400.585          49.187    20854719.900    85396601.852 8      1400.585          50.062
G21  20861839.660   109629710.238 7      3688.112          47.500    20861837.700   109629710.240 6      3688.112          37.125    20861843.260    85425761.912 6      2873.854          37.625
G10  22021627.180   115724426.749 7      2248.614          47.500    22021626.180   115724426.754 7      2248.614          45.500    22021634.580    90174917.726 7      1752.167          45.812    22021634.760    90174916.734 7      1752.167          47.312
R23  20175975.400   107927869.317 7      2356.210          44.312    20175974.360   107927869.323 7      2356.210          44.437
G16  20653112.460   108532838.519 7       942.126          46.750    20653110.680   108532838.529 6       942.126          39.375    20653115.820    84571053.964 6       734.124          39.312
R07  23330851.160   124891863.327 7      4604.182          42.375    23330850.940   124891863.342 6      4604.182          41.312    23330870.900    97138209.314 7      3581.030          44.250    23330871.840    97138212.314 7      3581.030          45.187
R12  19326364.500   103237975.517 8       765.650          49.937    19326364.320   103237975.518 8       765.650          48.875    19326375.240    80296238.929 8       595.506          51.125    19326375.140    80296239.933 8       595.506          51.937
R22  21011695.580   112161853.105 7       -62.500          46.000    21011693.560   112161853.122 7       -62.500          45.687    21011702.880    87237029.878 8       -48.611          48.250    21011702.840    87237029.869 8       -48.611          49.125
R11  23066534.740   123260571.791 6     -1993.329          40.437    23066534.160   123260571.779 6     -1993.329          39.750    23066555.620    95869416.165 7     -1550.367          46.812    23066555.380    95869414.165 7     -1550.367          47.062
G23  23589034.320   123961208.941 7       369.221          44.062    23589033.880   123961208.946 5       369.221          30.500    23589041.040    96593164.048 5       287.705          30.562    23589041.900    96593185.034 7       287.705          44.875
G26  22747073.660   119536670.883 7      -687.166          44.062    22747073.000   119536670.880 6      -687.166          41.187    22747086.360    93145507.258 6      -535.454          41.000    22747087.060    93145514.248 7      -535.454          45.500
G02  22411039.500   117770808.369 7      4385.037          44.500    22411037.020   117770808.377 5      4385.037          34.187    22411043.600    91769479.862 5      3416.912          34.187
G07  24045349.020   126359172.638 6      3598.636          41.125    24045346.560   126359172.635 4      3598.636          28.000    24045355.820    98461673.747 4      2804.132          28.125    24045356.440    98461725.744 6      2804.132          39.937
G08  21168096.560   111239100.950 7      3386.333          45.937    21168095.440   111239100.944 6      3386.333          37.437    21168103.040    86679844.979 6      2638.701          37.250    21168103.820    86679848.980 8      2638.701          49.437
> 2024 05 10 12 21  6.0000000  0 14
G27  20854372.160   109590465.877 8      1796.847          48.250    20854370.980   109590465.877 8      1796.847          48.687    20854377.940    85395190.500 8      1400.140          49.187    20854378.120    85395201.503 8      1400.140          50.125
G21  20861138.380   109626022.609 7      3687.205          46.625    20861135.860   109626022.611 6      3687.205          37.750    20861141.440    85422888.441 6      2873.147          37.625
G10  22021199.200   115722178.708 7      2247.594          47.625    22021198.320   115722178.712 7      2247.594          45.937    22021206.800    90173166.010 7      1751.372          45.812    22021207.020    90173165.015 7      1751.372          46.937
R23  20175534.820   107925513.623 7      2355.331          45.187    20175534.340   107925513.630 7      2355.331          44.562
G16  20652933.120   108531896.869 7       941.301          46.312    20652931.620   108531896.879 6       941.301          39.562    20652936.540    84570320.206 6       733.481          39.437
R07  23329991.220   124887259.618 7      4603.357          42.437    23329990.860   124887259.633 6      4603.357          41.312    23330011.180    97134628.664 7      3580.389          45.312    23330011.820    97134631.666 7      3580.389          45.500
R12  19326221.420   103237210.667 8       764.279          48.625    19326220.980   103237210.671 8       764.279          49.375    19326232.080    80295644.048 8       594.439          51.312    19326231.980    80295645.050 8       594.439          51.500
R22  21011707.280   112161915.878 7       -62.969          45.000    21011705.240   112161915.898 7       -62.969          45.875    21011714.660    87237078.706 8       -48.976          48.937    21011714.900    87237078.698 8       -48.976          48.750
R11  23066908.060   123262565.559 6     -1994.099          40.437    23066907.700   123262565.555 6     -1994.099          39.750    23066928.700    95870966.882 7     -1550.966          47.062    23066928.680    95870964.883 7     -1550.966          46.562
G23  23588963.920   123960840.235 7       368.335          43.187    23588963.640   123960840.240 5       368.335          30.437    23588970.960    96592876.746 5       287.015          30.562    23588972.000    96592897.730 7       287.015          44.687
G26  22747204.580   119537358.479 7      -687.879          43.250    22747204.020   119537358.478 6      -687.879          41.562    22747217.240    93146043.034 6      -536.010          41.250    22747217.820    93146050.024 7      -536.010          45.687
G02  22410205.100   117766423.815 7      4384.296          44.812    22410202.720   117766423.822 5      4384.296          34.187    22410209.280    91766063.330 5      3416.335          34.250
G07  24044664.460   126355574.418 6      3597.791          41.750    24044661.820   126355574.417 4      3597.791          28.000    24044671.320    98458869.936 4      2803.473          28.125    24044671.040    98458921.930 6      2803.473          39.937
G08  21167452.140   111235714.960 7      3385.779          46.562    21167450.900   111235714.957 6      3385.779          37.187    21167458.600    86677206.547 6      2638.269          36.812    21167459.580    86677210.552 8      2638.269          49.625
> 2024 05 10 12 21  7.0000000  0 14
G27  20854030.220   109588668.879 8      1796.870          48.250    20854028.920   109588668.881 8      1796.870          49.062    20854036.020    85393790.239 8      1400.158          49.125    20854036.240    85393801.242 8      1400.158          50.187
G21  20860436.580   109622335.439 7      3686.994          47.375    20860434.260   109622335.442 6      3686.994          37.500    20860439.660    85420015.322 6      2872.983          37.875
G10  22020771.440   115719931.218 7      2247.258          47.250    22020770.580   115719931.215 7      2247.258          45.250    22020779.200    90171414.714 7      1751.110          45.562    22020779.240    90171413.717 7      1751.110          47.375
R23  20175094.500   107923158.248 7      2355.151          45.250    20175094.100   107923158.255 7      2355.151          44.500
G16  20652753.920   108530955.690 7       940.978          46.375    20652752.480   108530955.700 6       940.978          39.375    20652757.400    84569586.820 6       733.229          39.187
R07  23329131.240   124882656.292 7      4603.167          42.437    23329131.220   124882656.301 6      4603.167          40.937    23329151.760    97131048.295 7      3580.241          44.937    23329151.840    97131051.298 7      3580.241          45.812
R12  19326078.720   103236446.613 8       763.627          48.750    19326078.000   103236446.614 8       763.627          49.062    19326089.040    80295049.775 8       593.932          51.125    19326088.800    80295050.779 8       593.932          51.437
R22  21011719.320   112161978.686 7       -62.870          45.062    21011717.360   112161978.703 7       -62.870          45.875    21011726.380    87237127.548 8       -48.899          48.750    21011726.400    87237127.540 8       -48.899          48.937
R11  23067280.700   123264559.399 6     -1993.861          40.437    23067280.680   123264559.398 6     -1993.861          39.750    23067301.760    95872517.644 7     -1550.781          46.500    23067301.840    95872515.646 7     -1550.781          46.437
G23  23588894.000   123960471.999 7       367.960          43.937    23588893.700   123960472.006 5       367.960          30.437    23588900.740    96592589.807 5       286.722          30.312    23588901.420    96592610.795 7       286.722          45.000
G26  22747335.580   119538046.313 7      -687.965          43.812    22747334.800   119538046.310 6      -687.965          41.187    22747348.000    93146578.994 6      -536.077          40.812    22747348.800    93146585.987 7      -536.077          45.500
G02  22409370.580   117762039.636 7      4383.961          44.687    22409368.480   117762039.643 5      4383.961          34.375    22409375.060    91762647.091 5      3416.074          34.250
G07  24043979.960   126351976.668 6      3597.578          41.687    24043977.220   126351976.670 4      3597.578          28.000    24043986.740    98456066.490 4      2803.308          28.125    24043986.560    98456118.489 6      2803.308          39.937
G08  21166808.020   111232329.046 7      3385.979          46.125    21166806.620   111232329.045 6      3385.979          36.875    21166814.340    86674568.173 6      2638.425          36.812    21166815.220    86674572.178 8      2638.425          49.625
> 2024 05 10 12 21  8.0000000  0 14
G27  20853688.100   109586871.953 7      1796.970          47.875    20853687.040   109586871.953 8      1796.970          48.625    20853694.080    85392390.036 8      1400.237          48.750    20853694.380    85392401.039 8      1400.237          49.812
G21  20859734.980   109618648.690 7      3686.660          47.375    20859732.760   109618648.695 6      3686.660          37.562    20859738.180    85417142.533 6      2872.722          37.937
G10  22020343.860   115717684.228 7      2246.849          47.000    22020343.060   115717684.230 7      2246.849          45.375    22020351.500    90169663.814 7      1750.791          45.875    22020351.840    90169662.815 7      1750.791          47.250
R23  20174654.360   107920803.141 7      2355.047          45.250    20174653.480   107920803.148 7      2355.047          44.375
G16  20652575.220   108530014.904 7       940.687          46.437    20652573.520   108530014.917 6       940.687          39.812    20652578.420    84568853.738 6       733.003          39.250
R07  23328271.640   124878053.209 7      4603.084          42.437    23328270.260   124878053.219 6      4603.084          40.937    23328291.900    97127468.141 7      3580.176          45.500    23328292.180    97127471.141 7      3580.176          46.062
R12  19325935.620   103235683.286 8       763.047          49.500    19325935.120   103235683.290 8       763.047          49.062    19325946.080    80294456.076 8       593.481          50.937    19325945.880    80294457.082 8       593.481          51.687
R22  21011731.000   112162041.459 7       -62.646          46.000    21011728.940   112162041.476 7       -62.646          45.562    21011738.180    87237176.369 8       -48.724          49.000    21011738.280    87237176.360 8       -48.724          49.187
R11  23067653.960   123266553.311 6     -1993.788          39.937    23067653.840   123266553.315 6     -1993.788          38.750    23067674.840    95874068.467 7     -1550.724          46.875    23067674.820    95874066.465 7     -1550.724          46.437
G23  23588824.080   123960104.144 7       367.798          43.812    23588823.740   123960104.151 5       367.798          30.437    23588830.840    96592303.165 5       286.596          30.312    23588831.560    96592324.161 7       286.596          45.000
G26  22747466.600   119538734.292 7      -687.982          43.562    22747465.660   119538734.291 6      -687.982          41.312    22747478.920    93147115.069 6      -536.090          41.062    22747480.000    93147122.064 7      -536.090          45.625
G02  22408536.300   117757655.712 7      4383.886          44.812    22408534.280   117757655.717 5      4383.886          34.375    22408540.760    91759231.048 5      3416.015          34.375
G07  24043295.080   126348379.339 6      3597.229          41.562    24043292.700   126348379.338 4      3597.229          28.000    24043302.200    98453263.374 4      2803.036          28.125    24043302.120    98453315.379 6      2803.036          40.000
G08  21166163.680   111228943.187 7      3385.951          46.250    21166162.480   111228943.186 6      3385.951          37.250    21166169.840    86671929.839 6      2638.403          36.937    21166171.140    86671933.846 8      2638.403          49.500
> 2024 05 10 12 21  9.0000000  0 14
G27  20853346.280   109585075.039 8      1796.727          48.562    20853345.060   109585075.041 8      1796.727          49.250    20853352.140    85390989.841 8      1400.047          49.187    20853352.620    85391000.842 8      1400.047          50.500
G21  20859033.420   109614962.309 7      3686.075          47.750    20859031.300   109614962.312 6      3686.075          37.750    20859036.620    85414270.030 6      2872.266          37.875
G10  22019916.440   115715437.677 7      2246.218          47.062    22019915.540   115715437.676 7      2246.218          45.625    22019924.120    90167913.255 7      1750.299          45.812    22019924.240    90167912.260 7      1750.299          47.437
R23  20174214.020   107918448.258 7      2354.532          45.125    20174213.420   107918448.265 7      2354.532          44.000
G16  20652396.180   108529074.476 7       940.045          46.125    20652394.460   108529074.484 6       940.045          40.000    20652399.460    84568120.931 6       732.503          39.562
R07  23327411.100   124873450.335 6      4602.710          41.750    23327411.000   124873450.353 6      4602.710          40.937    23327432.160    97123888.155 7      3579.886          45.875    23327432.320    97123891.157 7      3579.886          45.750
R12  19325792.800   103234920.626 8       762.127          48.937    19325792.260   103234920.630 8       762.127          49.312    19325803.440    80293862.890 8       592.765          51.250    19325802.980    80293863.896 8       592.765          52.000
R22  21011742.700   112162104.138 7       -62.805          45.000    21011740.660   112162104.166 7       -62.805          46.125    21011749.980    87237225.120 8       -48.848          48.875    21011750.100    87237225.113 8       -48.848          48.875
R11  23068026.880   123268547.248 6     -1994.101          39.937    23068026.840   123268547.252 6     -1994.101          38.750    23068047.900    95875619.298 7     -1550.967          46.500    23068048.080    95875617.298 7     -1550.967          46.750
G23  23588754.080   123959736.680 7       367.176          44.062    23588753.560   123959736.688 5       367.176          30.437    23588761.080    96592016.827 5       286.111          30.312    23588761.660    96592037.809 7       286.111          45.250
G26  22747597.560   119539422.404 7      -688.377          43.312    22747596.660   119539422.409 6      -688.377          41.562    22747609.880    93147651.253 6      -536.398          41.375    22747610.700    93147658.243 7      -536.398          45.625
G02  22407702.300   117753272.043 7      4383.346          45.562    22407700.100   117753272.047 5      4383.346          34.375    22407706.540    91755815.204 5      3415.594          34.187
G07  24042610.580   126344782.356 7      3596.743          42.187    24042608.200   126344782.356 4      3596.743          28.000    24042617.560    98450460.533 4      2802.657          28.125    24042617.640    98450512.521 6      2802.657          40.000
G08  21165519.540   111225557.286 7      3385.743          46.750    21165518.080   111225557.286 6      3385.743          37.000    21165525.660    86669291.477 6      2638.241          36.750    21165526.900    86669295.480 8      2638.241          49.562
> 2024 05 10 12 21 10.0000000  0 14
G27  20853004.360   109583278.337 8      1796.849          48.812    20853003.120   109583278.331 8      1796.849          49.125    20853010.220    85389589.809 8      1400.142          49.125    20853010.600    85389600.808 8      1400.142          50.375
G21  20858331.980   109611276.475 7      3685.689          47.375    20858329.820   109611276.477 6      3685.689          38.000    20858335.320    85411397.953 6      2871.966          38.312
G10  22019488.900   115713191.772 7      2245.849          46.937    22019488.020   115713191.774 7      2245.849          45.375    22019496.680    90166163.201 7      1750.012          45.500    22019496.720    90166162.204 7      1750.012          47.250
R23  20173774.240   107916093.755 7      2354.485          44.625    20173773.720   107916093.756 7      2354.485          44.500
G16  20652217.200   108528134.571 7       939.792          45.875    20652215.740   108528134.576 6       939.792          39.812    20652220.600    84567388.533 6       732.305          39.562
R07  23326551.380   124868847.941 6      4602.358          41.750    23326551.300   124868847.964 6      4602.358          40.500    23326572.500    97120308.548 7      3579.612          46.000    23326572.620    97120311.550 7      3579.612          46.187
R12  19325650.180   103234158.813 8       761.528          49.125    19325649.760   103234158.814 8       761.528          49.312    19325660.660    80293270.367 8       592.300          50.875    19325660.440    80293271.371 8       592.300          51.062
R22  21011754.320   112162166.943 7       -62.627          45.562    21011752.500   112162166.960 7       -62.627          46.312    21011761.660    87237273.958 8       -48.710          48.750    21011761.700    87237273.955 8       -48.710          48.875
R11  23068400.080   123270541.393 6     -1994.105          39.937    23068399.800   123270541.378 6     -1994.105          38.750    23068421.300    95877170.277 7     -1550.970          46.437    23068421.400    95877168.278 7     -1550.970          46.687
G23  23588684.520   123959369.745 7       366.838          43.312    23588683.680   123959369.752 5       366.838          30.062    23588691.320    96591730.899 5       285.848          30.312    23588692.040    96591751.886 7       285.848          45.375
G26  22747728.560   119540110.814 7      -688.421          43.562    22747727.600   119540110.827 6      -688.421          41.437    22747741.000    93148187.668 6      -536.432          41.250    22747741.660    93148194.664 7      -536.432          45.437
G02  22406868.400   117748888.770 7      4383.255          45.250    22406865.860   117748888.772 5      4383.255          34.125    22406872.480    91752399.672 5      3415.523          34.187
G07  24041926.320   126341185.949 6      3596.323          40.750    24041923.600   126341185.952 4      3596.323          27.375    24041933.060    98447658.142 4      2802.329          28.125    24041933.420    98447710.132 6      2802.329          39.750
G08  21164875.120   111222171.553 7      3385.865          46.125    21164873.820   111222171.550 6      3385.865          37.312    21164881.460    86666653.242 6      2638.336          36.812    21164882.800    86666657.247 8      2638.336          49.812
> 2024 05 10 12 21 11.0000000  0 14
G27  20852662.320   109581481.782 8      1796.445          48.875    20852661.140   109581481.782 8      1796.445          49.250    20852668.420    85388189.898 8      1399.827          49.500    20852668.720    85388200.899 8      1399.827          50.437
G21  20857630.520   109607591.124 7      3685.052          47.375    20857628.620   109607591.129 6      3685.052          37.812    20857633.860    85408526.253 6      2871.469          38.062
G10  22019061.760   115710946.466 7      2244.888          47.750    22019060.840   115710946.474 7      2244.888          45.687    22019069.460    90164413.614 7      1749.264          45.437    22019069.400    90164412.621 7      1749.264          47.437
R23  20173333.800   107913739.616 7      2353.835          45.437    20173333.620   107913739.628 7      2353.835          44.812
G16  20652038.120   108527195.149 7       939.066          46.375    20652036.860   108527195.162 6       939.066          40.125    20652041.720    84566656.517 6       731.740          39.937
R07  23325691.400   124864245.926 6      4601.767          41.375    23325691.900   124864245.941 6      4601.767          40.500    23325712.660    97116729.209 7      3579.152          46.000    23325713.000    97116732.214 7      3579.152          45.937
R12  19325507.600   103233397.815 8       760.501          49.250    19325507.400   103233397.818 8       760.501          49.250    19325517.980    80292678.477 8       591.500          51.437    19325518.300    80292679.481 8       591.500          51.500
R22  21011765.760   112162229.794 7       -62.833          45.625    21011764.040   112162229.808 7       -62.833          45.187    21011773.480    87237322.833 8       -48.870          48.750    21011773.740    87237322.830 8       -48.870          48.625
R11  23068773.320   123272535.623 6     -1994.303          39.562    23068773.040   123272535.619 6     -1994.303          38.812    23068794.460    95878721.343 7     -1551.125          46.187    23068794.360    95878719.344 7     -1551.125          46.562
G23  23588614.660   123959003.309 7       366.127          43.500    23588613.940   123959003.316 5       366.127          30.062    23588621.640    96591445.363 5       285.294          30.062    23588622.400    96591466.355 7       285.294          45.125
G26  22747859.720   119540799.486 7      -688.793          43.312    22747858.660   119540799.483 6      -688.793          41.187    22747872.040    93148724.271 6      -536.722          40.687    22747872.420    93148731.265 7      -536.722          45.750
G02  22406034.280   117744505.874 7      4382.767          43.875    22406032.060   117744505.876 5      4382.767          34.125    22406038.380    91748984.431 5      3415.143          34.062
G07  24041242.240   126337590.018 7      3595.680          42.625    24041239.440   126337590.023 4      3595.680          27.375    24041248.800    98444856.115 4      2801.828          27.562    24041249.500    98444908.110 6      2801.828          39.750
G08  21164230.580   111218785.928 7      3385.491          46.562    21164229.700   111218785.928 6      3385.491          37.250    21164237.220    86664015.099 6      2638.045          37.625    21164238.200    86664019.108 8      2638.045          49.750
> 2024 05 10 12 21 12.0000000  0 14
G27  20852320.560   109579685.608 8      1796.035          48.562    20852319.320   109579685.611 8      1796.035          49.312    20852326.600    85386790.280 8      1399.508          49.125    20852326.760    85386801.281 8      1399.508          50.250
G21  20856929.520   109603906.506 7      3684.321          47.562    20856927.440   109603906.508 6      3684.321          37.812    20856932.680    85405655.122 6      2870.899          37.875
G10  22018634.620   115708701.977 7      2244.023          47.125    22018633.620   115708701.985 7      2244.023          45.875    22018642.320    90162664.662 7      1748.589          46.000    22018642.560    90162663.669 7      1748.589          47.250
R23  20172893.700   107911386.060 7      2353.304          45.312    20172893.640   107911386.066 7      2353.304          44.437
G16  20651859.600   108526256.453 7       938.377          46.500    20651858.360   108526256.463 6       938.377          39.937    20651863.120    84565925.059 6       731.203          39.500
R07  23324831.580   124859644.514 6      4601.194          41.375    23324832.140   124859644.531 6      4601.194          40.750    23324852.980    97113150.341 7      3578.707          45.500    23324853.500    97113153.346 7      3578.707          46.000
R12  19325365.580   103232637.882 8       759.432          48.687    19325365.120   103232637.886 8       759.432          49.312    19325375.900    80292087.416 8       590.669          51.062    19325375.780    80292088.420 8       590.669          51.125
R22  21011777.540   112162292.954 7       -63.173          45.000    21011776.020   112162292.963 7       -63.173          45.562    21011785.240    87237371.956 8       -49.135          48.562    21011785.340    87237371.948 8       -49.135          48.937
R11  23069146.140   123274530.230 6     -1994.785          39.562    23069146.420   123274530.247 6     -1994.785          38.812    23069167.700    95880272.712 7     -1551.500          46.625    23069167.680    95880270.711 7     -1551.500          46.687
G23  23588545.040   123958637.574 7       365.475          43.125    23588544.360   123958637.581 5       365.475          30.062    23588552.140    96591160.377 5       284.786          30.062    23588552.920    96591181.363 7       284.786          44.937
G26  22747990.740   119541488.637 7      -689.323          43.125    22747989.800   119541488.634 6      -689.323          41.375    22748003.220    93149261.259 6      -537.135          41.000    22748003.580    93149268.254 7      -537.135          45.687
G02  22405200.260   117740123.602 7      4382.056          44.437    22405197.980   117740123.610 5      4382.056          34.312    22405204.540    91745569.683 5      3414.589          34.062
G07  24040557.720   126333994.862 7      3594.724          42.187    24040555.360   126333994.869 4      3594.724          27.375    24040564.680    98442054.695 4      2801.083          27.562    24040565.360    98442106.675 6      2801.083          39.750
G08  21163586.540   111215400.645 7      3385.231          47.062    21163585.560   111215400.645 6      3385.231          37.500    21163593.040    86661377.218 6      2637.842          37.375    21163593.860    86661381.221 8      2637.842          49.250
> 2024 05 10 12 21 13.0000000  0 14
G27  20851978.840   109577889.584 8      1795.903          48.875    20851977.580   109577889.581 8      1795.903          49.125    20851984.880    85385390.779 8      1399.405          49.500    20851985.180    85385401.776 8      1399.405          50.687
G21  20856228.500   109600222.384 8      3683.800          48.375    20856226.260   109600222.384 6      3683.800          37.750    20856231.620    85402784.376 6      2870.493          38.062
G10  22018207.580   115706458.043 7      2243.598          46.937    22018206.660   115706458.043 7      2243.598          45.875    22018215.340    90160916.138 7      1748.258          45.937    22018215.680    90160915.143 7      1748.258          47.062
R23  20172454.100   107909032.848 7      2353.042          45.062    20172453.840   107909032.858 7      2353.042          44.500
G16  20651681.200   108525318.232 7       937.915          47.000    20651679.600   108525318.242 6       937.915          39.750    20651684.720    84565193.977 6       730.843          39.687
R07  23323972.560   124855043.454 6      4600.931          41.375    23323972.640   124855043.477 6      4600.931          40.750    23323993.580    97109571.757 7      3578.502          45.187    23323994.180    97109574.763 7      3578.502          46.000
R12  19325223.260   103231878.766 8       758.673          49.125    19325223.020   103231878.765 8       758.673          49.437    19325233.660    80291496.985 8       590.079          50.812    19325233.800    80291497.991 8       590.079          51.750
R22  21011789.220   112162356.154 7       -63.221          44.250    21011787.780   112162356.165 7       -63.221          45.625    21011797.180    87237421.111 8       -49.172          48.812    21011797.040    87237421.106 8       -49.172          48.625
R11  23069519.720   123276524.936 6     -1994.696          39.687    23069519.860   123276524.945 6     -1994.696          38.812    23069540.780    95881824.146 7     -1551.430          46.000    23069541.020    95881822.143 7     -1551.430          46.000
G23  23588475.640   123958272.346 7       364.953          43.375    23588474.800   123958272.356 5       364.953          30.125    23588482.700    96590875.782 5       284.379          30.062    23588483.300    96590896.774 7       284.379          45.312
G26  22748122.080   119542178.029 7      -689.531          43.375    22748120.960   119542178.026 6      -689.531          40.812    22748134.400    93149798.436 6      -537.297          40.625    22748135.380    93149805.432 7      -537.297          45.500
G02  22404366.400   117735741.675 7      4381.776          44.750    22404364.220   117735741.683 5      4381.776          34.312    22404370.740    91742155.196 5      3414.371          34.437
G07  24039873.920   126330400.149 6      3594.441          41.375    24039871.340   126330400.152 4      3594.441          27.375    24039880.700    98439253.614 4      2800.863          27.562    24039881.840    98439305.602 6      2800.863          39.687
G08  21162942.640   111212015.493 7      3385.009          46.687    21162941.360   111212015.488 6      3385.009          37.250    21162948.900    86658739.433 6      2637.669          36.937    21162949.480    86658743.440 8      2637.669          49.562
> 2024 05 10 12 21 14.0000000  0 14
G27  20851637.180   109576093.857 7      1795.540          47.812    20851635.840   109576093.857 8      1795.540          49.750    20851643.120    85383991.511 8      1399.122          49.250    20851643.340    85384002.510 8      1399.122          50.937
G21  20855527.500   109596538.870 7      3683.216          47.250    20855525.380   109596538.869 6      3683.216          37.500    20855530.720    85399914.113 6      2870.038          37.937
G10  22017780.960   115704214.847 7      2242.747          47.250    22017779.760   115704214.855 7      2242.747          45.750    22017788.400    90159168.199 7      1747.595          45.750    22017788.600    90159167.204 7      1747.595          47.312
R23  20172014.200   107906680.164 7      2352.356          45.062    20172014.120   107906680.182 7      2352.356          44.687
G16  20651502.860   108524380.639 7       937.260          46.750    20651501.220   108524380.644 6       937.260          39.875    20651506.360    84564463.383 6       730.332          39.312
R07  23323113.080   124850442.931 6      4600.281          41.375    23323113.180   124850442.956 6      4600.281          40.750    23323134.300    97105993.588 7      3577.997          45.312    23323134.640    97105996.592 7      3577.997          45.625
R12  19325081.640   103231120.594 8       757.660          49.500    19325081.240   103231120.595 8       757.660          49.687    19325091.660    80290907.293 8       589.291          51.000    19325091.660    80290908.295 8       589.291          51.375
R22  21011801.460   112162419.581 7       -63.619          45.062    21011799.580   112162419.595 7       -63.619          45.937    21011808.940    87237470.441 8       -49.482          48.812    21011809.060    87237470.434 8       -49.482          49.000
R11  23069893.740   123278519.983 6     -1995.336          39.687    23069892.940   123278519.995 6     -1995.336          39.125    23069914.100    95883375.845 7     -1551.928          46.062    23069914.180    95883373.849 7     -1551.928          45.812
G23  23588406.320   123957907.757 7       364.235          43.687    23588405.580   123957907.770 5       364.235          30.125    23588413.360    96590591.682 4       283.819          29.937    23588413.920    96590612.677 7       283.819          45.312
G26  22748253.440   119542867.821 7      -689.975          42.687    22748252.180   119542867.823 6      -689.975          40.437    22748265.780    93150335.928 6      -537.643          40.250    22748266.580    93150342.922 7      -537.643          45.687
G02  22403532.420   117731360.266 7      4381.147          44.750    22403530.500   117731360.276 5      4381.147          34.500    22403537.000    91738741.121 5      3413.881          34.437
G07  24039189.760   126326806.070 6      3593.847          41.312    24039187.360   126326806.073 4      3593.847          27.375    24039196.680    98436453.033 4      2800.400          27.562    24039197.840    98436505.026 6      2800.400          39.687
G08  21162298.320   111208630.580 7      3384.696          46.562    21162297.240   111208630.575 6      3384.696          37.437    21162304.660    86656101.838 6      2637.425          37.062    21162305.480    86656105.835 8      2637.425          49.812
> 2024 05 10 12 21 15.0000000  0 14
G27  20851295.600   109574298.522 8      1795.394          48.000    20851294.200   109574298.519 8      1795.394          49.062    20851301.440    85382592.542 8      1399.008          49.062    20851301.840    85382603.541 8      1399.008          49.937
G21  20854826.880   109592856.120 7      3682.667          47.187    20854824.560   109592856.122 6      3682.667          37.687    20854830.000    85397044.438 6      2869.611          37.937
G10  22017354.200   115701972.474 7      2242.230          46.937    22017353.140   115701972.476 7      2242.230          45.875    22017361.680    90157420.893 7      1747.192          45.750    22017361.900    90157419.900 7      1747.192          47.250
R23  20171574.520   107904328.068 7      2352.046          45.250    20171574.440   107904328.080 7      2352.046          44.687
G16  20651324.580   108523443.771 7       936.779          46.750    20651322.960   108523443.782 6       936.779          39.562    20651327.960    84563733.350 6       729.958          39.062
R07  23322254.460   124845843.030 6      4599.806          41.625    23322253.960   124845843.062 6      4599.806          40.750    23322275.140    97102415.903 7      3577.627          44.812    23322275.480    97102418.905 7      3577.627          45.687
R12  19324939.760   103230363.476 8       756.863          50.062    19324939.360   103230363.475 8       756.863          49.875    19324949.920    80290318.421 8       588.671          51.312    19324949.900    80290319.423 8       588.671          51.437
R22  21011813.240   112162483.277 7       -63.643          45.500    21011811.520   112162483.302 7       -63.643          46.125    21011820.880    87237519.987 8       -49.500          48.562    21011821.140    87237519.980 8       -49.500          48.562
R11  23070267.220   123280515.373 6     -1995.343          39.687    23070266.180   123280515.388 6     -1995.343          39.125    23070287.460    95884927.813 7     -1551.934          46.125    23070287.680    95884925.813 7     -1551.934          46.125
G23  23588336.900   123957543.896 7       363.757          44.312    23588336.120   123957543.909 5       363.757          30.125    23588344.220    96590308.152 4       283.447          29.937    23588345.140    96590329.138 7       283.447          45.437
G26  22748384.680   119543558.122 7      -690.354          42.500    22748383.420   119543558.127 6      -690.354          41.312    22748397.180    93150873.809 6      -537.938          41.000    22748397.920    93150880.803 7      -537.938          45.687
G02  22402698.620   117726979.479 7      4380.828          43.750    22402696.660   117726979.486 5      4380.828          34.125    22402703.380    91735327.523 5      3413.633          34.125
G07  24038506.440   126323212.769 6      3593.242          40.875    24038503.540   126323212.774 4      3593.242          27.312    24038512.960    98433653.056 4      2799.929          27.562    24038513.920    98433705.040 6      2799.929          39.687
G08  21161654.340   111205246.006 7      3384.662          46.562    21161653.040   111205246.001 6      3384.662          37.312    21161660.560    86653464.506 6      2637.399          37.312    21161661.200    86653468.509 8      2637.399          49.125
> 2024 05 10 12 21 16.0000000  0 14
G27  20850954.060   109572503.315 8      1794.973          49.187    20850952.460   109572503.314 8      1794.973          48.750    20850959.940    85381193.682 8      1398.680          49.000    20850960.220    85381204.683 8      1398.680          50.375
G21  20854126.000   109589173.838 7      3681.914          47.312    20854123.880   109589173.842 6      3681.914          37.687    20854129.360    85394175.127 6      2869.024          37.562
G10  22016927.500   115699730.667 7      2241.431          47.062    22016926.380   115699730.672 7      2241.431          45.500    22016935.000    90155674.031 7      1746.570          45.625    22016935.100    90155673.036 7      1746.570          47.437
R23  20171134.560   107901976.285 7      2351.530          45.187    20171134.840   107901976.306 7      2351.530          44.937
G16  20651146.480   108522507.361 7       936.091          46.062    20651144.660   108522507.371 6       936.091          39.437    20651149.780    84563003.678 6       729.422          39.000
R07  23321394.580   124841243.462 6      4599.215          41.625    23321394.300   124841243.496 6      4599.215          40.750    23321416.240    97098838.473 7      3577.167          45.062    23321416.320    97098841.479 7      3577.167          45.687
R12  19324798.060   103229607.189 8       755.685          49.250    19324797.960   103229607.188 8       755.685          49.625    19324808.240    80289730.190 8       587.755          50.875    19324808.380    80289731.192 8       587.755          51.000
R22  21011825.000   112162547.019 7       -63.884          45.000    21011823.820   112162547.039 7       -63.884          46.000    21011833.020    87237569.552 8       -49.688          48.937    21011833.120    87237569.544 8       -49.688          48.812
R11  23070640.780   123282510.918 6     -1995.738          39.437    23070639.620   123282510.930 6     -1995.738          39.125    23070660.820    95886479.885 7     -1552.241          46.437    23070660.840    95886477.886 7     -1552.241          45.687
G23  23588267.520   123957180.515 7       362.917          43.437    23588266.980   123957180.523 5       362.917          30.125    23588274.960    96590024.990 4       282.792          29.937    23588275.640    96590045.976 7       282.792          45.500
G26  22748515.760   119544248.642 7      -690.807          42.437    22748514.920   119544248.644 6      -690.807          40.937    22748528.520    93151411.857 6      -538.292          40.937    22748529.440    93151418.845 7      -538.292          46.062
G02  22401865.400   117722599.036 7      4380.143          44.187    22401863.160   117722599.044 5      4380.143          34.125    22401869.660    91731914.197 5      3413.099          34.437
G07  24037822.560   126319619.935 6      3592.457          41.437    24037819.840   126319619.940 4      3592.457          27.312    24037829.240    98430853.441 4      2799.317          27.375    24037830.380    98430905.432 6      2799.317          39.687
G08  21161010.180   111201861.532 7      3384.343          47.375    21161009.020   111201861.529 6      3384.343          37.375    21161016.480    86650827.254 6      2637.150          37.187    21161017.660    86650831.263 8      2637.150          49.562
> 2024 05 10 12 21 17.0000000  0 14
G27  20850612.460   109570708.137 7      1795.025          47.937    20850610.900   109570708.134 8      1795.025          49.062    20850618.340    85379794.838 8      1398.721          49.250    20850618.740    85379805.839 8      1398.721          50.562
G21  20853425.400   109585491.936 7      3681.576          46.500    20853423.200   109585491.939 6      3681.576          37.625    20853428.700    85391306.117 6      2868.760          37.562
G10  22016500.960   115697489.316 7      2241.078          46.750    22016500.020   115697489.324 7      2241.078          45.375    22016508.540    90153927.527 7      1746.294          45.375    22016508.400    90153926.526 7      1746.294          47.437
R23  20170695.000   107899624.762 7      2351.254          45.000    20170695.180   107899624.779 7      2351.254          44.500
G16  20650968.300   108521571.324 7       935.778          46.375    20650966.620   108521571.334 6       935.778          39.687    20650971.680    84562274.292 6       729.178          39.312
R07  23320535.440   124836644.194 6      4599.060          40.937    23320535.360   124836644.209 6      4599.060          40.625    23320556.940    97095261.262 7      3577.047          44.875    23320557.440    97095264.270 7      3577.047          45.312
R12  19324656.500   103228851.575 8       755.141          49.062    19324656.580   103228851.574 8       755.141          49.250    19324666.860    80289142.486 8       587.332          50.437    19324666.980    80289143.492 8       587.332          51.437
R22  21011837.000   112162610.697 7       -63.794          45.750    21011835.880   112162610.722 7       -63.794          45.812    21011844.900    87237619.077 8       -49.618          48.750    21011845.120    87237619.069 8       -49.618          49.125
R11  23071014.360   123284506.460 6     -1995.622          39.437    23071013.120   123284506.467 6     -1995.622          39.125    23071034.360    95888031.969 7     -1552.150          46.375    23071034.460    95888029.969 7     -1552.150          46.187
G23  23588198.500   123956817.477 7       362.764          43.062    23588197.860   123956817.479 4       362.764          29.812    23588206.020    96589742.099 4       282.673          29.937    23588206.740    96589763.079 7       282.673          45.562
G26  22748647.400   119544939.272 7      -690.707          43.562    22748646.320   119544939.266 6      -690.707          41.375    22748660.060    93151949.992 6      -538.213          40.812    22748660.820    93151956.982 7      -538.213          46.250
G02  22401031.860   117718218.851 7      4379.921          44.687    22401029.600   117718218.856 5      4379.921          34.437    22401036.060    91728501.068 5      3412.925          34.437
G07  24037139.180   126316027.478 6      3592.158          41.687    24037136.180   126316027.485 4      3592.158          27.312    24037145.660    98428054.122 4      2799.084          27.375    24037146.800    98428106.108 6      2799.084          39.687
G08  21160366.020   111198477.056 7      3384.323          46.625    21160364.940   111198477.055 6      3384.323          37.312    21160372.560    86648189.999 6      2637.135          37.000    21160373.640    86648194.008 8      2637.135          48.937
> 2024 05 10 12 21 18.0000000  0 14
G27  20850270.540   109568913.188 8      1794.780          48.187    20850269.360   109568913.187 8      1794.780          49.250    20850276.760    85378396.178 8      1398.530          49.312    20850277.100    85378407.175 8      1398.530          50.062
G21  20852724.960   109581810.613 7      3680.952          47.375    20852722.700   109581810.613 6      3680.952          37.750    20852728.120    85388437.552 6      2868.275          37.875
G10  22016074.340   115695248.658 7      2240.202          47.312    22016073.500   115695248.660 7      2240.202          45.875    22016082.260    90152181.556 7      1745.612          45.875    22016082.160    90152180.559 7      1745.612          47.437
R23  20170255.620   107897273.653 7      2350.867          44.625    20170255.880   107897273.663 7      2350.867          44.375
G16  20650790.520   108520635.840 7       935.166          46.562    20650788.560   108520635.851 6       935.166          39.562    20650793.740    84561545.344 6       728.701          39.437
R07  23319676.700   124832045.383 6      4598.498          40.937    23319676.500   124832045.409 6      4598.498          40.625    23319697.680    97091684.430 7      3576.609          44.812    23319698.220    97091687.434 7      3576.609          45.312
R12  19324515.760   103228096.862 8       754.180          49.875    19324515.320   103228096.865 8       754.180          49.375    19324525.480    80288555.489 8       586.584          50.750    19324525.420    80288556.493 8       586.584          50.812
R22  21011849.100   112162674.506 7       -63.946          45.062    21011847.640   112162674.533 7       -63.946          45.500    21011856.980    87237668.708 8       -49.736          48.812    21011856.980    87237668.702 8       -49.736          49.000
R11  23071387.320   123286502.253 6     -1995.982          39.437    23071386.940   123286502.247 6     -1995.982          38.687    23071408.140    95889584.234 7     -1552.430          46.687    23071408.080    95889582.233 7     -1552.430          46.687
G23  23588129.520   123956455.024 7       362.177          42.437    23588128.960   123956455.031 4       362.177          29.812    23588137.080    96589459.668 5       282.216          30.000    23588137.900    96589480.650 7       282.216          45.500
G26  22748779.040   119545630.275 7      -691.341          43.312    22748777.760   119545630.274 6      -691.341          41.000    22748791.600    93152488.428 6      -538.707          40.625    22748792.340    93152495.422 7      -538.707          46.375
G02  22400198.200   117713839.113 7      4379.458          44.250    22400196.120   117713839.118 5      4379.458          34.437    22400202.600    91725088.291 5      3412.565          34.437
G07  24036455.640   126312435.606 7      3591.532          42.625    24036452.760   126312435.608 4      3591.532          27.312    24036462.060    98425255.258 4      2798.597          27.375    24036462.460    98425307.234 6      2798.597          39.687
G08  21159722.200   111195092.768 7      3384.142          46.812    21159720.960   111195092.768 6      3384.142          37.437    21159728.740    86645552.890 6      2636.994          37.062    21159729.400    86645556.901 8      2636.994          49.250
> 2024 05 10 12 21 19.0000000  0 14
G27  20849929.100   109567118.375 7      1794.476          47.750    20849927.740   109567118.377 8      1794.476          49.187    20849935.260    85376997.623 8      1398.293          49.062    20849935.520    85377008.626 8      1398.293          50.437
G21  20852024.520   109578129.747 7      3680.365          45.750    20852022.140   109578129.752 6      3680.365          37.750    20852027.660    85385569.349 6      2867.817          37.937
G10  22015648.220   115693008.531 7      2239.596          46.937    22015647.200   115693008.533 7      2239.596          45.750    22015655.740    90150436.003 7      1745.140          45.937    22015656.080    90150435.008 7      1745.140          46.875
R23  20169816.200   107894922.860 7      2350.386          46.375    20169816.720   107894922.875 7      2350.386          44.875
G16  20650612.340   108519700.815 7       934.563          46.250    20650610.580   108519700.827 6       934.563          39.125    20650615.720    84560816.753 6       728.231          38.875
R07  23318817.720   124827446.939 6      4598.029          40.937    23318817.860   124827446.967 6      4598.029          40.625    23318838.540    97088107.869 7      3576.245          44.625    23318839.080    97088110.873 7      3576.245          44.750
R12  19324374.340   103227342.920 8       753.293          49.250    19324374.200   103227342.921 8       753.293          49.687    19324384.160    80287969.083 8       585.894          51.125    19324384.240    80287970.089 8       585.894          50.875
R22  21011860.960   112162738.354 7       -64.141          45.750    21011860.180   112162738.382 7       -64.141          46.000    21011869.300    87237718.362 8       -49.887          48.812    21011869.640    87237718.358 8       -49.887          49.437
R11  23071761.420   123288498.148 6     -1996.318          39.437    23071760.080   123288498.144 6     -1996.318          38.687    23071781.420    95891136.601 7     -1552.692          46.500    23071781.620    95891134.600 7     -1552.692          46.250
G23  23588061.040   123956093.028 7       361.606          42.187    23588060.080   123956093.035 4       361.606          29.812    23588068.080    96589177.593 5       281.771          30.000    23588068.820    96589198.583 7       281.771          45.500
G26  22748910.480   119546321.470 7      -691.577          43.312    22748909.440   119546321.472 6      -691.577          41.375    22748923.240    93153027.005 6      -538.891          40.937    22748923.680    93153033.999 7      -538.891          46.125
G02  22399364.640   117709459.719 7      4379.030          42.750    22399362.700   117709459.724 5      4379.030          34.375    22399369.480    91721675.778 5      3412.231          34.437
G07  24035772.060   126308844.188 7      3590.902          42.000    24035769.400   126308844.188 4      3590.902          27.312    24035778.580    98422456.745 4      2798.106          27.375    24035779.100    98422508.735 6      2798.106          39.687
G08  21159078.120   111191708.559 7      3383.918          47.125    21159077.000   111191708.556 6      3383.918          37.625    21159084.500    86642915.842 6      2636.819          37.250    21159085.820    86642919.853 8      2636.819          49.562
> 2024 05 10 12 21 20.0000000  0 14
G27  20849587.680   109565323.891 8      1794.312          48.062    20849586.220   109565323.890 8      1794.312          49.625    20849593.720    85375599.319 8      1398.165          49.812    20849593.880    85375610.320 8      1398.165          50.312
G21  20851324.140   109574449.562 7      3679.876          47.625    20851321.740   109574449.564 6      3679.876          37.187    20851327.260    85382701.672 6      2867.436          38.062
G10  22015222.020   115690769.190 7      2238.918          47.562    22015221.100   115690769.189 7      2238.918          45.750    22015229.760    90148691.063 7      1744.611          45.625    22015230.120    90148690.064 7      1744.611          47.500
R23  20169377.060   107892572.604 7      2349.999          45.250    20169377.140   107892572.611 7      2349.999          44.562
G16  20650434.540   108518766.464 7       934.060          46.750    20650432.920   108518766.474 6       934.060          39.875    20650438.100    84560088.681 6       727.839          39.437
R07  23317958.780   124822849.099 6      4597.464          40.687    23317958.680   124822849.120 6      4597.464          40.062    23317979.780    97084531.769 7      3575.805          44.750    23317980.080    97084534.776 7      3575.805          45.000
R12  19324233.120   103226589.990 8       752.323          49.937    19324233.200   103226589.991 8       752.323          49.312    19324243.220    80287383.471 8       585.140          51.125    19324243.540    80287384.473 8       585.140          50.875
R22  21011872.800   112162802.448 7       -64.223          45.875    21011871.680   112162802.465 7       -64.223          45.875    21011881.100    87237768.204 8       -49.951          49.062    21011880.780    87237768.197 8       -49.951          48.937
R11  23072135.120   123290494.321 6     -1996.262          39.437    23072133.320   123290494.327 6     -1996.262          38.687    23072155.020    95892689.186 7     -1552.648          46.687    23072155.020    95892687.189 7     -1552.648          46.187
G23  23587991.600   123955731.742 7       360.885          42.437    23587991.460   123955731.746 4       360.885          29.937    23587999.420    96588896.065 5       281.209          30.000    23588000.140    96588917.049 7       281.209          45.937
G26  22749042.040   119547013.109 7      -691.870          43.250    22749041.100   119547013.113 6      -691.870          41.375    22749054.780    93153565.934 6      -539.120          40.875    22749055.500    93153572.926 7      -539.120          45.875
G02  22398531.620   117705080.876 7      4378.522          43.312    22398529.400   117705080.887 5      4378.522          34.562    22398536.260    91718263.700 5      3411.835          34.562
G07  24035088.820   126305253.462 6      3590.382          41.875    24035086.120   126305253.462 4      3590.382          27.375    24035095.200    98419658.775 4      2797.700          27.375    24035095.820    98419710.748 6      2797.700          39.687
G08  21158434.260   111188324.663 7      3383.682          46.187    21158433.000   111188324.658 6      3383.682          37.187    21158440.580    86640279.044 6      2636.635          37.187    21158441.420    86640283.049 8      2636.635          49.562
> 2024 05 10 12 21 21.0000000  0 14
G27  20849246.080   109563529.456 8      1794.945          48.000    20849244.740   109563529.459 8      1794.945          49.250    20849252.300    85374201.061 8      1398.659          49.187    20849252.580    85374212.062 8      1398.659          50.375
G21  20850623.980   109570769.779 7      3680.062          47.312    20850621.480   109570769.783 6      3680.062          37.500    20850627.100    85379834.314 6      2867.580          37.312
G10  22014796.120   115688530.316 7      2239.073          46.937    22014794.960   115688530.321 7      2239.073          45.875    22014803.660    90146946.488 7      1744.732          45.812    22014803.920    90146945.496 7      1744.732          47.187
R23  20168937.460   107890222.587 7      2350.427          45.562    20168937.660   107890222.599 7      2350.427          44.937
G16  20650256.940   108517832.500 7       934.273          46.312    20650255.120   108517832.507 6       934.273          39.250    20650260.340    84559360.915 6       728.005          39.250
R07  23317099.640   124818251.482 6      4598.019          40.687    23317099.820   124818251.505 6      4598.019          40.062    23317121.540    97080955.859 7      3576.237          44.562    23317121.140    97080958.859 7      3576.237          45.437
R12  19324092.700   103225837.787 8       752.298          49.687    19324092.540   103225837.783 8       752.298          49.750    19324102.420    80286798.420 8       585.121          50.562    19324102.440    80286799.420 8       585.121          50.937
R22  21011884.960   112162866.500 7       -63.549          45.000    21011883.840   112162866.517 7       -63.549          45.812    21011893.040    87237818.020 8       -49.427          49.000    21011892.900    87237818.013 8       -49.427          48.875
R11  23072508.360   123292490.603 6     -1995.740          39.437    23072506.580   123292490.602 6     -1995.740          38.812    23072528.300    95894241.839 7     -1552.242          46.062    23072528.420    95894239.841 7     -1552.242          45.812
G23  23587923.120   123955370.792 7       361.381          42.187    23587922.760   123955370.799 4       361.381          29.937    23587930.840    96588614.803 4       281.596          29.937    23587931.500    96588635.798 7       281.596          45.750
G26  22749173.800   119547704.892 7      -691.346          42.875    22749172.740   119547704.899 6      -691.346          41.125    22749186.520    93154104.978 6      -538.711          41.000    22749187.200    93154111.974 7      -538.711          46.187
G02  22397698.500   117700702.318 7      4378.990          44.062    22397696.220   117700702.325 5      4378.990          34.562    22397703.020    91714851.842 5      3412.200          34.250
G07  24034405.480   126301663.117 7      3590.715          42.687    24034402.960   126301663.116 4      3590.715          27.375    24034412.000    98416861.103 4      2797.960          27.500    24034412.820    98416913.093 6      2797.960          39.562
G08  21157790.460   111184940.754 7      3384.396          46.062    21157788.920   111184940.751 6      3384.396          36.937    21157796.680    86637642.234 6      2637.192          36.687    21157797.420    86637646.241 8      2637.192          49.312
> 2024 05 10 12 21 22.0000000  0 14
G27  20848904.740   109561734.843 8      1794.560          48.125    20848903.240   109561734.843 8      1794.560          49.125    20848910.700    85372802.655 8      1398.358          49.250    20848911.060    85372813.656 8      1398.358          49.687
G21  20849923.820   109567090.142 7      3679.433          47.062    20849921.260   109567090.145 6      3679.433          37.562    20849926.800    85376967.061 6      2867.091          37.562
G10  22014370.080   115686291.695 7      2238.318          47.437    22014368.960   115686291.694 7      2238.318          45.812    22014377.660    90145202.104 7      1744.144          46.000    22014378.100    90145201.111 7      1744.144          47.437
R23  20168498.340   107887872.604 7      2349.772          45.500    20168498.540   107887872.621 7      2349.772          44.937
G16  20650079.320   108516898.683 7       933.549          46.937    20650077.580   108516898.693 6       933.549          39.937    20650082.500    84558633.263 6       727.441          39.312
R07  23316240.600   124813653.900 6      4597.360          41.000    23316241.460   124813653.915 6      4597.360          40.062    23316262.820    97077379.970 7      3575.724          45.125    23316262.440    97077382.975 7      3575.724          45.625
R12  19323951.980   103225086.041 8       751.332          48.687    19323951.700   103225086.039 8       751.332          49.625    19323961.660    80286213.724 8       584.369          50.625    19323961.980    80286214.731 8       584.369          51.125
R22  21011896.900   112162930.252 7       -63.836          45.937    21011895.720   112162930.264 7       -63.836          46.000    21011904.920    87237867.599 8       -49.650          48.812    21011904.840    87237867.594 8       -49.650          49.437
R11  23072882.360   123294486.693 6     -1996.252          39.437    23072879.760   123294486.673 6     -1996.252          38.812    23072901.940    95895794.345 7     -1552.641          46.250    23072901.920    95895792.343 7     -1552.641          46.562
G23  23587854.200   123955010.046 7       360.471          42.750    23587854.120   123955010.051 4       360.471          29.937    23587862.200    96588333.705 4       280.886          29.937    23587863.020    96588354.694 7       280.886          45.875
G26  22749305.260   119548396.602 7      -691.821          42.875    22749304.300   119548396.604 6      -691.821          41.375    22749318.020    93154643.956 6      -539.082          41.062    22749318.680    93154650.950 7      -539.082          45.875
G02  22396865.360   117696323.783 7      4378.410          44.250    22396863.240   117696323.788 5      4378.410          34.375    22396869.740    91711440.001 5      3411.748          34.250
G07  24033722.120   126298072.966 7      3589.863          42.937    24033719.720   126298072.965 4      3589.863          27.375    24033728.740    98414063.581 4      2797.296          27.500    24033729.120    98414115.575 6      2797.296          39.562
G08  21157146.500   111181556.635 7      3383.992          46.812    21157145.100   111181556.635 6      3383.992          37.562    21157152.900    86635005.260 6      2636.877          37.312    21157153.480    86635009.271 8      2636.877          49.187
> 2024 05 10 12 21 23.0000000  0 14
G27  20848563.220   109559940.533 7      1794.275          47.937    20848561.660   109559940.532 8      1794.275          49.125    20848569.260    85371404.486 8      1398.136          49.062    20848569.920    85371415.485 8      1398.136          50.437
G21  20849223.620   109563411.160 7      3678.750          46.750    20849221.040   109563411.165 6      3678.750          37.625    20849226.720    85374100.326 6      2866.558          37.687
G10  22013944.140   115684053.809 7      2237.616          47.187    22013943.120   115684053.816 7      2237.616          46.000    22013951.920    90143458.303 7      1743.597          45.812    22013952.220    90143457.310 7      1743.597          47.625
R23  20168059.140   107885523.148 7      2349.203          45.750    20168059.420   107885523.165 7      2349.203          45.125
G16  20649901.620   108515965.499 7       932.956          46.812    20649899.960   108515965.509 6       932.956          39.437    20649904.940    84557906.104 6       726.979          39.250
R07  23315382.220   124809056.813 6      4596.847          41.000    23315382.640   124809056.847 6      4596.847          39.750    23315404.280    97073804.481 7      3575.326          45.000    23315403.960    97073807.487 7      3575.326          46.062
R12  19323811.660   103224335.272 8       750.406          49.500    19323811.060   103224335.273 8       750.406          49.375    19323821.140    80285629.791 8       583.649          50.562    19323821.160    80285630.799 8       583.649          51.187
R22  21011909.160   112162994.194 7       -63.888          45.875    21011907.580   112162994.211 7       -63.888          46.000    21011917.060    87237917.334 8       -49.690          49.062    21011916.800    87237917.327 8       -49.690          49.562
R11  23073255.740   123296483.031 6     -1996.414          39.062    23073253.220   123296483.014 6     -1996.414          38.812    23073275.260    95897347.057 7     -1552.767          45.750    23073275.520    95897345.059 7     -1552.767          45.812
G23  23587785.680   123954649.908 7       360.057          42.937    23587785.540   123954649.916 5       360.057          30.250    23587793.600    96588053.074 4       280.564          29.937    23587794.620    96588074.058 7       280.564          46.125
G26  22749437.100   119549088.700 7      -692.061          43.562    22749436.020   119549088.697 6      -692.061          41.375    22749449.820    93155183.235 6      -539.269          40.625    22749450.460    93155190.232 7      -539.269          46.000
G02  22396032.240   117691945.792 7      4377.859          44.937    22396030.080   117691945.797 5      4377.859          34.437    22396036.680    91708028.585 5      3411.319          34.500
G07  24033039.360   126294483.443 7      3589.251          42.437    24033036.760   126294483.442 4      3589.251          27.375    24033045.760    98411266.548 4      2796.819          27.500    24033046.320    98411318.538 6      2796.819          39.562
G08  21156502.340   111178172.765 7      3383.869          46.937    21156501.160   111178172.765 6      3383.869          37.000    21156508.920    86632368.482 6      2636.781          36.687    21156509.580    86632372.489 8      2636.781          49.500
> 2024 05 10 12 21 24.0000000  0 14
G27  20848221.880   109558146.266 8      1794.199          48.625    20848220.220   109558146.269 8      1794.199          49.187    20848227.860    85370006.359 8      1398.077          49.250    20848228.460    85370017.358 8      1398.077          50.562
G21  20848523.480   109559732.567 7      3678.367          47.125    20848521.080   109559732.569 6      3678.367          37.500    20848526.600    85371233.890 6      2866.260          37.250
G10  22013518.360   115681816.412 7      2237.123          47.250    22013517.380   115681816.411 7      2237.123          45.812    22013526.080    90141714.873 7      1743.213          46.000    22013526.640    90141713.882 7      1743.213          47.437
R23  20167620.320   107883173.922 7      2349.041          45.062    20167620.020   107883173.937 7      2349.041          44.625
G16  20649723.980   108515032.696 7       932.620          45.812    20649722.260   108515032.706 6       932.620          39.625    20649727.440    84557179.241 6       726.717          39.625
R07  23314523.400   124804460.020 6      4596.598          41.000    23314523.640   124804460.049 6      4596.598          39.750    23314545.560    97070229.219 7      3575.132          45.312    23314545.380    97070232.223 7      3575.132          45.250
R12  19323671.080   103223585.195 8       749.680          49.875    19323670.800   103223585.193 8       749.680          49.437    19323680.600    80285046.394 8       583.084          50.812    19323680.820    80285047.400 8       583.084          50.875
R22  21011921.280   112163058.128 7       -63.932          45.437    21011919.800   112163058.140 7       -63.932          45.875    21011928.860    87237967.050 8       -49.725          48.750    21011928.860    87237967.045 8       -49.725          49.625
R11  23073629.200   123298479.380 6     -1996.230          39.062    23073627.060   123298479.376 6     -1996.230          38.437    23073649.120    95898899.781 7     -1552.623          45.750    23073649.080    95898897.783 7     -1552.623          45.750
G23  23587717.340   123954290.196 7       359.480          42.875    23587716.980   123954290.206 5       359.480          30.250    23587725.140    96587772.775 4       280.114          29.937    23587726.220    96587793.765 7       280.114          46.312
G26  22749568.440   119549780.962 7      -692.237          42.812    22749567.800   119549780.962 6      -692.237          41.187    22749581.660    93155722.650 6      -539.406          40.812    22749582.380    93155729.644 7      -539.406          46.187
G02  22395199.060   117687568.056 7      4377.595          44.687    22395197.040   117687568.063 5      4377.595          34.437    22395203.660    91704617.364 5      3411.113          34.500
G07  24032356.420   126290894.311 7      3588.957          42.250    24032353.940   126290894.316 4      3588.957          27.375    24032362.680    98408469.822 4      2796.590          27.500    24032363.160    98408521.810 6      2796.590          39.375
G08  21155858.480   111174788.924 7      3383.798          47.250    21155857.240   111174788.927 6      3383.798          37.250    21155864.720    86629731.723 6      2636.726          37.125    21155865.660    86629735.730 8      2636.726          49.687
> 2024 05 10 12 21 25.0000000  0 14
G27  20847880.540   109556352.250 8      1793.742          48.125    20847878.840   109556352.249 8      1793.742          48.875    20847886.520    85368608.422 8      1397.721          48.875    20847886.660    85368619.425 8      1397.721          50.187
G21  20847823.680   109556054.557 7      3677.591          47.437    20847821.180   109556054.562 6      3677.591          37.250    20847826.820    85368367.912 6      2865.655          37.625
G10  22013092.760   115679579.687 7      2236.194          47.437    22013091.840   115679579.692 7      2236.194          46.312    22013100.540    90139971.977 7      1742.489          46.250    22013100.660    90139970.986 7      1742.489          47.937
R23  20167180.900   107880825.191 7      2348.238          45.312    20167181.220   107880825.200 7      2348.238          44.625
G16  20649546.740   108514100.487 7       931.772          46.875    20649544.920   108514100.497 6       931.772          39.750    20649549.940    84556452.842 6       726.056          39.312
R07  23313664.300   124799863.757 6      4595.866          41.187    23313664.760   124799863.780 6      4595.866          39.750    23313686.720    97066654.352 7      3574.563          45.437    23313686.600    97066657.356 7      3574.563          45.562
R12  19323530.740   103222836.026 8       748.494          49.750    19323530.600   103222836.022 8       748.494          49.375    19323540.420    80284463.702 8       582.162          50.562    19323540.620    80284464.707 8       582.162          51.000
R22  21011932.940   112163122.196 7       -64.275          45.937    21011931.680   112163122.205 7       -64.275          46.062    21011941.000    87238016.872 8       -49.992          48.812    21011940.760    87238016.867 8       -49.992          49.312
R11  23074002.400   123300476.023 6     -1996.907          39.062    23074000.680   123300476.035 6     -1996.907          38.437    23074022.720    95900452.728 7     -1553.150          46.000    23074022.980    95900450.731 7     -1553.150          46.250
G23  23587649.220   123953931.051 7       358.650          42.750    23587648.540   123953931.056 5       358.650          30.250    23587656.760    96587492.917 5       279.467          30.125    23587657.780    96587513.904 7       279.467          45.812
G26  22749700.400   119550473.581 7      -692.945          43.437    22749699.600   119550473.578 6      -692.945          40.875    22749713.560    93156262.343 6      -539.957          40.750    22749714.080    93156269.335 7      -539.957          46.062
G02  22394366.240   117683190.795 7      4376.767          44.500    22394364.080   117683190.802 5      4376.767          34.500    22394370.660    91701206.520 5      3410.468          34.375
G07  24031673.320   126287305.790 7      3588.119          43.187    24031671.160   126287305.792 4      3588.119          27.687    24031679.660    98405673.571 4      2795.936          27.500    24031680.500    98405725.543 6      2795.936          39.375
G08  21155214.640   111171405.291 7      3383.338          46.687    21155213.320   111171405.288 6      3383.338          37.312    21155220.960    86627095.126 6      2636.367          36.937    21155221.820    86627099.131 8      2636.367          49.125
> 2024 05 10 12 21 26.0000000  0 14
G27  20847539.200   109554558.338 8      1793.943          48.250    20847537.400   109554558.341 8      1793.943          49.187    20847545.080    85367210.567 8      1397.878          49.312    20847545.320    85367221.568 8      1397.878          50.187
G21  20847123.760   109552377.007 7      3677.417          47.187    20847121.520   109552377.009 6      3677.417          37.250    20847127.080    85365502.287 6      2865.520          37.750
G10  22012667.140   115677343.502 7      2236.014          47.000    22012666.340   115677343.501 7      2236.014          45.937    22012675.000    90138229.488 7      1742.349          45.875    22012675.180    90138228.495 7      1742.349          47.000
R23  20166742.120   107878476.740 7      2348.305          46.125    20166742.160   107878476.750 7      2348.305          45.062
G16  20649369.160   108513168.708 7       931.648          46.625    20649367.620   108513168.718 6       931.648          40.187    20649372.680    84555726.777 6       725.960          39.500
R07  23312805.520   124795267.800 6      4595.956          41.187    23312806.540   124795267.812 6      4595.956          39.625    23312828.060    97063079.735 7      3574.632          44.937    23312828.000    97063082.737 7      3574.632          45.812
R12  19323390.700   103222087.634 8       748.114          50.000    19323390.420   103222087.630 8       748.114          49.875    19323400.420    80283881.618 8       581.866          50.875    19323400.340    80283882.622 8       581.866          51.187
R22  21011944.920   112163186.279 7       -64.035          46.187    21011943.720   112163186.294 7       -64.035          46.562    21011952.960    87238066.715 8       -49.805          48.625    21011953.140    87238066.707 8       -49.805          49.062
R11  23074376.080   123302472.733 6     -1996.541          38.812    23074374.460   123302472.726 6     -1996.541          38.437    23074396.360    95902005.702 7     -1552.865          46.000    23074396.420    95902003.703 7     -1552.865          45.812
G23  23587581.320   123953572.340 7       358.633          42.375    23587580.280   123953572.342 5       358.633          30.250    23587588.520    96587213.398 5       279.454          30.125    23587589.880    96587234.388 7       279.454          46.250
G26  22749832.220   119551166.400 7      -692.847          43.375    22749831.380   119551166.399 6      -692.847          41.250    22749845.300    93156802.185 6      -539.881          40.812    22749845.940    93156809.177 7      -539.881          45.937
G02  22393533.120   117678813.842 7      4376.899          45.312    22393531.120   117678813.852 5      4376.899          34.500    22393537.820    91697795.911 5      3410.570          34.812
G07  24030990.580   126283717.717 7      3587.894          42.062    24030988.380   126283717.719 4      3587.894          27.687    24030996.900    98402877.670 4      2795.761          27.812    24030997.280    98402929.640 6      2795.761          39.375
G08  21154570.760   111168021.708 7      3383.617          46.062    21154569.400   111168021.702 6      3383.617          37.375    21154577.020    86624458.561 6      2636.585          37.000    21154577.700    86624462.570 8      2636.585          49.125
> 2024 05 10 12 21 27.0000000  0 14
G27  20847197.980   109552764.719 7      1793.538          47.687    20847196.080   109552764.726 8      1793.538          48.937    20847203.840    85365812.943 8      1397.562          49.062    20847203.880    85365823.946 8      1397.562          50.187
G21  20846424.000   109548700.085 7      3676.653          46.687    20846421.780   109548700.090 6      3676.653          37.687    20846427.320    85362637.159 6      2864.925          37.750
G10  22012241.800   115675108.044 7      2235.174          46.750    22012240.820   115675108.049 7      2235.174          45.250    22012249.660    90136487.579 7      1741.694          45.687    22012249.740    90136486.588 7      1741.694          47.312
R23  20166303.340   107876128.782 7      2347.793          46.000    20166303.600   107876128.792 7      2347.793          44.937
G16  20649192.080   108512237.545 7       930.947          46.312    20649190.620   108512237.558 6       930.947          39.437    20649195.560    84555001.193 6       725.413          39.500
R07  23311947.160   124790672.372 6      4595.220          41.250    23311948.240   124790672.398 6      4595.220          39.625    23311969.320    97059505.530 7      3574.060          45.250    23311969.660    97059508.532 7      3574.060          44.937
R12  19323251.140   103221340.239 8       746.959          49.687    19323250.600   103221340.237 8       746.959          50.125    19323260.420    80283300.310 8       580.968          50.375    19323260.600    80283301.312 8       580.968          50.937
R22  21011957.020   112163250.542 7       -64.256          45.250    21011955.820   112163250.556 7       -64.256          46.250    21011965.060    87238116.699 8       -49.977          48.437    21011965.000    87238116.695 8       -49.977          48.187
R11  23074749.260   123304469.742 6     -1997.108          38.812    23074747.900   123304469.730 6     -1997.108          38.625    23074770.120    95903558.920 7     -1553.306          46.437    23074770.320    95903556.924 7     -1553.306          46.250
G23  23587513.180   123953214.283 7       357.734          42.687    23587512.060   123953214.287 5       357.734          30.687    23587520.500    96586934.386 5       278.754          30.125    23587521.660    96586955.383 7       278.754          46.437
G26  22749964.240   119551859.597 7      -693.374          43.250    22749963.340   119551859.604 6      -693.374          40.812    22749977.120    93157342.330 6      -540.292          40.812    22749977.880    93157349.316 7      -540.292          46.062
G02  22392700.160   117674437.425 7      4376.247          45.062    22392698.580   117674437.432 5      4376.247          34.937    22392705.000    91694385.722 5      3410.063          34.812
G07  24030307.680   126280130.278 7      3587.129          42.562    24030305.800   126280130.280 4      3587.129          27.687    24030314.240    98400082.261 4      2795.165          27.812    24030314.340    98400134.239 6      2795.165          39.062
G08  21153926.980   111164638.392 7      3383.223          46.125    21153925.720   111164638.389 6      3383.223          37.375    21153933.240    86621822.214 6      2636.277          37.250    21153933.900    86621826.225 8      2636.277          49.500
> 2024 05 10 12 21 28.0000000  0 14
G27  20846856.600   109550971.201 7      1793.392          47.750    20846854.780   109550971.206 8      1793.392          48.562    20846862.520    85364415.395 8      1397.448          48.750    20846862.960    85364426.398 8      1397.448          50.562
G21  20845724.300   109545023.597 7      3676.285          46.375    20845722.220   109545023.602 6      3676.285          37.937    20845727.740    85359772.362 6      2864.638          37.937
G10  22011816.360   115672873.111 7      2234.573          47.000    22011815.660   115672873.114 7      2234.573          45.875    22011824.260    90134746.073 7      1741.225          45.875    22011824.860    90134745.082 7      1741.225          47.000
R23  20165864.380   107873781.121 7      2347.429          45.562    20165864.680   107873781.133 7      2347.429          45.500
G16  20649015.140   108511306.815 7       930.533          46.562    20649013.520   108511306.820 6       930.533          40.187    20649018.360    84554275.943 6       725.091          39.625
R07  23311089.000   124786077.271 6      4594.832          41.250    23311089.620   124786077.294 6      4594.832          39.625    23311110.760    97055931.564 7      3573.758          44.875    23311111.240    97055934.567 7      3573.758          45.250
R12  19323111.100   103220593.564 8       746.223          49.312    19323110.780   103220593.563 8       746.223          49.625    19323120.720    80282719.562 8       580.396          51.000    19323120.940    80282720.566 8       580.396          51.062
R22  21011969.300   112163314.823 7       -64.266          45.875    21011968.100   112163314.832 7       -64.266          46.375    21011977.120    87238166.687 8       -49.984          49.187    21011976.880    87238166.683 8       -49.984          49.250
R11  23075123.260   123306466.754 6     -1996.964          38.812    23075121.700   123306466.747 6     -1996.964          38.625    23075143.900    95905112.145 7     -1553.195          46.000    23075144.120    95905110.149 7     -1553.195          46.625
G23  23587445.100   123952856.643 7       357.363          43.125    23587444.000   123952856.648 5       357.363          30.687    23587452.520    96586655.700 5       278.465          30.375    23587453.480    96586676.690 7       278.465          46.375
G26  22750096.400   119552552.983 7      -693.513          43.500    22750095.300   119552552.988 6      -693.513          41.312    22750109.220    93157882.615 6      -540.400          41.187    22750109.860    93157889.613 7      -540.400          46.000
G02  22391867.700   117670061.312 7      4375.900          44.750    22391865.800   117670061.317 5      4375.900          34.562    22391872.200    91690975.766 5      3409.792          34.375
G07  24029625.420   126276543.280 7      3586.702          42.125    24029623.300   126276543.282 4      3586.702          27.687    24029631.860    98397287.194 4      2794.833          27.812    24029632.180    98397339.172 6      2794.833          39.062
G08  21153283.260   111161255.117 7      3383.239          46.875    21153281.900   111161255.116 6      3383.239          37.250    21153289.320    86619185.897 6      2636.290          37.437    21153290.100    86619189.904 8      2636.290          49.437
> 2024 05 10 12 21 29.0000000  0 14
G27  20846515.360   109549177.815 7      1793.332          46.875    20846513.440   109549177.817 8      1793.332          48.875    20846521.240    85363017.947 8      1397.402          49.250    20846521.620    85363028.950 8      1397.402          50.250
G21  20845024.700   109541347.613 7      3675.790          46.625    20845022.880   109541347.618 6      3675.790          37.187    20845028.260    85356907.959 6      2864.252          37.750
G10  22011391.400   115670638.746 7      2234.151          46.687    22011390.560   115670638.754 7      2234.151          45.750    22011399.120    90133005.014 7      1740.897          45.687    22011399.500    90133004.021 7      1740.897          47.312
R23  20165425.600   107871433.754 7      2347.344          45.500    20165425.660   107871433.769 7      2347.344          44.437
G16  20648838.060   108510376.556 7       930.117          46.625    20648836.360   108510376.560 6       930.117          39.750    20648841.400    84553551.065 6       724.767          39.812
R07  23310231.360   124781482.512 6      4594.673          41.250    23310231.080   124781482.533 6      4594.673          39.625    23310252.300    97052357.865 7      3573.635          44.625    23310252.800    97052360.865 7      3573.635          45.125
R12  19322971.760   103219847.681 8       745.553          48.750    19322971.320   103219847.682 8       745.553          49.062    19322981.000    80282139.430 8       579.875          50.750    19322981.100    80282140.432 8       579.875          51.312
R22  21011981.160   112163379.155 7       -64.345          45.937    21011980.000   112163379.174 7       -64.345          46.125    21011989.220    87238216.725 8       -50.046          49.000    21011989.140    87238216.723 8       -50.046          49.062
R11  23075497.320   123308463.968 6     -1997.189          39.312    23075495.480   123308463.953 6     -1997.189          38.625    23075517.580    95906665.526 7     -1553.369          46.687    23075517.580    95906663.530 7     -1553.369          46.062
G23  23587376.720   123952499.464 7       357.101          42.812    23587376.100   123952499.466 5       357.101          30.687    23587384.600    96586377.378 5       278.261          30.375    23587385.320    96586398.377 7       278.261          46.562
G26  22750228.340   119553246.618 7      -693.595          43.062    22750227.260   119553246.618 6      -693.595          41.312    22750241.260    93158423.096 6      -540.464          41.250    22750241.680    93158430.098 7      -540.464          45.750
G02  22391035.240   117665685.549 7      4375.700          44.625    22391033.180   117665685.551 5      4375.700          34.562    22391039.480    91687566.083 5      3409.636          34.937
G07  24028942.680   126272956.760 7      3586.336          42.375    24028940.900   126272956.765 4      3586.336          27.687    24028949.200    98394492.503 4      2794.547          27.812    24028949.400    98394544.481 6      2794.547          39.062
G08  21152639.440   111157871.948 7      3383.181          47.062    21152638.100   111157871.948 6      3383.181          37.625    21152645.700    86616549.664 6      2636.245          37.562    21152646.380    86616553.673 8      2636.245          49.937
> 2024 05 10 12 21 30.0000000  0 14
G27  20846174.060   109547384.752 7      1793.013          47.187    20846172.300   109547384.755 8      1793.013          48.937    20846180.040    85361620.754 8      1397.153          49.437    20846180.420    85361631.755 8      1397.153          50.562
G21  20844325.260   109537672.291 7      3674.995          47.062    20844323.420   109537672.293 6      3674.995          37.687    20844328.880    85354044.072 6      2863.633          37.812
G10  22010966.580   115668405.151 7      2233.274          46.812    22010965.500   115668405.154 7      2233.274          45.875    22010974.040    90131264.548 7      1740.213          45.812    22010974.160    90131263.553 7      1740.213          47.375
R23  20164986.300   107869086.935 7      2346.615          45.312    20164987.180   107869086.953 7      2346.615          44.500
G16  20648661.120   108509446.958 7       929.297          46.625    20648659.500   108509446.963 6       929.297          39.562    20648664.540    84552826.700 6       724.128          39.250
R07  23309372.260   124776888.337 6      4593.924          40.750    23309372.380   124776888.368 6      4593.924          39.625    23309394.540    97048784.633 7      3573.052          45.062    23309394.360    97048787.637 7      3573.052          45.437
R12  19322832.040   103219102.833 8       744.352          49.562    19322831.620   103219102.834 8       744.352          49.625    19322841.580    80281560.098 8       578.940          50.625    19322841.700    80281561.102 8       578.940          51.125
R22  21011993.260   112163443.700 7       -64.567          45.750    21011992.200   112163443.714 7       -64.567          46.250    21012001.280    87238266.920 8       -50.219          49.250    21012001.200    87238266.915 8       -50.219          49.187
R11  23075871.080   123310461.466 6     -1997.781          39.312    23075869.380   123310461.459 6     -1997.781          38.625    23075891.300    95908219.142 7     -1553.830          45.812    23075891.360    95908217.146 7     -1553.830          46.562
G23  23587308.820   123952143.007 7       356.003          43.187    23587308.300   123952143.017 5       356.003          30.312    23587316.800    96586099.620 5       277.405          30.375    23587317.660    96586120.614 7       277.405          46.687
G26  22750360.500   119553940.688 7      -694.189          42.625    22750359.500   119553940.687 6      -694.189          41.187    22750373.380    93158963.915 6      -540.926          40.875    22750373.880    93158970.911 7      -540.926          45.812
G02  22390202.880   117661310.335 7      4374.957          44.437    22390200.500   117661310.343 5      4374.957          35.000    22390206.840    91684156.834 5      3409.057          34.937
G07  24028260.380   126269370.908 7      3585.584          42.625    24028258.740   126269370.910 4      3585.584          27.625    24028266.680    98391698.333 4      2793.961          27.812    24028266.520    98391750.308 6      2793.961          38.875
G08  21151995.740   111154489.077 7      3382.792          46.875    21151994.360   111154489.069 6      3382.792          37.687    21152001.960    86613913.654 6      2635.942          37.187    21152002.680    86613917.661 8      2635.942          49.375
> 2024 05 10 12 21 31.0000000  0 14
G27  20845833.020   109545591.963 7      1792.840          47.437    20845831.060   109545591.968 8      1792.840          48.625    20845838.920    85360223.777 8      1397.019          48.500    20845839.260    85360234.778 8      1397.019          50.500
G21  20843626.140   109533997.573 7      3674.586          47.812    20843624.120   109533997.575 6      3674.586          37.687    20843629.600    85351180.660 6      2863.313          37.937
G10  22010541.520   115666172.261 7      2232.740          47.625    22010540.540   115666172.265 7      2232.740          45.375    22010549.120    90129524.633 7      1739.798          45.875    22010549.200    90129523.640 7      1739.798          47.500
R23  20164547.340   107866740.566 7      2346.322          46.437    20164548.420   107866740.589 7      2346.322          44.687
G16  20648484.500   108508517.947 7       928.903          46.750    20648482.760   108508517.952 6       928.903          39.312    20648487.900    84552102.795 6       723.820          38.937
R07  23308514.180   124772294.674 6      4593.535          40.750    23308513.900   124772294.702 6      4593.535          39.625    23308536.760    97045211.798 7      3572.749          45.437    23308536.400    97045214.798 7      3572.749          45.812
R12  19322692.540   103218358.894 8       743.652          49.250    19322692.340   103218358.898 8       743.652          49.250    19322702.400    80280981.478 8       578.396          50.687    19322702.500    80280982.480 8       578.396          51.125
R22  21012005.520   112163508.440 7       -64.640          45.312    21012004.360   112163508.451 7       -64.640          46.625    21012013.480    87238317.274 8       -50.276          49.125    21012013.240    87238317.272 8       -50.276          49.250
R11  23076244.860   123312459.221 6     -1997.767          39.312    23076243.400   123312459.214 6     -1997.767          38.687    23076265.180    95909772.941 7     -1553.818          46.750    23076265.160    95909770.936 7     -1553.818          46.375
G23  23587241.000   123951787.094 7       355.725          42.437    23587240.500   123951787.104 5       355.725          30.312    23587249.060    96585822.281 5       277.189          30.437    23587249.960    96585843.292 7       277.189          46.812
G26  22750492.740   119554635.114 7      -694.358          42.937    22750491.460   119554635.114 6      -694.358          41.562    22750505.500    93159505.014 6      -541.059          41.375    22750506.160    93159512.004 7      -541.059          46.000
G02  22389370.320   117656935.613 7      4374.682          44.187    22389368.000   117656935.623 5      4374.682          34.875    22389374.360    91680747.967 5      3408.843          34.562
G07  24027578.180   126265785.697 7      3585.057          42.875    24027576.500   126265785.699 4      3585.057          27.625    24027584.320    98388904.659 4      2793.551          27.687    24027584.280    98388956.646 6      2793.551          38.875
G08  21151352.040   111151106.424 7      3382.726          47.062    21151350.720   111151106.416 6      3382.726          37.125    21151358.260    86611277.820 6      2635.890          37.187    21151359.020    86611281.834 8      2635.890          49.500
> 2024 05 10 12 21 32.0000000  0 14
G27  20845491.900   109543799.349 7      1792.770          47.312    20845489.960   109543799.357 8      1792.770          48.625    20845497.740    85358826.935 8      1396.964          48.812    20845498.220    85358837.938 8      1396.964          50.687
G21  20842927.100   109530323.373 7      3674.182          47.187    20842924.880   109530323.376 6      3674.182          37.750    20842930.480    85348317.649 6      2862.999          37.937
G10  22010116.740   115663939.971 7      2232.254          46.750    22010115.840   115663939.974 7      2232.254          45.812    22010124.440    90127785.189 7      1739.419          46.187    22010124.540    90127784.194 7      1739.419          47.125
R23  20164108.780   107864394.587 7      2345.983          46.062    20164110.200   107864394.607 7      2345.983          45.125
G16  20648307.740   108507589.448 7       928.543          46.187    20648305.960   108507589.455 6       928.543          40.125    20648311.220    84551379.287 6       723.540          39.375
R07  23307656.720   124767701.384 6      4593.345          40.750    23307656.420   124767701.407 6      4593.345          39.625    23307678.960    97041639.256 7      3572.602          45.750    23307678.520    97041642.254 7      3572.602          46.000
R12  19322553.400   103217615.769 8       742.911          48.750    19322553.260   103217615.773 8       742.911          49.312    19322563.260    80280403.490 8       577.820          50.562    19322563.380    80280404.492 8       577.820          51.000
R22  21012017.740   112163573.244 7       -64.602          46.187    21012016.580   112163573.256 7       -64.602          46.187    21012025.680    87238367.675 8       -50.246          49.062    21012025.460    87238367.671 8       -50.246          49.687
R11  23076617.640   123314457.122 6     -1997.653          39.687    23076617.160   123314457.136 6     -1997.653          38.687    23076638.900    95911326.887 7     -1553.730          46.625    23076639.260    95911324.890 7     -1553.730          46.000
G23  23587173.420   123951431.722 7       355.413          42.625    23587172.700   123951431.735 5       355.413          30.312    23587181.600    96585545.368 5       276.945          30.437    23587182.120    96585566.362 7       276.945          46.562
G26  22750624.740   119555329.830 7      -694.609          42.875    22750623.760   119555329.825 6      -694.609          41.437    22750637.760    93160046.332 6      -541.254          41.062    22750638.520    93160053.333 7      -541.254          45.937
G02  22388537.640   117652561.274 7      4374.487          44.937    22388535.740   117652561.282 5      4374.487          34.875    22388542.080    91677339.398 5      3408.691          34.562
G07  24026896.120   126262200.974 6      3584.800          41.875    24026894.460   126262200.977 4      3584.800          27.625    24026902.240    98386111.367 4      2793.351          27.687    24026901.460    98386163.349 6      2793.351          38.875
G08  21150708.240   111147723.913 7      3382.667          46.875    21150707.000   111147723.910 6      3382.667          37.687    21150714.500    86608642.099 6      2635.844          37.312    21150715.260    86608646.110 8      2635.844          49.625
> 2024 05 10 12 21 33.0000000  0 14
G27  20845150.940   109542006.789 7      1792.468          47.437    20845148.920   109542006.796 8      1792.468          48.750    20845156.600    85357430.132 8      1396.728          49.125    20845157.320    85357441.133 8      1396.728          50.437
G21  20842227.960   109526649.575 7      3673.497          47.687    20842225.920   109526649.580 6      3673.497          37.687    20842231.440    85345454.953 6      2862.465          37.812
G10  22009692.080   115661708.168 7      2231.560          47.000    22009691.200   115661708.171 7      2231.560          46.000    22009699.680    90126046.120 7      1738.878          45.937    22009699.920    90126045.125 7      1738.878          47.000
R23  20163670.380   107862048.860 7      2345.511          46.125    20163671.500   107862048.877 7      2345.511          45.250
G16  20648131.040   108506661.348 7       927.878          46.687    20648129.560   108506661.350 6       927.878          39.437    20648134.460    84550656.084 6       723.022          39.250
R07  23306798.720   124763108.358 6      4592.769          39.250    23306797.560   124763108.367 6      4592.769          38.625    23306820.820    97038066.906 7      3572.153          45.437    23306820.860    97038069.908 7      3572.153          46.000
R12  19322414.500   103216873.334 8       741.996          49.625    19322414.160   103216873.340 8       741.996          49.625    19322424.320    80279826.040 8       577.108          50.500    19322424.180    80279827.044 8       577.108          51.437
R22  21012029.600   112163638.005 7       -64.752          46.375    21012028.840   112163638.014 7       -64.752          46.437    21012037.860    87238418.032 8       -50.362          49.562    21012037.740    87238418.031 8       -50.362          49.250
R11  23076992.040   123316455.098 6     -1998.087          39.687    23076990.840   123316455.107 6     -1998.087          38.687    23077012.980    95912880.858 7     -1554.068          46.062    23077013.100    95912878.857 7     -1554.068          46.437
G23  23587105.900   123951076.760 7       354.566          43.000    23587105.300   123951076.770 5       354.566          30.687    23587114.080    96585268.770 5       276.285          30.437    23587114.780    96585289.775 7       276.285          46.687
G26  22750756.900   119556024.682 7      -694.992          42.125    22750756.080   119556024.682 6      -694.992          40.812    22750770.060    93160587.766 6      -541.552          40.812    22750770.680    93160594.762 7      -541.552          45.937
G02  22387705.360   117648187.232 7      4373.898          44.687    22387703.280   117648187.237 5      4373.898          34.687    22387709.720    91673931.053 5      3408.232          34.687
G07  24026213.740   126258616.670 6      3584.076          41.812    24026212.460   126258616.674 4      3584.076          27.625    24026220.040    98383318.405 4      2792.787          27.687    24026220.120    98383370.385 6      2792.787          38.625
G08  21150064.540   111144341.401 7      3382.466          47.437    21150063.300   111144341.396 6      3382.466          37.500    21150070.800    86606006.376 6      2635.688          37.625    21150071.760    86606010.387 8      2635.688          49.562
> 2024 05 10 12 21 34.0000000  0 14
G27  20844809.700   109540214.396 7      1792.283          47.125    20844807.840   109540214.403 8      1792.283          49.375    20844815.580    85356033.463 8      1396.584          49.187    20844816.160    85356044.464 8      1396.584          50.562
G21  20841528.980   109522976.266 7      3673.036          47.250    20841526.920   109522976.274 6      3673.036          37.687    20841532.280    85342592.637 6      2862.106          37.750
G10  22009267.420   115659476.957 7      2230.941          47.125    22009266.620   115659476.964 7      2230.941          45.812    22009275.240    90124307.521 7      1738.395          45.750    22009275.180    90124306.526 7      1738.395          47.250
R23  20163232.020   107859703.512 7      2345.132          46.187    20163233.260   107859703.529 7      2345.132          45.187
G16  20647954.500   108505733.729 7       927.347          46.875    20647953.040   108505733.734 6       927.347          39.750    20647957.980    84549933.262 6       722.608          39.562
R07  23305940.360   124758515.668 6      4592.440          39.250    23305939.460   124758515.686 6      4592.440          38.625    23305962.800    97034494.847 7      3571.898          45.250    23305962.740    97034497.850 7      3571.898          45.500
R12  19322275.340   103216131.747 8       741.158          49.750    19322275.440   103216131.751 8       741.158          49.250    19322285.500    80279249.247 8       576.456          50.812    19322285.420    80279250.253 8       576.456          51.062
R22  21012042.040   112163702.850 7       -64.993          46.312    21012041.000   112163702.856 7       -64.993          46.437    21012050.060    87238468.462 8       -50.550          49.625    21012049.800    87238468.461 8       -50.550          49.375
R11  23077365.460   123318453.235 6     -1998.390          39.687    23077365.000   123318453.246 6     -1998.390          38.562    23077386.980    95914434.956 7     -1554.303          46.625    23077387.200    95914432.953 7     -1554.303          46.500
G23  23587038.480   123950722.271 7       354.213          42.125    23587037.700   123950722.279 5       354.213          30.687    23587046.620    96584992.543 5       276.010          30.437    23587047.320    96585013.543 7       276.010          46.750
G26  22750888.840   119556719.803 7      -695.332          42.125    22750888.080   119556719.808 6      -695.332          41.187    22750902.320    93161129.408 6      -541.817          40.812    22750902.500    93161136.402 7      -541.817          46.500
G02  22386873.060   117643813.566 7      4373.366          45.750    22386871.060   117643813.574 5      4373.366          34.937    22386877.500    91670523.010 5      3407.818          35.125
G07  24025531.780   126255032.888 7      3583.445          43.062    24025530.280   126255032.893 4      3583.445          27.625    24025538.200    98380525.847 4      2792.295          27.687    24025538.280    98380577.838 6      2792.295          38.625
G08  21149420.780   111140959.011 7      3382.420          47.312    21149419.680   111140959.010 6      3382.420          37.875    21149427.160    86603370.751 6      2635.652          37.250    21149428.320    86603374.769 8      2635.652          49.500
> 2024 05 10 12 21 35.0000000  0 14
G27  20844468.560   109538422.350 7      1791.901          47.750    20844466.800   109538422.357 8      1791.901          48.625    20844474.560    85354637.063 8      1396.286          48.937    20844475.060    85354648.062 8      1396.286          50.375
G21  20840830.180   109519303.666 7      3672.287          46.875    20840828.060   109519303.674 6      3672.287          37.812    20840833.580    85339730.875 6      2861.522          38.062
G10  22008843.100   115657246.549 7      2229.984          46.750    22008842.280   115657246.554 7      2229.984          45.875    22008850.760    90122569.535 7      1737.650          45.687    22008850.800    90122568.540 7      1737.650          47.250
R23  20162794.200   107857358.726 7      2344.569          45.875    20162794.720   107857358.741 7      2344.569          44.875
G16  20647778.340   108504806.804 7       926.593          46.187    20647776.560   108504806.809 6       926.593          39.750    20647781.440    84549210.977 6       722.020          39.375
R07  23305082.860   124753923.615 6      4591.722          39.250    23305082.580   124753923.633 6      4591.722          38.625    23305104.880    97030923.257 7      3571.339          44.625    23305105.000    97030926.261 7      3571.339          45.312
R12  19322136.820   103215391.216 8       740.018          50.000    19322136.800   103215391.220 8       740.018          49.625    19322146.960    80278673.270 8       575.569          50.375    19322146.760    80278674.274 8       575.569          51.062
R22  21012054.480   112163767.926 7       -65.237          45.937    21012053.060   112163767.940 7       -65.237          46.000    21012062.200    87238519.082 8       -50.740          49.250    21012062.000    87238519.080 8       -50.740          49.375
R11  23077739.420   123320451.625 6     -1998.279          39.062    23077738.640   123320451.634 6     -1998.279          38.562    23077760.960    95915989.243 7     -1554.217          46.750    23077761.440    95915987.246 7     -1554.217          47.000
G23  23586971.220   123950368.481 7       353.518          42.562    23586970.180   123950368.489 5       353.518          30.687    23586979.460    96584716.862 5       275.468          30.687    23586980.220    96584737.857 7       275.468          47.062
G26  22751021.360   119557415.375 7      -695.793          42.875    22751020.480   119557415.375 6      -695.793          41.062    22751034.680    93161671.394 6      -542.176          40.625    22751035.200    93161678.392 7      -542.176          45.937
G02  22386040.680   117639440.467 7      4372.760          44.937    22386038.860   117639440.475 5      4372.760          34.937    22386045.060    91667115.409 5      3407.345          35.125
G07  24024849.640   126251449.800 7      3582.748          42.687    24024848.560   126251449.802 4      3582.748          27.812    24024856.360    98377733.818 4      2791.752          27.687    24024857.240    98377785.764 6      2791.752          38.625
G08  21148777.220   111137576.954 7      3381.939          47.250    21148776.200   111137576.951 6      3381.939          37.562    21148783.620    86600735.389 6      2635.277          37.437    21148784.560    86600739.400 8      2635.277          49.937
