     3.05           OBSERVATION DATA    MIXED               RINEX VERSION / TYPE
TPS2RIN 1.0.29.3920 TPS-USER            20240511 200041 UTC PGM / RUN BY / DATE
Win64 build Feb 23, 2024 (c) Topcon Positioning Systems     COMMENT
SRC: 20240510_MI07.tps                                      COMMENT
OPT: -S -v 3.05                                             COMMENT
Observer            Agency                                  OBSERVER / AGENCY
O0M3X53SBGM         TPS HIPER_SR        4.8 HSR Jul,08,2022 REC # / TYPE / VERS
FW: 4.8 HSR Jul,08,2022 p3                                  COMMENT
SN: HiPer SR 1212-12575                                     COMMENT
000                 TPSHIPER_SR     NONE                    ANT # / TYPE
        1.8000        0.0000        0.0000                  ANTENNA: DELTA H/E/N
MI07                                                        MARKER NAME
  5384233.9029 -1590347.4600  3018190.4927                  APPROX POSITION XYZ
  2024     5    10    12    51   33.0000000     GPS         TIME OF FIRST OBS
  2024     5    10    13     6   33.0000000     GPS         TIME OF LAST OBS
     1.000                                                  INTERVAL
   900 EPOCHS                                               COMMENT
G   16 C1C L1C D1C S1C C1W L1W D1W S1W C2W L2W D2W S2W C2X  SYS / # / OBS TYPES
       L2X D2X S2X                                          SYS / # / OBS TYPES
R   16 C1C L1C D1C S1C C1P L1P D1P S1P C2P L2P D2P S2P C2C  SYS / # / OBS TYPES
       L2C D2C S2C                                          SYS / # / OBS TYPES
    17                                                      # OF SATELLITES
   G02   900   900   900   900   900   900   900   900   900PRN / # OF OBS
         900   900   900     0     0     0     0            PRN / # OF OBS
   G07   900   900   900   900   900   900   900   900   900PRN / # OF OBS
         900   900   900   900   900   900   900            PRN / # OF OBS
   G08   900   900   900   900   900   900   900   900   900PRN / # OF OBS
         900   900   900   900   900   900   900            PRN / # OF OBS
   G10   900   900   900   900   900   900   900   900   900PRN / # OF OBS
         900   900   900   900   900   900   900            PRN / # OF OBS
   G16   900   900   900   900   900   900   900   900   900PRN / # OF OBS
         900   900   900     0     0     0     0            PRN / # OF OBS
   G21   900   900   900   900   900   900   900   900   900PRN / # OF OBS
         900   900   900     0     0     0     0            PRN / # OF OBS
   G26   508   508   508   508   508   508   508   508   508PRN / # OF OBS
         508   508   508   508   508   508   508            PRN / # OF OBS
   G27   900   900   900   900   900   900   900   900   900PRN / # OF OBS
         900   900   900   900   900   900   900            PRN / # OF OBS
   G30   105   105   105   105   105   105   105   105   105PRN / # OF OBS
         105   105   105   105   105   105   105            PRN / # OF OBS
   R07   900   900   900   900   900   900   900   900   900PRN / # OF OBS
         900   900   900   900   900   900   900            PRN / # OF OBS
   R08   675   675   675   675   670   670   670   670   670PRN / # OF OBS
         670   670   670   669   669   669   669            PRN / # OF OBS
   R12   900   900   900   900   900   900   900   900   900PRN / # OF OBS
         900   900   900   900   900   900   900            PRN / # OF OBS
   R13   780   780   780   780   774   774   774   774   774PRN / # OF OBS
         774   774   774   773   773   773   773            PRN / # OF OBS
   R14   900   900   900   900   900   900   900   900   900PRN / # OF OBS
         900   900   900   900   900   900   900            PRN / # OF OBS
   R22   900   900   900   900   900   900   900   900   900PRN / # OF OBS
         900   900   900   900   900   900   900            PRN / # OF OBS
   R23   900   900   900   900   900   900   900   900     0PRN / # OF OBS
           0     0     0     0     0     0     0            PRN / # OF OBS
   R24   900   900   900   900   900   900   900   900   900PRN / # OF OBS
         900   900   900   900   900   900   900            PRN / # OF OBS
G L1C                                                       SYS / PHASE SHIFT
G L1W -0.25000                                              SYS / PHASE SHIFT
G L2W  0.00000                                              SYS / PHASE SHIFT
G L2X  0.25000                                              SYS / PHASE SHIFT
R L1C                                                       SYS / PHASE SHIFT
R L1P -0.25000                                              SYS / PHASE SHIFT
R L2P -0.25000                                              SYS / PHASE SHIFT
R L2C                                                       SYS / PHASE SHIFT
  8 R07  5 R08  6 R12 -1 R13 -2 R14 -7 R22 -3 R23  3 R24  2 GLONASS SLOT / FRQ #
                                                            GLONASS COD/PHS/BIS
    18    18  1929     7GPS                                 LEAP SECONDS
                                                            END OF HEADER
> 2024 05 10 12 51 33.0000000  0 14
R07  22801549.280   122058480.182 6      3689.912          41.000    22801549.340   122058480.210 6      3689.912          39.875    22801568.440    94934448.986 7      2869.931          43.750    22801567.880    94934450.974 7      2869.931          43.937
R24  22577746.240   120733355.883 7      4215.761          43.250    22577743.960   120733355.895 7      4215.761          43.375    22577760.020    93903781.684 7      3278.925          44.750    22577760.020    93903779.684 7      3278.925          45.562
G16  21371480.300   112307881.535 7       111.244          46.312    21371479.120   112307881.540 6       111.244          38.875    21371485.340    87512661.157 6        86.684          38.875
G08  20926160.140   109967713.465 8      3169.331          49.250    20926159.020   109967713.470 8      3169.331          48.500    20926166.720    85689154.690 8      2469.608          48.562    20926167.420    85689158.691 8      2469.608          50.125
G26  23949439.480   125855160.699 6     -1023.894          37.687    23949439.280   125855160.714 5     -1023.894          35.375    23949460.160    98069035.495 5      -797.840          34.187    23949460.560    98069034.486 7      -797.840          44.625
R14  23557907.340   125576895.345 7      6280.574          46.500    23557906.860   125576895.346 7      6280.574          45.812    23557918.960    97670972.615 7      4884.891          42.187    23557920.080    97670974.614 7      4884.891          43.000
G10  22323267.920   117309566.489 7      1197.700          46.562    22323267.200   117309566.488 7      1197.700          45.312    22323276.040    91410082.969 7       933.273          45.312    22323276.160    91410084.974 7       933.273          47.312
G27  21177663.080   111289368.596 7      1512.947          47.937    21177661.880   111289368.598 8      1512.947          48.250    21177669.660    86719017.258 8      1178.920          48.312    21177669.960    86719019.258 8      1178.920          49.750
G07  23851559.100   125340788.489 7      2685.935          43.812    23851558.920   125340788.489 5      2685.935          30.125    23851566.300    97668155.953 5      2092.936          30.062    23851566.940    97668180.950 6      2092.936          41.625
R12  20198878.800   107898783.556 8      -556.679          48.562    20198878.300   107898783.541 8      -556.679          49.125    20198891.060    83921324.884 8      -432.972          50.500    20198891.060    83921326.889 8      -432.972          51.125
R22  21935971.540   117095698.773 7       -41.200          44.000    21935971.800   117095698.776 7       -41.200          44.812    21935982.040    91074482.794 7       -32.045          47.000    21935981.960    91074480.795 7       -32.045          46.937
G21  20628972.800   108405985.118 8      2835.215          48.750    20628970.920   108405985.123 6      2835.215          40.375    20628976.240    84472208.517 6      2209.259          40.812
R23  20364317.860   108935372.991 7      1850.778          44.250    20364316.960   108935372.998 7      1850.778          44.375
G02  21900580.560   115088311.334 7      3717.936          45.437    21900578.140   115088311.345 6      3717.936          37.750    21900583.420    89679227.242 6      2897.093          37.750
> 2024 05 10 12 51 34.0000000  0 14
R07  22800859.580   122054790.540 6      3689.327          41.000    22800860.060   122054790.587 6      3689.327          39.875    22800879.280    94931579.281 7      2869.477          43.500    22800878.820    94931581.276 7      2869.477          44.312
R24  22576958.020   120729140.189 7      4215.653          43.250    22576955.240   120729140.204 7      4215.653          43.375    22576971.640    93900502.814 7      3278.841          44.875    22576971.640    93900500.816 7      3278.841          45.000
G16  21371459.220   112307770.394 7       110.997          47.125    21371458.000   112307770.399 6       110.997          38.187    21371464.120    87512574.547 6        86.491          38.375
G08  20925557.160   109964544.082 8      3169.329          48.375    20925555.920   109964544.082 8      3169.329          48.500    20925563.620    85686685.037 8      2469.607          48.687    20925564.220    85686689.040 8      2469.607          50.750
G26  23949634.580   125856184.593 6     -1024.008          37.812    23949634.260   125856184.608 5     -1024.008          35.375    23949655.140    98069833.320 5      -797.928          34.812    23949655.160    98069832.317 7      -797.928          44.562
R14  23556729.180   125570614.820 7      6280.447          46.937    23556728.680   125570614.818 7      6280.447          45.875    23556740.620    97666087.762 7      4884.792          42.187    23556742.000    97666089.757 7      4884.792          43.000
G10  22323040.160   117308368.995 7      1197.236          46.500    22323039.340   117308369.000 7      1197.236          45.062    22323048.200    91409149.857 7       932.911          45.125    22323048.440    91409151.859 7       932.911          47.000
G27  21177375.240   111287855.650 8      1512.812          48.062    21177373.960   111287855.652 8      1512.812          48.375    21177381.740    86717838.339 8      1178.815          48.750    21177382.080    86717840.338 8      1178.815          49.812
G07  23851048.080   125338102.732 7      2685.478          44.125    23851047.840   125338102.732 5      2685.478          30.125    23851054.980    97666063.153 5      2092.580          30.187    23851056.060    97666088.154 7      2092.580          42.000
R12  20198983.320   107899340.497 8      -557.240          49.000    20198982.700   107899340.490 8      -557.240          48.625    20198995.340    83921758.056 8      -433.409          50.187    20198995.500    83921760.067 8      -433.409          50.937
R22  21935979.180   117095739.854 7       -40.975          44.250    21935979.180   117095739.853 7       -40.975          44.812    21935989.820    91074514.736 7       -31.869          46.937    21935989.640    91074512.735 7       -31.869          46.562
G21  20628433.320   108403150.074 8      2834.820          48.375    20628431.440   108403150.079 6      2834.820          40.687    20628436.660    84469999.394 6      2208.951          40.812
R23  20363972.020   108933522.226 7      1850.669          45.000    20363970.940   108933522.241 7      1850.669          44.375
G02  21899872.840   115084593.555 7      3717.556          46.250    21899870.760   115084593.567 6      3717.556          38.125    21899875.820    89676330.271 6      2896.797          37.875
> 2024 05 10 12 51 36.0000000  0 14
R07  22799481.240   122047413.083 6      3688.299          40.250    22799482.220   122047413.109 6      3688.299          39.625    22799500.780    94925841.261 7      2868.677          43.375    22799500.740    94925843.264 7      2868.677          44.125
R24  22575381.440   120720709.588 7      4215.310          43.750    22575378.540   120720709.602 7      4215.310          43.875    22575395.400    93893945.694 7      3278.575          45.250    22575394.700    93893943.685 7      3278.575          45.062
G16  21371417.460   112307549.388 7       110.335          47.000    21371415.980   112307549.390 6       110.335          37.937    21371422.240    87512402.325 6        85.976          37.625
G08  20924351.140   109958205.729 8      3169.297          48.687    20924349.760   109958205.729 8      3169.297          48.500    20924357.460    85681746.056 8      2469.582          48.625    20924358.380    85681750.061 8      2469.582          50.062
G26  23950023.980   125858232.690 6     -1023.898          38.000    23950024.100   125858232.708 5     -1023.898          35.500    23950044.820    98071429.217 5      -797.842          35.000    23950044.920    98071428.206 7      -797.842          44.625
R14  23554372.580   125558054.621 7      6280.032          46.375    23554372.680   125558054.621 7      6280.032          45.812    23554384.480    97656318.716 6      4884.470          41.875    23554385.460    97656320.707 7      4884.470          42.812
G10  22322584.740   117305975.686 7      1196.305          47.625    22322583.960   117305975.691 7      1196.305          45.125    22322592.660    91407284.937 7       932.185          44.937    22322592.860    91407286.946 7       932.185          47.250
G27  21176799.360   111284830.234 7      1512.802          47.437    21176798.300   111284830.236 8      1512.802          48.562    21176806.000    86715480.864 8      1178.807          48.937    21176806.360    86715482.862 8      1178.807          49.812
G07  23850026.640   125332732.680 7      2684.775          43.375    23850025.780   125332732.682 5      2684.775          30.125    23850033.160    97661878.695 5      2092.032          30.187    23850034.100    97661903.688 6      2092.032          41.750
R12  20199191.940   107900456.248 8      -558.202          48.937    20199190.960   107900456.249 8      -558.202          48.562    20199204.640    83922625.850 8      -434.157          50.250    20199204.520    83922627.863 8      -434.157          51.062
R22  21935994.700   117095821.804 7       -40.669          43.625    21935994.560   117095821.821 7       -40.669          44.937    21936004.960    91074578.460 7       -31.631          46.875    21936005.040    91074576.460 7       -31.631          46.562
G21  20627354.820   108397481.252 8      2834.275          48.625    20627352.720   108397481.254 6      2834.275          40.562    20627358.060    84465582.130 6      2208.526          40.062
R23  20363279.840   108929821.308 7      1850.526          44.750    20363279.360   108929821.315 7      1850.526          44.375
G02  21898458.040   115077159.027 7      3717.182          46.812    21898456.000   115077159.030 6      3717.182          37.875    21898460.980    89670537.132 6      2896.505          37.750
> 2024 05 10 12 51 37.0000000  0 14
R07  22798792.400   122043725.173 6      3687.564          40.250    22798793.400   122043725.196 6      3687.564          39.625    22798811.820    94922972.893 7      2868.105          43.375    22798811.780    94922974.892 7      2868.105          44.625
R24  22574593.400   120716494.560 7      4214.876          43.125    22574590.480   120716494.566 7      4214.876          43.062    22574607.240    93890667.336 7      3278.237          45.000    22574606.460    93890665.328 7      3278.237          45.062
G16  21371396.340   112307439.445 8       109.729          48.062    21371395.080   112307439.450 6       109.729          37.875    21371401.320    87512316.648 6        85.503          38.000
G08  20923747.920   109955036.698 8      3168.873          48.437    20923746.700   109955036.701 8      3168.873          48.437    20923754.380    85679276.684 8      2469.252          48.312    20923755.300    85679280.687 8      2469.252          49.937
G26  23950219.360   125859256.860 6     -1024.195          37.750    23950218.900   125859256.878 6     -1024.195          36.062    23950239.680    98072227.259 5      -798.074          35.625    23950240.220    98072226.246 7      -798.074          44.875
R14  23553194.600   125551774.901 7      6279.571          46.125    23553194.480   125551774.901 7      6279.571          46.187    23553206.320    97651434.487 7      4884.111          42.312    23553207.360    97651436.480 7      4884.111          42.750
G10  22322357.140   117304779.774 7      1195.601          46.937    22322356.440   117304779.776 7      1195.601          45.000    22322365.160    91406353.053 7       931.637          44.937    22322365.620    91406355.060 7       931.637          47.125
G27  21176511.460   111283317.725 7      1512.392          47.562    21176510.480   111283317.724 8      1512.392          48.812    21176518.100    86714302.283 8      1178.488          48.500    21176518.600    86714304.284 8      1178.488          50.125
G07  23849515.740   125330048.339 7      2684.102          43.812    23849514.980   125330048.342 5      2684.102          30.437    23849522.500    97659786.995 5      2091.508          30.562    23849523.600    97659811.988 6      2091.508          41.750
R12  20199296.600   107901015.003 8      -559.104          48.375    20199295.720   107901014.993 8      -559.104          48.250    20199309.460    83923060.422 8      -434.859          51.187    20199309.340    83923062.432 8      -434.859          51.187
R22  21936001.900   117095862.651 7       -40.924          43.875    21936002.220   117095862.666 7       -40.924          44.562    21936012.800    91074610.222 7       -31.830          46.812    21936012.740    91074608.221 7       -31.830          46.500
G21  20626815.380   108394647.435 7      2833.527          47.937    20626813.440   108394647.439 6      2833.527          40.937    20626818.860    84463373.961 6      2207.943          40.812
R23  20362933.920   108927971.073 7      1850.060          44.750    20362933.540   108927971.090 7      1850.060          44.562
G02  21897750.920   115073442.230 7      3716.545          46.375    21897748.860   115073442.238 6      3716.545          37.687    21897753.660    89667640.931 6      2896.009          37.625
> 2024 05 10 12 51 38.0000000  0 14
R07  22798103.880   122040037.986 6      3686.758          40.250    22798104.140   122040038.015 6      3686.758          39.625    22798122.900    94920105.090 7      2867.479          43.375    22798123.120    94920107.092 7      2867.479          44.062
R24  22573805.260   120712279.799 7      4214.544          43.625    22573801.760   120712279.800 7      4214.544          43.062    22573818.920    93887389.191 7      3277.979          44.812    22573818.160    93887387.183 7      3277.979          44.875
G16  21371375.560   112307330.001 7       109.161          47.437    21371374.180   112307330.011 6       109.161          38.312    21371380.460    87512231.365 6        85.060          38.250
G08  20923144.900   109951867.862 8      3168.624          48.437    20923143.660   109951867.864 8      3168.624          48.187    20923151.420    85676807.461 7      2469.058          47.687    20923152.380    85676811.466 8      2469.058          49.375
G26  23950414.000   125860281.232 6     -1024.352          38.062    23950413.840   125860281.244 6     -1024.352          36.062    23950434.660    98073025.455 5      -798.197          35.625    23950435.000    98073024.435 7      -798.197          44.937
R14  23552016.980   125545495.586 7      6279.057          46.562    23552016.440   125545495.583 7      6279.057          45.812    23552027.840    97646550.573 7      4883.711          42.312    23552029.160    97646552.564 7      4883.711          42.437
G10  22322129.800   117303584.511 7      1194.839          47.250    22322128.920   117303584.518 7      1194.839          44.500    22322137.720    91405421.686 7       931.043          44.500    22322138.160    91405423.692 7       931.043          46.375
G27  21176223.880   111281805.454 7      1512.033          47.437    21176222.720   111281805.459 8      1512.033          48.375    21176230.340    86713123.895 8      1178.207          48.062    21176230.980    86713125.893 8      1178.207          49.562
G07  23849005.300   125327364.551 7      2683.515          43.875    23849004.300   125327364.550 5      2683.515          30.437    23849011.760    97657695.723 5      2091.051          30.562    23849012.720    97657720.720 7      2091.051          42.000
R12  20199401.580   107901574.422 8      -559.724          48.437    20199400.240   107901574.415 8      -559.724          48.500    20199414.240    83923495.518 8      -435.341          49.500    20199413.960    83923497.529 8      -435.341          50.687
R22  21936009.360   117095903.469 7       -40.865          43.500    21936009.580   117095903.478 7       -40.865          45.312    21936020.360    91074641.962 7       -31.784          46.312    21936020.400    91074639.964 7       -31.784          46.187
G21  20626276.380   108391814.109 7      2832.977          47.875    20626274.240   108391814.116 6      2832.977          40.312    20626279.540    84461166.180 6      2207.514          40.375
R23  20362588.040   108926121.110 7      1849.810          44.625    20362587.960   108926121.130 7      1849.810          44.375
G02  21897043.420   115069725.864 7      3716.006          46.187    21897041.600   115069725.874 6      3716.006          37.687    21897046.460    89664745.065 6      2895.589          37.812
> 2024 05 10 12 51 39.0000000  0 14
R07  22797415.320   122036351.436 6      3686.181          40.250    22797415.700   122036351.457 6      3686.181          39.625    22797434.120    94917237.771 7      2867.030          43.500    22797434.440    94917239.776 7      2867.030          43.437
R24  22573017.080   120708065.311 7      4214.303          43.000    22573014.100   120708065.320 7      4214.303          43.500    22573030.840    93884111.258 7      3277.791          44.687    22573029.980    93884109.250 7      3277.791          45.062
G16  21371354.800   112307220.990 7       108.775          47.500    21371353.500   112307220.998 6       108.775          38.187    21371359.660    87512146.414 6        84.760          38.312
G08  20922541.840   109948699.181 8      3168.517          48.625    20922540.740   109948699.180 8      3168.517          48.625    20922548.400    85674338.358 8      2468.974          48.250    20922549.180    85674342.359 8      2468.974          50.312
G26  23950608.980   125861305.730 6     -1024.538          38.125    23950608.840   125861305.735 5     -1024.538          35.812    23950629.540    98073823.747 5      -798.341          35.312    23950630.120    98073822.739 7      -798.341          44.500
R14  23550838.960   125539216.572 7      6278.900          46.687    23550838.540   125539216.570 7      6278.900          45.687    23550850.240    97641666.890 6      4883.589          41.437    23550851.000    97641668.881 7      4883.589          42.562
G10  22321902.300   117302389.794 7      1194.439          47.187    22321901.500   117302389.797 7      1194.439          45.187    22321910.360    91404490.731 7       930.732          45.062    22321910.700    91404492.738 7       930.732          46.875
G27  21175936.200   111280293.339 7      1512.073          47.750    21175934.980   111280293.346 8      1512.073          48.937    21175942.580    86711945.617 8      1178.239          48.937    21175943.020    86711947.615 8      1178.239          49.937
G07  23848494.640   125324681.272 7      2683.054          45.187    23848493.820   125324681.269 5      2683.054          30.437    23848501.280    97655604.848 5      2090.691          30.562    23848502.240    97655629.853 7      2090.691          42.000
R12  20199506.200   107902134.475 8      -560.365          48.312    20199505.020   107902134.468 8      -560.365          48.375    20199519.160    83923931.102 8      -435.840          50.875    20199519.080    83923933.113 8      -435.840          51.875
R22  21936017.140   117095944.230 7       -40.669          44.312    21936017.480   117095944.237 7       -40.669          45.000    21936028.160    91074673.659 7       -31.632          46.750    21936028.140    91074671.661 7       -31.632          47.000
G21  20625737.240   108388981.219 7      2832.704          47.937    20625735.240   108388981.224 6      2832.704          40.750    20625740.500    84458958.730 6      2207.302          40.875
R23  20362242.400   108924271.388 7      1849.579          43.750    20362242.000   108924271.398 7      1849.579          44.312
G02  21896336.320   115066009.860 7      3715.769          47.062    21896334.520   115066009.867 6      3715.769          37.812    21896339.400    89661849.474 6      2895.405          37.812
> 2024 05 10 12 51 40.0000000  0 14
R07  22796726.600   122032665.518 6      3685.712          40.250    22796727.040   122032665.541 6      3685.712          39.875    22796745.620    94914370.952 7      2866.665          43.250    22796745.840    94914372.961 7      2866.665          44.062
R24  22572229.100   120703851.141 7      4214.118          44.312    22572226.100   120703851.140 7      4214.118          43.312    22572242.620    93880833.571 7      3277.647          45.062    22572242.400    93880831.564 7      3277.647          45.000
G16  21371334.120   112307112.434 7       108.310          47.875    21371332.780   112307112.442 6       108.310          37.937    21371339.000    87512061.819 6        84.397          38.125
G08  20921939.060   109945530.657 8      3168.433          48.750    20921937.760   109945530.659 8      3168.433          48.187    20921945.500    85671869.381 8      2468.909          48.000    20921946.440    85671873.384 8      2468.909          49.750
G26  23950804.620   125862330.378 6     -1024.688          38.125    23950803.900   125862330.382 6     -1024.688          36.062    23950824.500    98074622.163 5      -798.458          35.687    23950824.740    98074621.158 7      -798.458          44.562
R14  23549661.000   125532937.963 7      6278.438          46.437    23549660.780   125532937.956 7      6278.438          46.250    23549672.340    97636783.523 7      4883.229          42.000    23549673.100    97636785.517 7      4883.229          42.375
G10  22321675.080   117301195.672 7      1193.862          47.687    22321674.340   117301195.677 7      1193.862          45.187    22321683.160    91403560.246 7       930.282          45.000    22321683.460    91403562.251 7       930.282          46.437
G27  21175648.740   111278781.457 8      1511.804          48.000    21175647.320   111278781.462 8      1511.804          48.812    21175654.900    86710767.525 8      1178.029          48.500    21175655.320    86710769.521 8      1178.029          49.312
G07  23847983.780   125321998.539 7      2682.471          44.750    23847983.200   125321998.536 5      2682.471          30.437    23847990.840    97653514.405 5      2090.237          30.562    23847991.680    97653539.410 6      2090.237          41.750
R12  20199611.440   107902695.166 8      -561.042          48.625    20199610.120   107902695.161 8      -561.042          48.687    20199624.400    83924367.188 8      -436.366          50.250    20199623.880    83924369.198 8      -436.366          52.000
R22  21936024.900   117095984.971 7       -40.663          44.187    21936025.140   117095984.982 7       -40.663          44.937    21936035.620    91074705.342 7       -31.626          47.000    21936035.920    91074703.344 7       -31.626          46.500
G21  20625198.220   108386148.802 8      2832.246          48.000    20625196.260   108386148.809 6      2832.246          40.312    20625201.500    84456751.656 6      2206.945          40.125
R23  20361896.840   108922421.899 7      1849.307          44.812    20361896.260   108922421.909 7      1849.307          45.000
G02  21895629.580   115062294.227 7      3715.495          46.625    21895627.480   115062294.234 6      3715.495          37.687    21895632.360    89658954.181 6      2895.191          38.000
> 2024 05 10 12 51 41.0000000  0 14
R07  22796038.120   122028980.307 6      3684.916          40.250    22796038.200   122028980.340 6      3684.916          39.875    22796057.220    94911504.691 7      2866.046          42.875    22796057.280    94911506.698 7      2866.046          43.312
R24  22571440.820   120699637.300 7      4213.765          44.312    22571438.520   120699637.307 7      4213.765          42.937    22571454.620    93877556.151 7      3277.373          44.500    22571454.660    93877554.141 7      3277.373          44.687
G16  21371313.520   112307004.393 7       107.787          47.562    21371312.260   112307004.401 6       107.787          38.437    21371318.480    87511977.627 6        83.990          37.812
G08  20921336.180   109942362.365 8      3168.313          49.250    20921334.900   109942362.367 7      3168.313          47.312    20921342.580    85669400.580 7      2468.815          47.375    20921343.340    85669404.583 8      2468.815          49.250
G26  23950999.180   125863355.236 6     -1024.946          38.250    23950999.180   125863355.248 6     -1024.946          36.312    23951019.600    98075420.752 5      -798.659          35.562    23951019.600    98075419.751 7      -798.659          44.687
R14  23548483.340   125526659.728 7      6278.093          46.875    23548482.880   125526659.726 7      6278.093          45.562    23548494.440    97631900.451 6      4882.961          41.437    23548495.100    97631902.449 7      4882.961          42.375
G10  22321447.960   117300002.211 7      1193.218          47.375    22321447.120   117300002.208 7      1193.218          44.625    22321455.940    91402630.269 7       929.780          44.562    22321456.060    91402632.269 7       929.780          46.437
G27  21175360.900   111277269.823 8      1511.621          48.750    21175359.720   111277269.830 8      1511.621          48.062    21175367.280    86709589.628 7      1177.886          47.500    21175367.960    86709591.626 8      1177.886          49.250
G07  23847473.520   125319316.372 7      2681.924          44.500    23847472.720   125319316.369 5      2681.924          30.687    23847480.500    97651424.398 5      2089.811          30.562    23847480.960    97651449.399 6      2089.811          41.687
R12  20199716.240   107903256.564 8      -561.637          49.187    20199715.360   107903256.565 8      -561.637          48.500    20199729.440    83924803.825 8      -436.829          49.062    20199729.260    83924805.831 8      -436.829          49.375
R22  21936032.580   117096025.759 7       -40.701          44.000    21936032.660   117096025.768 7       -40.701          44.937    21936043.440    91074737.062 7       -31.656          45.625    21936043.580    91074735.064 7       -31.656          45.125
G21  20624659.220   108383316.921 8      2831.723          48.062    20624657.320   108383316.923 6      2831.723          40.375    20624662.600    84454544.989 6      2206.537          40.250
R23  20361551.120   108920572.680 7      1849.255          44.562    20361550.500   108920572.697 7      1849.255          44.875
G02  21894922.580   115058579.072 7      3715.016          46.375    21894920.600   115058579.082 6      3715.016          37.875    21894925.240    89656059.257 6      2894.818          37.687
> 2024 05 10 12 51 42.0000000  0 14
R07  22795350.360   122025295.678 6      3684.115          40.750    22795350.680   122025295.709 6      3684.115          39.875    22795368.920    94908638.877 7      2865.423          42.187    22795368.900    94908640.882 7      2865.423          42.875
R24  22570653.000   120695423.670 7      4213.318          44.187    22570650.440   120695423.680 7      4213.318          42.937    22570666.420    93874278.882 7      3277.025          43.687    22570666.820    93874276.877 7      3277.025          44.375
G16  21371293.000   112306896.760 7       107.231          46.437    21371291.720   112306896.762 6       107.231          37.750    21371298.000    87511893.751 6        83.556          37.562
G08  20920733.320   109939194.212 8      3167.942          49.062    20920732.000   109939194.216 7      3167.942          47.125    20920739.760    85666931.891 7      2468.527          47.000    20920740.520    85666935.894 8      2468.527          48.187
G26  23951194.640   125864380.214 6     -1025.274          38.500    23951194.160   125864380.225 6     -1025.274          36.125    23951214.560    98076219.428 5      -798.915          35.812    23951214.620    98076218.421 7      -798.915          44.312
R14  23547305.500   125520381.743 7      6277.741          46.687    23547305.320   125520381.743 7      6277.741          46.000    23547316.840    97627017.578 6      4882.687          41.437    23547317.580    97627019.576 6      4882.687          41.375
G10  22321220.920   117298809.268 7      1192.545          47.375    22321220.120   117298809.273 7      1192.545          43.750    22321229.020    91401700.709 7       929.256          43.750    22321228.740    91401702.705 7       929.256          45.625
G27  21175073.080   111275758.372 7      1511.155          47.312    21175071.940   111275758.379 7      1511.155          46.250    21175079.600    86708411.870 7      1177.523          46.000    21175080.360    86708413.869 7      1177.523          47.875
G07  23846963.200   125316634.696 7      2681.250          44.062    23846962.440   125316634.695 5      2681.250          30.687    23846970.000    97649334.780 5      2089.286          30.562    23846970.740    97649359.788 6      2089.286          41.687
R12  20199821.360   107903818.620 8      -562.579          48.125    20199820.660   107903818.618 7      -562.579          47.812    20199834.740    83925240.967 7      -437.561          47.125    20199834.400    83925242.973 7      -437.561          47.500
R22  21936040.040   117096066.467 7       -40.828          44.375    21936040.300   117096066.473 7       -40.828          45.187    21936050.920    91074768.724 7       -31.755          44.500    21936051.040    91074766.726 7       -31.755          44.500
G21  20624120.380   108380485.440 7      2831.156          47.375    20624118.520   108380485.445 6      2831.156          39.312    20624123.900    84452338.644 6      2206.095          39.437
R23  20361205.380   108918723.699 7      1848.831          43.937    20361204.980   108918723.714 7      1848.831          44.750
G02  21894215.420   115054864.248 7      3714.527          47.062    21894213.680   115054864.253 6      3714.527          37.812    21894218.440    89653164.591 6      2894.437          37.625
> 2024 05 10 12 51 43.0000000  0 14
R07  22794662.320   122021611.513 6      3683.970          40.750    22794661.460   122021611.539 6      3683.970          39.625    22794680.640    94905773.415 7      2865.310          42.187    22794680.680    94905775.412 7      2865.310          42.562
R24  22569865.080   120691210.113 7      4213.465          44.187    22569862.480   120691210.117 7      4213.465          43.500    22569878.460    93871001.670 7      3277.139          43.625    22569878.940    93870999.670 7      3277.139          45.437
G16  21371272.720   112306789.399 7       107.240          47.562    21371271.420   112306789.404 6       107.240          38.375    21371277.500    87511810.085 6        83.563          37.812
G08  20920130.440   109936026.050 8      3168.171          48.625    20920129.100   109936026.053 7      3168.171          47.250    20920136.820    85664463.192 7      2468.704          47.000    20920137.680    85664467.193 8      2468.704          49.750
G26  23951389.740   125865405.151 6     -1024.928          39.250    23951389.040   125865405.159 6     -1024.928          36.250    23951409.620    98077018.070 5      -798.645          35.500    23951409.800    98077017.059 7      -798.645          43.937
R14  23546127.900   125514103.923 7      6277.727          47.125    23546127.440   125514103.924 7      6277.727          46.125    23546139.100    97622134.823 6      4882.677          40.937    23546139.920    97622136.819 6      4882.677          41.250
G10  22320994.360   117297616.767 7      1192.281          46.750    22320993.260   117297616.771 7      1192.281          44.187    22321002.140    91400771.483 7       929.050          44.312    22321002.280    91400773.485 7       929.050          45.875
G27  21174785.540   111274246.940 8      1511.338          48.375    21174784.360   111274246.942 7      1511.338          47.625    21174792.060    86707234.125 7      1177.666          47.375    21174792.880    86707236.123 8      1177.666          48.937
G07  23846452.900   125313953.374 7      2681.129          44.937    23846452.300   125313953.371 5      2681.129          30.687    23846459.860    97647245.433 5      2089.191          30.562    23846460.280    97647270.440 6      2089.191          41.312
R12  20199926.980   107904381.108 8      -562.662          48.062    20199926.160   107904381.107 8      -562.662          48.875    20199939.940    83925678.446 8      -437.626          48.875    20199939.860    83925680.451 8      -437.626          49.812
R22  21936047.940   117096106.953 7       -40.363          44.187    21936047.940   117096106.960 7       -40.363          45.687    21936058.680    91074800.216 7       -31.394          45.687    21936058.480    91074798.213 7       -31.394          45.250
G21  20623581.560   108377654.255 7      2831.078          47.875    20623579.680   108377654.263 6      2831.078          40.437    20623585.000    84450132.528 6      2206.035          39.875
R23  20360859.900   108916874.785 7      1848.945          45.500    20360859.460   108916874.800 7      1848.945          44.125
G02  21893508.580   115051149.639 7      3714.517          46.500    21893506.720   115051149.644 6      3714.517          37.687    21893511.520    89650270.089 6      2894.429          37.875
> 2024 05 10 12 51 44.0000000  0 14
R07  22793974.720   122017927.969 6      3683.206          41.062    22793973.740   122017927.997 6      3683.206          39.625    22793992.540    94902908.441 7      2864.716          42.875    22793992.600    94902910.441 7      2864.716          43.125
R24  22569077.360   120686996.796 7      4213.207          44.562    22569075.160   120686996.789 7      4213.207          43.312    22569090.200    93867724.644 7      3276.939          44.187    22569090.820    93867722.648 7      3276.939          45.250
G16  21371252.380   112306682.449 7       106.714          46.875    21371250.920   112306682.456 6       106.714          38.750    21371257.180    87511726.741 6        83.154          38.437
G08  20919527.660   109932858.000 8      3168.023          48.250    20919526.280   109932858.002 8      3168.023          48.375    20919533.860    85661994.581 8      2468.589          48.062    20919534.820    85661998.580 8      2468.589          49.937
G26  23951585.180   125866430.191 6     -1025.081          38.812    23951584.160   125866430.196 6     -1025.081          36.687    23951604.740    98077816.792 5      -798.765          35.937    23951604.960    98077815.777 7      -798.765          44.937
R14  23544950.540   125507826.346 7      6277.464          46.750    23544950.020   125507826.354 7      6277.464          46.250    23544961.300    97617252.263 6      4882.472          40.937    23544962.200    97617254.257 6      4882.472          41.250
G10  22320767.380   117296424.783 7      1191.765          47.562    22320766.480   117296424.782 7      1191.765          45.250    22320775.260    91399842.660 7       928.648          45.437    22320775.600    91399844.659 7       928.648          46.562
G27  21174498.000   111272735.639 7      1511.208          47.000    21174496.620   111272735.644 8      1511.208          48.500    21174504.400    86706056.487 8      1177.564          48.437    21174505.240    86706058.486 8      1177.564          50.187
G07  23845942.480   125311272.515 7      2680.584          44.937    23845942.220   125311272.515 5      2680.584          30.062    23845949.920    97645156.450 5      2088.767          30.000    23845949.860    97645181.461 6      2088.767          41.312
R12  20200032.380   107904944.203 8      -563.354          48.250    20200031.700   107904944.207 8      -563.354          48.500    20200045.340    83926116.402 8      -438.164          51.000    20200045.100    83926118.405 8      -438.164          51.000
R22  21936055.280   117096147.363 7       -40.417          43.875    21936055.680   117096147.377 7       -40.417          44.937    21936066.040    91074831.641 7       -31.435          46.375    21936066.180    91074829.640 7       -31.435          46.312
G21  20623042.980   108374823.486 7      2830.558          47.937    20623041.220   108374823.493 6      2830.558          40.437    20623046.200    84447926.734 6      2205.629          40.250
R23  20360514.440   108915026.039 7      1848.750          45.437    20360513.600   108915026.051 7      1848.750          44.750
G02  21892801.720   115047435.364 7      3714.108          46.812    21892800.000   115047435.372 6      3714.108          37.937    21892804.640    89647375.851 6      2894.110          38.000
> 2024 05 10 12 51 45.0000000  0 14
R07  22793286.660   122014245.188 6      3682.384          41.062    22793286.000   122014245.208 6      3682.384          39.625    22793304.600    94900044.053 7      2864.077          43.437    22793304.460    94900046.048 7      2864.077          43.500
R24  22568289.620   120682783.883 7      4212.713          44.437    22568286.860   120682783.879 7      4212.713          43.625    22568302.500    93864447.934 7      3276.554          44.875    22568303.060    93864445.944 7      3276.554          45.375
G16  21371231.960   112306576.040 7       106.128          47.187    21371230.660   112306576.045 6       106.128          38.625    21371236.820    87511643.816 6        82.697          38.187
G08  20918924.760   109929690.228 8      3167.507          48.375    20918923.420   109929690.230 8      3167.507          48.562    20918931.120    85659526.183 8      2468.187          48.500    20918932.020    85659530.184 8      2468.187          50.625
G26  23951780.460   125867455.480 6     -1025.487          38.687    23951779.120   125867455.487 6     -1025.487          36.812    23951799.980    98078615.706 6      -799.081          36.500    23951800.340    98078614.699 7      -799.081          44.875
R14  23543772.940   125501549.249 7      6276.869          47.500    23543772.440   125501549.254 7      6276.869          45.812    23543783.880    97612370.062 6      4882.009          41.125    23543784.460    97612372.061 6      4882.009          41.625
G10  22320540.640   117295233.484 7      1190.887          46.812    22320539.640   117295233.487 7      1190.887          44.812    22320548.580    91398914.372 7       927.964          44.750    22320548.800    91398916.378 7       927.964          47.250
G27  21174210.700   111271224.637 7      1510.761          47.750    21174209.180   111271224.645 8      1510.761          48.750    21174216.880    86704879.084 8      1177.216          48.875    21174217.480    86704881.082 8      1177.216          50.125
G07  23845432.480   125308592.282 7      2679.860          45.312    23845432.320   125308592.276 5      2679.860          30.062    23845439.880    97643067.950 5      2088.203          30.000    23845440.040    97643092.961 6      2088.203          41.500
R12  20200137.760   107905508.053 8      -564.280          49.062    20200137.740   107905508.057 8      -564.280          49.000    20200150.780    83926554.944 8      -438.885          51.125    20200150.760    83926556.948 8      -438.885          51.750
R22  21936062.700   117096187.836 7       -40.524          44.875    21936063.100   117096187.845 7       -40.524          44.625    21936073.580    91074863.105 7       -31.519          46.500    21936073.960    91074861.105 7       -31.519          46.812
G21  20622504.460   108371993.266 8      2829.880          48.125    20622502.640   108371993.273 6      2829.880          40.687    20622507.800    84445721.370 6      2205.101          40.375
R23  20360168.480   108913177.630 7      1848.157          45.250    20360168.020   108913177.648 7      1848.157          44.750
G02  21892094.960   115043721.560 7      3713.537          47.125    21892093.380   115043721.570 6      3713.537          38.000    21892097.960    89644481.979 6      2893.666          38.000
> 2024 05 10 12 51 46.0000000  0 14
R07  22792599.080   122010563.035 6      3681.801          41.062    22792598.300   122010563.050 6      3681.801          40.312    22792616.860    94897180.157 7      2863.623          43.500    22792616.620    94897182.153 7      2863.623          43.312
R24  22567501.700   120678571.186 7      4212.431          44.062    22567499.080   120678571.193 7      4212.431          43.625    22567514.280    93861171.400 7      3276.335          45.000    22567514.940    93861169.413 7      3276.335          45.125
G16  21371211.880   112306470.027 7       105.754          47.437    21371210.340   112306470.029 6       105.754          38.562    21371216.740    87511561.201 6        82.406          38.187
G08  20918321.940   109926522.540 8      3167.590          48.187    20918320.620   109926522.544 8      3167.590          48.812    20918328.380    85657057.857 8      2468.252          48.812    20918329.400    85657061.858 8      2468.252          50.375
G26  23951975.280   125868480.858 6     -1025.503          38.687    23951974.300   125868480.865 6     -1025.503          37.125    23951995.200    98079414.690 6      -799.093          36.437    23951995.260    98079413.681 7      -799.093          45.062
R14  23542595.440   125495272.407 7      6276.607          46.062    23542594.820   125495272.407 7      6276.607          45.062    23542606.360    97607488.061 6      4881.805          41.750    23542606.860    97607490.061 6      4881.805          41.562
G10  22320313.980   117294042.709 7      1190.418          46.500    22320313.040   117294042.717 7      1190.418          44.937    22320321.920    91397986.495 7       927.599          44.812    22320322.160    91397988.498 7       927.599          47.187
G27  21173923.140   111269713.786 7      1510.659          47.625    21173921.680   111269713.793 8      1510.659          48.562    21173929.380    86703701.793 8      1177.137          48.312    21173929.840    86703703.793 8      1177.137          49.750
G07  23844922.440   125305912.521 7      2679.414          44.437    23844922.500   125305912.518 5      2679.414          30.062    23844929.880    97640979.821 5      2087.855          30.000    23844929.480    97641004.832 6      2087.855          41.500
R12  20200243.720   107906072.476 8      -564.802          48.875    20200243.680   107906072.482 8      -564.802          48.437    20200256.340    83926993.931 8      -439.290          51.062    20200256.520    83926995.932 8      -439.290          52.187
R22  21936070.340   117096228.245 7       -40.488          43.437    21936070.660   117096228.254 7       -40.488          45.250    21936081.360    91074894.522 7       -31.491          46.562    21936081.580    91074892.524 7       -31.491          46.750
G21  20621965.980   108369163.463 7      2829.466          47.500    20621964.060   108369163.465 6      2829.466          40.875    20621969.300    84443516.325 6      2204.779          41.062
R23  20359823.180   108911329.385 7      1848.106          45.187    20359822.800   108911329.392 7      1848.106          44.250
G02  21891388.360   115040008.102 7      3713.199          47.750    21891386.780   115040008.104 6      3713.199          37.937    21891391.340    89641588.376 6      2893.402          38.250
> 2024 05 10 12 51 47.0000000  0 14
R07  22791911.640   122006881.531 6      3680.867          40.187    22791910.900   122006881.556 6      3680.867          40.312    22791929.200    94894316.777 7      2862.897          43.437    22791928.940    94894318.773 7      2862.897          43.875
R24  22566714.080   120674358.677 7      4212.129          44.375    22566711.520   120674358.670 7      4212.129          43.625    22566726.340    93857895.004 7      3276.100          44.875    22566727.260    93857893.016 7      3276.100          44.312
G16  21371191.820   112306364.456 7       105.175          47.500    21371190.320   112306364.461 6       105.175          38.312    21371196.760    87511478.934 6        81.955          38.062
G08  20917719.160   109923355.030 8      3167.259          48.500    20917717.920   109923355.027 7      3167.259          47.562    20917725.580    85654589.661 7      2467.994          47.562    20917726.320    85654593.662 8      2467.994          49.687
G26  23952170.080   125869506.404 6     -1025.986          38.625    23952169.300   125869506.412 6     -1025.986          36.625    23952190.400    98080213.807 6      -799.470          36.562    23952190.220    98080212.798 7      -799.470          45.062
R14  23541417.820   125488995.864 7      6276.205          46.125    23541417.180   125488995.872 7      6276.205          45.250    23541428.400    97602606.308 7      4881.493          42.062    23541429.360    97602608.310 7      4881.493          42.062
G10  22320087.520   117292852.520 7      1189.591          47.000    22320086.600   117292852.527 7      1189.591          45.187    22320095.480    91397059.075 7       926.954          44.937    22320095.760    91397061.077 7       926.954          46.312
G27  21173635.620   111268203.134 7      1510.369          47.125    21173634.140   111268203.136 8      1510.369          48.062    21173641.960    86702524.653 8      1176.911          48.437    21173642.420    86702526.654 8      1176.911          49.750
G07  23844412.640   125303233.270 7      2678.737          44.562    23844412.540   125303233.270 5      2678.737          30.375    23844419.920    97638892.091 5      2087.327          30.375    23844420.320    97638917.098 6      2087.327          41.937
R12  20200349.400   107906637.533 8      -565.628          48.937    20200349.600   107906637.542 8      -565.628          48.562    20200362.040    83927433.412 8      -439.933          50.000    20200362.000    83927435.415 8      -439.933          51.500
R22  21936077.900   117096268.577 7       -40.421          44.125    21936078.140   117096268.567 7       -40.421          44.562    21936088.780    91074925.881 7       -31.438          46.562    21936089.020    91074923.883 7       -31.438          46.500
G21  20621427.460   108366334.097 7      2828.921          47.625    20621425.700   108366334.104 6      2828.921          40.500    20621430.720    84441311.628 6      2204.354          40.562
R23  20359477.260   108909481.372 7      1847.644          45.562    20359477.160   108909481.382 7      1847.644          44.375
G02  21890681.740   115036295.012 7      3712.657          46.125    21890680.220   115036295.020 6      3712.657          37.937    21890684.740    89638695.065 6      2892.979          38.125
> 2024 05 10 12 51 48.0000000  0 14
R07  22791223.240   122003200.816 6      3680.503          40.187    22791222.600   122003200.847 6      3680.503          40.312    22791241.560    94891454.013 7      2862.614          43.000    22791241.300    94891456.016 7      2862.614          43.937
R24  22565926.380   120670146.579 7      4212.272          44.250    22565923.660   120670146.575 7      4212.272          43.187    22565938.780    93854618.924 7      3276.211          43.937    22565939.400    93854616.938 7      3276.211          44.937
G16  21371172.080   112306259.518 7       104.959          47.437    21371170.480   112306259.526 6       104.959          38.250    21371176.860    87511397.162 6        81.787          38.187
G08  20917116.580   109920187.857 8      3167.369          48.375    20917115.100   109920187.857 8      3167.369          48.750    20917122.820    85652121.738 8      2468.080          48.437    20917123.560    85652125.737 8      2468.080          50.062
G26  23952365.260   125870532.206 6     -1025.633          38.312    23952364.540   125870532.211 6     -1025.633          36.625    23952385.440    98081013.120 6      -799.194          36.125    23952385.580    98081012.123 7      -799.194          44.437
R14  23540240.500   125482719.843 7      6276.047          46.437    23540240.000   125482719.849 7      6276.047          45.687    23540251.560    97597724.979 7      4881.370          42.000    23540251.900    97597726.979 7      4881.370          42.000
G10  22319861.200   117291663.082 7      1189.305          47.250    22319860.260   117291663.087 7      1189.305          44.187    22319868.980    91396132.240 7       926.731          44.312    22319869.400    91396134.249 7       926.731          46.812
G27  21173348.060   111266692.842 7      1510.445          47.750    21173346.860   111266692.847 8      1510.445          49.187    21173354.520    86701347.806 8      1176.970          48.687    21173355.340    86701349.803 8      1176.970          49.875
G07  23843903.080   125300554.716 7      2678.601          44.875    23843902.880   125300554.718 5      2678.601          30.375    23843910.240    97636804.901 5      2087.221          30.375    23843910.520    97636829.902 6      2087.221          41.812
R12  20200454.960   107907203.398 8      -565.919          49.750    20200455.660   107907203.404 8      -565.919          48.937    20200467.760    83927873.520 8      -440.159          50.062    20200467.900    83927875.520 8      -440.159          51.500
R22  21936085.560   117096309.063 7       -40.197          44.062    21936085.840   117096309.067 7       -40.197          44.687    21936096.520    91074957.369 7       -31.264          46.625    21936096.580    91074955.377 7       -31.264          46.250
G21  20620889.340   108363505.372 7      2828.717          47.687    20620887.420   108363505.374 6      2828.717          40.937    20620892.460    84439107.429 6      2204.195          40.687
R23  20359131.920   108907633.763 7      1847.611          45.625    20359131.800   108907633.781 7      1847.611          44.625
G02  21889975.360   115032582.469 7      3712.594          46.750    21889973.800   115032582.476 6      3712.594          38.062    21889978.340    89635802.174 6      2892.930          37.625
> 2024 05 10 12 51 49.0000000  0 14
R07  22790535.420   121999520.542 6      3679.843          40.187    22790535.540   121999520.573 6      3679.843          40.000    22790553.960    94888591.578 7      2862.100          43.312    22790553.800    94888593.577 7      2862.100          43.812
R24  22565138.540   120665934.610 7      4211.595          44.062    22565135.920   120665934.622 7      4211.595          42.937    22565151.020    93851342.966 7      3275.685          44.500    22565151.780    93851340.985 7      3275.685          44.187
G16  21371151.980   112306154.856 7       104.282          46.750    21371150.520   112306154.867 6       104.282          38.375    21371157.000    87511315.601 6        81.259          38.062
G08  20916513.840   109917020.689 8      3166.989          48.312    20916512.520   109917020.689 8      3166.989          48.500    20916520.180    85649653.811 8      2467.784          48.437    20916520.620    85649657.812 8      2467.784          50.125
G26  23952560.180   125871558.070 6     -1026.343          39.562    23952559.900   125871558.075 6     -1026.343          36.687    23952580.700    98081812.487 6      -799.748          36.250    23952580.840    98081811.498 7      -799.748          44.437
R14  23539062.960   125476443.977 7      6275.698          47.062    23539062.740   125476443.970 7      6275.698          45.937    23539074.100    97592843.733 7      4881.098          42.000    23539074.600    97592845.733 7      4881.098          42.000
G10  22319634.900   117290474.059 7      1188.573          46.812    22319633.920   117290474.062 7      1188.573          44.812    22319642.840    91395205.723 7       926.160          44.937    22319643.200    91395207.723 7       926.160          47.250
G27  21173060.480   111265182.602 7      1509.943          47.437    21173059.440   111265182.610 8      1509.943          48.437    21173067.200    86700170.994 8      1176.579          48.562    21173067.840    86700172.995 8      1176.579          49.937
G07  23843393.380   125297876.531 7      2677.778          43.875    23843393.120   125297876.531 5      2677.778          30.375    23843400.580    97634718.002 5      2086.580          30.375    23843401.080    97634743.010 6      2086.580          41.812
R12  20200560.860   107907769.754 8      -566.875          49.000    20200561.760   107907769.760 8      -566.875          48.687    20200573.720    83928314.015 8      -440.902          51.125    20200573.820    83928316.016 8      -440.902          51.437
R22  21936093.520   117096349.350 7       -40.437          44.625    21936093.540   117096349.353 7       -40.437          44.187    21936103.960    91074988.707 7       -31.451          46.000    21936103.860    91074986.713 7       -31.451          45.937
G21  20620351.140   108360676.941 8      2828.061          48.500    20620349.100   108360676.943 6      2828.061          40.500    20620354.380    84436903.450 6      2203.684          40.312
R23  20358786.340   108905786.210 7      1847.199          44.562    20358786.580   108905786.222 7      1847.199          44.250
G02  21889268.760   115028870.162 7      3711.938          46.812    21889267.400   115028870.167 6      3711.938          38.187    21889271.960    89632909.472 6      2892.419          38.062
> 2024 05 10 12 51 50.0000000  0 14
R07  22789848.320   121995840.970 6      3679.392          39.750    22789847.860   121995840.998 6      3679.392          40.000    22789866.480    94885729.695 7      2861.749          43.062    22789866.560    94885731.695 7      2861.749          44.125
R24  22564350.920   120661722.980 7      4211.599          44.187    22564348.340   120661722.982 7      4211.599          43.437    22564363.180    93848067.248 7      3275.688          44.625    22564363.940    93848065.254 7      3275.688          43.687
G16  21371132.340   112306050.657 7       104.022          46.875    21371130.740   112306050.667 6       104.022          38.000    21371137.140    87511234.398 6        81.056          38.187
G08  20915911.060   109913853.716 8      3166.931          48.437    20915909.820   109913853.718 7      3166.931          47.625    20915917.620    85647186.046 7      2467.738          47.687    20915918.240    85647190.047 8      2467.738          50.000
G26  23952755.660   125872584.000 6     -1026.334          38.750    23952755.000   125872584.013 6     -1026.334          36.937    23952775.840    98082611.929 6      -799.740          36.625    23952775.600    98082610.955 7      -799.740          42.250
R14  23537885.860   125470168.522 7      6275.365          46.937    23537885.540   125470168.514 7      6275.365          46.000    23537896.400    97587962.817 6      4880.840          41.250    23537897.120    97587964.819 6      4880.840          40.937
G10  22319408.800   117289285.638 7      1188.144          46.375    22319407.780   117289285.643 7      1188.144          44.937    22319416.760    91394279.680 7       925.827          44.812    22319417.080    91394281.687 7       925.827          46.812
G27  21172773.420   111263672.557 7      1510.041          46.312    21172772.160   111263672.562 7      1510.041          47.937    21172779.820    86698994.334 8      1176.656          48.125    21172780.600    86698996.332 8      1176.656          49.750
G07  23842884.040   125295198.870 7      2677.500          43.625    23842883.540   125295198.867 5      2677.500          30.625    23842891.020    97632631.509 5      2086.364          30.687    23842891.560    97632656.527 7      2086.364          42.500
R12  20200667.520   107908336.796 8      -567.352          48.812    20200667.940   107908336.800 8      -567.352          49.375    20200679.640    83928755.034 8      -441.274          49.937    20200679.960    83928757.033 8      -441.274          50.437
R22  21936100.960   117096389.615 7       -40.175          43.875    21936101.220   117096389.616 7       -40.175          44.687    21936111.500    91075020.016 7       -31.247          46.250    21936111.680    91075018.021 7       -31.247          46.250
G21  20619812.840   108357848.980 7      2827.848          47.750    20619811.120   108357848.980 6      2827.848          40.687    20619816.160    84434699.847 6      2203.518          40.687
R23  20358441.160   108903938.904 7      1847.284          45.062    20358441.300   108903938.921 7      1847.284          44.500
G02  21888562.640   115025158.242 7      3711.834          46.375    21888561.180   115025158.246 6      3711.834          38.125    21888565.600    89630017.066 6      2892.338          38.375
> 2024 05 10 12 51 51.0000000  0 14
R07  22789161.140   121992161.928 6      3678.425          39.750    22789160.980   121992161.967 6      3678.425          40.000    22789179.020    94882868.234 7      2860.997          43.062    22789179.440    94882870.235 7      2860.997          43.812
R24  22563563.360   120657511.546 7      4211.127          44.187    22563560.500   120657511.550 7      4211.127          43.437    22563575.840    93844791.690 7      3275.321          44.562    22563576.060    93844789.694 7      3275.321          44.125
G16  21371112.660   112305946.786 7       103.547          47.500    21371110.840   112305946.793 6       103.547          38.125    21371117.320    87511153.454 6        80.686          38.000
G08  20915308.500   109910686.763 8      3166.701          48.062    20915307.220   109910686.771 8      3166.701          48.812    20915314.820    85644718.291 8      2467.559          48.625    20915315.360    85644722.292 8      2467.559          49.937
G26  23952951.140   125873610.033 6     -1026.161          39.000    23952950.160   125873610.040 6     -1026.161          36.187    23952970.960    98083411.407 5      -799.606          35.687    23952971.000    98083410.387 7      -799.606          44.000
R14  23536708.540   125463893.261 7      6274.963          46.625    23536708.420   125463893.258 7      6274.963          45.812    23536719.800    97583082.063 6      4880.527          41.187    23536720.100    97583084.067 6      4880.527          41.250
G10  22319182.900   117288097.667 7      1187.534          46.187    22319181.740   117288097.671 7      1187.534          45.375    22319190.720    91393353.988 7       925.351          45.187    22319190.960    91393355.995 7       925.351          47.062
G27  21172486.100   111262162.597 7      1509.785          47.812    21172484.680   111262162.604 8      1509.785          49.812    21172492.560    86697817.737 8      1176.456          49.437    21172493.400    86697819.736 8      1176.456          50.250
G07  23842374.640   125292521.627 7      2676.813          43.125    23842374.040   125292521.626 5      2676.813          30.625    23842381.580    97630545.343 5      2085.828          30.687    23842381.980    97630570.348 7      2085.828          42.125
R12  20200773.400   107908904.332 8      -567.947          49.875    20200773.820   107908904.339 8      -567.947          49.187    20200785.960    83929196.449 8      -441.736          50.625    20200786.100    83929198.450 8      -441.736          50.937
R22  21936108.480   117096429.722 7       -40.202          44.250    21936108.340   117096429.723 7       -40.202          45.000    21936119.040    91075051.202 7       -31.268          46.187    21936119.040    91075049.208 7       -31.268          46.875
G21  20619274.860   108355021.361 8      2827.262          49.187    20619272.980   108355021.364 6      2827.262          40.875    20619278.180    84432496.507 6      2203.061          41.062
R23  20358096.020   108902091.725 7      1846.919          45.312    20358096.460   108902091.732 7      1846.919          44.875
G02  21887856.400   115021446.581 7      3711.392          47.000    21887854.840   115021446.589 6      3711.392          38.062    21887859.200    89627124.863 6      2891.994          37.937
> 2024 05 10 12 51 52.0000000  0 14
R07  22788473.120   121988483.646 6      3677.914          39.750    22788473.040   121988483.690 6      3677.914          40.000    22788491.880    94880007.365 7      2860.600          43.500    22788492.320    94880009.372 7      2860.600          43.875
R24  22562775.560   120653300.459 7      4211.120          43.812    22562773.100   120653300.465 7      4211.120          43.000    22562788.120    93841516.408 7      3275.315          44.312    22562788.580    93841514.415 7      3275.315          44.125
G16  21371092.900   112305843.480 7       103.182          47.187    21371091.200   112305843.485 6       103.182          38.500    21371097.680    87511072.952 6        80.401          37.875
G08  20914705.900   109907520.100 8      3166.666          49.312    20914704.460   109907520.100 8      3166.666          48.625    20914712.260    85642250.761 8      2467.532          48.500    20914712.960    85642254.758 8      2467.532          49.812
G26  23953146.460   125874636.291 6     -1026.202          38.812    23953145.380   125874636.296 6     -1026.202          36.875    23953166.140    98084211.084 6      -799.638          36.562    23953166.200    98084210.094 7      -799.638          44.187
R14  23535531.360   125457618.442 7      6274.851          46.937    23535531.000   125457618.445 7      6274.851          45.937    23535542.720    97578201.653 6      4880.440          41.187    23535543.060    97578203.658 6      4880.440          41.250
G10  22318956.940   117286910.396 7      1187.110          47.125    22318955.660   117286910.404 7      1187.110          45.437    22318964.640    91392428.844 7       925.021          45.125    22318965.020    91392430.853 7       925.021          47.125
G27  21172198.960   111260652.964 7      1509.594          47.312    21172197.580   111260652.969 8      1509.594          49.187    21172205.320    86696641.398 8      1176.307          49.000    21172206.140    86696643.401 8      1176.307          50.125
G07  23841865.580   125289844.995 7      2676.497          43.375    23841864.700   125289844.998 5      2676.497          30.625    23841872.160    97628459.654 5      2085.582          30.687    23841872.880    97628484.666 7      2085.582          42.125
R12  20200880.140   107909472.635 8      -568.490          49.812    20200880.300   107909472.641 8      -568.490          48.500    20200892.280    83929638.458 8      -442.159          51.062    20200892.380    83929640.459 8      -442.159          51.000
R22  21936115.660   117096469.921 7       -40.081          44.187    21936116.240   117096469.916 7       -40.081          45.375    21936126.540    91075082.465 7       -31.174          46.625    21936126.620    91075080.469 7       -31.174          46.437
G21  20618736.800   108352194.310 8      2826.954          48.750    20618735.120   108352194.312 6      2826.954          40.687    20618740.060    84430293.614 6      2202.821          40.687
R23  20357750.820   108900244.881 7      1846.783          44.875    20357750.460   108900244.893 7      1846.783          44.687
G02  21887150.260   115017735.428 7      3711.049          47.625    21887148.680   115017735.433 6      3711.049          37.875    21887153.020    89624233.062 6      2891.726          37.687
> 2024 05 10 12 51 53.0000000  0 14
R07  22787786.080   121984806.041 6      3677.360          40.437    22787786.180   121984806.056 6      3677.360          39.937    22787805.000    94877146.984 7      2860.169          43.250    22787805.320    94877148.989 7      2860.169          43.750
R24  22561988.240   120649089.620 7      4210.854          44.187    22561985.840   120649089.632 7      4210.854          43.562    22562000.540    93838241.318 7      3275.109          44.437    22562001.260    93838239.312 7      3275.109          43.875
G16  21371073.360   112305740.610 7       102.685          47.687    21371071.560   112305740.617 6       102.685          38.187    21371078.160    87510992.789 6        80.015          37.625
G08  20914103.340   109904353.589 8      3166.503          48.625    20914101.960   109904353.591 8      3166.503          48.187    20914109.780    85639783.350 8      2467.405          48.187    20914110.500    85639787.347 8      2467.405          49.062
G26  23953341.840   125875662.689 6     -1026.423          38.812    23953340.620   125875662.702 6     -1026.423          36.437    23953361.600    98085010.869 6      -799.810          36.062    23953361.680    98085009.886 7      -799.810          44.187
R14  23534354.460   125451343.927 7      6274.460          47.250    23534354.060   125451343.928 7      6274.460          45.625    23534365.560    97573321.466 6      4880.135          41.250    23534365.500    97573323.472 6      4880.135          41.250
G10  22318730.980   117285723.704 7      1186.504          47.187    22318730.040   117285723.712 7      1186.504          44.875    22318739.040    91391504.149 7       924.548          44.812    22318739.000    91391506.156 7       924.548          46.812
G27  21171911.480   111259143.508 7      1509.353          47.687    21171910.220   111259143.515 8      1509.353          48.125    21171918.060    86695465.198 7      1176.119          47.687    21171918.780    86695467.199 8      1176.119          49.750
G07  23841356.120   125287168.911 7      2675.910          43.812    23841355.320   125287168.913 5      2675.910          30.375    23841362.900    97626374.391 5      2085.125          30.375    23841363.800    97626399.397 7      2085.125          42.375
R12  20200986.540   107910041.582 8      -569.100          49.375    20200986.700   107910041.585 8      -569.100          49.687    20200998.820    83930080.962 8      -442.633          50.125    20200999.020    83930082.967 8      -442.633          49.750
R22  21936123.320   117096510.052 7       -40.057          44.437    21936123.580   117096510.050 7       -40.057          45.562    21936133.960    91075113.675 7       -31.156          45.500    21936134.360    91075111.676 7       -31.156          46.000
G21  20618198.820   108349367.703 8      2826.501          49.312    20618197.100   108349367.710 6      2826.501          40.437    20618202.140    84428091.069 6      2202.469          40.250
R23  20357406.000   108898398.265 7      1846.459          44.687    20357405.340   108898398.279 7      1846.459          44.687
G02  21886444.020   115014024.645 7      3710.570          47.875    21886442.540   115014024.650 6      3710.570          38.312    21886447.000    89621341.538 6      2891.354          38.187
> 2024 05 10 12 51 54.0000000  0 14
R07  22787099.360   121981128.901 6      3676.770          40.437    22787099.560   121981128.924 6      3676.770          39.937    22787118.100    94874286.996 7      2859.710          42.875    22787118.220    94874289.005 7      2859.710          43.000
R24  22561200.700   120644878.876 7      4210.559          44.375    22561198.520   120644878.888 7      4210.559          43.437    22561213.200    93834966.297 7      3274.879          43.562    22561213.560    93834964.299 7      3274.879          43.312
G16  21371053.620   112305638.063 7       102.285          46.687    21371052.120   112305638.071 6       102.285          37.875    21371058.700    87510912.874 6        79.702          38.000
G08  20913500.560   109901187.118 8      3166.355          48.250    20913499.420   109901187.117 7      3166.355          46.750    20913507.240    85637315.967 7      2467.290          46.437    20913507.720    85637319.968 8      2467.290          48.062
G26  23953537.080   125876689.129 6     -1026.496          38.312    23953535.680   125876689.144 6     -1026.496          36.312    23953557.000    98085810.686 6      -799.867          36.062    23953557.480    98085809.681 7      -799.867          43.812
R14  23533177.500   125445069.575 7      6274.112          46.562    23533176.800   125445069.576 7      6274.112          45.500    23533188.240    97568441.429 6      4879.865          41.250    23533188.680    97568443.443 6      4879.865          40.937
G10  22318505.340   117284537.477 7      1185.893          45.562    22318504.180   117284537.479 7      1185.893          44.000    22318513.300    91390579.810 7       924.072          44.000    22318513.260    91390581.815 7       924.072          46.375
G27  21171624.280   111257634.120 7      1509.215          47.687    21171623.100   111257634.122 7      1509.215          47.750    21171630.840    86694289.046 7      1176.012          47.187    21171631.320    86694291.048 8      1176.012          48.000
G07  23840846.920   125284493.202 7      2675.482          43.937    23840846.360   125284493.204 5      2675.482          30.375    23840853.720    97624289.417 5      2084.791          30.375    23840854.720    97624314.418 7      2084.791          42.375
R12  20201093.220   107910611.036 8      -569.766          49.312    20201093.180   107910611.042 8      -569.766          49.062    20201105.420    83930523.866 7      -443.151          47.500    20201105.600    83930525.872 8      -443.151          49.000
R22  21936130.920   117096550.026 7       -40.062          44.062    21936131.160   117096550.033 7       -40.062          44.625    21936141.560    91075144.772 7       -31.160          45.750    21936141.820    91075142.776 7       -31.160          45.062
G21  20617661.140   108346541.450 8      2826.009          48.750    20617659.260   108346541.452 6      2826.009          40.187    20617664.360    84425888.788 6      2202.085          40.375
R23  20357060.900   108896551.752 7      1846.335          45.500    20357060.440   108896551.762 7      1846.335          44.750
G02  21885737.940   115010314.112 7      3710.260          47.687    21885736.460   115010314.117 6      3710.260          38.062    21885741.140    89618450.220 6      2891.111          37.625
> 2024 05 10 12 51 55.0000000  0 14
R07  22786412.800   121977452.474 6      3676.019          40.437    22786412.800   121977452.492 6      3676.019          39.937    22786431.640    94871427.556 7      2859.126          42.750    22786431.160    94871429.563 7      2859.126          42.875
R24  22560413.600   120640668.449 7      4210.211          43.625    22560411.540   120640668.461 7      4210.211          43.437    22560426.260    93831691.524 7      3274.609          43.750    22560426.220    93831689.516 7      3274.609          44.000
G16  21371034.140   112305536.021 7       101.876          47.125    21371032.700   112305536.031 6       101.876          37.750    21371039.240    87510833.355 6        79.384          37.812
G08  20912898.120   109898020.856 8      3166.220          48.312    20912896.880   109898020.858 7      3166.220          47.875    20912904.640    85634848.753 7      2467.184          47.875    20912905.360    85634852.752 8      2467.184          49.687
G26  23953732.620   125877715.768 6     -1026.692          38.750    23953731.100   125877715.776 6     -1026.692          36.625    23953752.380    98086610.650 6      -800.020          36.062    23953752.720    98086609.651 7      -800.020          44.125
R14  23532000.440   125438795.596 7      6273.834          46.000    23531999.820   125438795.594 7      6273.834          45.875    23532011.280    97563561.645 6      4879.649          40.625    23532011.660    97563563.655 6      4879.649          40.937
G10  22318279.700   117283351.878 7      1185.325          46.375    22318278.540   117283351.878 7      1185.325          44.250    22318287.460    91389655.959 7       923.630          44.250    22318287.700    91389657.963 7       923.630          46.625
G27  21171337.020   111256124.976 7      1508.992          47.812    21171335.760   111256124.984 8      1508.992          48.312    21171343.640    86693113.091 7      1175.838          47.875    21171344.220    86693115.092 8      1175.838          49.250
G07  23840337.400   125281818.073 7      2674.886          43.875    23840337.180   125281818.075 5      2674.886          30.375    23840344.660    97622204.900 5      2084.326          30.375    23840346.300    97622229.909 7      2084.326          42.187
R12  20201200.120   107911181.200 8      -570.499          49.187    20201199.940   107911181.201 8      -570.499          49.500    20201212.180    83930967.315 8      -443.721          48.750    20201212.280    83930969.320 8      -443.721          50.125
R22  21936138.280   117096590.014 7       -39.953          43.062    21936138.620   117096590.020 7       -39.953          44.750    21936149.020    91075175.865 7       -31.075          45.250    21936149.120    91075173.871 7       -31.075          46.062
G21  20617123.420   108343715.683 8      2825.581          48.437    20617121.480   108343715.686 6      2825.581          40.250    20617126.700    84423686.894 6      2201.752          40.062
R23  20356715.840   108894705.513 7      1846.137          44.625    20356715.240   108894705.522 7      1846.137          44.437
G02  21885031.860   115006604.015 7      3709.915          47.750    21885030.500   115006604.017 6      3709.915          37.750    21885035.040    89615559.235 6      2890.843          37.625
> 2024 05 10 12 51 56.0000000  0 14
R07  22785725.980   121973776.684 6      3675.499          40.500    22785725.560   121973776.723 6      3675.499          40.062    22785744.780    94868568.623 7      2858.721          42.937    22785744.560    94868570.630 7      2858.721          43.062
R24  22559626.460   120636458.381 7      4209.887          44.875    22559624.000   120636458.374 7      4209.887          43.750    22559638.460    93828417.006 7      3274.356          44.375    22559639.040    93828414.998 7      3274.356          44.187
G16  21371014.800   112305434.467 7       101.315          47.500    21371013.320   112305434.477 6       101.315          38.312    21371019.900    87510754.216 6        78.946          38.187
G08  20912295.740   109894854.797 8      3166.041          48.875    20912294.380   109894854.799 8      3166.041          48.500    20912302.160    85632381.692 8      2467.045          48.875    20912302.840    85632385.684 8      2467.045          50.062
G26  23953927.160   125878742.571 6     -1026.779          39.000    23953926.460   125878742.578 6     -1026.779          37.312    23953947.960    98087410.740 6      -800.087          36.687    23953948.340    98087409.741 7      -800.087          45.000
R14  23530823.820   125432522.001 7      6273.432          46.500    23530823.080   125432522.004 7      6273.432          46.125    23530834.380    97558682.186 6      4879.336          41.000    23530834.900    97558684.198 6      4879.336          40.875
G10  22318054.360   117282166.886 7      1184.748          46.375    22318053.120   117282166.888 7      1184.748          45.375    22318061.940    91388732.590 7       923.180          45.250    22318062.220    91388734.597 7       923.180          47.000
G27  21171050.160   111254616.071 7      1508.754          47.875    21171048.680   111254616.079 8      1508.754          48.312    21171056.460    86691937.315 8      1175.652          48.187    21171057.040    86691939.320 8      1175.652          50.375
G07  23839828.960   125279143.502 7      2674.251          44.062    23839828.300   125279143.504 5      2674.251          30.125    23839835.700    97620120.812 5      2083.832          30.375    23839837.480    97620145.813 7      2083.832          42.750
R12  20201306.800   107911752.003 8      -571.102          49.812    20201306.640   107911752.010 8      -571.102          49.375    20201319.040    83931411.264 8      -444.190          50.625    20201319.440    83931413.276 8      -444.190          50.437
R22  21936145.460   117096630.007 7       -39.948          43.375    21936146.100   117096630.010 7       -39.948          44.937    21936156.700    91075206.962 7       -31.071          46.687    21936156.400    91075204.966 7       -31.071          46.625
G21  20616585.840   108340890.419 8      2825.059          48.687    20616584.040   108340890.426 6      2825.059          40.562    20616588.960    84421485.389 6      2201.344          40.750
R23  20356370.600   108892859.541 7      1845.843          45.750    20356370.140   108892859.550 7      1845.843          44.562
G02  21884325.800   115002894.325 8      3709.518          48.375    21884324.340   115002894.327 6      3709.518          38.000    21884329.020    89612668.572 6      2890.533          37.875
> 2024 05 10 12 51 57.0000000  0 14
R07  22785039.100   121970101.654 6      3674.713          40.500    22785040.140   121970101.690 6      3674.713          40.062    22785058.100    94865710.272 7      2858.110          43.250    22785058.080    94865712.273 7      2858.110          43.062
R24  22558839.100   120632248.692 7      4209.521          43.187    22558837.160   120632248.688 7      4209.521          43.437    22558851.900    93825142.808 7      3274.072          45.062    22558851.960    93825140.804 7      3274.072          44.875
G16  21370995.740   112305333.437 7       100.797          47.562    21370994.160   112305333.444 6       100.797          38.562    21371000.820    87510675.480 6        78.543          38.437
G08  20911693.040   109891689.004 8      3165.720          48.875    20911692.000   109891689.003 8      3165.720          48.125    20911699.740    85629914.838 8      2466.795          48.625    20911700.300    85629918.834 8      2466.795          50.062
G26  23954122.840   125879769.604 6     -1027.030          38.875    23954121.860   125879769.612 6     -1027.030          37.750    23954143.500    98088211.017 6      -800.283          37.375    23954144.040    98088210.021 7      -800.283          45.312
R14  23529646.860   125426248.856 7      6272.973          46.437    23529646.220   125426248.857 7      6272.973          45.625    23529657.660    97553803.082 6      4878.979          41.000    23529658.480    97553805.089 6      4878.979          41.562
G10  22317828.900   117280982.577 7      1184.014          45.625    22317827.680   117280982.577 7      1184.014          45.000    22317836.740    91387809.748 7       922.608          45.062    22317836.780    91387811.753 7       922.608          46.562
G27  21170762.920   111253107.453 7      1508.477          47.687    21170761.540   111253107.455 8      1508.477          49.000    21170769.440    86690761.767 8      1175.437          48.937    21170770.160    86690763.769 8      1175.437          49.937
G07  23839320.060   125276469.532 7      2673.639          43.125    23839319.520   125276469.534 5      2673.639          30.125    23839326.800    97618037.195 5      2083.355          30.250    23839328.180    97618062.194 7      2083.355          42.375
R12  20201413.620   107912323.554 8      -571.851          49.312    20201413.980   107912323.555 8      -571.851          48.687    20201426.300    83931855.794 8      -444.773          51.062    20201426.380    83931857.801 8      -444.773          51.312
R22  21936153.560   117096670.048 7       -40.002          43.500    21936153.500   117096670.051 7       -40.002          44.687    21936163.940    91075238.101 7       -31.112          46.250    21936164.080    91075236.105 7       -31.112          46.562
G21  20616047.980   108338065.703 8      2824.546          48.625    20616046.600   108338065.705 6      2824.546          40.875    20616051.540    84419284.312 6      2200.945          40.812
R23  20356025.420   108891013.871 7      1845.654          44.812    20356025.500   108891013.880 7      1845.654          44.250
G02  21883619.940   114999185.113 8      3708.958          48.687    21883618.680   114999185.118 6      3708.958          38.062    21883623.380    89609778.277 6      2890.097          38.062
> 2024 05 10 12 51 58.0000000  0 14
R07  22784352.900   121966427.063 6      3674.227          40.500    22784353.180   121966427.091 6      3674.227          40.062    22784371.680    94862852.259 7      2857.732          43.437    22784371.680    94862854.252 7      2857.732          43.125
R24  22558051.780   120628039.035 7      4209.460          43.437    22558049.420   120628039.034 7      4209.460          43.187    22558064.540    93821868.637 7      3274.025          44.937    22558064.580    93821866.631 7      3274.025          44.812
G16  21370976.340   112305232.663 7       100.502          47.562    21370975.000   112305232.668 6       100.502          38.187    21370981.560    87510596.950 6        78.313          38.375
G08  20911090.660   109888523.165 8      3165.694          48.437    20911089.560   109888523.165 8      3165.694          48.750    20911097.300    85627447.951 8      2466.775          48.937    20911097.980    85627451.947 8      2466.775          50.312
G26  23954318.840   125880796.625 6     -1027.284          38.875    23954317.320   125880796.632 6     -1027.284          37.875    23954338.820    98089011.285 6      -800.481          37.187    23954339.240    98089010.290 7      -800.481          45.250
R14  23528469.820   125419975.868 7      6272.734          47.250    23528469.360   125419975.866 7      6272.734          45.500    23528480.540    97548924.077 6      4878.793          40.687    23528481.840    97548926.087 6      4878.793          41.562
G10  22317603.520   117279798.639 7      1183.571          46.000    22317602.360   117279798.644 7      1183.571          45.250    22317611.480    91386887.199 7       922.263          44.875    22317611.580    91386889.203 7       922.263          46.937
G27  21170475.920   111251598.832 7      1508.470          47.875    21170474.500   111251598.840 8      1508.470          48.812    21170482.380    86689586.216 8      1175.431          48.625    21170483.080    86689588.223 8      1175.431          50.375
G07  23838811.280   125273795.886 7      2673.305          43.437    23838810.640   125273795.883 5      2673.305          30.125    23838818.000    97615953.828 5      2083.095          30.250    23838819.100    97615978.817 7      2083.095          42.375
R12  20201520.620   107912895.535 8      -572.295          49.750    20201521.000   107912895.536 8      -572.295          49.687    20201533.580    83932300.661 8      -445.118          50.937    20201533.380    83932302.669 8      -445.118          51.250
R22  21936160.820   117096709.853 7       -39.812          44.375    21936160.960   117096709.857 7       -39.812          45.000    21936171.420    91075269.055 7       -30.965          46.312    21936171.740    91075267.061 7       -30.965          46.187
G21  20615510.740   108335241.242 8      2824.242          48.875    20615509.020   108335241.245 6      2824.242          40.625    20615514.180    84417083.438 6      2200.708          40.937
R23  20355679.900   108889168.252 7      1845.478          46.125    20355680.440   108889168.261 7      1845.478          44.937
G02  21882914.080   114995476.075 7      3708.810          47.875    21882912.760   114995476.080 6      3708.810          38.250    21882917.460    89606888.118 6      2889.982          38.125
> 2024 05 10 12 51 59.0000000  0 14
R07  22783667.400   121962753.165 6      3673.648          40.687    22783667.120   121962753.180 6      3673.648          39.750    22783685.380    94859994.779 7      2857.282          43.437    22783685.160    94859996.780 7      2857.282          43.562
R24  22557264.280   120623829.644 7      4209.278          43.937    22557262.340   120623829.640 7      4209.278          43.500    22557277.220    93818594.670 7      3273.883          44.375    22557277.400    93818592.661 7      3273.883          45.312
G16  21370957.240   112305132.389 7       100.132          47.562    21370956.000   112305132.394 6       100.132          38.312    21370962.560    87510518.808 6        78.025          38.312
G08  20910488.380   109885357.548 8      3165.547          48.375    20910487.120   109885357.547 8      3165.547          48.125    20910494.900    85624981.238 8      2466.660          48.062    20910495.740    85624985.232 8      2466.660          48.875
G26  23954514.220   125881823.800 6     -1027.244          39.250    23954512.900   125881823.808 6     -1027.244          37.875    23954534.400    98089811.671 6      -800.450          37.312    23954534.620    98089810.672 7      -800.450          45.500
R14  23527293.100   125413703.254 7      6272.543          46.812    23527292.520   125413703.244 7      6272.543          45.625    23527304.000    97544045.377 6      4878.645          40.687    23527305.220    97544047.389 6      4878.645          41.125
G10  22317378.360   117278615.320 7      1183.203          46.562    22317377.060   117278615.323 7      1183.203          45.125    22317386.260    91385965.132 7       921.977          45.375    22317386.640    91385967.137 7       921.977          46.937
G27  21170188.620   111250090.461 8      1508.336          48.687    21170187.500   111250090.466 8      1508.336          48.375    21170195.280    86688410.856 8      1175.327          48.000    21170196.100    86688412.862 8      1175.327          50.187
G07  23838302.680   125271122.817 7      2672.730          43.000    23838302.020   125271122.814 5      2672.730          30.312    23838309.360    97613870.914 5      2082.646          30.250    23838310.600    97613895.921 7      2082.646          42.500
R12  20201628.160   107913468.234 8      -572.886          49.125    20201628.280   107913468.230 8      -572.886          49.812    20201640.900    83932746.084 8      -445.578          51.062    20201640.540    83932748.089 8      -445.578          49.125
R22  21936168.300   117096749.683 7       -39.746          44.187    21936168.360   117096749.687 7       -39.746          44.750    21936179.180    91075300.032 7       -30.913          45.250    21936179.360    91075298.040 7       -30.913          46.875
G21  20614973.360   108332417.299 8      2823.821          48.875    20614971.580   108332417.304 6      2823.821          40.812    20614976.620    84414882.963 6      2200.380          40.812
R23  20355335.220   108887322.911 7      1845.259          46.062    20355335.400   108887322.920 7      1845.259          44.687
G02  21882208.460   114991767.481 7      3708.421          47.437    21882207.120   114991767.491 6      3708.421          37.937    21882211.800    89603998.312 6      2889.679          37.875
> 2024 05 10 12 52  0.0000000  0 14
R07  22782981.260   121959079.810 6      3673.120          40.687    22782980.980   121959079.828 6      3673.120          39.750    22782998.780    94857137.732 7      2856.871          42.937    22782999.340    94857139.728 7      2856.871          43.000
R24  22556477.400   120619620.372 7      4209.193          44.125    22556474.940   120619620.381 7      4209.193          43.375    22556490.680    93815320.802 7      3273.817          44.812    22556490.560    93815318.798 7      3273.817          45.437
G16  21370938.180   112305032.470 7        99.751          47.187    21370937.000   112305032.475 6        99.751          38.125    21370943.480    87510440.943 6        77.728          38.187
G08  20909886.140   109882191.988 7      3165.557          47.687    20909884.720   109882191.990 8      3165.557          48.000    20909892.480    85622514.566 7      2466.668          47.875    20909893.440    85622518.564 8      2466.668          50.375
G26  23954709.600   125882851.015 6     -1027.228          39.187    23954708.440   125882851.017 6     -1027.228          37.562    23954729.960    98090612.088 6      -800.437          37.562    23954730.300    98090611.095 7      -800.437          45.625
R14  23526116.360   125407430.858 7      6272.268          46.062    23526116.060   125407430.856 7      6272.268          45.437    23526127.220    97539166.844 6      4878.431          40.500    23526128.480    97539168.848 6      4878.431          41.125
G10  22317153.440   117277432.525 7      1182.564          46.750    22317152.020   117277432.530 7      1182.564          45.125    22317161.160    91385043.472 7       921.479          44.750    22317161.240    91385045.474 7       921.479          47.312
G27  21169901.820   111248582.187 7      1508.296          47.875    21169900.360   111248582.189 8      1508.296          49.187    21169908.400    86687235.575 8      1175.295          48.875    21169908.780    86687237.580 8      1175.295          50.125
G07  23837793.920   125268450.159 7      2672.393          43.750    23837793.420   125268450.161 5      2672.393          30.312    23837800.820    97611788.320 5      2082.384          30.000    23837801.180    97611813.322 7      2082.384          42.500
R12  20201735.380   107914041.489 8      -573.526          49.625    20201735.520   107914041.490 8      -573.526          49.312    20201748.200    83933191.942 8      -446.076          51.187    20201748.140    83933193.946 8      -446.076          51.125
R22  21936175.720   117096789.369 7       -39.479          44.937    21936175.900   117096789.368 7       -39.479          45.125    21936186.580    91075330.890 7       -30.706          46.250    21936186.820    91075328.894 7       -30.706          46.562
G21  20614436.020   108329593.721 7      2823.426          47.937    20614434.260   108329593.729 6      2823.426          41.000    20614439.480    84412682.774 6      2200.072          41.250
R23  20354990.020   108885477.707 7      1845.124          45.750    20354990.500   108885477.716 7      1845.124          44.875
G02  21881503.020   114988059.155 8      3708.278          48.250    21881501.400   114988059.165 6      3708.278          38.000    21881506.040    89601108.709 6      2889.567          38.187
> 2024 05 10 12 52  1.0000000  0 14
R07  22782295.380   121955407.047 6      3672.464          41.500    22782294.760   121955407.062 6      3672.464          39.750    22782312.960    94854281.140 7      2856.361          43.062    22782313.240    94854283.143 7      2856.361          44.000
R24  22555690.100   120615411.344 7      4208.978          44.750    22555687.580   120615411.359 7      4208.978          43.375    22555703.440    93812047.124 7      3273.650          44.750    22555703.500    93812045.113 7      3273.650          45.125
G16  21370919.440   112304932.911 8        99.333          48.125    21370917.860   112304932.918 6        99.333          38.687    21370924.580    87510363.356 6        77.403          38.312
G08  20909283.740   109879026.533 7      3165.358          47.875    20909282.460   109879026.535 8      3165.358          49.562    20909290.100    85620047.977 8      2466.513          49.125    20909290.960    85620051.976 8      2466.513          50.312
G26  23954905.340   125883878.322 6     -1027.302          39.562    23954903.820   125883878.324 6     -1027.302          37.562    23954925.480    98091412.575 6      -800.495          37.250    23954925.460    98091411.570 7      -800.495          45.250
R14  23524939.700   125401158.686 7      6271.984          46.812    23524939.360   125401158.687 7      6271.984          45.562    23524950.500    97534288.499 6      4878.210          40.750    23524951.900    97534290.507 6      4878.210          40.875
G10  22316928.240   117276250.207 7      1182.050          46.812    22316927.000   117276250.210 7      1182.050          45.312    22316936.180    91384122.185 7       921.078          45.062    22316936.520    91384124.186 7       921.078          46.937
G27  21169614.620   111247074.045 7      1508.030          47.937    21169613.300   111247074.049 8      1508.030          48.687    21169621.320    86686060.395 8      1175.089          48.812    21169621.780    86686062.400 8      1175.089          50.062
G07  23837285.580   125265777.942 7      2672.060          44.062    23837284.980   125265777.944 5      2672.060          30.312    23837292.220    97609706.065 5      2082.124          30.000    23837292.300    97609731.060 7      2082.124          42.125
R12  20201842.720   107914615.307 8      -574.178          50.437    20201842.920   107914615.311 8      -574.178          50.187    20201855.820    83933638.237 8      -446.583          50.937    20201855.640    83933640.238 8      -446.583          51.750
R22  21936182.760   117096828.932 7       -39.441          44.812    21936183.240   117096828.939 7       -39.441          44.937    21936193.920    91075361.659 7       -30.676          46.562    21936194.120    91075359.665 7       -30.676          46.937
G21  20613898.600   108326770.517 8      2823.015          49.000    20613897.060   108326770.519 6      2823.015          40.500    20613902.200    84410482.872 6      2199.752          40.625
R23  20354645.360   108883632.641 7      1845.020          47.125    20354645.720   108883632.659 7      1845.020          45.312
G02  21880797.420   114984351.154 7      3707.774          47.375    21880795.680   114984351.167 6      3707.774          38.125    21880800.440    89598219.361 6      2889.175          38.187
> 2024 05 10 12 52  2.0000000  0 14
R07  22781609.240   121951735.001 6      3671.504          41.500    22781608.400   121951735.016 6      3671.504          40.750    22781626.880    94851425.111 7      2855.614          42.937    22781627.360    94851427.118 7      2855.614          43.875
R24  22554902.840   120611202.722 7      4208.386          44.750    22554900.180   120611202.731 7      4208.386          44.375    22554916.360    93808773.754 7      3273.189          44.187    22554916.440    93808771.749 7      3273.189          44.750
G16  21370900.620   112304833.856 7        98.713          47.250    21370899.200   112304833.864 6        98.713          39.000    21370905.720    87510286.168 6        76.919          38.562
G08  20908681.440   109875861.281 8      3165.069          48.500    20908680.100   109875861.280 8      3165.069          48.687    20908687.820    85617581.545 8      2466.288          48.375    20908688.620    85617585.546 8      2466.288          49.687
G26  23955100.760   125884905.808 6     -1027.671          38.562    23955099.140   125884905.820 6     -1027.671          37.750    23955121.080    98092213.211 6      -800.783          37.062    23955121.000    98092212.216 7      -800.783          45.187
R14  23523763.080   125394886.874 7      6271.592          46.375    23523762.740   125394886.880 7      6271.592          46.750    23523774.180    97529410.412 6      4877.905          40.750    23523775.220    97529412.422 6      4877.905          41.312
G10  22316703.200   117275068.531 7      1181.283          46.062    22316702.120   117275068.536 7      1181.283          45.375    22316711.320    91383201.395 7       920.480          45.125    22316711.620    91383203.393 7       920.480          46.812
G27  21169327.800   111245566.133 7      1507.739          47.812    21169326.520   111245566.138 8      1507.739          49.000    21169334.480    86684885.399 8      1174.861          48.500    21169334.980    86684887.404 8      1174.861          49.625
G07  23836777.120   125263106.324 7      2671.185          43.937    23836776.520   125263106.326 5      2671.185          30.187    23836783.940    97607624.283 5      2081.443          30.000    23836784.640    97607649.290 7      2081.443          42.125
R12  20201950.300   107915189.801 8      -574.927          50.812    20201950.540   107915189.805 8      -574.927          51.062    20201963.440    83934085.055 8      -447.165          50.562    20201963.240    83934087.057 8      -447.165          51.125
R22  21936190.100   117096868.528 7       -39.667          45.687    21936190.580   117096868.531 7       -39.667          45.375    21936201.160    91075392.451 7       -30.852          45.750    21936201.820    91075390.455 7       -30.852          46.562
G21  20613361.580   108323947.830 8      2822.313          48.875    20613359.960   108323947.834 6      2822.313          40.562    20613364.960    84408283.376 6      2199.205          40.562
R23  20354300.620   108881787.881 7      1844.597          47.187    20354300.880   108881787.898 7      1844.597          45.875
G02  21880091.720   114980643.572 7      3707.292          46.750    21880090.140   114980643.585 6      3707.292          38.000    21880095.000    89595330.335 6      2888.799          37.875
> 2024 05 10 12 52  3.0000000  0 14
R07  22780923.500   121948063.456 7      3671.326          42.937    22780923.180   121948063.474 6      3671.326          40.750    22780940.500    94848569.475 7      2855.475          43.125    22780941.700    94848571.488 7      2855.475          44.312
R24  22554115.840   120606994.250 7      4208.499          44.875    22554113.440   120606994.254 7      4208.499          44.312    22554129.480    93805500.493 7      3273.277          44.187    22554129.360    93805498.485 7      3273.277          45.000
G16  21370881.940   112304735.153 7        98.582          47.750    21370880.520   112304735.164 6        98.582          38.562    21370887.040    87510209.255 6        76.817          38.625
G08  20908079.140   109872696.099 8      3165.274          49.062    20908077.740   109872696.102 8      3165.274          49.437    20908085.500    85615115.170 8      2466.447          49.187    20908086.260    85615119.169 8      2466.447          50.312
G26  23955296.260   125885933.367 6     -1027.424          38.812    23955294.480   125885933.372 6     -1027.424          37.375    23955316.520    98093013.892 6      -800.590          36.750    23955316.660    98093012.891 7      -800.590          45.250
R14  23522586.720   125388615.368 7      6271.374          46.187    23522586.340   125388615.372 7      6271.374          45.500    23522597.540    97524532.562 6      4877.735          40.750    23522598.720    97524534.572 6      4877.735          41.625
G10  22316478.480   117273887.339 7      1180.967          46.500    22316477.500   117273887.343 7      1180.967          44.687    22316486.520    91382280.985 7       920.234          44.625    22316487.080    91382282.991 7       920.234          47.000
G27  21169040.860   111244058.350 8      1507.770          48.125    21169039.480   111244058.355 8      1507.770          49.562    21169047.540    86683710.501 8      1174.886          49.062    21169048.060    86683712.508 8      1174.886          50.000
G07  23836268.880   125260435.108 7      2671.041          43.375    23836268.060   125260435.110 5      2671.041          30.187    23836275.520    97605542.814 5      2081.330          30.250    23836276.220    97605567.825 7      2081.330          42.125
R12  20202057.940   107915764.822 8      -575.239          49.500    20202058.280   107915764.828 8      -575.239          50.000    20202071.160    83934532.287 8      -447.408          51.625    20202071.000    83934534.293 8      -447.408          51.437
R22  21936197.260   117096907.995 7       -39.294          45.625    21936198.180   117096907.995 7       -39.294          45.687    21936208.720    91075423.144 7       -30.562          46.312    21936209.120    91075421.150 7       -30.562          46.750
G21  20612824.520   108321125.494 8      2822.210          48.812    20612823.000   108321125.499 6      2822.210          41.062    20612827.860    84406084.154 6      2199.125          41.125
R23  20353955.800   108879943.270 7      1844.550          47.000    20353955.580   108879943.280 7      1844.550          45.750
G02  21879386.200   114976936.289 7      3707.177          47.187    21879384.680   114976936.296 6      3707.177          38.500    21879389.380    89592441.541 6      2888.710          38.250
> 2024 05 10 12 52  4.0000000  0 14
R07  22780237.260   121944392.567 7      3670.374          42.937    22780237.040   121944392.582 6      3670.374          40.750    22780254.960    94845714.345 7      2854.735          43.500    22780256.020    94845716.360 7      2854.735          44.000
R24  22553329.180   120602785.970 7      4208.123          44.687    22553326.260   120602785.974 7      4208.123          43.875    22553342.840    93802227.393 7      3272.985          44.750    22553342.440    93802225.385 7      3272.985          45.750
G16  21370863.160   112304636.884 7        97.874          47.250    21370861.840   112304636.894 6        97.874          38.875    21370868.400    87510132.671 6        76.265          38.500
G08  20907476.900   109869531.070 8      3164.795          49.375    20907475.380   109869531.073 8      3164.795          48.000    20907483.160    85612648.916 8      2466.074          48.187    20907484.060    85612652.914 8      2466.074          50.125
G26  23955491.700   125886961.031 6     -1027.830          38.250    23955489.900   125886961.041 6     -1027.830          37.687    23955512.240    98093814.659 6      -800.906          37.062    23955512.520    98093813.666 7      -800.906          45.437
R14  23521409.820   125382344.113 7      6270.899          46.000    23521409.700   125382344.122 7      6270.899          45.125    23521421.040    97519654.932 6      4877.366          40.750    23521422.440    97519656.940 6      4877.366          41.625
G10  22316253.920   117272706.692 7      1180.240          46.312    22316252.680   117272706.700 7      1180.240          44.875    22316261.800    91381361.001 7       919.667          44.812    22316262.380    91381363.001 7       919.667          47.000
G27  21168753.680   111242550.720 7      1507.385          47.500    21168752.560   111242550.728 8      1507.385          48.437    21168760.620    86682535.721 7      1174.586          47.937    21168761.040    86682537.723 8      1174.586          49.375
G07  23835760.200   125257764.404 7      2670.228          43.250    23835759.700   125257764.407 5      2670.228          30.187    23835767.340    97603461.746 5      2080.697          30.250    23835767.760    97603486.758 6      2080.697          41.500
R12  20202165.660   107916340.451 8      -576.124          49.375    20202165.940   107916340.457 8      -576.124          49.250    20202178.920    83934979.993 8      -448.096          51.312    20202178.780    83934981.996 8      -448.096          51.500
R22  21936205.220   117096947.397 7       -39.528          44.375    21936205.540   117096947.404 7       -39.528          44.812    21936216.080    91075453.784 7       -30.744          46.250    21936216.480    91075451.790 7       -30.744          46.500
G21  20612287.480   108318303.609 8      2821.535          48.625    20612286.080   108318303.611 6      2821.535          40.625    20612290.880    84403885.278 6      2198.599          40.812
R23  20353611.100   108878098.836 7      1844.178          45.937    20353611.140   108878098.845 7      1844.178          45.125
G02  21878680.800   114973229.347 7      3706.687          47.625    21878679.060   114973229.352 6      3706.687          37.937    21878683.980    89589553.013 6      2888.327          38.000
> 2024 05 10 12 52  5.0000000  0 14
R07  22779551.560   121940722.376 7      3669.772          42.937    22779551.580   121940722.399 6      3669.772          40.812    22779569.500    94842859.762 7      2854.267          43.187    22779570.480    94842861.780 7      2854.267          43.625
R24  22552542.240   120598578.041 7      4207.729          43.062    22552539.400   120598578.048 7      4207.729          43.125    22552555.600    93798954.566 7      3272.678          44.437    22552555.740    93798952.561 7      3272.678          45.125
G16  21370844.760   112304539.117 7        97.522          47.750    21370843.380   112304539.124 6        97.522          38.375    21370849.880    87510056.485 6        75.991          38.875
G08  20906874.440   109866366.267 8      3164.622          48.500    20906873.180   109866366.272 8      3164.622          48.187    20906881.020    85610182.837 8      2465.939          48.000    20906881.800    85610186.836 8      2465.939          49.312
G26  23955687.660   125887988.913 6     -1027.957          38.250    23955685.480   125887988.926 6     -1027.957          37.375    23955707.800    98094615.598 6      -801.006          36.500    23955708.060    98094614.599 7      -801.006          45.062
R14  23520233.520   125376073.285 7      6270.629          46.125    23520233.120   125376073.282 7      6270.629          45.500    23520244.620    97514777.618 6      4877.156          40.687    23520246.200    97514779.622 6      4877.156          41.312
G10  22316029.280   117271526.716 7      1179.644          46.437    22316028.040   117271526.721 7      1179.644          44.625    22316037.460    91380441.535 7       919.203          44.687    22316037.940    91380443.539 7       919.203          46.187
G27  21168466.940   111241043.376 8      1507.069          48.062    21168465.720   111241043.381 7      1507.069          47.812    21168473.780    86681361.175 7      1174.340          47.625    21168474.260    86681363.182 8      1174.340          49.500
G07  23835252.120   125255094.279 7      2669.849          43.312    23835251.560   125255094.278 5      2669.849          30.187    23835259.060    97601381.127 5      2080.402          30.250    23835260.200    97601406.128 6      2080.402          41.500
R12  20202273.540   107916916.825 8      -576.786          48.937    20202273.740   107916916.829 8      -576.786          48.875    20202286.940    83935428.271 8      -448.611          49.437    20202286.560    83935430.275 8      -448.611          50.437
R22  21936212.440   117096986.835 7       -39.577          44.375    21936213.180   117096986.844 7       -39.577          45.125    21936223.540    91075484.460 7       -30.782          45.312    21936223.740    91075482.462 7       -30.782          45.937
G21  20611750.720   108315482.241 8      2821.056          49.062    20611749.220   108315482.243 6      2821.056          40.562    20611754.040    84401686.811 6      2198.225          40.625
R23  20353266.520   108876254.707 7      1843.949          46.812    20353266.940   108876254.711 7      1843.949          44.750
G02  21877975.520   114969522.874 7      3706.171          47.375    21877973.760   114969522.881 6      3706.171          38.625    21877978.780    89586664.864 6      2887.925          38.187
> 2024 05 10 12 52  6.0000000  0 14
R07  22778866.000   121937053.001 6      3669.020          41.625    22778866.080   121937053.013 6      3669.020          40.812    22778883.960    94840005.802 7      2853.682          42.312    22778885.060    94840007.820 7      2853.682          43.250
R24  22551754.920   120594370.550 7      4207.280          42.812    22551752.560   120594370.544 7      4207.280          43.125    22551768.920    93795682.068 7      3272.329          44.187    22551769.180    93795680.068 7      3272.329          44.687
G16  21370826.260   112304441.999 7        96.746          46.625    21370824.800   112304442.009 6        96.746          38.562    21370831.340    87509980.800 6        75.386          38.500
G08  20906272.240   109863201.824 8      3164.202          48.062    20906270.960   109863201.824 7      3164.202          46.062    20906278.880    85607717.029 7      2465.612          45.937    20906279.560    85607721.030 8      2465.612          48.125
G26  23955882.980   125889017.142 6     -1028.475          38.437    23955881.320   125889017.153 6     -1028.475          37.125    23955903.540    98095416.805 6      -801.409          36.437    23955903.800    98095415.804 7      -801.409          44.875
R14  23519057.200   125369803.018 7      6269.890          46.750    23519057.020   125369803.019 7      6269.890          45.562    23519068.160    97509900.734 6      4876.581          40.687    23519069.880    97509902.738 6      4876.581          40.812
G10  22315804.860   117270347.497 7      1178.809          45.937    22315803.680   117270347.504 7      1178.809          44.062    22315812.940    91379522.662 7       918.553          43.875    22315813.540    91379524.667 7       918.553          46.375
G27  21168180.240   111239536.390 7      1506.753          47.312    21168178.940   111239536.397 7      1506.753          46.500    21168187.020    86680186.886 7      1174.093          46.500    21168187.580    86680188.888 8      1174.093          48.187
G07  23834744.280   125252424.886 7      2668.891          43.250    23834743.560   125252424.888 4      2668.891          29.812    23834751.160    97599301.079 5      2079.656          30.250    23834751.180    97599326.092 6      2079.656          41.750
R12  20202381.720   107917494.030 8      -577.690          48.812    20202381.680   107917494.037 8      -577.690          48.437    20202394.900    83935877.207 7      -449.314          47.687    20202394.660    83935879.208 7      -449.314          47.562
R22  21936219.600   117097026.422 7       -39.670          43.875    21936220.420   117097026.426 7       -39.670          44.250    21936231.040    91075515.248 7       -30.854          45.125    21936231.360    91075513.252 7       -30.854          45.875
G21  20611213.880   108312661.508 8      2820.406          48.375    20611212.240   108312661.511 6      2820.406          40.312    20611217.280    84399488.838 6      2197.719          40.187
R23  20352922.060   108874411.016 7      1843.332          44.625    20352921.800   108874411.023 7      1843.332          44.562
G02  21877270.240   114965816.954 7      3705.580          47.500    21877268.520   114965816.964 6      3705.580          37.687    21877273.540    89583777.137 6      2887.465          37.750
> 2024 05 10 12 52  7.0000000  0 14
R07  22778180.600   121933384.114 6      3668.549          41.625    22778180.760   121933384.153 6      3668.549          40.812    22778198.320    94837152.242 7      2853.316          42.500    22778199.160    94837154.259 7      2853.316          42.500
R24  22550968.420   120590163.169 7      4207.320          42.812    22550965.980   120590163.162 7      4207.320          42.750    22550982.320    93792409.665 7      3272.360          44.687    22550982.460    93792407.665 7      3272.360          45.562
G16  21370807.780   112304345.169 7        96.548          47.750    21370806.540   112304345.180 6        96.548          38.437    21370813.180    87509905.341 6        75.232          38.250
G08  20905670.120   109860037.378 8      3164.358          48.812    20905668.940   109860037.383 7      3164.358          47.437    20905676.700    85605251.234 7      2465.734          47.250    20905677.520    85605255.232 8      2465.734          49.437
G26  23956079.320   125890045.364 6     -1028.367          38.875    23956077.100   125890045.371 6     -1028.367          37.562    23956099.300    98096218.009 6      -801.325          36.750    23956099.500    98096216.993 7      -801.325          44.750
R14  23517880.940   125363532.909 7      6269.942          47.250    23517880.640   125363532.910 7      6269.942          45.562    23517892.340    97505023.989 6      4876.621          40.187    23517893.800    97505025.993 6      4876.621          40.812
G10  22315580.340   117269168.716 7      1178.550          47.000    22315579.560   117269168.718 7      1178.550          44.875    22315588.640    91378604.126 7       918.351          44.937    22315588.980    91378606.130 7       918.351          46.812
G27  21167893.680   111238029.474 7      1506.796          47.812    21167892.320   111238029.482 7      1506.796          47.875    21167900.240    86679012.666 7      1174.127          47.875    21167900.640    86679014.668 8      1174.127          49.250
G07  23834236.500   125249755.820 7      2668.841          44.562    23834235.740   125249755.822 4      2668.841          29.812    23834243.160    97597221.284 4      2079.617          29.812    23834243.120    97597246.298 6      2079.617          41.750
R12  20202489.940   107918071.729 8      -578.107          49.187    20202489.940   107918071.731 8      -578.107          48.812    20202503.240    83936326.512 8      -449.638          49.500    20202502.640    83936328.513 8      -449.638          49.500
R22  21936227.300   117097065.817 7       -39.293          44.500    21936227.520   117097065.815 7       -39.293          44.625    21936238.340    91075545.880 7       -30.562          46.000    21936238.680    91075543.882 7       -30.562          45.812
G21  20610677.060   108309841.097 8      2820.180          48.000    20610675.680   108309841.099 6      2820.180          40.625    20610680.540    84397291.112 6      2197.543          40.750
R23  20352576.980   108872567.366 7      1843.585          45.750    20352577.520   108872567.367 7      1843.585          44.562
G02  21876565.080   114962111.266 7      3705.567          47.875    21876563.400   114962111.276 6      3705.567          38.250    21876568.440    89580889.588 6      2887.455          38.500
> 2024 05 10 12 52  8.0000000  0 14
R07  22777495.100   121929715.852 6      3667.849          41.187    22777495.180   121929715.892 6      3667.849          40.250    22777513.120    94834299.154 7      2852.772          43.187    22777513.780    94834301.169 7      2852.772          43.187
R24  22550181.800   120585955.994 7      4207.058          43.875    22550179.500   120585956.000 7      4207.058          43.500    22550195.320    93789137.426 7      3272.156          44.812    22550195.880    93789135.432 7      3272.156          45.750
G16  21370789.540   112304248.718 7        96.285          47.562    21370788.320   112304248.726 6        96.285          38.562    21370794.680    87509830.178 6        75.027          38.562
G08  20905068.020   109856873.054 8      3164.235          49.125    20905066.640   109856873.058 8      3164.235          48.812    20905074.460    85602785.524 8      2465.638          48.500    20905075.320    85602789.523 8      2465.638          50.437
G26  23956274.960   125891073.645 6     -1028.225          39.250    23956272.980   125891073.650 6     -1028.225          38.437    23956295.000    98097019.240 6      -801.214          37.750    23956295.200    98097018.231 7      -801.214          45.125
R14  23516704.840   125357263.067 7      6269.770          46.750    23516704.740   125357263.065 7      6269.770          45.937    23516716.140    97500147.445 6      4876.488          40.625    23516717.660    97500149.442 6      4876.488          41.375
G10  22315356.140   117267990.448 7      1178.035          46.375    22315355.240   117267990.450 7      1178.035          45.250    22315364.520    91377685.993 7       917.949          45.125    22315365.100    91377687.999 7       917.949          47.062
G27  21167606.920   111236522.685 7      1506.739          47.312    21167605.420   111236522.695 8      1506.739          48.187    21167613.600    86677838.542 8      1174.082          48.125    21167613.840    86677840.544 8      1174.082          50.125
G07  23833728.880   125247087.236 7      2668.371          44.000    23833728.180   125247087.239 4      2668.371          29.812    23833735.460    97595141.871 4      2079.250          29.812    23833735.840    97595166.880 6      2079.250          41.125
R12  20202597.960   107918649.955 8      -578.576          49.562    20202598.400   107918649.961 8      -578.576          48.937    20202611.420    83936776.242 8      -450.004          50.750    20202610.980    83936778.244 8      -450.004          50.437
R22  21936235.100   117097105.113 7       -39.250          44.437    21936235.160   117097105.109 7       -39.250          45.187    21936245.840    91075576.433 7       -30.528          46.250    21936245.820    91075574.437 7       -30.528          45.937
G21  20610140.500   108307021.063 8      2819.843          48.250    20610139.000   108307021.071 6      2819.843          40.812    20610143.980    84395093.684 6      2197.281          40.500
R23  20352232.300   108870723.913 7      1843.382          45.937    20352232.920   108870723.915 7      1843.382          44.500
G02  21875860.080   114958405.912 7      3705.208          46.875    21875858.180   114958405.919 6      3705.208          38.187    21875863.480    89578002.301 6      2887.175          38.375
> 2024 05 10 12 52  9.0000000  0 14
R07  22776809.980   121926048.244 6      3667.529          41.187    22776810.480   121926048.273 6      3667.529          40.250    22776828.120    94831446.564 7      2852.523          43.250    22776828.500    94831448.579 7      2852.523          43.375
R24  22549395.280   120581749.126 7      4206.839          43.375    22549393.200   120581749.130 7      4206.839          43.625    22549408.620    93785865.409 7      3271.986          44.750    22549408.880    93785863.420 7      3271.986          44.875
G16  21370771.160   112304152.746 7        95.832          46.875    21370769.920   112304152.753 6        95.832          39.062    21370776.400    87509755.394 6        74.674          39.000
G08  20904465.980   109853708.910 8      3164.140          49.187    20904464.580   109853708.907 8      3164.140          48.750    20904472.360    85600319.953 8      2465.564          49.000    20904473.260    85600323.954 8      2465.564          50.375
G26  23956470.020   125892102.085 6     -1028.335          39.312    23956468.820   125892102.095 6     -1028.335          37.937    23956490.620    98097820.618 6      -801.300          37.375    23956490.900    98097819.623 7      -801.300          46.000
R14  23515528.860   125350993.581 7      6269.425          46.875    23515528.480   125350993.571 7      6269.425          45.812    23515540.040    97495271.158 6      4876.220          40.625    23515541.140    97495273.153 6      4876.220          41.625
G10  22315132.140   117266812.789 7      1177.432          46.562    22315131.240   117266812.799 7      1177.432          45.250    22315140.400    91376768.339 7       917.480          44.937    22315140.700    91376770.343 7       917.480          47.000
G27  21167320.160   111235016.121 7      1506.561          47.500    21167318.760   111235016.129 8      1506.561          49.000    21167326.820    86676664.594 8      1173.944          49.312    21167327.400    86676666.599 8      1173.944          50.125
G07  23833221.320   125244419.194 7      2667.910          44.000    23833220.460   125244419.194 5      2667.910          30.250    23833227.840    97593062.867 4      2078.891          29.812    23833228.640    97593087.872 6      2078.891          41.125
R12  20202706.440   107919228.859 8      -579.198          49.062    20202706.880   107919228.868 8      -579.198          49.562    20202719.620    83937226.493 8      -450.488          51.000    20202719.440    83937228.494 8      -450.488          51.875
R22  21936242.300   117097144.383 7       -39.156          45.812    21936242.520   117097144.381 7       -39.156          45.000    21936253.060    91075606.974 7       -30.455          46.562    21936253.200    91075604.978 7       -30.455          46.312
G21  20609603.900   108304201.527 7      2819.399          47.437    20609602.500   108304201.529 6      2819.399          40.625    20609607.440    84392896.644 6      2196.934          40.875
R23  20351887.960   108868880.712 7      1843.165          45.187    20351888.540   108868880.722 7      1843.165          44.750
G02  21875154.940   114954700.959 7      3704.844          47.000    21875153.060   114954700.967 6      3704.844          38.312    21875158.320    89575115.323 6      2886.891          38.187
> 2024 05 10 12 52 10.0000000  0 14
R07  22776124.820   121922381.233 6      3666.615          41.187    22776125.080   121922381.264 6      3666.615          40.250    22776143.060    94828594.456 7      2851.811          43.250    22776143.220    94828596.465 7      2851.811          42.812
R24  22548608.500   120577542.392 7      4206.550          44.000    22548606.800   120577542.398 7      4206.550          44.062    22548621.720    93782593.517 7      3271.761          44.500    22548622.240    93782591.528 7      3271.761          45.500
G16  21370752.940   112304057.099 7        95.307          47.875    21370751.660   112304057.104 6        95.307          39.062    21370758.220    87509680.856 6        74.265          39.062
G08  20903864.060   109850544.798 8      3163.965          49.312    20903862.560   109850544.798 8      3163.965          48.937    20903870.160    85597854.416 8      2465.427          49.062    20903871.100    85597858.412 8      2465.427          50.125
G26  23956666.120   125893130.563 6     -1028.630          39.187    23956664.440   125893130.571 6     -1028.630          37.875    23956686.240    98098622.028 6      -801.530          37.437    23956686.420    98098621.029 7      -801.530          46.312
R14  23514352.580   125344724.285 7      6268.963          46.562    23514352.460   125344724.286 7      6268.963          45.125    23514363.900    97490395.049 6      4875.860          40.562    23514365.060    97490397.042 6      4875.860          41.625
G10  22314908.160   117265635.582 7      1176.791          46.062    22314907.140   117265635.592 7      1176.791          44.937    22314916.220    91375851.030 7       916.980          45.250    22314916.620    91375853.039 7       916.980          46.687
G27  21167033.580   111233509.621 7      1506.350          47.437    21167032.260   111233509.628 8      1506.350          48.687    21167040.220    86675490.696 8      1173.779          48.562    21167040.820    86675492.696 8      1173.779          50.375
G07  23832713.780   125241751.560 7      2667.237          44.500    23832712.820   125241751.562 5      2667.237          30.250    23832720.160    97590984.180 5      2078.366          30.375    23832720.260    97591009.186 6      2078.366          41.500
R12  20202814.980   107919808.291 8      -579.892          49.875    20202815.400   107919808.295 8      -579.892          49.250    20202828.120    83937677.154 8      -451.027          51.125    20202828.040    83937679.155 8      -451.027          51.687
R22  21936249.540   117097183.495 7       -39.212          44.875    21936249.700   117097183.498 7       -39.212          45.125    21936260.080    91075637.397 7       -30.499          46.687    21936260.580    91075635.401 7       -30.499          46.875
G21  20609067.520   108301382.305 8      2818.888          48.250    20609066.060   108301382.313 6      2818.888          40.187    20609071.000    84390699.850 6      2196.536          40.312
R23  20351543.500   108867037.626 7      1842.838          46.000    20351543.980   108867037.636 7      1842.838          45.062
G02  21874449.980   114950996.257 7      3704.405          47.812    21874448.020   114950996.261 6      3704.405          37.937    21874453.280    89572228.543 6      2886.549          38.312
> 2024 05 10 12 52 11.0000000  0 14
R07  22775439.960   121918715.060 6      3665.800          41.062    22775440.380   121918715.080 6      3665.800          40.187    22775458.320    94825742.990 7      2851.178          43.125    22775458.520    94825745.001 7      2851.178          42.937
R24  22547822.040   120573336.128 7      4206.159          43.500    22547820.600   120573336.135 7      4206.159          44.062    22547834.920    93779321.981 7      3271.457          44.500    22547835.220    93779319.993 7      3271.457          45.125
G16  21370734.880   112303962.077 7        94.795          47.562    21370733.560   112303962.082 6        94.795          38.625    21370740.080    87509606.809 6        73.866          38.750
G08  20903261.920   109847381.064 8      3163.609          48.312    20903260.440   109847381.067 8      3163.609          49.062    20903268.280    85595389.166 8      2465.150          48.937    20903269.140    85595393.167 8      2465.150          49.250
G26  23956862.080   125894159.379 6     -1028.959          38.812    23956860.240   125894159.386 6     -1028.959          37.500    23956881.960    98099423.693 6      -801.786          37.375    23956882.160    98099422.695 7      -801.786          45.875
R14  23513177.040   125338455.533 7      6268.537          46.062    23513176.420   125338455.525 7      6268.537          45.625    23513187.680    97485519.344 6      4875.529          40.562    23513188.940    97485521.333 6      4875.529          41.687
G10  22314684.100   117264459.145 7      1176.155          46.062    22314683.300   117264459.148 7      1176.155          44.812    22314692.580    91374934.324 7       916.484          44.812    22314692.820    91374936.333 7       916.484          46.875
G27  21166747.060   111232003.525 7      1506.006          47.500    21166745.580   111232003.525 8      1506.006          48.000    21166753.680    86674317.106 7      1173.511          47.375    21166754.280    86674319.109 8      1173.511          49.687
G07  23832206.220   125239084.629 7      2666.561          45.000    23832205.280   125239084.631 5      2666.561          30.250    23832212.660    97588906.047 5      2077.840          30.375    23832213.160    97588931.058 6      2077.840          41.312
R12  20202923.780   107920388.589 8      -580.668          48.937    20202924.060   107920388.590 8      -580.668          49.562    20202936.720    83938128.491 8      -451.631          51.125    20202936.660    83938130.490 8      -451.631          50.250
R22  21936256.980   117097222.775 7       -39.373          45.437    21936257.280   117097222.773 7       -39.373          44.312    21936267.820    91075667.944 7       -30.624          45.812    21936267.980    91075665.946 7       -30.624          45.625
G21  20608531.040   108298563.743 8      2818.294          48.375    20608529.680   108298563.751 6      2818.294          41.187    20608534.720    84388503.570 6      2196.073          41.125
R23  20351198.700   108865194.992 7      1842.389          45.937    20351199.340   108865195.007 7      1842.389          44.437
G02  21873745.060   114947292.137 8      3703.863          48.000    21873743.220   114947292.145 6      3703.863          38.187    21873748.420    89569342.219 6      2886.127          38.125
> 2024 05 10 12 52 12.0000000  0 14
R07  22774755.540   121915049.641 6      3665.307          41.062    22774755.420   121915049.659 6      3665.307          40.187    22774773.500    94822892.109 7      2850.794          42.875    22774773.640    94822894.120 7      2850.794          42.687
R24  22547035.220   120569130.247 7      4205.900          43.562    22547033.960   120569130.251 7      4205.900          43.812    22547048.660    93776050.732 7      3271.255          44.375    22547048.360    93776048.736 7      3271.255          45.000
G16  21370717.000   112303867.644 7        94.488          47.875    21370715.600   112303867.652 6        94.488          38.937    21370722.300    87509533.217 6        73.627          38.875
G08  20902659.800   109844217.620 8      3163.478          49.250    20902658.500   109844217.619 7      3163.478          47.500    20902666.200    85592924.141 7      2465.048          47.562    20902667.080    85592928.137 8      2465.048          50.500
G26  23957057.920   125895188.477 6     -1028.981          38.812    23957056.180   125895188.490 6     -1028.981          37.375    23957077.980    98100225.574 6      -801.804          36.937    23957078.140    98100224.575 7      -801.804          46.125
R14  23512000.700   125332187.271 7      6268.150          46.437    23512000.420   125332187.269 7      6268.150          45.812    23512011.740    97480644.019 6      4875.227          40.187    23512013.040    97480646.008 6      4875.227          41.500
G10  22314460.380   117263283.436 7      1175.678          47.000    22314459.520   117263283.433 7      1175.678          45.062    22314468.820    91374018.175 7       916.113          45.312    22314469.120    91374020.182 7       916.113          46.812
G27  21166460.360   111230497.763 7      1505.787          47.187    21166459.080   111230497.763 8      1505.787          48.375    21166467.120    86673143.783 7      1173.340          47.875    21166467.700    86673145.784 8      1173.340          49.937
G07  23831698.600   125236418.356 7      2666.150          44.687    23831698.040   125236418.358 4      2666.150          29.937    23831705.260    97586828.425 5      2077.520          30.375    23831705.580    97586853.430 6      2077.520          41.312
R12  20203032.600   107920969.654 8      -581.200          48.312    20203032.580   107920969.652 8      -581.200          49.187    20203045.540    83938580.407 8      -452.044          51.375    20203045.560    83938582.406 8      -452.044          50.437
R22  21936263.960   117097262.141 7       -39.161          44.312    21936264.600   117097262.144 7       -39.161          44.062    21936275.080    91075698.549 7       -30.459          45.562    21936275.140    91075696.555 7       -30.459          46.187
G21  20607995.000   108295745.775 8      2817.860          48.750    20607993.440   108295745.780 6      2817.860          40.625    20607998.320    84386307.749 6      2195.735          40.875
R23  20350854.520   108863352.700 7      1842.347          45.812    20350854.860   108863352.712 7      1842.347          44.937
G02  21873040.400   114943588.535 7      3703.485          46.250    21873038.460   114943588.543 6      3703.485          38.375    21873043.540    89566456.295 6      2885.832          38.625
> 2024 05 10 12 52 13.0000000  0 14
R07  22774070.900   121911384.768 6      3664.618          41.562    22774070.880   121911384.783 6      3664.618          40.187    22774088.740    94820041.648 7      2850.258          43.125    22774088.800    94820043.657 7      2850.258          42.750
R24  22546248.940   120564924.521 7      4205.596          45.187    22546247.520   120564924.525 7      4205.596          44.312    22546262.180    93772779.628 7      3271.019          45.312    22546261.880    93772777.626 7      3271.019          44.812
G16  21370699.100   112303773.592 7        93.960          47.312    21370697.740   112303773.595 6        93.960          39.062    21370704.280    87509459.919 6        73.215          38.937
G08  20902057.820   109841054.235 8      3163.421          48.187    20902056.540   109841054.238 8      3163.421          48.250    20902064.200    85590459.166 8      2465.004          48.750    20902065.100    85590463.165 8      2465.004          50.000
G26  23957253.940   125896217.621 6     -1029.161          38.562    23957252.020   125896217.642 6     -1029.161          38.187    23957273.800    98101027.496 6      -801.944          37.812    23957273.920    98101026.497 7      -801.944          45.875
R14  23510825.100   125325919.222 7      6267.939          46.437    23510824.680   125325919.223 7      6267.939          45.437    23510835.280    97475768.878 6      4875.064          40.187    23510837.060    97475770.874 6      4875.064          41.500
G10  22314237.120   117262108.213 7      1174.954          46.250    22314235.820   117262108.216 7      1174.954          45.125    22314245.120    91373102.423 7       915.549          45.000    22314245.180    91373104.430 7       915.549          47.125
G27  21166174.000   111228992.098 7      1505.620          46.937    21166172.640   111228992.100 8      1505.620          49.125    21166180.540    86671970.538 8      1173.210          48.937    21166181.140    86671972.538 8      1173.210          50.312
G07  23831191.300   125233752.495 7      2665.699          44.437    23831190.520   125233752.494 4      2665.699          29.937    23831198.000    97584751.130 5      2077.168          30.187    23831198.940    97584776.140 6      2077.168          41.875
R12  20203141.200   107921551.199 8      -581.807          49.187    20203141.180   107921551.203 8      -581.807          48.625    20203154.380    83939032.722 8      -452.516          51.312    20203154.260    83939034.721 8      -452.516          51.375
R22  21936271.500   117097301.375 7       -39.062          43.687    21936272.000   117097301.384 7       -39.062          44.062    21936282.640    91075729.063 7       -30.381          46.875    21936282.540    91075727.067 7       -30.381          46.000
G21  20607458.840   108292928.157 7      2817.493          47.687    20607457.280   108292928.164 6      2817.493          41.062    20607462.160    84384112.204 6      2195.449          40.937
R23  20350510.180   108861510.556 7      1842.090          45.625    20350510.480   108861510.568 7      1842.090          44.250
G02  21872335.580   114939885.209 7      3703.151          47.250    21872333.640   114939885.219 6      3703.151          38.125    21872338.780    89563570.587 6      2885.572          37.875
> 2024 05 10 12 52 14.0000000  0 14
R07  22773386.300   121907720.463 6      3663.999          41.562    22773386.760   121907720.492 6      3663.999          40.062    22773404.160    94817191.652 7      2849.777          43.000    22773403.840    94817193.653 7      2849.777          42.625
R24  22545462.560   120560719.040 7      4205.327          44.375    22545460.780   120560719.036 7      4205.327          43.812    22545475.620    93769508.695 7      3270.810          44.875    22545475.600    93769506.695 7      3270.810          44.250
G16  21370681.160   112303679.937 7        93.426          47.625    21370679.820   112303679.942 6        93.426          38.625    21370686.420    87509386.937 6        72.800          38.187
G08  20901455.920   109837891.001 8      3163.147          48.312    20901454.520   109837891.003 8      3163.147          48.562    20901462.340    85587994.308 8      2464.790          48.375    20901463.100    85587998.309 8      2464.790          49.562
G26  23957450.040   125897246.898 6     -1029.553          38.562    23957447.800   125897246.914 6     -1029.553          37.562    23957469.860    98101829.531 6      -802.249          37.000    23957469.820    98101828.536 7      -802.249          45.375
R14  23509649.420   125319651.498 7      6267.519          46.125    23509648.440   125319651.504 7      6267.519          45.625    23509660.040    97470893.988 6      4874.737          40.375    23509661.020    97470895.975 6      4874.737          41.125
G10  22314013.600   117260933.524 7      1174.389          46.562    22314012.240   117260933.529 7      1174.389          44.562    22314021.700    91372187.083 7       915.108          44.500    22314021.600    91372189.089 7       915.108          46.687
G27  21165887.440   111227486.596 7      1505.399          47.312    21165886.080   111227486.593 8      1505.399          48.687    21165894.100    86670797.417 8      1173.038          48.187    21165894.660    86670799.420 8      1173.038          49.750
G07  23830684.120   125231087.125 7      2665.083          44.937    23830683.380   125231087.127 4      2665.083          29.937    23830690.680    97582674.217 5      2076.688          30.187    23830691.820    97582699.230 6      2076.688          41.875
R12  20203250.340   107922133.380 8      -582.558          49.625    20203250.120   107922133.381 8      -582.558          49.375    20203263.300    83939485.517 8      -453.100          50.187    20203263.460    83939487.516 8      -453.100          50.687
R22  21936278.940   117097340.573 7       -39.204          45.125    21936279.240   117097340.582 7       -39.204          45.125    21936290.000    91075759.546 7       -30.492          45.875    21936289.920    91075757.554 7       -30.492          46.125
G21  20606922.680   108290110.985 8      2816.963          48.437    20606921.200   108290110.992 6      2816.963          40.875    20606926.120    84381917.005 6      2195.036          40.687
R23  20350166.080   108859668.596 7      1841.812          46.062    20350166.060   108859668.602 7      1841.812          44.312
G02  21871630.680   114936182.238 7      3702.687          47.687    21871628.960   114936182.248 6      3702.687          38.125    21871634.120    89560685.156 6      2885.211          38.000
> 2024 05 10 12 52 15.0000000  0 14
R07  22772702.080   121904056.667 7      3663.710          42.312    22772702.580   121904056.690 6      3663.710          40.062    22772719.860    94814342.039 7      2849.552          42.875    22772719.500    94814344.033 7      2849.552          42.812
R24  22544676.460   120556513.683 7      4205.457          44.875    22544673.880   120556513.682 7      4205.457          44.000    22544689.280    93766237.866 7      3270.911          45.062    22544689.040    93766235.859 7      3270.911          45.125
G16  21370663.620   112303586.555 7        93.427          47.500    21370661.980   112303586.560 6        93.427          38.750    21370668.780    87509314.161 6        72.801          39.000
G08  20900853.860   109834727.761 7      3163.392          47.562    20900852.680   109834727.761 8      3163.392          48.937    20900860.340    85585529.442 8      2464.981          49.062    20900861.240    85585533.443 8      2464.981          50.125
G26  23957645.420   125898276.139 6     -1029.330          38.500    23957643.720   125898276.149 6     -1029.330          37.437    23957665.640    98102631.528 6      -802.076          36.750    23957665.440    98102630.537 7      -802.076          45.500
R14  23508473.580   125313383.953 7      6267.591          46.812    23508472.960   125313383.951 7      6267.591          44.937    23508484.540    97466019.225 6      4874.793          40.375    23508484.820    97466021.216 6      4874.793          41.250
G10  22313790.120   117259759.268 7      1174.200          46.437    22313788.680   117259759.270 7      1174.200          45.250    22313798.220    91371272.074 7       914.961          45.250    22313798.400    91371274.078 7       914.961          46.750
G27  21165600.840   111225981.136 7      1505.522          47.750    21165599.660   111225981.146 8      1505.522          48.437    21165607.620    86669624.328 8      1173.134          48.437    21165607.980    86669626.328 8      1173.134          50.187
G07  23830176.880   125228422.125 7      2664.951          45.125    23830176.360   125228422.128 5      2664.951          30.312    23830183.720    97580597.588 5      2076.585          30.187    23830184.640    97580622.603 7      2076.585          42.187
R12  20203359.200   107922716.076 8      -582.790          48.875    20203359.280   107922716.075 8      -582.790          49.500    20203372.560    83939938.709 8      -453.281          50.687    20203372.260    83939940.710 8      -453.281          51.375
R22  21936286.700   117097379.546 7       -38.649          44.812    21936286.340   117097379.544 7       -38.649          44.437    21936297.200    91075789.846 7       -30.060          46.625    21936297.400    91075787.852 7       -30.060          46.687
G21  20606386.500   108287294.110 7      2816.853          47.687    20606385.220   108287294.112 6      2816.853          41.062    20606390.180    84379722.036 6      2194.951          41.312
R23  20349821.760   108857826.689 7      1841.968          45.062    20349821.660   108857826.704 7      1841.968          44.625
G02  21870926.180   114932479.466 7      3702.884          47.125    21870924.420   114932479.474 6      3702.884          37.625    21870929.480    89557799.882 6      2885.364          38.000
> 2024 05 10 12 52 16.0000000  0 14
R07  22772017.440   121900393.365 7      3662.837          42.312    22772017.860   121900393.388 6      3662.837          40.062    22772035.380    94811492.812 7      2848.873          43.000    22772035.140    94811494.801 7      2848.873          43.000
R24  22543889.400   120552308.420 7      4205.088          44.500    22543887.520   120552308.429 7      4205.088          43.500    22543903.380    93762967.115 7      3270.624          45.500    22543902.540    93762965.105 7      3270.624          45.312
G16  21370645.740   112303493.462 7        92.822          46.875    21370644.280   112303493.470 6        92.822          39.125    21370650.980    87509241.613 6        72.329          38.812
G08  20900252.040   109831564.514 7      3163.167          47.500    20900250.760   109831564.519 8      3163.167          48.937    20900258.320    85583064.582 8      2464.806          48.687    20900259.320    85583068.578 8      2464.806          49.562
G26  23957841.140   125899305.351 6     -1029.304          38.562    23957839.820   125899305.361 6     -1029.304          38.000    23957861.400    98103433.483 6      -802.055          37.812    23957861.340    98103432.474 7      -802.055          45.875
R14  23507297.700   125307116.544 7      6267.291          46.875    23507297.520   125307116.539 7      6267.291          45.562    23507308.360    97461144.569 6      4874.559          40.687    23507309.440    97461146.558 6      4874.559          41.250
G10  22313566.740   117258585.419 7      1173.497          45.812    22313565.280   117258585.429 7      1173.497          44.875    22313574.780    91370357.386 7       914.413          44.625    22313574.960    91370359.395 7       914.413          47.000
G27  21165314.460   111224475.689 7      1505.305          47.437    21165313.300   111224475.694 8      1505.305          48.625    21165321.100    86668451.246 8      1172.965          48.812    21165321.540    86668453.247 8      1172.965          49.875
G07  23829669.820   125225757.460 7      2664.383          44.625    23829669.440   125225757.462 5      2664.383          30.312    23829676.720    97578521.229 5      2076.143          30.187    23829677.980    97578546.241 7      2076.143          42.125
R12  20203468.260   107923299.238 8      -583.472          49.625    20203468.800   107923299.233 8      -583.472          49.312    20203481.620    83940392.274 8      -453.812          51.375    20203481.360    83940394.271 8      -453.812          51.250
R22  21936294.300   117097418.306 7       -38.780          45.250    21936293.780   117097418.312 7       -38.780          44.500    21936304.580    91075819.994 7       -30.162          46.937    21936304.240    91075817.996 7       -30.162          46.312
G21  20605850.760   108284477.505 8      2816.317          48.562    20605849.180   108284477.507 6      2816.317          40.812    20605854.160    84377527.283 6      2194.533          41.125
R23  20349477.320   108855984.823 7      1841.747          44.625    20349477.420   108855984.829 7      1841.747          44.937
G02  21870221.780   114928776.939 7      3702.234          46.750    21870219.740   114928776.949 6      3702.234          38.125    21870224.920    89554914.800 6      2884.857          37.625
> 2024 05 10 12 52 17.0000000  0 14
R07  22771333.100   121896730.808 7      3662.366          42.312    22771333.880   121896730.833 6      3662.366          40.437    22771351.500    94808644.165 7      2848.507          42.687    22771351.180    94808646.159 7      2848.507          43.062
R24  22543103.280   120548103.560 7      4204.755          44.062    22543101.160   120548103.569 7      4204.755          43.500    22543116.820    93759696.681 7      3270.365          45.062    22543116.440    93759694.671 7      3270.365          45.875
G16  21370628.020   112303400.916 7        92.410          46.812    21370626.580   112303400.921 6        92.410          38.750    21370633.420    87509169.493 6        72.008          38.937
G08  20899650.140   109828401.576 7      3162.838          47.687    20899648.880   109828401.576 7      3162.838          47.750    20899656.520    85580599.953 7      2464.549          47.875    20899657.420    85580603.950 8      2464.549          49.750
G26  23958036.980   125900334.807 6     -1029.446          39.437    23958035.980   125900334.823 6     -1029.446          37.875    23958057.160    98104235.650 6      -802.165          37.000    23958057.260    98104234.651 7      -802.165          45.812
R14  23506122.140   125300849.607 7      6266.781          46.625    23506121.520   125300849.597 7      6266.781          45.625    23506132.320    97456270.276 6      4874.163          40.562    23506133.740    97456272.272 6      4874.163          41.062
G10  22313343.420   117257412.256 7      1172.981          46.500    22313342.020   117257412.261 7      1172.981          44.625    22313351.580    91369443.229 7       914.011          44.687    22313351.820    91369445.234 7       914.011          46.250
G27  21165028.060   111222970.566 7      1505.075          47.312    21165026.760   111222970.573 8      1505.075          48.437    21165034.720    86667278.427 7      1172.785          47.875    21165035.080    86667280.425 8      1172.785          48.937
G07  23829162.920   125223093.446 7      2663.831          45.312    23829162.560   125223093.448 5      2663.831          30.312    23829169.800    97576445.370 5      2075.712          30.437    23829170.880    97576470.379 7      2075.712          42.125
R12  20203577.900   107923883.163 8      -584.228          49.687    20203578.040   107923883.164 8      -584.228          49.437    20203590.820    83940846.434 8      -454.400          49.250    20203591.040    83940848.431 8      -454.400          50.062
R22  21936301.280   117097457.170 7       -38.814          45.500    21936300.900   117097457.168 7       -38.814          45.000    21936312.100    91075850.222 7       -30.189          45.937    21936311.860    91075848.224 7       -30.189          46.062
G21  20605314.940   108281661.484 8      2815.823          48.937    20605313.320   108281661.489 6      2815.823          40.687    20605318.080    84375332.981 6      2194.148          41.062
R23  20349133.060   108854143.323 7      1841.363          45.812    20349133.220   108854143.340 7      1841.363          44.562
G02  21869517.000   114925074.890 7      3701.845          46.187    21869515.320   114925074.903 6      3701.845          38.062    21869520.500    89552030.088 6      2884.555          37.875
> 2024 05 10 12 52 18.0000000  0 14
R07  22770648.860   121893069.034 7      3661.513          42.125    22770648.900   121893069.079 6      3661.513          40.437    22770667.220    94805796.140 7      2847.844          42.312    22770667.260    94805798.136 7      2847.844          42.437
R24  22542317.140   120543899.058 7      4204.454          44.562    22542314.680   120543899.070 7      4204.454          43.875    22542330.620    93756426.509 7      3270.131          44.562    22542330.580    93756424.503 7      3270.131          45.250
G16  21370610.620   112303308.976 7        91.709          46.875    21370609.100   112303308.984 6        91.709          38.125    21370615.940    87509097.848 6        71.461          38.500
G08  20899048.380   109825238.915 8      3162.518          48.375    20899047.020   109825238.917 7      3162.518          46.937    20899054.660    85578135.541 7      2464.300          47.125    20899055.820    85578139.540 7      2464.300          47.937
G26  23958232.780   125901364.589 6     -1029.903          39.687    23958231.900   125901364.602 6     -1029.903          37.500    23958253.180    98105038.061 6      -802.522          36.875    23958253.500    98105037.060 7      -802.522          45.375
R14  23504946.680   125294583.091 7      6266.334          46.437    23504945.900   125294583.086 7      6266.334          45.375    23504957.160    97451396.319 6      4873.815          40.562    23504958.000    97451398.308 6      4873.815          40.437
G10  22313120.220   117256239.818 7      1172.205          46.625    22313119.000   117256239.820 7      1172.205          44.125    22313128.540    91368529.637 7       913.407          44.187    22313128.780    91368531.646 7       913.407          46.437
G27  21164741.860   111221465.799 8      1504.593          48.187    21164740.400   111221465.804 7      1504.593          46.437    21164748.340    86666105.877 7      1172.410          46.062    21164748.860    86666107.878 7      1172.410          47.437
G07  23828655.820   125220430.107 7      2663.007          43.875    23828655.760   125220430.109 5      2663.007          30.375    23828662.960    97574370.035 5      2075.070          30.437    23828663.960    97574395.044 7      2075.070          42.000
R12  20203687.280   107924467.852 8      -585.082          49.062    20203687.780   107924467.850 8      -585.082          49.437    20203700.240    83941301.178 8      -455.064          48.437    20203700.420    83941303.177 7      -455.064          47.937
R22  21936308.740   117097496.114 7       -38.949          44.812    21936308.360   117097496.112 7       -38.949          44.250    21936319.240    91075880.497 7       -30.294          44.437    21936318.920    91075878.499 7       -30.294          44.875
G21  20604779.000   108278846.051 8      2815.251          48.375    20604777.540   108278846.056 6      2815.251          39.937    20604782.540    84373139.139 6      2193.702          39.750
R23  20348789.060   108852302.186 7      1841.012          45.375    20348789.000   108852302.193 7      1841.012          44.562
G02  21868812.660   114921373.362 7      3701.328          46.562    21868811.060   114921373.374 6      3701.328          37.937    21868816.000    89549145.782 6      2884.152          37.500
> 2024 05 10 12 52 19.0000000  0 14
R07  22769964.960   121889407.778 7      3661.147          42.125    22769966.080   121889407.814 6      3661.147          40.437    22769983.220    94802948.488 7      2847.559          42.312    22769983.280    94802950.492 7      2847.559          43.375
R24  22541530.580   120539694.677 7      4204.485          43.875    22541528.700   120539694.686 7      4204.485          43.375    22541544.380    93753156.435 7      3270.155          45.187    22541544.620    93753154.435 7      3270.155          45.312
G16  21370593.040   112303217.302 7        91.613          46.750    21370591.700   112303217.307 6        91.613          38.875    21370598.500    87509026.405 6        71.387          38.937
G08  20898446.500   109822076.269 8      3162.791          48.437    20898445.200   109822076.274 7      3162.791          46.937    20898452.860    85575671.140 7      2464.513          46.875    20898453.940    85575675.137 8      2464.513          49.750
G26  23958428.980   125902394.334 6     -1029.625          40.437    23958427.840   125902394.342 6     -1029.625          38.125    23958449.140    98105840.452 6      -802.305          37.750    23958449.380    98105839.447 7      -802.305          45.312
R14  23503771.200   125288316.756 7      6266.356          46.937    23503770.460   125288316.764 7      6266.356          45.312    23503781.700    97446522.513 6      4873.832          39.875    23503782.340    97446524.507 6      4873.832          40.437
G10  22312897.220   117255067.824 7      1171.928          45.625    22312895.940   117255067.829 7      1171.928          44.312    22312905.360    91367616.393 7       913.191          44.250    22312906.220    91367618.400 7       913.191          46.437
G27  21164455.520   111219961.067 8      1504.731          48.375    21164454.140   111219961.070 7      1504.731          47.812    21164462.020    86664933.351 7      1172.518          47.875    21164462.620    86664935.353 8      1172.518          49.375
G07  23828148.980   125217767.102 7      2663.008          44.625    23828148.920   125217767.105 5      2663.008          30.375    23828156.280    97572294.962 5      2075.071          30.437    23828157.460    97572319.969 7      2075.071          42.000
R12  20203796.860   107925053.021 8      -585.284          49.375    20203796.960   107925053.025 8      -585.284          49.250    20203809.700    83941756.301 8      -455.221          49.812    20203809.840    83941758.296 8      -455.221          49.437
R22  21936315.800   117097534.868 7       -38.633          45.250    21936315.460   117097534.866 7       -38.633          45.312    21936326.480    91075910.641 7       -30.048          45.937    21936326.220    91075908.641 7       -30.048          46.000
G21  20604243.340   108276030.945 8      2815.072          49.562    20604241.780   108276030.947 6      2815.072          40.312    20604246.720    84370945.546 6      2193.563          40.187
R23  20348445.000   108850461.144 7      1841.049          45.312    20348444.740   108850461.145 7      1841.049          45.125
G02  21868108.520   114917672.069 7      3701.258          47.000    21868106.660   114917672.079 6      3701.258          37.562    21868111.520    89546261.661 6      2884.097          37.625
> 2024 05 10 12 52 20.0000000  0 14
R07  22769281.460   121885747.131 6      3660.431          41.562    22769281.640   121885747.160 6      3660.431          40.437    22769299.400    94800101.318 7      2847.002          42.500    22769299.640    94800103.329 7      2847.002          43.312
R24  22540744.280   120535490.534 7      4204.103          43.750    22540742.040   120535490.543 7      4204.103          43.750    22540758.180    93749886.550 7      3269.858          44.875    22540758.300    93749884.548 7      3269.858          45.250
G16  21370575.720   112303126.067 7        91.077          46.500    21370574.420   112303126.069 6        91.077          38.750    21370581.260    87508955.303 6        70.969          38.562
G08  20897844.640   109818913.788 8      3162.494          49.125    20897843.520   109818913.796 8      3162.494          48.687    20897851.020    85573206.869 8      2464.281          48.812    20897852.380    85573210.868 8      2464.281          50.312
G26  23958624.800   125903424.206 6     -1029.809          40.250    23958623.780   125903424.213 6     -1029.809          38.625    23958645.220    98106642.939 6      -802.449          38.000    23958645.900    98106641.944 7      -802.449          45.312
R14  23502595.460   125282050.783 7      6265.906          46.875    23502595.040   125282050.786 7      6265.906          45.562    23502606.280    97441648.973 6      4873.483          39.875    23502606.700    97441650.966 6      4873.483          40.687
G10  22312674.220   117253896.388 7      1171.229          46.562    22312673.040   117253896.392 7      1171.229          44.312    22312682.440    91366703.583 7       912.646          44.500    22312683.060    91366705.592 7       912.646          46.812
G27  21164169.060   111218456.496 7      1504.616          47.750    21164167.780   111218456.498 8      1504.616          48.750    21164175.760    86663760.953 8      1172.428          48.625    21164176.280    86663762.956 8      1172.428          49.937
G07  23827642.220   125215104.625 7      2662.355          44.000    23827642.260   125215104.630 5      2662.355          30.375    23827649.540    97570220.303 5      2074.562          30.062    23827650.640    97570245.310 7      2074.562          42.000
R12  20203906.740   107925638.859 8      -586.019          49.125    20203906.760   107925638.860 8      -586.019          49.812    20203919.300    83942211.942 8      -455.793          49.750    20203919.540    83942213.939 8      -455.793          50.937
R22  21936322.960   117097573.564 7       -38.560          45.562    21936322.960   117097573.570 7       -38.560          45.125    21936333.720    91075940.732 7       -29.991          46.812    21936333.600    91075938.729 7       -29.991          46.562
G21  20603707.540   108273216.269 8      2814.526          48.625    20603706.280   108273216.271 6      2814.526          41.125    20603711.200    84368752.294 6      2193.137          40.812
R23  20348100.680   108848620.272 7      1840.891          45.937    20348100.900   108848620.276 7      1840.891          44.312
G02  21867404.360   114913971.150 7      3700.822          46.875    21867402.300   114913971.163 6      3700.822          38.000    21867407.300    89543377.832 6      2883.757          37.500
> 2024 05 10 12 52 21.0000000  0 14
R07  22768598.400   121882087.095 6      3659.580          41.562    22768598.080   121882087.121 6      3659.580          40.437    22768615.560    94797254.623 7      2846.340          42.750    22768615.880    94797256.635 7      2846.340          43.875
R24  22539957.980   120531286.609 7      4203.672          43.187    22539956.300   120531286.613 7      4203.672          43.625    22539972.240    93746616.829 7      3269.522          45.437    22539972.120    93746614.831 7      3269.522          45.750
G16  21370558.460   112303035.192 7        90.554          47.375    21370557.260   112303035.194 6        90.554          38.937    21370563.860    87508884.487 6        70.561          39.250
G08  20897242.980   109815751.389 8      3162.181          48.625    20897241.640   109815751.389 8      3162.181          49.187    20897249.320    85570742.660 8      2464.038          49.062    20897250.460    85570746.659 8      2464.038          50.187
G26  23958820.780   125904454.140 6     -1030.019          39.375    23958819.800   125904454.150 6     -1030.019          37.812    23958841.240    98107445.479 6      -802.612          37.562    23958841.880    98107444.482 7      -802.612          45.875
R14  23501420.000   125275785.082 7      6265.381          46.812    23501419.400   125275785.086 7      6265.381          45.687    23501430.860    97436775.646 6      4873.074          40.750    23501431.300    97436777.644 6      4873.074          40.687
G10  22312451.340   117252725.447 7      1170.572          46.375    22312450.160   117252725.450 7      1170.572          45.312    22312459.700    91365791.160 7       912.134          44.812    22312460.420    91365793.167 7       912.134          46.875
G27  21163882.700   111216952.063 7      1504.241          47.437    21163881.640   111216952.068 8      1504.241          48.937    21163889.400    86662588.672 8      1172.136          48.750    21163889.940    86662590.670 8      1172.136          49.937
G07  23827135.700   125212442.603 7      2661.640          44.187    23827135.640   125212442.608 5      2661.640          30.250    23827143.000    97568145.995 5      2074.005          30.062    23827144.720    97568170.995 7      2074.005          42.500
R12  20204016.400   107926225.241 8      -586.783          48.375    20204016.380   107926225.242 8      -586.783          49.375    20204028.880    83942668.011 8      -456.387          50.875    20204028.960    83942670.010 8      -456.387          51.562
R22  21936330.240   117097612.163 7       -38.696          46.000    21936330.220   117097612.167 7       -38.696          44.812    21936341.040    91075970.756 7       -30.097          46.625    21936340.740    91075968.753 7       -30.097          46.562
G21  20603171.980   108270401.969 8      2813.957          49.000    20603170.580   108270401.974 6      2813.957          40.500    20603175.660    84366559.333 6      2192.694          40.375
R23  20347756.620   108846779.577 7      1840.461          45.000    20347756.800   108846779.592 7      1840.461          44.687
G02  21866700.120   114910270.530 7      3700.306          45.875    21866698.140   114910270.538 6      3700.306          37.687    21866703.140    89540494.228 6      2883.355          37.562
> 2024 05 10 12 52 22.0000000  0 14
R07  22767914.700   121878427.611 7      3659.102          42.125    22767914.320   121878427.626 6      3659.102          40.625    22767931.600    94794408.364 7      2845.969          43.312    22767932.280    94794410.373 7      2845.969          43.812
R24  22539172.020   120527082.867 7      4203.724          43.750    22539169.700   120527082.877 7      4203.724          43.625    22539186.040    93743347.260 7      3269.563          45.812    22539185.940    93743345.262 7      3269.563          45.750
G16  21370541.440   112302944.671 7        90.372          47.750    21370540.040   112302944.676 6        90.372          38.625    21370546.680    87508813.947 6        70.419          39.062
G08  20896641.040   109812589.061 8      3162.225          48.062    20896639.880   109812589.061 8      3162.225          48.812    20896647.540    85568278.511 8      2464.071          48.875    20896648.620    85568282.510 8      2464.071          50.500
G26  23959016.620   125905484.145 6     -1029.977          39.250    23959015.840   125905484.153 6     -1029.977          37.937    23959037.300    98108248.068 6      -802.579          37.500    23959037.820    98108247.065 7      -802.579          46.000
R14  23500244.760   125269519.606 7      6265.340          46.937    23500244.040   125269519.609 7      6265.340          45.500    23500255.440    97431902.495 6      4873.042          40.750    23500255.760    97431904.489 6      4873.042          40.875
G10  22312228.760   117251554.999 7      1170.184          45.437    22312227.420   117251554.998 7      1170.184          45.062    22312237.060    91364879.118 7       911.832          45.000    22312237.520    91364881.125 7       911.832          47.062
G27  21163596.420   111215447.735 7      1504.267          47.625    21163595.260   111215447.738 8      1504.267          48.562    21163603.080    86661416.467 8      1172.156          48.812    21163603.860    86661418.469 8      1172.156          49.937
G07  23826629.060   125209780.985 7      2661.414          43.687    23826629.220   125209780.988 5      2661.414          30.250    23826636.520    97566072.000 5      2073.829          30.062    23826638.120    97566097.001 7      2073.829          42.812
R12  20204125.860   107926812.115 8      -587.066          48.312    20204126.160   107926812.116 8      -587.066          48.750    20204138.720    83943124.462 8      -456.607          50.687    20204138.880    83943126.464 8      -456.607          51.687
R22  21936337.300   117097650.627 7       -38.429          45.625    21936337.660   117097650.633 7       -38.429          44.937    21936348.160    91076000.661 7       -29.889          46.187    21936348.020    91075998.655 7       -29.889          46.562
G21  20602636.500   108267588.042 8      2813.671          48.312    20602635.280   108267588.044 6      2813.671          41.000    20602639.960    84364366.662 6      2192.471          40.937
R23  20347412.240   108844939.024 7      1840.416          45.250    20347412.600   108844939.025 7      1840.416          44.875
G02  21865995.820   114906570.181 7      3700.244          45.750    21865993.880   114906570.192 6      3700.244          38.000    21865999.040    89537610.843 6      2883.307          38.062
> 2024 05 10 12 52 23.0000000  0 14
R07  22767231.180   121874768.757 7      3658.341          42.125    22767230.860   121874768.775 6      3658.341          40.625    22767248.200    94791562.587 7      2845.376          43.000    22767248.760    94791564.602 7      2845.376          43.437
R24  22538386.200   120522879.390 7      4203.165          44.062    22538383.920   120522879.399 7      4203.165          43.562    22538400.060    93740077.895 7      3269.129          45.187    22538399.940    93740075.895 7      3269.129          45.375
G16  21370524.040   112302854.576 7        89.727          47.375    21370522.860   112302854.581 6        89.727          38.937    21370529.560    87508743.743 6        69.917          38.562
G08  20896039.280   109809426.870 8      3161.942          48.250    20896038.020   109809426.867 8      3161.942          49.000    20896045.720    85565814.459 8      2463.851          49.000    20896046.860    85565818.456 8      2463.851          49.375
G26  23959212.760   125906514.240 6     -1030.219          39.625    23959211.840   125906514.248 6     -1030.219          38.625    23959233.320    98109050.729 6      -802.768          38.187    23959233.460    98109049.730 7      -802.768          45.937
R14  23499069.340   125263254.449 7      6264.831          46.500    23499068.700   125263254.449 7      6264.831          45.437    23499080.020    97427029.589 6      4872.646          40.437    23499080.220    97427031.591 6      4872.646          40.875
G10  22312006.080   117250385.112 7      1169.356          46.250    22312004.760   117250385.112 7      1169.356          44.312    22312014.320    91363967.521 7       911.186          44.312    22312014.680    91363969.529 7       911.186          46.562
G27  21163310.140   111213943.576 7      1503.931          47.750    21163309.120   111213943.576 8      1503.931          48.500    21163317.020    86660244.388 8      1171.894          48.187    21163317.520    86660246.393 8      1171.894          49.125
G07  23826122.700   125207119.880 7      2660.636          44.125    23826122.720   125207119.882 5      2660.636          30.250    23826130.120    97563998.409 5      2073.223          30.687    23826131.060    97564023.406 7      2073.223          42.812
R12  20204236.220   107927399.611 8      -587.964          49.375    20204235.920   107927399.607 8      -587.964          48.875    20204248.600    83943581.398 8      -457.306          48.750    20204248.820    83943583.395 8      -457.306          50.437
R22  21936344.500   117097689.013 7       -38.595          45.812    21936344.500   117097689.022 7       -38.595          44.875    21936355.320    91076030.517 7       -30.018          46.312    21936355.180    91076028.513 7       -30.018          46.000
G21  20602101.400   108264774.527 8      2813.101          48.500    20602099.720   108264774.532 6      2813.101          40.062    20602104.760    84362174.317 6      2192.027          40.375
R23  20347068.420   108843098.653 7      1840.062          45.500    20347068.600   108843098.662 7      1840.062          44.625
G02  21865291.740   114902870.219 7      3699.584          47.062    21865289.700   114902870.224 6      3699.584          37.500    21865294.880    89534727.751 6      2882.793          37.875
> 2024 05 10 12 52 24.0000000  0 14
R07  22766548.100   121871110.560 7      3658.061          42.000    22766547.520   121871110.586 6      3658.061          40.625    22766565.040    94788717.339 7      2845.159          43.000    22766565.440    94788719.348 7      2845.159          43.250
R24  22537600.920   120518676.134 7      4203.323          44.062    22537597.600   120518676.138 7      4203.323          43.437    22537613.920    93736808.692 7      3269.251          45.500    22537613.780    93736806.700 7      3269.251          46.187
G16  21370507.080   112302764.936 7        89.592          47.062    21370505.840   112302764.946 6        89.592          38.687    21370512.560    87508673.889 6        69.812          38.375
G08  20895437.520   109806264.847 8      3162.053          48.437    20895436.340   109806264.852 8      3162.053          49.250    20895443.920    85563350.551 8      2463.937          49.187    20895444.840    85563354.548 8      2463.937          50.687
G26  23959408.680   125907544.514 6     -1030.224          40.062    23959407.960   125907544.529 6     -1030.224          38.625    23959429.440    98109853.532 6      -802.772          38.375    23959429.280    98109852.531 7      -802.772          46.062
R14  23497894.060   125256989.620 7      6264.838          46.687    23497893.540   125256989.615 7      6264.838          45.750    23497904.780    97422156.944 6      4872.651          40.437    23497904.820    97422158.944 6      4872.651          40.062
G10  22311783.760   117249215.785 7      1169.227          46.437    22311782.140   117249215.790 7      1169.227          44.625    22311791.880    91363056.359 7       911.086          44.812    22311792.260    91363058.365 7       911.086          47.125
G27  21163024.080   111212439.632 8      1504.002          48.312    21163022.880   111212439.635 8      1504.002          48.500    21163030.840    86659072.484 8      1171.950          48.187    21163031.180    86659074.491 8      1171.950          50.125
G07  23825616.120   125204459.290 7      2660.403          44.875    23825616.560   125204459.297 5      2660.403          30.250    23825623.760    97561925.220 5      2073.041          30.687    23825625.320    97561950.219 7      2073.041          42.562
R12  20204346.340   107927987.754 8      -588.336          49.500    20204345.940   107927987.752 8      -588.336          49.187    20204358.460    83944038.829 8      -457.595          50.437    20204358.840    83944040.831 8      -457.595          49.750
R22  21936351.920   117097727.367 7       -38.170          45.187    21936351.780   117097727.376 7       -38.170          45.187    21936362.740    91076060.340 7       -29.688          46.125    21936362.420    91076058.331 7       -29.688          45.812
G21  20601566.100   108261961.488 7      2812.948          47.937    20601564.480   108261961.496 6      2812.948          40.562    20601569.480    84359982.339 6      2191.908          40.312
R23  20346724.440   108841258.506 7      1840.281          46.312    20346724.740   108841258.513 7      1840.281          44.500
G02  21864587.800   114899170.616 7      3699.586          47.437    21864585.920   114899170.621 6      3699.586          37.750    21864590.860    89531844.948 6      2882.794          38.125
> 2024 05 10 12 52 25.0000000  0 14
R07  22765864.040   121867452.965 7      3657.227          42.000    22765864.620   121867452.983 6      3657.227          40.437    22765881.780    94785872.539 7      2844.510          43.250    22765882.300    94785874.550 7      2844.510          43.375
R24  22536814.560   120514473.071 7      4202.870          43.312    22536811.460   120514473.067 7      4202.870          43.625    22536827.980    93733539.639 7      3268.899          45.562    22536827.720    93733537.638 7      3268.899          45.312
G16  21370490.020   112302675.684 7        88.977          47.312    21370488.840   112302675.694 6        88.977          38.812    21370495.520    87508604.334 6        69.333          38.687
G08  20894835.760   109803102.924 8      3161.794          48.625    20894834.720   109803102.929 8      3161.794          49.062    20894842.340    85560886.711 8      2463.736          48.687    20894842.980    85560890.710 8      2463.736          50.312
G26  23959604.720   125908574.881 6     -1030.600          39.562    23959604.140   125908574.894 6     -1030.600          38.875    23959625.380    98110656.397 6      -803.065          38.875    23959625.140    98110655.390 7      -803.065          45.625
R14  23496718.660   125250725.060 7      6264.314          46.625    23496718.280   125250725.052 7      6264.314          45.937    23496729.780    97417284.503 6      4872.244          40.125    23496729.560    97417286.504 6      4872.244          40.062
G10  22311561.320   117248046.987 7      1168.497          45.687    22311559.760   117248046.994 7      1168.497          45.250    22311569.440    91362145.602 7       910.517          44.812    22311569.900    91362147.611 7       910.517          46.625
G27  21162737.820   111210935.807 7      1503.745          47.500    21162736.680   111210935.812 8      1503.745          48.687    21162744.540    86657900.668 8      1171.749          48.750    21162745.060    86657902.672 8      1171.749          49.750
G07  23825110.140   125201799.157 7      2659.862          43.812    23825110.380   125201799.159 5      2659.862          30.312    23825117.500    97559852.383 5      2072.620          30.687    23825118.520    97559877.378 7      2072.620          42.625
R12  20204456.620   107928576.505 8      -589.128          48.750    20204455.840   107928576.498 8      -589.128          48.937    20204468.580    83944496.737 8      -458.211          51.437    20204468.880    83944498.734 8      -458.211          50.562
R22  21936359.040   117097765.614 7       -38.259          45.312    21936359.100   117097765.620 7       -38.259          44.687    21936369.880    91076090.081 7       -29.757          46.750    21936369.520    91076088.075 7       -29.757          46.750
G21  20601030.660   108259148.831 8      2812.437          48.125    20601029.160   108259148.835 6      2812.437          40.437    20601034.220    84357790.651 6      2191.509          40.562
R23  20346380.500   108839418.536 7      1839.919          45.375    20346380.780   108839418.543 7      1839.919          44.875
G02  21863883.720   114895471.329 7      3699.126          47.000    21863881.880   114895471.333 6      3699.126          37.937    21863886.760    89528962.384 6      2882.436          37.500
> 2024 05 10 12 52 26.0000000  0 14
R07  22765180.820   121863795.969 7      3656.639          42.437    22765181.180   121863795.992 6      3656.639          40.437    22765198.380    94783028.217 7      2844.052          43.125    22765199.120    94783030.234 7      2844.052          43.062
R24  22536028.580   120510270.302 7      4202.450          44.062    22536025.500   120510270.306 7      4202.450          43.562    22536041.920    93730270.835 7      3268.572          45.375    22536041.640    93730268.828 7      3268.572          45.750
G16  21370472.940   112302586.884 7        88.529          47.375    21370471.880   112302586.892 6        88.529          38.562    21370478.700    87508535.136 6        68.984          38.625
G08  20894234.200   109799941.176 8      3161.623          48.250    20894232.960   109799941.176 8      3161.623          49.187    20894240.660    85558423.010 8      2463.602          48.875    20894241.460    85558427.009 8      2463.602          50.187
G26  23959801.640   125909605.326 6     -1030.475          39.687    23959800.320   125909605.336 6     -1030.475          38.437    23959821.520    98111459.328 6      -802.968          37.937    23959821.400    98111458.325 7      -802.968          46.000
R14  23495543.480   125244460.849 7      6263.919          46.750    23495543.320   125244460.849 7      6263.919          45.500    23495554.160    97412412.345 6      4871.937          40.125    23495554.280    97412414.347 6      4871.937          40.187
G10  22311338.900   117246878.782 7      1167.851          46.125    22311337.340   117246878.792 7      1167.851          45.250    22311347.220    91361235.315 7       910.014          45.250    22311347.440    91361237.320 7       910.014          46.875
G27  21162451.720   111209432.202 7      1503.442          46.937    21162450.680   111209432.209 8      1503.442          48.625    21162458.380    86656729.026 8      1171.513          48.437    21162458.740    86656731.028 8      1171.513          49.625
G07  23824604.000   125199139.531 7      2659.331          43.562    23824604.300   125199139.536 5      2659.331          30.312    23824611.360    97557779.945 5      2072.206          30.687    23824611.880    97557804.942 7      2072.206          42.625
R12  20204567.100   107929165.905 8      -589.806          48.937    20204566.200   107929165.906 8      -589.806          48.750    20204578.980    83944955.155 8      -458.738          50.375    20204579.100    83944957.156 8      -458.738          50.875
R22  21936366.260   117097803.840 7       -38.286          46.000    21936366.280   117097803.846 7       -38.286          44.625    21936377.120    91076119.806 7       -29.778          46.812    21936376.980    91076117.802 7       -29.778          46.875
G21  20600495.520   108256336.646 7      2811.923          47.625    20600494.080   108256336.651 6      2811.923          40.562    20600498.980    84355599.343 6      2191.109          40.562
R23  20346036.460   108837578.812 7      1839.517          46.187    20346037.120   108837578.819 7      1839.517          45.062
G02  21863179.980   114891772.454 7      3698.574          46.812    21863178.000   114891772.456 6      3698.574          38.000    21863183.080    89526080.146 6      2882.006          38.062
> 2024 05 10 12 52 27.0000000  0 14
R07  22764497.900   121860139.787 7      3655.762          42.437    22764498.380   121860139.813 6      3655.762          40.437    22764515.300    94780184.528 7      2843.371          42.875    22764516.040    94780186.548 7      2843.371          43.500
R24  22535242.900   120506067.974 7      4202.192          44.062    22535239.300   120506067.965 7      4202.192          43.562    22535256.380    93727002.347 7      3268.371          45.687    22535255.620    93727000.341 7      3268.371          45.500
G16  21370456.260   112302498.676 7        87.940          47.500    21370455.100   112302498.686 6        87.940          38.750    21370461.860    87508466.398 6        68.525          38.875
G08  20893632.520   109796779.755 8      3161.271          49.062    20893631.420   109796779.760 8      3161.271          49.125    20893639.060    85555959.567 8      2463.328          48.937    20893639.960    85555963.563 8      2463.328          50.312
G26  23959997.460   125910636.124 6     -1030.955          40.312    23959996.460   125910636.140 6     -1030.955          38.937    23960017.600    98112262.540 6      -803.341          38.125    23960017.380    98112261.539 7      -803.341          45.750
R14  23494368.500   125238197.144 7      6263.500          46.437    23494368.300   125238197.142 7      6263.500          45.250    23494379.040    97407540.577 6      4871.611          40.250    23494379.600    97407542.579 6      4871.611          40.187
G10  22311116.680   117245711.315 7      1167.090          45.937    22311115.160   117245711.325 7      1167.090          44.750    22311125.020    91360325.599 7       909.421          44.625    22311125.200    91360327.601 7       909.421          47.062
G27  21162165.660   111207928.931 8      1503.143          48.000    21162164.560   111207928.935 8      1503.143          48.812    21162172.400    86655557.641 8      1171.280          48.500    21162172.940    86655559.648 8      1171.280          50.500
G07  23824098.200   125196480.612 7      2658.580          44.187    23824098.240   125196480.611 5      2658.580          30.312    23824105.560    97555708.055 5      2071.621          30.562    23824106.160    97555733.044 7      2071.621          42.500
R12  20204677.400   107929756.072 8      -590.448          48.375    20204676.780   107929756.068 8      -590.448          49.937    20204689.500    83945414.163 8      -459.237          50.812    20204689.800    83945416.165 8      -459.237          51.312
R22  21936373.340   117097842.196 7       -38.448          45.750    21936373.420   117097842.205 7       -38.448          44.812    21936384.120    91076149.637 7       -29.904          46.937    21936384.000    91076147.631 7       -29.904          46.750
G21  20599960.620   108253525.062 7      2811.386          47.937    20599959.080   108253525.067 6      2811.386          40.062    20599963.960    84353408.498 6      2190.690          40.375
R23  20345692.680   108835739.470 7      1839.105          45.625    20345693.060   108835739.485 7      1839.105          45.000
G02  21862476.220   114888074.078 7      3698.143          47.125    21862474.180   114888074.083 6      3698.143          37.437    21862479.380    89523198.299 6      2881.670          37.562
> 2024 05 10 12 52 28.0000000  0 14
R07  22763814.560   121856484.317 6      3655.083          41.562    22763815.100   121856484.349 6      3655.083          40.500    22763832.400    94777341.395 7      2842.842          42.750    22763833.080    94777343.413 7      2842.842          43.187
R24  22534456.920   120501865.945 7      4201.958          44.312    22534453.460   120501865.939 7      4201.958          43.125    22534470.780    93723734.117 7      3268.189          45.750    22534470.180    93723732.107 7      3268.189          45.750
G16  21370439.640   112302410.980 7        87.614          47.187    21370438.460   112302410.988 6        87.614          38.812    21370445.200    87508398.055 6        68.271          38.750
G08  20893031.140   109793618.554 8      3161.143          48.562    20893029.860   109793618.556 8      3161.143          48.500    20893037.540    85553496.291 8      2463.228          48.750    20893038.360    85553500.292 8      2463.228          50.312
G26  23960193.780   125911667.105 6     -1030.920          40.500    23960192.860   125911667.117 6     -1030.920          38.750    23960213.720    98113065.893 6      -803.314          38.437    23960213.780    98113064.888 7      -803.314          45.625
R14  23493193.440   125231933.856 7      6263.151          46.375    23493193.100   125231933.856 7      6263.151          45.812    23493204.620    97402669.118 6      4871.340          40.250    23493204.460    97402671.124 6      4871.340          40.000
G10  22310894.740   117244544.479 7      1166.601          45.187    22310893.300   117244544.487 7      1166.601          44.687    22310902.920    91359416.368 7       909.039          44.750    22310903.360    91359418.374 7       909.039          46.875
G27  21161879.420   111206425.935 7      1502.956          47.500    21161878.600   111206425.938 8      1502.956          49.312    21161886.360    86654386.472 8      1171.135          48.875    21161886.960    86654388.477 8      1171.135          50.125
G07  23823592.540   125193822.255 7      2658.159          44.500    23823592.280   125193822.257 5      2658.159          30.625    23823599.780    97553636.606 5      2071.293          30.562    23823600.240    97553661.597 7      2071.293          42.375
R12  20204787.980   107930346.920 7      -591.081          47.437    20204787.340   107930346.919 8      -591.081          48.875    20204800.040    83945873.706 8      -459.730          50.937    20204800.400    83945875.707 8      -459.730          51.125
R22  21936380.380   117097880.567 7       -38.325          44.687    21936380.680   117097880.575 7       -38.325          44.750    21936391.460    91076179.474 7       -29.808          46.875    21936391.220    91076177.472 7       -29.808          46.937
G21  20599425.600   108250714.018 7      2810.878          47.500    20599424.120   108250714.023 6      2810.878          40.562    20599429.040    84351218.074 6      2190.294          40.875
R23  20345348.960   108833900.410 7      1839.026          44.000    20345349.300   108833900.427 7      1839.026          44.812
G02  21861772.600   114884376.175 7      3697.734          46.062    21861770.520   114884376.183 6      3697.734          38.312    21861775.780    89520316.820 6      2881.352          38.187
> 2024 05 10 12 52 29.0000000  0 14
R07  22763131.860   121852829.428 6      3654.747          41.562    22763132.440   121852829.465 6      3654.747          40.500    22763149.740    94774498.716 7      2842.581          42.750    22763150.020    94774500.734 7      2842.581          42.625
R24  22533671.080   120497664.123 7      4201.814          44.125    22533667.480   120497664.119 7      4201.814          43.125    22533684.840    93720466.039 7      3268.078          45.625    22533684.300    93720464.033 7      3268.078          46.375
G16  21370423.000   112302323.712 7        87.185          47.375    21370421.920   112302323.720 6        87.185          38.875    21370428.580    87508330.048 6        67.937          38.937
G08  20892429.620   109790457.477 8      3161.137          48.125    20892428.340   109790457.482 8      3161.137          48.625    20892435.860    85551033.116 8      2463.223          48.625    20892436.720    85551037.115 8      2463.223          49.687
G26  23960389.740   125912698.203 6     -1030.974          40.625    23960388.980   125912698.210 6     -1030.974          38.687    23960409.740    98113869.336 6      -803.357          37.812    23960409.980    98113868.337 7      -803.357          45.687
R14  23492018.360   125225670.826 7      6262.993          46.437    23492017.920   125225670.829 7      6262.993          45.250    23492029.640    97397797.879 6      4871.217          40.437    23492029.480    97397799.886 6      4871.217          40.000
G10  22310672.960   117243378.195 7      1166.093          46.250    22310671.320   117243378.200 7      1166.093          45.000    22310680.940    91358507.571 7       908.644          44.562    22310681.380    91358509.579 7       908.644          46.500
G27  21161593.700   111204923.100 7      1502.822          47.375    21161592.520   111204923.102 8      1502.822          49.125    21161600.340    86653215.430 8      1171.031          48.500    21161600.820    86653217.432 8      1171.031          49.562
G07  23823086.960   125191164.379 7      2657.819          44.000    23823086.420   125191164.383 5      2657.819          30.625    23823094.060    97551565.532 5      2071.028          30.562    23823094.800    97551590.527 7      2071.028          42.375
R12  20204898.460   107930938.370 8      -591.645          48.375    20204898.180   107930938.363 8      -591.645          48.812    20204910.760    83946333.711 8      -460.169          50.125    20204910.980    83946335.715 8      -460.169          50.750
R22  21936387.400   117097918.875 7       -38.217          45.312    21936387.720   117097918.884 7       -38.217          44.625    21936398.620    91076209.266 7       -29.724          46.375    21936398.540    91076207.264 7       -29.724          46.562
G21  20598890.740   108247903.378 8      2810.559          48.375    20598889.240   108247903.377 6      2810.559          40.187    20598894.060    84349027.961 6      2190.046          40.437
R23  20345005.260   108832061.574 7      1838.834          45.187    20345005.500   108832061.591 7      1838.834          44.500
G02  21861068.860   114880678.588 7      3697.576          46.500    21861066.840   114880678.592 6      3697.576          37.812    21861072.020    89517435.585 6      2881.228          37.812
> 2024 05 10 12 52 30.0000000  0 14
R07  22762449.000   121849175.168 6      3654.053          41.562    22762449.620   121849175.199 6      3654.053          40.500    22762466.780    94771656.514 7      2842.041          42.500    22762467.120    94771658.525 6      2842.041          41.875
R24  22532885.140   120493462.504 7      4201.472          44.125    22532881.580   120493462.494 7      4201.472          43.125    22532899.180    93717198.115 7      3267.811          44.250    22532898.700    93717196.109 7      3267.811          44.375
G16  21370406.420   112302236.826 7        86.642          46.062    21370405.500   112302236.833 6        86.642          38.375    21370411.980    87508262.336 6        67.514          37.937
G08  20891828.240   109787296.502 7      3160.934          47.500    20891826.740   109787296.507 7      3160.934          47.875    20891834.380    85548570.019 7      2463.066          47.750    20891835.380    85548574.018 8      2463.066          48.687
G26  23960586.140   125913729.391 6     -1031.323          41.187    23960585.340   125913729.406 6     -1031.323          38.250    23960606.000    98114672.861 6      -803.628          37.750    23960606.120    98114671.868 7      -803.628          45.125
R14  23490843.660   125219408.044 7      6262.618          45.687    23490843.280   125219408.052 7      6262.618          45.062    23490854.320    97392926.826 6      4870.925          40.437    23490854.780    97392928.832 6      4870.925          39.937
G10  22310451.000   117242212.426 7      1165.331          45.437    22310449.460   117242212.431 7      1165.331          43.937    22310459.240    91357599.185 7       908.050          43.812    22310459.480    91357601.190 7       908.050          46.437
G27  21161307.720   111203420.389 7      1502.619          47.312    21161306.580   111203420.391 7      1502.619          47.312    21161314.440    86652044.486 7      1170.872          46.937    21161314.900    86652046.486 8      1170.872          48.250
G07  23822581.560   125188506.991 7      2657.042          44.125    23822580.700   125188506.996 5      2657.042          30.625    23822588.280    97549494.839 5      2070.423          30.312    23822588.740    97549519.840 7      2070.423          42.250
R12  20205009.300   107931530.417 8      -592.424          48.750    20205008.940   107931530.418 8      -592.424          48.375    20205021.780    83946794.190 7      -460.774          47.562    20205021.960    83946796.196 7      -460.774          47.937
R22  21936394.140   117097957.077 7       -38.236          44.875    21936394.760   117097957.075 7       -38.236          44.937    21936405.940    91076238.970 7       -29.739          45.187    21936405.800    91076236.966 7       -29.739          45.375
G21  20598355.900   108245093.140 7      2809.992          47.812    20598354.540   108245093.150 6      2809.992          40.125    20598359.400    84346838.171 6      2189.604          39.750
R23  20344661.740   108830222.893 7      1838.636          44.687    20344661.840   108830222.905 7      1838.636          44.562
G02  21860365.500   114876981.336 7      3697.102          45.312    21860363.260   114876981.344 6      3697.102          37.750    21860368.340    89514554.614 6      2880.858          37.500
> 2024 05 10 12 52 31.0000000  0 14
R07  22761766.320   121845521.775 6      3652.850          41.375    22761767.300   121845521.812 6      3652.850          40.562    22761784.160    94768814.997 7      2841.105          42.187    22761784.360    94768816.993 6      2841.105          41.437
R24  22532099.440   120489261.363 7      4200.833          42.937    22532095.580   120489261.362 7      4200.833          42.812    22532113.580    93713930.561 7      3267.315          45.000    22532113.220    93713928.561 7      3267.315          46.125
G16  21370390.260   112302150.583 7        85.822          47.000    21370388.960   112302150.587 6        85.822          38.562    21370395.540    87508195.123 6        66.874          38.687
G08  20891226.560   109784135.922 8      3160.324          48.062    20891225.400   109784135.926 8      3160.324          48.687    20891233.000    85546107.229 8      2462.590          48.437    20891233.760    85546111.228 8      2462.590          50.500
G26  23960782.060   125914760.910 6     -1031.756          40.187    23960781.500   125914760.922 6     -1031.756          38.000    23960802.300    98115476.632 6      -803.966          37.875    23960802.480    98115475.633 7      -803.966          44.937
R14  23489668.500   125213145.805 7      6261.859          46.562    23489668.140   125213145.814 7      6261.859          45.250    23489680.140    97388056.190 6      4870.335          39.750    23489680.060    97388058.200 6      4870.335          39.937
G10  22310229.320   117241047.429 7      1164.505          45.375    22310227.880   117241047.429 7      1164.505          45.000    22310237.440    91356691.387 7       907.406          44.937    22310237.820    91356693.392 7       907.406          46.687
G27  21161021.740   111201918.087 7      1502.020          47.875    21161020.780   111201918.092 8      1502.020          48.562    21161028.580    86650873.859 8      1170.405          48.125    21161029.000    86650875.859 8      1170.405          50.000
G07  23822075.880   125185850.313 7      2656.190          43.125    23822075.220   125185850.318 5      2656.190          30.437    23822082.660    97547424.696 5      2069.759          30.312    23822083.200    97547449.677 7      2069.759          42.250
R12  20205120.620   107932123.340 8      -593.397          48.750    20205119.940   107932123.339 8      -593.397          49.062    20205132.880    83947255.336 8      -461.531          50.000    20205132.760    83947257.344 8      -461.531          49.812
R22  21936401.560   117097995.420 7       -38.413          44.125    21936402.100   117097995.421 7       -38.413          45.062    21936412.900    91076268.791 7       -29.877          46.375    21936412.860    91076266.786 7       -29.877          46.562
G21  20597821.200   108242283.559 8      2809.236          48.375    20597819.840   108242283.566 6      2809.236          40.875    20597824.980    84344648.883 6      2189.015          40.562
R23  20344317.820   108828384.658 7      1837.867          45.937    20344317.880   108828384.681 7      1837.867          44.562
G02  21859662.040   114873284.676 7      3696.271          46.375    21859660.000   114873284.684 6      3696.271          37.937    21859664.980    89511674.100 6      2880.211          38.062
> 2024 05 10 12 52 32.0000000  0 14
R07  22761083.980   121841869.011 6      3652.519          41.375    22761084.840   121841869.037 6      3652.519          40.562    22761101.920    94765973.948 7      2840.848          42.937    22761101.740    94765975.942 6      2840.848          41.437
R24  22531313.620   120485060.487 7      4200.698          43.875    22531310.580   120485060.488 7      4200.698          43.250    22531328.000    93710663.224 7      3267.209          45.687    22531327.580    93710661.224 7      3267.209          46.375
G16  21370374.020   112302064.773 7        85.567          46.562    21370372.560   112302064.778 6        85.567          39.000    21370379.400    87508128.257 6        66.676          39.125
G08  20890625.120   109780975.467 8      3160.409          48.250    20890623.920   109780975.469 8      3160.409          48.812    20890631.560    85543644.531 8      2462.656          48.687    20890632.280    85543648.532 8      2462.656          50.187
G26  23960978.700   125915792.568 6     -1031.680          40.562    23960977.700   125915792.580 6     -1031.680          38.562    23960998.380    98116280.511 6      -803.907          37.812    23960998.640    98116279.502 7      -803.907          45.750
R14  23488494.140   125206883.937 7      6261.677          46.312    23488493.820   125206883.932 7      6261.677          45.125    23488505.240    97383185.839 6      4870.193          39.750    23488505.380    97383187.845 6      4870.193          39.937
G10  22310007.540   117239883.016 7      1164.115          46.812    22310006.320   117239883.018 7      1164.115          45.250    22310015.900    91355784.054 7       907.102          45.437    22310016.060    91355786.061 7       907.102          46.875
G27  21160736.060   111200415.964 7      1502.050          47.687    21160734.880   111200415.972 8      1502.050          49.250    21160742.700    86649703.371 8      1170.428          49.312    21160742.900    86649705.374 8      1170.428          49.562
G07  23821570.540   125183194.127 7      2655.923          43.687    23821569.720   125183194.126 5      2655.923          30.437    23821577.240    97545354.932 5      2069.550          30.312    23821578.120    97545379.933 7      2069.550          42.000
R12  20205231.560   107932716.862 8      -593.789          48.312    20205231.020   107932716.863 8      -593.789          48.437    20205244.040    83947716.956 8      -461.836          50.687    20205244.160    83947718.968 8      -461.836          51.062
R22  21936408.840   117098033.758 7       -38.295          44.687    21936409.380   117098033.754 7       -38.295          45.125    21936420.120    91076298.599 7       -29.785          46.875    21936420.120    91076296.596 7       -29.785          47.062
G21  20597286.840   108239474.419 8      2808.990          49.312    20597285.200   108239474.424 6      2808.990          40.687    20597290.220    84342459.943 6      2188.823          40.875
R23  20343974.080   108826546.606 7      1838.008          45.000    20343974.220   108826546.623 7      1838.008          44.437
G02  21858958.600   114869588.374 7      3696.111          46.625    21858956.620   114869588.379 6      3696.111          38.000    21858961.520    89508793.868 6      2880.087          37.625
> 2024 05 10 12 52 33.0000000  0 14
R07  22760402.020   121838216.924 6      3651.684          40.750    22760402.420   121838216.963 6      3651.684          40.562    22760419.420    94763133.452 7      2840.199          42.937    22760419.500    94763135.438 6      2840.199          41.875
R24  22530527.980   120480859.870 7      4200.563          44.437    22530524.980   120480859.869 7      4200.563          43.875    22530542.360    93707396.069 7      3267.104          45.937    22530542.260    93707394.077 7      3267.104          46.625
G16  21370357.780   112301979.397 7        85.221          47.062    21370356.280   112301979.405 6        85.221          38.875    21370363.220    87508061.724 6        66.406          38.687
G08  20890023.760   109777815.181 8      3160.302          48.625    20890022.460   109777815.180 8      3160.302          49.187    20890030.180    85541181.972 8      2462.573          49.125    20890031.100    85541185.971 8      2462.573          50.125
G26  23961175.380   125916824.365 6     -1031.845          40.562    23961174.120   125916824.378 6     -1031.845          38.312    23961194.760    98117084.497 6      -804.035          38.187    23961194.900    98117083.489 7      -804.035          45.375
R14  23487319.720   125200622.381 7      6261.455          46.250    23487319.180   125200622.384 7      6261.455          45.625    23487330.240    97378315.751 6      4870.021          40.375    23487330.820    97378317.752 6      4870.021          39.937
G10  22309786.420   117238719.149 7      1163.640          44.937    22309784.660   117238719.151 7      1163.640          44.625    22309794.500    91354877.145 7       906.732          44.500    22309794.840    91354879.154 7       906.732          47.187
G27  21160450.340   111198914.033 7      1501.972          47.500    21160449.200   111198914.032 8      1501.972          48.625    21160456.920    86648533.033 8      1170.368          49.125    21160457.200    86648535.034 8      1170.368          49.875
G07  23821065.140   125180538.471 7      2655.502          43.687    23821064.280   125180538.468 5      2655.502          30.437    23821071.960    97543285.579 5      2069.222          30.312    23821072.740    97543310.581 7      2069.222          42.062
R12  20205342.640   107933310.982 8      -594.347          48.312    20205342.340   107933310.986 8      -594.347          49.125    20205355.480    83948179.045 8      -462.270          51.187    20205355.540    83948181.053 8      -462.270          51.500
R22  21936416.020   117098072.014 7       -38.089          44.375    21936416.400   117098072.015 7       -38.089          45.000    21936427.320    91076328.353 7       -29.625          46.687    21936427.440    91076326.346 7       -29.625          47.125
G21  20596752.320   108236665.742 8      2808.507          48.750    20596750.820   108236665.744 6      2808.507          40.687    20596755.740    84340271.368 6      2188.447          40.375
R23  20343630.700   108824708.800 7      1837.714          46.125    20343630.440   108824708.817 7      1837.714          45.000
G02  21858255.380   114865892.436 7      3695.874          47.375    21858253.240   114865892.444 6      3695.874          38.375    21858258.320    89505913.919 6      2879.902          38.187
> 2024 05 10 12 52 34.0000000  0 14
R07  22759719.980   121834565.277 6      3651.350          40.750    22759720.400   121834565.316 6      3651.350          40.562    22759737.480    94760293.286 7      2839.939          42.812    22759737.360    94760295.270 7      2839.939          42.000
R24  22529742.540   120476659.376 7      4200.371          44.187    22529739.800   120476659.370 7      4200.371          43.562    22529756.900    93704129.029 7      3266.956          46.062    22529756.720    93704127.041 7      3266.956          46.562
G16  21370341.480   112301894.302 7        84.945          47.000    21370340.040   112301894.307 6        84.945          39.062    21370347.060    87507995.408 6        66.191          38.937
G08  20889422.320   109774654.892 8      3160.254          48.750    20889421.120   109774654.896 8      3160.254          49.187    20889428.840    85538719.411 8      2462.536          49.375    20889429.560    85538723.412 8      2462.536          49.750
G26  23961371.440   125917856.123 6     -1031.883          40.000    23961370.480   125917856.141 6     -1031.883          38.437    23961391.280    98117888.466 6      -804.065          37.687    23961391.740    98117887.463 7      -804.065          45.875
R14  23486145.060   125194360.985 7      6261.359          46.500    23486144.520   125194360.977 7      6261.359          45.375    23486155.900    97373445.757 6      4869.946          40.375    23486156.220    97373447.761 6      4869.946          40.375
G10  22309564.900   117237555.721 7      1163.190          45.625    22309563.440   117237555.726 7      1163.190          45.125    22309573.140    91353970.578 7       906.382          45.375    22309573.420    91353972.591 7       906.382          46.750
G27  21160164.700   111197412.144 8      1501.903          48.187    21160163.380   111197412.143 8      1501.903          49.187    21160171.140    86647362.724 8      1170.314          49.250    21160171.620    86647364.725 8      1170.314          49.875
G07  23820559.580   125177883.149 7      2655.156          43.437    23820559.000   125177883.148 5      2655.156          30.312    23820566.640    97541216.497 5      2068.953          30.312    23820567.360    97541241.496 7      2068.953          42.062
R12  20205454.260   107933905.580 8      -594.888          48.687    20205453.640   107933905.586 8      -594.888          48.875    20205467.000    83948641.504 8      -462.691          50.812    20205466.680    83948643.514 8      -462.691          52.250
R22  21936422.720   117098110.093 7       -37.971          43.875    21936423.580   117098110.091 7       -37.971          44.375    21936434.540    91076357.957 7       -29.533          46.812    21936434.420    91076355.957 7       -29.533          46.750
G21  20596217.920   108233857.346 8      2808.211          49.250    20596216.320   108233857.351 6      2808.211          40.625    20596221.460    84338083.007 6      2188.217          40.625
R23  20343286.940   108822871.020 7      1837.804          45.000    20343287.000   108822871.030 7      1837.804          44.687
G02  21857552.040   114862196.725 7      3695.644          47.500    21857550.020   114862196.730 6      3695.644          38.187    21857554.940    89503034.148 6      2879.723          38.062
> 2024 05 10 12 52 35.0000000  0 14
R07  22759037.900   121830914.410 6      3650.483          40.750    22759039.100   121830914.441 6      3650.483          40.562    22759055.620    94757453.719 7      2839.264          43.250    22759055.900    94757455.707 7      2839.264          42.562
R24  22528957.420   120472459.249 7      4199.850          44.812    22528954.640   120472459.237 7      4199.850          43.562    22528971.200    93700862.259 7      3266.550          45.500    22528971.360    93700860.274 7      3266.550          45.687
G16  21370325.340   112301809.757 7        84.304          47.437    21370324.020   112301809.767 6        84.304          39.187    21370330.960    87507929.526 6        65.691          38.500
G08  20888821.040   109771494.879 8      3159.802          48.000    20888819.760   109771494.881 8      3159.802          48.750    20888827.460    85536257.061 8      2462.184          48.937    20888828.200    85536261.064 8      2462.184          49.625
G26  23961567.680   125918888.130 6     -1032.169          40.437    23961566.860   125918888.143 6     -1032.169          37.437    23961587.580    98118692.613 6      -804.287          37.062    23961587.900    98118691.614 7      -804.287          45.750
R14  23484970.540   125188100.031 7      6260.591          46.750    23484970.020   125188100.034 7      6260.591          45.437    23484981.040    97368576.137 6      4869.349          40.562    23484981.640    97368578.149 6      4869.349          40.500
G10  22309343.700   117236392.971 7      1162.358          45.625    22309342.080   117236392.978 7      1162.358          44.625    22309351.720    91353064.541 7       905.733          44.687    22309352.300    91353066.552 7       905.733          46.937
G27  21159878.940   111195910.562 8      1501.378          48.125    21159877.640   111195910.572 8      1501.378          49.500    21159885.360    86646192.662 8      1169.905          49.000    21159885.680    86646194.667 8      1169.905          49.250
G07  23820054.700   125175228.470 7      2654.342          43.312    23820053.740   125175228.473 5      2654.342          30.312    23820061.440    97539147.915 5      2068.319          30.312    23820062.800    97539172.918 7      2068.319          42.062
R12  20205565.680   107934500.939 7      -595.794          47.687    20205565.140   107934500.946 8      -595.794          49.312    20205578.540    83949104.555 8      -463.395          50.125    20205578.180    83949106.565 8      -463.395          51.375
R22  21936430.200   117098148.236 7       -38.300          44.687    21936430.740   117098148.234 7       -38.300          44.312    21936441.700    91076387.618 7       -29.789          47.062    21936441.340    91076385.618 7       -29.789          46.562
G21  20595683.420   108231049.512 8      2807.470          49.187    20595681.980   108231049.520 6      2807.470          40.375    20595687.000    84335895.087 6      2187.639          40.375
R23  20342943.520   108821033.596 7      1837.130          45.500    20342943.200   108821033.614 7      1837.130          44.562
G02  21856848.760   114858501.502 7      3694.934          46.812    21856846.900   114858501.507 6      3694.934          37.437    21856851.620    89500154.756 6      2879.169          37.437
> 2024 05 10 12 52 36.0000000  0 14
R07  22758355.880   121827264.224 6      3649.913          41.812    22758357.180   121827264.252 6      3649.913          40.562    22758373.500    94754614.689 7      2838.821          43.000    22758374.020    94754616.680 7      2838.821          42.687
R24  22528172.080   120468259.378 7      4199.746          44.812    22528169.460   120468259.372 7      4199.746          44.062    22528185.780    93697595.695 7      3266.469          45.187    22528185.800    93697593.707 7      3266.469          46.125
G16  21370309.280   112301725.710 7        83.890          47.250    21370307.920   112301725.718 6        83.890          38.875    21370315.000    87507864.026 6        65.369          38.562
G08  20888219.780   109768335.041 8      3159.829          49.125    20888218.520   109768335.046 8      3159.829          48.750    20888226.180    85533794.851 8      2462.204          48.500    20888226.840    85533798.854 8      2462.204          50.062
G26  23961763.880   125919920.314 6     -1032.133          40.500    23961763.200   125919920.329 6     -1032.133          37.437    23961784.020    98119496.898 6      -804.259          37.375    23961784.440    98119495.886 7      -804.259          45.125
R14  23483795.800   125181839.424 7      6260.520          46.375    23483795.540   125181839.427 7      6260.520          45.562    23483806.820    97363706.763 6      4869.293          40.312    23483807.400    97363708.775 6      4869.293          40.500
G10  22309122.580   117235230.819 7      1161.926          45.937    22309120.960   117235230.824 7      1161.926          44.250    22309130.640    91352158.958 7       905.397          44.125    22309130.720    91352160.971 7       905.397          46.812
G27  21159593.040   111194409.193 7      1501.335          47.750    21159591.920   111194409.198 8      1501.335          48.312    21159599.680    86645022.756 8      1169.871          48.250    21159599.860    86645024.757 8      1169.871          50.062
G07  23819549.280   125172574.336 7      2653.959          43.750    23819548.620   125172574.338 5      2653.959          30.312    23819556.420    97537079.754 5      2068.020          30.437    23819557.360    97537104.751 7      2068.020          42.062
R12  20205677.180   107935096.974 8      -596.281          49.250    20205676.840   107935096.981 8      -596.281          49.625    20205690.320    83949568.121 8      -463.774          49.937    20205690.220    83949570.131 8      -463.774          49.812
R22  21936437.260   117098186.320 7       -37.981          43.875    21936438.080   117098186.319 7       -37.981          44.625    21936448.820    91076417.246 7       -29.541          45.875    21936448.660    91076415.247 7       -29.541          46.312
G21  20595149.420   108228242.159 8      2807.180          48.687    20595147.740   108228242.167 6      2807.180          40.187    20595152.900    84333707.539 6      2187.413          40.125
R23  20342599.800   108819196.413 7      1837.131          45.812    20342599.940   108819196.431 7      1837.131          44.875
G02  21856145.640   114854806.674 7      3694.758          46.437    21856143.760   114854806.681 6      3694.758          38.125    21856148.600    89497275.671 6      2879.032          38.187
> 2024 05 10 12 52 37.0000000  0 14
R07  22757674.020   121823614.605 6      3649.694          41.812    22757675.300   121823614.622 6      3649.694          40.750    22757691.860    94751776.090 7      2838.651          43.000    22757692.320    94751778.087 7      2838.651          43.500
R24  22527386.820   120464059.724 7      4199.681          45.187    22527384.260   120464059.723 7      4199.681          44.312    22527400.180    93694329.308 7      3266.419          45.812    22527400.220    93694327.314 7      3266.419          45.562
G16  21370293.480   112301642.050 7        83.670          46.750    21370292.140   112301642.055 6        83.670          39.187    21370299.000    87507798.830 6        65.197          39.062
G08  20887618.520   109765175.344 8      3159.880          48.687    20887617.260   109765175.343 8      3159.880          48.750    20887624.900    85531332.744 8      2462.244          49.062    20887625.660    85531336.747 8      2462.244          49.937
G26  23961960.420   125920952.634 6     -1032.326          40.937    23961959.720   125920952.647 6     -1032.326          37.687    23961980.440    98120301.293 6      -804.410          37.687    23961980.900    98120300.288 7      -804.410          45.312
R14  23482621.540   125175579.157 7      6260.313          45.937    23482621.220   125175579.161 7      6260.313          45.562    23482632.340    97358837.673 6      4869.132          40.312    23482633.040    97358839.675 6      4869.132          40.375
G10  22308901.120   117234069.220 7      1161.446          45.750    22308899.900   117234069.228 7      1161.446          44.812    22308909.620    91351253.820 7       905.023          44.875    22308909.500    91351255.833 7       905.023          46.687
G27  21159307.280   111192907.984 7      1501.340          47.687    21159306.220   111192907.989 8      1501.340          49.187    21159314.000    86643852.981 8      1169.875          49.062    21159314.300    86643854.984 8      1169.875          49.937
G07  23819044.440   125169920.685 7      2653.556          44.562    23819043.640   125169920.687 5      2653.556          30.375    23819051.360    97535011.972 5      2067.706          30.437    23819052.180    97535036.969 7      2067.706          42.062
R12  20205788.960   107935693.594 8      -596.717          48.812    20205788.820   107935693.600 8      -596.717          48.875    20205801.940    83950032.153 8      -464.113          50.750    20205801.740    83950034.158 8      -464.113          51.875
R22  21936444.280   117098224.362 7       -37.739          44.687    21936444.900   117098224.368 7       -37.739          44.750    21936456.020    91076446.834 7       -29.353          46.562    21936455.620    91076444.837 7       -29.353          47.125
G21  20594615.260   108225435.229 8      2806.876          48.250    20594613.560   108225435.234 6      2806.876          41.187    20594618.520    84331520.321 6      2187.176          41.000
R23  20342256.440   108817359.441 7      1837.036          45.500    20342256.800   108817359.453 7      1837.036          45.375
G02  21855442.600   114851112.200 7      3694.483          47.500    21855440.700   114851112.207 6      3694.483          38.500    21855445.680    89494396.860 6      2878.818          37.812
> 2024 05 10 12 52 38.0000000  0 14
R07  22756992.320   121819965.494 6      3648.605          41.437    22756993.620   121819965.507 6      3648.605          40.750    22757010.280    94748937.902 7      2837.804          42.937    22757010.580    94748939.904 7      2837.804          43.375
R24  22526601.020   120459860.185 7      4199.335          44.750    22526599.320   120459860.189 7      4199.335          44.437    22526614.840    93691063.008 7      3266.150          45.812    22526614.700    93691061.010 7      3266.150          45.687
G16  21370277.480   112301558.700 8        82.985          48.000    21370276.200   112301558.710 6        82.985          38.875    21370283.140    87507733.879 6        64.664          39.062
G08  20887017.280   109762015.656 8      3159.493          48.812    20887016.020   109762015.661 8      3159.493          48.687    20887023.600    85528870.655 8      2461.942          48.812    20887024.320    85528874.659 8      2461.942          50.125
G26  23962156.880   125921984.889 6     -1032.435          40.437    23962156.100   125921984.899 6     -1032.435          38.375    23962176.960    98121105.631 6      -804.495          37.187    23962177.560    98121104.623 7      -804.495          45.375
R14  23481446.780   125169319.073 7      6259.796          46.250    23481446.740   125169319.081 7      6259.796          45.375    23481457.760    97353968.723 6      4868.730          40.375    23481458.500    97353970.724 6      4868.730          40.375
G10  22308680.440   117232908.018 7      1160.876          45.125    22308679.000   117232908.025 7      1160.876          44.812    22308688.620    91350348.987 7       904.579          44.562    22308688.960    91350350.998 7       904.579          46.625
G27  21159021.620   111191406.815 7      1500.987          46.875    21159020.580   111191406.823 8      1500.987          49.062    21159028.360    86642683.243 8      1169.600          48.875    21159028.640    86642685.244 8      1169.600          50.125
G07  23818539.920   125167267.389 7      2652.902          44.375    23818538.700   125167267.388 5      2652.902          30.375    23818546.540    97532944.464 5      2067.196          30.437    23818547.380    97532969.465 7      2067.196          42.250
R12  20205900.940   107936290.697 8      -597.455          49.375    20205900.760   107936290.698 8      -597.455          48.687    20205913.720    83950496.556 8      -464.687          50.750    20205913.780    83950498.564 8      -464.687          51.625
R22  21936451.560   117098262.217 7       -37.921          44.437    21936452.180   117098262.218 7       -37.921          44.937    21936463.020    91076476.266 7       -29.494          46.500    21936462.960    91076474.270 7       -29.494          47.062
G21  20594081.260   108222628.583 8      2806.329          48.000    20594079.580   108222628.585 6      2806.329          40.625    20594084.600    84329333.324 6      2186.750          40.625
R23  20341912.740   108815522.544 7      1836.664          45.875    20341913.460   108815522.562 7      1836.664          45.062
G02  21854739.680   114847417.947 7      3693.966          47.562    21854737.720   114847417.954 6      3693.966          38.562    21854742.660    89491518.225 6      2878.415          38.062
> 2024 05 10 12 52 39.0000000  0 14
R07  22756310.900   121816317.256 6      3647.387          41.437    22756311.600   121816317.293 6      3647.387          40.750    22756328.680    94746100.404 7      2836.856          42.750    22756329.320    94746102.413 7      2836.856          43.375
R24  22525815.780   120455661.189 7      4198.478          45.187    22525814.260   120455661.187 7      4198.478          44.187    22525829.420    93687797.120 7      3265.483          45.437    22525829.320    93687795.117 7      3265.483          45.125
G16  21370261.800   112301476.044 7        82.074          47.500    21370260.460   112301476.051 6        82.074          38.750    21370267.360    87507669.466 6        63.954          38.562
G08  20886415.900   109758856.389 8      3158.821          48.125    20886414.820   109758856.392 8      3158.821          48.375    20886422.440    85526408.888 8      2461.419          48.687    20886423.040    85526412.891 8      2461.419          50.437
G26  23962353.120   125923017.556 6     -1033.119          39.625    23962352.700   125923017.571 6     -1033.119          37.500    23962373.280    98121910.298 6      -805.028          37.375    23962373.780    98121909.297 7      -805.028          45.437
R14  23480272.920   125163059.558 7      6259.062          46.125    23480272.740   125163059.553 7      6259.062          45.062    23480283.600    97349100.197 6      4868.159          40.375    23480284.260    97349102.205 6      4868.159          40.562
G10  22308459.440   117231747.693 7      1159.655          45.312    22308458.080   117231747.697 7      1159.655          45.062    22308467.920    91349444.833 7       903.627          44.875    22308467.720    91349446.846 7       903.627          46.937
G27  21158736.320   111189906.111 7      1500.259          47.375    21158735.060   111189906.119 8      1500.259          49.125    21158742.800    86641513.857 8      1169.033          49.000    21158743.360    86641515.860 8      1169.033          50.062
G07  23818034.960   125164614.875 7      2651.877          43.750    23818033.920   125164614.875 5      2651.877          30.375    23818041.840    97530877.569 5      2066.398          30.437    23818042.500    97530902.572 7      2066.398          42.250
R12  20206012.660   107936888.677 8      -598.681          48.375    20206012.960   107936888.683 8      -598.681          48.875    20206025.700    83950961.647 8      -465.641          50.937    20206025.600    83950963.652 8      -465.641          52.375
R22  21936458.760   117098300.283 7       -38.399          44.312    21936459.400   117098300.286 7       -38.399          44.437    21936470.200    91076505.881 7       -29.866          47.125    21936469.960    91076503.885 7       -29.866          47.562
G21  20593547.260   108219822.675 7      2805.274          47.937    20593545.580   108219822.680 6      2805.274          40.875    20593550.660    84327146.902 6      2185.928          41.125
R23  20341570.020   108813686.158 7      1835.890          44.812    20341569.960   108813686.176 7      1835.890          44.750
G02  21854036.800   114843724.316 7      3693.157          46.875    21854035.080   114843724.321 6      3693.157          38.312    21854039.800    89488640.076 6      2877.784          38.375
> 2024 05 10 12 52 40.0000000  0 14
R07  22755629.180   121812669.621 6      3647.502          41.750    22755630.160   121812669.662 6      3647.502          40.562    22755647.280    94743263.362 7      2836.946          43.125    22755647.660    94743265.367 7      2836.946          43.000
R24  22525030.540   120451462.401 7      4198.836          45.187    22525029.160   120451462.407 7      4198.836          44.375    22525044.020    93684531.398 7      3265.761          46.187    22525044.160    93684529.404 7      3265.761          45.750
G16  21370246.040   112301393.797 7        82.167          47.625    21370244.840   112301393.807 6        82.167          38.687    21370251.800    87507605.369 6        64.026          38.500
G08  20885814.860   109755697.251 7      3159.267          47.437    20885813.640   109755697.259 8      3159.267          48.812    20885821.280    85523947.224 8      2461.767          48.625    20885821.880    85523951.227 8      2461.767          50.062
G26  23962549.660   125924050.322 6     -1032.528          39.500    23962549.240   125924050.335 6     -1032.528          38.062    23962569.900    98122715.041 6      -804.567          37.437    23962570.340    98122714.038 7      -804.567          45.125
R14  23479098.660   125156800.342 7      6259.254          45.625    23479098.360   125156800.345 7      6259.254          45.500    23479109.780    97344231.922 6      4868.308          40.750    23479110.200    97344233.926 6      4868.308          41.375
G10  22308238.800   117230587.872 7      1159.792          46.000    22308237.360   117230587.877 7      1159.792          45.312    22308247.160    91348541.073 7       903.734          44.937    22308247.180    91348543.084 7       903.734          47.125
G27  21158450.720   111188405.570 7      1500.680          47.375    21158449.460   111188405.570 8      1500.680          49.250    21158457.200    86640344.598 8      1169.361          49.250    21158457.760    86640346.601 8      1169.361          50.000
G07  23817530.320   125161962.832 7      2652.033          43.937    23817529.260   125161962.832 5      2652.033          30.500    23817537.140    97528811.035 5      2066.519          30.437    23817537.720    97528836.043 7      2066.519          42.375
R12  20206124.680   107937487.244 8      -598.655          49.625    20206124.960   107937487.248 8      -598.655          49.125    20206137.680    83951427.187 8      -465.620          51.187    20206137.580    83951429.192 8      -465.620          51.562
R22  21936465.720   117098338.260 7       -37.677          44.750    21936466.440   117098338.264 7       -37.677          44.562    21936477.100    91076535.415 7       -29.305          47.187    21936477.320    91076533.419 7       -29.305          46.937
G21  20593013.180   108217017.159 8      2805.507          48.000    20593011.580   108217017.164 6      2805.507          40.625    20593016.820    84324960.788 6      2186.109          40.437
R23  20341226.640   108811849.959 7      1836.317          45.187    20341226.500   108811849.964 7      1836.317          45.000
G02  21853333.880   114840031.049 7      3693.358          46.812    21853332.320   114840031.053 6      3693.358          38.500    21853337.080    89485762.205 6      2877.941          38.000
> 2024 05 10 12 52 41.0000000  0 14
R07  22754947.960   121809022.675 6      3646.305          41.750    22754949.100   121809022.709 6      3646.305          40.562    22754966.120    94740426.847 7      2836.015          42.937    22754966.500    94740428.848 7      2836.015          42.875
R24  22524245.600   120447263.888 7      4198.209          45.250    22524244.200   120447263.890 7      4198.209          44.375    22524258.880    93681265.888 7      3265.274          45.250    22524258.940    93681263.886 7      3265.274          45.375
G16  21370230.700   112301311.966 7        81.397          47.187    21370229.220   112301311.970 6        81.397          38.562    21370236.240    87507541.598 6        63.426          38.687
G08  20885213.680   109752538.245 7      3158.748          47.937    20885212.500   109752538.252 8      3158.748          49.062    20885220.200    85521485.658 8      2461.362          48.625    20885220.760    85521489.661 8      2461.362          49.875
G26  23962746.260   125925083.239 6     -1033.247          39.625    23962745.580   125925083.252 6     -1033.247          37.437    23962766.420    98123519.899 6      -805.127          37.312    23962766.880    98123518.894 7      -805.127          45.125
R14  23477924.500   125150541.424 7      6258.536          46.062    23477924.040   125150541.425 7      6258.536          45.625    23477935.480    97339363.873 6      4867.750          40.750    23477936.080    97339365.874 6      4867.750          41.375
G10  22308018.240   117229428.648 7      1158.639          46.000    22308016.820   117229428.653 7      1158.639          45.312    22308026.500    91347637.782 7       902.836          44.937    22308026.620    91347639.792 7       902.836          46.875
G27  21158165.260   111186905.197 8      1500.055          48.000    21158164.020   111186905.202 8      1500.055          48.250    21158171.820    86639175.474 8      1168.874          48.312    21158172.340    86639177.477 8      1168.874          49.687
G07  23817025.840   125159311.299 7      2651.035          43.812    23817024.720   125159311.309 5      2651.035          30.500    23817032.580    97526744.904 5      2065.742          30.437    23817033.160    97526769.915 7      2065.742          42.250
R12  20206236.940   107938086.420 8      -599.718          48.875    20206237.100   107938086.429 8      -599.718          49.187    20206249.740    83951893.208 8      -466.448          50.750    20206249.620    83951895.214 8      -466.448          51.187
R22  21936472.680   117098376.190 7       -38.098          44.437    21936473.540   117098376.196 7       -38.098          44.625    21936484.400    91076564.905 7       -29.632          46.875    21936484.480    91076562.909 7       -29.632          46.562
G21  20592479.400   108214212.084 8      2804.649          48.187    20592477.840   108214212.092 6      2804.649          40.187    20592482.980    84322775.015 6      2185.440          40.437
R23  20340883.540   108810013.940 7      1835.671          44.562    20340883.560   108810013.952 7      1835.671          44.625
G02  21852631.040   114836338.141 7      3692.499          47.750    21852629.460   114836338.143 6      3692.499          38.062    21852634.200    89482884.616 6      2877.272          37.875
> 2024 05 10 12 52 42.0000000  0 14
R07  22754266.900   121805376.308 6      3646.195          41.687    22754268.520   121805376.329 6      3646.195          40.562    22754284.900    94737590.780 7      2835.930          42.687    22754285.360    94737592.783 7      2835.930          42.812
R24  22523460.640   120443065.587 7      4198.277          45.062    22523459.220   120443065.594 7      4198.277          44.125    22523473.660    93678000.547 7      3265.327          44.062    22523474.160    93677998.543 7      3265.327          44.625
G16  21370215.200   112301230.526 7        81.301          46.375    21370213.700   112301230.531 6        81.301          38.187    21370220.780    87507478.133 6        63.351          37.937
G08  20884612.580   109749379.364 7      3158.832          47.437    20884611.380   109749379.371 8      3158.832          48.250    20884619.040    85519024.191 8      2461.428          48.750    20884619.760    85519028.196 8      2461.428          48.062
G26  23962942.660   125926116.200 6     -1032.895          40.000    23962942.160   125926116.210 6     -1032.895          37.250    23962962.880    98124324.796 6      -804.853          36.562    23962963.360    98124323.791 7      -804.853          44.937
R14  23476750.500   125144282.760 7      6258.534          46.000    23476750.000   125144282.758 7      6258.534          45.687    23476761.460    97334496.019 6      4867.749          40.250    23476762.020    97334498.018 6      4867.749          41.062
G10  22307797.600   117228269.902 7      1158.615          45.875    22307796.360   117228269.902 7      1158.615          43.937    22307806.000    91346734.857 7       902.817          44.062    22307806.220    91346736.865 7       902.817          46.562
G27  21157879.560   111185404.955 7      1500.299          47.125    21157878.540   111185404.957 7      1500.299          47.437    21157886.220    86638006.451 7      1169.064          47.312    21157886.800    86638008.453 8      1169.064          48.125
G07  23816521.280   125156660.220 7      2650.959          44.312    23816520.220   125156660.225 5      2650.959          30.500    23816528.180    97524679.124 5      2065.682          30.437    23816528.560    97524704.125 7      2065.682          42.250
R12  20206349.220   107938686.197 8      -599.965          48.937    20206349.240   107938686.200 8      -599.965          49.000    20206362.080    83952359.691 8      -466.639          48.062    20206361.900    83952361.692 8      -466.639          48.312
R22  21936479.520   117098414.029 7       -37.778          44.437    21936480.660   117098414.038 7       -37.778          44.750    21936491.460    91076594.334 7       -29.383          45.250    21936491.660    91076592.337 7       -29.383          45.937
G21  20591945.540   108211407.414 8      2804.491          48.437    20591944.160   108211407.416 6      2804.491          40.125    20591949.180    84320589.560 6      2185.318          40.250
R23  20340540.500   108808178.073 7      1835.901          45.812    20340540.480   108808178.085 7      1835.901          44.812
G02  21851928.340   114832645.540 7      3692.504          47.375    21851926.900   114832645.545 6      3692.504          38.062    21851931.560    89480007.267 6      2877.275          37.625
> 2024 05 10 12 52 43.0000000  0 14
R07  22753586.400   121801730.506 6      3645.458          41.687    22753587.080   121801730.540 6      3645.458          40.562    22753604.020    94734755.170 7      2835.356          42.375    22753604.420    94734757.167 7      2835.356          42.500
R24  22522675.820   120438867.403 7      4198.077          44.937    22522674.100   120438867.413 7      4198.077          44.562    22522688.160    93674735.295 7      3265.171          44.750    22522689.120    93674733.299 7      3265.171          45.750
G16  21370199.920   112301149.419 7        80.799          46.937    21370198.420   112301149.427 6        80.799          38.375    21370205.420    87507414.927 6        62.960          38.437
G08  20884011.600   109746220.536 8      3158.682          48.500    20884010.280   109746220.538 8      3158.682          48.437    20884017.960    85516562.764 7      2461.311          47.812    20884018.540    85516566.767 8      2461.311          49.812
G26  23963139.340   125927149.243 6     -1033.256          38.687    23963138.860   125927149.261 6     -1033.256          36.875    23963159.320    98125129.756 6      -805.135          36.625    23963159.680    98125128.747 7      -805.135          44.375
R14  23475576.780   125138024.346 7      6258.141          46.125    23475575.720   125138024.349 7      6258.141          45.687    23475587.100    97329628.363 6      4867.443          40.250    23475587.700    97329630.363 6      4867.443          41.062
G10  22307577.380   117227111.653 7      1157.890          45.562    22307575.980   117227111.655 7      1157.890          44.562    22307585.600    91345832.327 7       902.252          44.625    22307585.860    91345834.336 7       902.252          46.437
G27  21157594.060   111183904.821 7      1499.975          47.250    21157593.040   111183904.826 7      1499.975          47.687    21157600.820    86636837.515 7      1168.812          47.687    21157601.380    86636839.512 8      1168.812          50.000
G07  23816017.020   125154009.565 7      2650.374          44.000    23816015.880   125154009.570 5      2650.374          30.125    23816023.740    97522613.676 5      2065.227          30.125    23816024.440    97522638.679 7      2065.227          42.187
R12  20206461.380   107939286.551 8      -600.753          49.062    20206461.540   107939286.557 8      -600.753          49.125    20206474.300    83952826.625 8      -467.253          50.000    20206474.380    83952828.626 8      -467.253          49.562
R22  21936486.900   117098451.716 7       -37.786          45.187    21936487.960   117098451.725 7       -37.786          45.250    21936498.620    91076623.637 7       -29.389          45.500    21936498.640    91076621.641 7       -29.389          45.937
G21  20591411.920   108208603.080 8      2804.064          48.750    20591410.440   108208603.088 6      2804.064          40.000    20591415.600    84318404.363 6      2184.985          39.812
R23  20340197.620   108806342.331 7      1835.667          45.250    20340197.420   108806342.343 7      1835.667          44.812
G02  21851225.880   114828953.234 7      3692.000          47.562    21851224.300   114828953.242 6      3692.000          38.375    21851228.840    89477130.148 6      2876.883          37.812
> 2024 05 10 12 52 44.0000000  0 14
R07  22752905.140   121798085.207 7      3645.036          42.125    22752905.360   121798085.235 6      3645.036          40.562    22752923.060    94731919.940 7      2835.028          42.937    22752923.400    94731921.939 7      2835.028          43.312
R24  22521890.820   120434669.327 7      4198.092          44.812    22521889.080   120434669.339 7      4198.092          44.187    22521903.280    93671470.126 7      3265.182          45.250    22521904.080    93671468.126 7      3265.182          45.125
G16  21370184.320   112301068.605 7        80.686          47.250    21370182.940   112301068.610 6        80.686          38.625    21370189.980    87507351.946 6        62.872          38.187
G08  20883410.580   109743061.713 8      3158.783          48.500    20883409.140   109743061.718 8      3158.783          48.937    20883416.880    85514101.342 8      2461.390          48.750    20883417.720    85514105.345 8      2461.390          50.125
G26  23963335.940   125928182.228 6     -1032.950          39.500    23963335.420   125928182.243 6     -1032.950          37.062    23963355.860    98125934.663 6      -804.896          36.250    23963356.040    98125933.654 7      -804.896          45.250
R14  23474402.460   125131766.140 7      6258.185          46.187    23474401.980   125131766.149 7      6258.185          45.437    23474413.000    97324760.870 6      4867.477          40.375    23474413.680    97324762.869 6      4867.477          40.875
G10  22307356.980   117225953.795 7      1157.791          45.625    22307355.440   117225953.798 7      1157.791          45.000    22307365.360    91344930.096 7       902.175          45.187    22307365.400    91344932.103 7       902.175          46.437
G27  21157308.580   111182404.716 8      1500.087          48.062    21157307.580   111182404.724 8      1500.087          48.625    21157315.300    86635668.600 8      1168.899          48.937    21157315.800    86635670.599 8      1168.899          50.250
G07  23815512.120   125151359.264 7      2650.141          43.437    23815511.500   125151359.266 5      2650.141          30.125    23815519.500    97520548.498 5      2065.045          30.125    23815520.040    97520573.499 7      2065.045          42.562
R12  20206573.920   107939887.353 8      -600.985          48.687    20206574.000   107939887.354 8      -600.985          48.875    20206586.840    83953293.901 8      -467.433          50.937    20206586.980    83953295.902 8      -467.433          51.312
R22  21936494.060   117098489.189 7       -37.417          44.562    21936494.800   117098489.198 7       -37.417          44.812    21936505.400    91076652.775 7       -29.102          47.000    21936505.500    91076650.781 7       -29.102          47.312
G21  20590878.420   108205799.056 8      2803.887          48.375    20590876.760   108205799.061 6      2803.887          40.687    20590881.940    84316219.411 6      2184.847          40.750
R23  20339854.420   108804506.667 7      1835.641          45.000    20339853.900   108804506.677 7      1835.641          44.250
G02  21850523.460   114825261.128 7      3692.054          47.000    21850521.760   114825261.132 6      3692.054          38.062    21850526.280    89474253.180 6      2876.925          38.187
> 2024 05 10 12 52 45.0000000  0 14
R07  22752224.380   121794440.593 7      3644.127          42.125    22752225.160   121794440.619 6      3644.127          40.625    22752242.360    94729085.236 7      2834.321          43.500    22752242.540    94729087.237 7      2834.321          43.250
R24  22521105.660   120430471.566 7      4197.490          45.250    22521103.760   120430471.562 7      4197.490          44.187    22521118.240    93668205.193 7      3264.715          44.937    22521119.020    93668203.197 7      3264.715          45.750
G16  21370169.120   112300988.266 7        80.007          47.000    21370167.720   112300988.273 6        80.007          38.500    21370174.700    87507289.340 6        62.343          38.812
G08  20882809.520   109739903.082 8      3158.437          48.625    20882808.160   109739903.084 8      3158.437          49.312    20882815.820    85511640.069 8      2461.120          49.312    20882816.720    85511644.072 8      2461.120          50.250
G26  23963532.760   125929215.415 6     -1033.391          39.562    23963532.100   125929215.436 6     -1033.391          37.125    23963552.560    98126739.734 6      -805.240          36.687    23963552.760    98126738.724 7      -805.240          45.062
R14  23473228.460   125125508.356 7      6257.543          46.000    23473228.140   125125508.356 7      6257.543          45.437    23473239.240    97319893.694 6      4866.978          40.375    23473239.760    97319895.695 6      4866.978          41.062
G10  22307136.960   117224796.602 7      1156.798          45.375    22307135.460   117224796.605 7      1156.798          45.250    22307145.060    91344028.383 7       901.401          45.187    22307144.980    91344030.392 7       901.401          47.187
G27  21157023.320   111180904.853 8      1499.626          48.375    21157022.200   111180904.858 8      1499.626          48.812    21157029.900    86634499.869 8      1168.540          48.875    21157030.260    86634501.868 8      1168.540          50.250
G07  23815007.720   125148709.525 7      2649.221          43.062    23815007.320   125148709.527 5      2649.221          30.125    23815015.160    97518483.763 5      2064.328          30.125    23815016.260    97518508.766 7      2064.328          42.562
R12  20206686.780   107940488.794 8      -601.866          48.875    20206686.500   107940488.798 8      -601.866          49.125    20206699.360    83953761.682 8      -468.118          51.250    20206699.540    83953763.685 8      -468.118          51.187
R22  21936501.320   117098526.673 7       -37.521          44.187    21936501.940   117098526.674 7       -37.521          44.750    21936512.580    91076681.921 7       -29.183          46.812    21936512.560    91076679.927 7       -29.183          47.062
G21  20590344.900   108202995.518 8      2803.172          49.062    20590343.180   108202995.521 6      2803.172          40.500    20590348.380    84314034.834 6      2184.290          40.687
R23  20339511.220   108802671.236 7      1835.215          45.375    20339510.720   108802671.251 7      1835.215          44.437
G02  21849821.120   114821569.455 7      3691.341          47.312    21849819.340   114821569.457 6      3691.341          37.875    21849823.720    89471376.553 6      2876.370          37.875
> 2024 05 10 12 52 46.0000000  0 14
R07  22751543.940   121790796.581 6      3643.692          41.562    22751544.360   121790796.626 6      3643.692          40.625    22751561.440    94726251.023 7      2833.983          43.500    22751561.820    94726253.024 7      2833.983          43.375
R24  22520320.660   120426274.040 7      4197.365          45.250    22520318.840   120426274.044 7      4197.365          43.750    22520333.300    93664940.459 7      3264.617          45.250    22520333.820    93664938.463 7      3264.617          45.625
G16  21370153.880   112300908.363 7        79.687          47.375    21370152.580   112300908.376 6        79.687          39.000    21370159.640    87507227.074 6        62.094          39.250
G08  20882208.520   109736744.619 8      3158.371          49.125    20882207.040   109736744.621 8      3158.371          48.812    20882214.760    85509178.927 8      2461.069          49.250    20882215.640    85509182.930 8      2461.069          50.125
G26  23963729.820   125930248.726 6     -1033.488          39.625    23963728.760   125930248.741 6     -1033.488          37.250    23963749.160    98127544.894 6      -805.315          37.125    23963749.420    98127543.885 7      -805.315          45.062
R14  23472054.320   125119250.861 7      6257.348          46.375    23472054.100   125119250.857 7      6257.348          45.250    23472065.480    97315026.756 6      4866.826          40.812    23472065.960    97315028.751 6      4866.826          41.062
G10  22306916.780   117223639.959 7      1156.296          45.937    22306915.320   117223639.963 7      1156.296          45.187    22306925.000    91343127.104 7       901.010          45.250    22306924.860    91343129.107 7       901.010          47.000
G27  21156737.840   111179405.173 8      1499.514          48.625    21156736.960   111179405.176 8      1499.514          48.687    21156744.560    86633331.284 8      1168.453          48.562    21156744.920    86633333.282 8      1168.453          50.187
G07  23814503.900   125146060.278 7      2648.932          43.562    23814503.220   125146060.280 5      2648.932          30.312    23814511.100    97516419.408 5      2064.103          30.125    23814511.900    97516444.411 7      2064.103          42.750
R12  20206799.100   107941090.831 8      -602.376          49.437    20206799.140   107941090.840 8      -602.376          49.437    20206811.860    83954229.929 8      -468.514          50.687    20206812.180    83954231.930 8      -468.514          51.375
R22  21936508.100   117098564.111 7       -37.492          45.000    21936509.060   117098564.110 7       -37.492          45.000    21936519.460    91076711.042 7       -29.161          46.812    21936519.680    91076709.043 7       -29.161          47.062
G21  20589811.600   108200192.425 8      2802.890          48.625    20589809.800   108200192.422 6      2802.890          40.687    20589815.080    84311850.601 6      2184.070          41.062
R23  20339168.100   108800836.051 7      1834.967          44.812    20339167.820   108800836.063 7      1834.967          45.125
G02  21849118.380   114817878.144 7      3691.196          47.937    21849116.800   114817878.144 6      3691.196          38.187    21849121.280    89468500.204 6      2876.256          38.125
> 2024 05 10 12 52 47.0000000  0 14
R07  22750863.520   121787153.306 6      3642.909          41.562    22750864.040   121787153.334 6      3642.909          40.625    22750881.060    94723417.352 7      2833.374          43.187    22750881.260    94723419.353 7      2833.374          43.375
R24  22519535.920   120422076.851 7      4197.007          44.875    22519533.880   120422076.852 7      4197.007          44.375    22519548.260    93661675.976 7      3264.339          44.625    22519549.000    93661673.989 7      3264.339          45.187
G16  21370138.700   112300828.980 7        79.097          47.312    21370137.460   112300828.991 6        79.097          38.875    21370144.460    87507165.207 6        61.634          38.437
G08  20881607.220   109733586.364 8      3158.191          48.562    20881606.060   109733586.366 8      3158.191          48.687    20881613.740    85506717.949 8      2460.928          48.437    20881614.600    85506721.954 8      2460.928          49.687
G26  23963926.480   125931282.208 6     -1033.455          39.937    23963925.460   125931282.218 6     -1033.455          38.062    23963945.920    98128350.186 6      -805.289          37.375    23963946.240    98128349.179 7      -805.289          45.062
R14  23470880.720   125112993.690 7      6257.005          46.250    23470879.780   125112993.693 7      6257.005          45.250    23470891.400    97310160.066 6      4866.559          40.812    23470892.280    97310162.068 6      4866.559          41.312
G10  22306696.480   117222483.951 7      1155.577          45.625    22306695.340   117222483.955 7      1155.577          44.687    22306705.060    91342226.319 7       900.450          44.875    22306704.960    91342228.323 7       900.450          46.875
G27  21156452.600   111177905.731 8      1499.283          48.625    21156451.480   111177905.741 8      1499.283          48.937    21156459.240    86632162.889 8      1168.272          49.000    21156459.720    86632164.889 8      1168.272          49.375
G07  23813999.460   125143411.609 7      2648.345          43.437    23813999.120   125143411.608 5      2648.345          30.312    23814007.160    97514355.504 5      2063.645          30.125    23814008.400    97514380.509 7      2063.645          42.562
R12  20206912.320   107941693.567 8      -603.084          48.500    20206911.880   107941693.573 8      -603.084          49.500    20206924.740    83954698.713 8      -469.065          50.750    20206925.040    83954700.716 8      -469.065          51.562
R22  21936515.480   117098601.537 7       -37.444          46.375    21936516.100   117098601.540 7       -37.444          45.187    21936526.620    91076740.148 7       -29.123          46.625    21936526.540    91076738.152 7       -29.123          47.250
G21  20589278.280   108197389.838 8      2802.303          49.062    20589276.540   108197389.843 6      2802.303          40.312    20589281.600    84309666.771 6      2183.613          40.312
R23  20338824.660   108799001.115 7      1834.807          44.875    20338824.620   108799001.127 7      1834.807          44.750
G02  21848416.280   114814187.268 8      3690.680          48.000    21848414.540   114814187.270 6      3690.680          38.187    21848419.000    89465624.200 6      2875.855          38.250
> 2024 05 10 12 52 48.0000000  0 14
R07  22750183.500   121783510.737 6      3641.980          41.562    22750183.060   121783510.776 6      3641.980          40.562    22750200.060    94720584.262 7      2832.651          42.437    22750200.580    94720586.262 7      2832.651          42.750
R24  22518751.060   120417880.060 7      4196.426          45.312    22518749.200   120417880.070 7      4196.426          44.312    22518763.540    93658411.812 7      3263.887          44.562    22518764.100    93658409.818 7      3263.887          45.062
G16  21370123.760   112300750.129 7        78.480          47.875    21370122.380   112300750.136 6        78.480          38.750    21370129.460    87507103.756 6        61.153          38.250
G08  20881006.460   109730428.405 8      3157.651          49.000    20881005.180   109730428.408 7      3157.651          47.937    20881012.820    85504257.202 8      2460.507          48.125    20881013.500    85504261.207 8      2460.507          50.062
G26  23964122.800   125932315.970 6     -1033.938          40.000    23964122.160   125932315.978 6     -1033.938          38.625    23964142.680    98129155.705 6      -805.666          37.937    23964142.800    98129154.694 7      -805.666          44.875
R14  23469706.940   125106736.958 7      6256.392          46.562    23469706.620   125106736.963 7      6256.392          45.625    23469717.860    97305293.715 6      4866.083          40.500    23469718.540    97305295.715 6      4866.083          41.187
G10  22306476.580   117221328.623 7      1154.801          46.250    22306475.380   117221328.625 7      1154.801          44.812    22306485.160    91341326.053 7       899.845          44.687    22306485.400    91341328.060 7       899.845          47.000
G27  21156167.180   111176406.608 8      1498.834          48.062    21156166.240   111176406.613 8      1498.834          48.875    21156174.020    86630994.737 8      1167.922          49.000    21156174.520    86630996.736 8      1167.922          50.000
G07  23813495.780   125140763.572 7      2647.560          43.687    23813495.380   125140763.572 5      2647.560          30.312    23813503.360    97512292.093 5      2063.034          30.125    23813504.460    97512317.096 7      2063.034          42.687
R12  20207024.980   107942297.110 8      -604.066          49.125    20207025.080   107942297.114 8      -604.066          49.187    20207037.680    83955168.123 8      -469.829          49.250    20207037.680    83955170.124 8      -469.829          51.625
R22  21936522.000   117098639.055 7       -37.697          44.875    21936523.260   117098639.064 7       -37.697          45.062    21936533.380    91076769.319 7       -29.320          46.562    21936533.980    91076767.318 7       -29.320          46.937
G21  20588744.880   108194587.814 7      2801.652          47.937    20588743.380   108194587.816 6      2801.652          40.562    20588748.520    84307483.376 6      2183.106          40.187
R23  20338482.180   108797166.537 7      1834.281          44.500    20338481.680   108797166.551 7      1834.281          44.812
G02  21847713.880   114810496.877 7      3690.036          47.937    21847712.140   114810496.884 6      3690.036          38.125    21847716.800    89462748.575 6      2875.353          38.437
> 2024 05 10 12 52 49.0000000  0 14
R07  22749502.580   121779868.912 6      3641.554          41.250    22749503.040   121779868.961 6      3641.554          40.562    22749519.720    94717751.742 7      2832.320          42.625    22749520.400    94717753.744 7      2832.320          43.062
R24  22517965.980   120413683.561 7      4196.686          44.500    22517964.480   120413683.570 7      4196.686          44.062    22517978.820    93655147.875 7      3264.089          45.187    22517979.300    93655145.881 7      3264.089          44.937
G16  21370108.720   112300671.800 7        78.284          46.750    21370107.520   112300671.807 6        78.284          39.562    21370114.340    87507042.715 6        61.001          38.687
G08  20880405.620   109727270.647 8      3157.895          48.500    20880404.340   109727270.649 8      3157.895          49.125    20880411.940    85501796.613 8      2460.697          49.250    20880412.860    85501800.616 8      2460.697          50.625
G26  23964319.780   125933349.920 6     -1033.780          39.562    23964319.000   125933349.924 6     -1033.780          38.062    23964339.420    98129961.370 6      -805.543          37.562    23964339.420    98129960.375 7      -805.543          45.375
R14  23468533.040   125100480.657 7      6256.398          46.187    23468532.620   125100480.658 7      6256.398          45.375    23468543.920    97300427.700 6      4866.087          40.750    23468544.900    97300429.704 6      4866.087          41.187
G10  22306257.020   117220173.932 7      1154.597          45.562    22306255.640   117220173.931 7      1154.597          44.750    22306265.420    91340426.292 7       899.686          44.625    22306265.800    91340428.300 7       899.686          46.875
G27  21155881.980   111174907.749 7      1498.949          47.750    21155881.020   111174907.756 8      1498.949          48.812    21155888.820    86629826.797 8      1168.013          48.875    21155889.380    86629828.795 8      1168.013          50.500
G07  23812992.340   125138116.138 7      2647.336          43.812    23812991.600   125138116.140 5      2647.336          30.312    23812999.580    97510229.157 5      2062.859          30.250    23813000.040    97510254.160 7      2062.859          42.687
R12  20207138.480   107942901.358 8      -604.348          49.562    20207138.240   107942901.359 8      -604.348          49.375    20207150.820    83955638.083 8      -470.048          51.000    20207151.200    83955640.085 8      -470.048          51.312
R22  21936529.320   117098676.593 7       -37.264          44.437    21936530.100   117098676.601 7       -37.264          44.812    21936540.580    91076798.506 7       -28.983          46.500    21936540.600    91076796.508 7       -28.983          47.000
G21  20588211.820   108191786.318 8      2801.451          48.687    20588210.240   108191786.320 6      2801.451          40.000    20588215.380    84305300.394 6      2182.949          40.187
R23  20338139.080   108795332.247 7      1834.338          45.000    20338138.660   108795332.268 7      1834.338          44.812
G02  21847011.640   114806806.938 7      3689.941          47.375    21847009.940   114806806.940 6      3689.941          38.125    21847014.600    89459873.300 6      2875.279          38.250
> 2024 05 10 12 52 50.0000000  0 14
R07  22748822.760   121776227.550 6      3640.913          41.250    22748823.080   121776227.583 6      3640.913          40.562    22748839.900    94714919.565 7      2831.821          43.000    22748839.900    94714921.564 7      2831.821          42.937
R24  22517181.120   120409487.145 7      4196.308          44.875    22517179.640   120409487.149 7      4196.308          44.062    22517194.260    93651883.989 7      3263.795          44.437    22517194.340    93651881.991 7      3263.795          44.437
G16  21370093.800   112300593.684 7        77.995          46.750    21370092.680   112300593.691 6        77.995          38.687    21370099.580    87506981.839 6        60.775          38.437
G08  20879804.640   109724112.867 7      3157.687          47.750    20879803.340   109724112.867 8      3157.687          48.375    20879811.060    85499336.003 8      2460.535          48.125    20879811.960    85499340.006 8      2460.535          49.625
G26  23964516.640   125934383.798 6     -1033.835          40.250    23964515.840   125934383.805 6     -1033.835          38.687    23964536.080    98130766.981 6      -805.586          38.500    23964536.380    98130765.976 7      -805.586          45.375
R14  23467359.700   125094224.552 7      6255.928          45.937    23467359.120   125094224.547 7      6255.928          45.562    23467370.460    97295561.838 6      4865.722          40.750    23467371.260    97295563.835 6      4865.722          41.250
G10  22306037.560   117219019.610 7      1154.048          46.062    22306036.000   117219019.615 7      1154.048          44.500    22306045.800    91339526.817 7       899.258          44.250    22306045.680    91339528.827 7       899.258          47.000
G27  21155596.780   111173408.868 8      1498.821          48.562    21155595.860   111173408.878 8      1498.821          48.437    21155603.640    86628658.838 8      1167.912          48.375    21155604.140    86628660.836 8      1167.912          49.562
G07  23812488.480   125135468.996 7      2646.855          44.812    23812487.880   125135468.995 5      2646.855          30.250    23812496.000    97508166.438 5      2062.484          30.250    23812497.000    97508191.435 7      2062.484          42.437
R12  20207251.600   107943506.007 8      -604.905          48.937    20207251.480   107943506.010 8      -604.905          48.625    20207264.060    83956108.357 8      -470.481          50.437    20207264.380    83956110.361 8      -470.481          50.687
R22  21936536.080   117098713.890 7       -37.207          45.187    21936537.120   117098713.899 7       -37.207          45.125    21936547.580    91076827.517 7       -28.939          46.500    21936547.700    91076825.515 7       -28.939          46.687
G21  20587679.020   108188985.047 7      2801.095          47.937    20587677.300   108188985.055 6      2801.095          40.687    20587682.380    84303117.584 6      2182.671          40.625
R23  20337796.040   108793497.985 7      1834.125          44.875    20337795.920   108793498.002 7      1834.125          44.812
G02  21846309.480   114803117.157 7      3689.629          47.625    21846307.880   114803117.159 6      3689.629          38.125    21846312.260    89456998.148 6      2875.036          37.937
> 2024 05 10 12 52 51.0000000  0 14
R07  22748142.740   121772586.876 6      3640.276          41.125    22748142.800   121772586.912 6      3640.276          40.250    22748160.020    94712087.938 7      2831.326          42.812    22748159.540    94712089.934 7      2831.326          42.812
R24  22516396.200   120405290.991 7      4195.947          44.437    22516394.660   120405291.005 7      4195.947          44.750    22516409.640    93648620.326 7      3263.514          45.500    22516409.360    93648618.322 7      3263.514          44.875
G16  21370079.240   112300516.083 8        77.372          48.125    21370077.840   112300516.090 6        77.372          38.625    21370084.700    87506921.362 6        60.290          39.000
G08  20879203.740   109720955.287 7      3157.472          47.750    20879202.560   109720955.287 8      3157.472          48.937    20879210.180    85496875.549 8      2460.367          48.625    20879211.040    85496879.552 8      2460.367          50.187
G26  23964713.500   125935417.871 6     -1034.081          40.812    23964712.620   125935417.881 6     -1034.081          38.500    23964732.820    98131572.740 6      -805.778          37.937    23964733.580    98131571.735 7      -805.778          45.250
R14  23466185.920   125087968.819 7      6255.538          45.875    23466185.680   125087968.825 7      6255.538          45.312    23466197.280    97290696.272 6      4865.419          40.625    23466197.600    97290698.268 6      4865.419          41.312
G10  22305817.960   117217865.925 7      1153.360          45.125    22305816.560   117217865.930 7      1153.360          44.687    22305826.220    91338627.847 7       898.722          44.437    22305826.480    91338629.858 7       898.722          46.937
G27  21155311.580   111171910.242 8      1498.527          48.250    21155310.740   111171910.250 8      1498.527          48.687    21155318.420    86627491.071 8      1167.683          48.312    21155319.140    86627493.074 8      1167.683          50.312
G07  23811984.840   125132822.405 7      2646.339          44.375    23811984.200   125132822.407 5      2646.339          30.250    23811992.280    97506104.157 5      2062.082          30.250    23811993.400    97506129.161 7      2062.082          42.750
R12  20207364.900   107944111.318 8      -605.637          48.875    20207364.980   107944111.324 8      -605.637          48.875    20207377.500    83956579.146 8      -471.051          50.625    20207377.620    83956581.146 8      -471.051          51.312
R22  21936543.380   117098751.211 7       -37.344          45.500    21936544.020   117098751.217 7       -37.344          44.937    21936554.400    91076856.534 7       -29.045          46.750    21936554.560    91076854.542 7       -29.045          46.625
G21  20587145.900   108186184.295 7      2800.496          47.812    20587144.200   108186184.300 6      2800.496          40.687    20587149.340    84300935.177 6      2182.204          40.937
R23  20337453.340   108791663.990 7      1833.811          44.937    20337453.000   108791664.008 7      1833.811          44.437
G02  21845607.420   114799427.804 7      3689.211          47.125    21845605.760   114799427.806 6      3689.211          38.187    21845610.240    89454123.327 6      2874.710          38.500
> 2024 05 10 12 52 52.0000000  0 14
R07  22747462.800   121768946.924 6      3639.763          41.125    22747462.580   121768946.953 6      3639.763          40.250    22747480.040    94709256.865 7      2830.927          43.250    22747479.500    94709258.863 7      2830.927          43.000
R24  22515611.660   120401095.165 7      4195.669          44.812    22515610.220   120401095.185 7      4195.669          44.062    22515625.140    93645356.915 7      3263.298          44.812    22515624.780    93645354.906 7      3263.298          45.062
G16  21370064.620   112300438.975 7        77.015          46.687    21370063.340   112300438.980 6        77.015          39.312    21370070.200    87506861.273 6        60.012          39.187
G08  20878603.060   109717797.938 7      3157.359          47.875    20878601.680   109717797.938 8      3157.359          48.875    20878609.320    85494415.277 8      2460.280          49.312    20878610.360    85494419.280 8      2460.280          49.562
G26  23964910.620   125936452.156 6     -1034.290          40.250    23964909.360   125936452.169 6     -1034.290          38.000    23964929.640    98132378.671 6      -805.940          37.687    23964930.200    98132377.663 7      -805.940          45.500
R14  23465012.440   125081713.486 7      6255.287          46.562    23465012.040   125081713.490 7      6255.287          45.125    23465023.340    97285831.011 6      4865.223          40.625    23465023.980    97285833.009 6      4865.223          41.312
G10  22305598.700   117216712.871 7      1152.917          46.625    22305597.060   117216712.873 7      1152.917          44.250    22305606.820    91337729.357 7       898.377          44.687    22305607.000    91337731.366 7       898.377          47.000
G27  21155026.480   111170411.871 7      1498.356          47.875    21155025.620   111170411.879 8      1498.356          48.375    21155033.280    86626323.512 8      1167.550          48.625    21155033.680    86626325.510 8      1167.550          49.687
G07  23811481.180   125130176.423 7      2645.806          44.375    23811480.600   125130176.426 5      2645.806          30.250    23811488.720    97504042.354 5      2061.667          30.250    23811489.460    97504067.363 7      2061.667          42.750
R12  20207478.400   107944717.331 8      -606.232          49.125    20207478.540   107944717.335 8      -606.232          48.750    20207490.980    83957050.482 8      -471.514          50.875    20207491.140    83957052.483 8      -471.514          52.000
R22  21936550.280   117098788.521 7       -37.192          45.000    21936550.920   117098788.527 7       -37.192          44.937    21936561.620    91076885.553 7       -28.927          46.750    21936561.640    91076883.553 7       -28.927          47.312
G21  20586613.080   108183384.055 8      2800.073          48.812    20586611.440   108183384.062 6      2800.073          40.437    20586616.400    84298753.176 6      2181.875          40.687
R23  20337110.340   108789830.279 7      1833.713          45.125    20337110.100   108789830.296 7      1833.713          44.437
G02  21844905.360   114795738.901 7      3688.765          47.375    21844903.980   114795738.908 6      3688.765          38.375    21844908.300    89451248.865 6      2874.362          38.312
> 2024 05 10 12 52 53.0000000  0 14
R07  22746782.340   121765307.613 6      3638.919          41.125    22746783.000   121765307.641 6      3638.919          40.250    22746799.940    94706426.291 7      2830.270          42.562    22746799.660    94706428.287 7      2830.270          43.000
R24  22514827.080   120396899.615 7      4195.280          44.625    22514825.820   120396899.619 7      4195.280          44.250    22514840.600    93642093.692 7      3262.996          44.625    22514840.020    93642091.688 7      3262.996          44.750
G16  21370049.740   112300362.291 7        76.446          47.312    21370048.720   112300362.296 6        76.446          39.125    21370055.500    87506801.513 6        59.569          38.437
G08  20878002.260   109714640.723 8      3157.109          48.187    20878000.860   109714640.728 8      3157.109          48.375    20878008.520    85491955.110 8      2460.085          48.250    20878009.560    85491959.113 8      2460.085          49.562
G26  23965107.160   125937486.547 6     -1034.577          40.062    23965106.020   125937486.560 6     -1034.577          38.062    23965126.600    98133184.677 6      -806.164          37.687    23965126.760    98133183.674 7      -806.164          45.062
R14  23463839.000   125075458.450 7      6254.847          46.250    23463838.380   125075458.450 7      6254.847          45.250    23463850.180    97280965.976 6      4864.881          40.750    23463850.100    97280967.978 6      4864.881          41.062
G10  22305379.340   117215560.376 7      1152.168          46.125    22305377.800   117215560.381 7      1152.168          44.562    22305387.420    91336831.311 7       897.794          44.500    22305387.540    91336833.324 7       897.794          47.000
G27  21154741.520   111168913.663 7      1498.133          47.437    21154740.540   111168913.671 8      1498.133          48.375    21154748.260    86625156.071 7      1167.376          47.812    21154748.520    86625158.073 8      1167.376          49.562
G07  23810977.800   125127530.907 7      2645.287          43.750    23810977.200   125127530.912 5      2645.287          30.500    23810985.200    97501980.911 5      2061.263          30.562    23810986.000    97502005.904 7      2061.263          42.562
R12  20207591.760   107945323.970 8      -607.027          49.312    20207592.280   107945323.971 8      -607.027          49.687    20207604.600    83957522.302 8      -472.132          49.375    20207604.460    83957524.299 8      -472.132          49.937
R22  21936557.080   117098825.768 7       -37.257          44.812    21936558.060   117098825.774 7       -37.257          44.750    21936568.380    91076914.529 7       -28.977          45.875    21936568.760    91076912.533 7       -28.977          46.500
G21  20586080.480   108180584.232 8      2799.589          49.375    20586078.580   108180584.237 6      2799.589          40.812    20586083.580    84296571.494 6      2181.498          40.937
R23  20336767.340   108787996.754 7      1833.451          44.687    20336767.160   108787996.775 7      1833.451          44.562
G02  21844203.460   114792050.336 7      3688.339          46.937    21844202.000   114792050.344 6      3688.339          38.062    21844206.380    89448374.661 6      2874.031          37.687
> 2024 05 10 12 52 54.0000000  0 14
R07  22746102.760   121761668.874 6      3638.383          40.687    22746103.040   121761668.899 6      3638.383          40.312    22746120.640    94703596.161 7      2829.854          42.250    22746119.900    94703598.159 7      2829.854          43.062
R24  22514042.360   120392704.271 7      4195.268          44.187    22514041.040   120392704.270 7      4195.268          44.250    22514056.240    93638830.647 7      3262.987          44.062    22514055.800    93638828.637 7      3262.987          43.937
G16  21370035.400   112300285.999 7        76.131          46.437    21370034.220   112300286.004 6        76.131          38.375    21370041.040    87506742.058 6        59.323          38.250
G08  20877401.280   109711483.616 8      3157.064          49.125    20877400.160   109711483.624 7      3157.064          46.375    20877407.720    85489495.027 7      2460.050          46.250    20877408.780    85489499.029 8      2460.050          48.500
G26  23965304.200   125938521.014 6     -1034.597          41.062    23965302.980   125938521.026 6     -1034.597          38.375    23965323.420    98133990.755 6      -806.180          37.875    23965323.380    98133989.746 7      -806.180          44.500
R14  23462665.980   125069203.671 7      6254.694          46.500    23462665.180   125069203.672 7      6254.694          45.312    23462676.800    97276101.145 6      4864.762          40.750    23462677.320    97276103.148 6      4864.762          41.062
G10  22305160.080   117214408.404 7      1151.628          46.000    22305158.680   117214408.411 7      1151.628          44.562    22305168.280    91335933.668 7       897.373          43.875    22305168.460    91335935.677 7       897.373          46.437
G27  21154456.320   111167415.608 7      1497.982          47.437    21154455.520   111167415.615 7      1497.982          47.812    21154463.100    86623988.747 7      1167.258          47.687    21154463.420    86623990.749 8      1167.258          48.250
G07  23810474.580   125124885.880 7      2644.803          44.187    23810473.760   125124885.882 5      2644.803          30.500    23810481.820    97499919.846 5      2060.886          30.562    23810482.780    97499944.839 7      2060.886          42.312
R12  20207705.580   107945931.172 8      -607.515          49.250    20207705.760   107945931.173 8      -607.515          48.562    20207718.360    83957994.562 7      -472.512          47.812    20207718.340    83957996.561 8      -472.512          49.187
R22  21936564.060   117098862.918 7       -37.030          44.625    21936565.200   117098862.919 7       -37.030          44.750    21936575.640    91076943.411 7       -28.801          45.687    21936575.860    91076941.419 7       -28.801          45.875
G21  20585547.700   108177784.825 8      2799.137          48.000    20585545.720   108177784.830 6      2799.137          40.125    20585550.780    84294390.140 6      2181.146          40.187
R23  20336424.780   108786163.428 7      1833.253          44.875    20336424.660   108786163.448 7      1833.253          44.562
G02  21843501.600   114788362.105 7      3688.051          47.312    21843500.140   114788362.115 6      3688.051          37.812    21843504.580    89445500.715 6      2873.806          37.500
> 2024 05 10 12 52 55.0000000  0 14
R07  22745423.120   121758030.598 6      3637.834          40.687    22745423.760   121758030.637 6      3637.834          40.312    22745441.040    94700766.407 7      2829.426          42.250    22745440.500    94700768.404 7      2829.426          42.375
R24  22513257.880   120388509.026 7      4195.075          44.375    22513256.360   120388509.043 7      4195.075          44.000    22513271.660    93635567.693 7      3262.836          44.687    22513271.480    93635565.693 7      3262.836          44.562
G16  21370020.980   112300209.992 7        75.745          47.812    21370019.880   112300210.000 6        75.745          38.687    21370026.660    87506682.828 6        59.022          38.312
G08  20876800.540   109708326.517 8      3156.968          49.750    20876799.320   109708326.522 7      3156.968          47.562    20876806.980    85487034.949 7      2459.975          47.687    20876808.020    85487038.950 8      2459.975          49.437
G26  23965501.220   125939555.475 6     -1034.687          41.187    23965499.900   125939555.485 6     -1034.687          38.875    23965520.260    98134796.817 6      -806.249          38.312    23965520.220    98134795.806 7      -806.249          44.312
R14  23461492.560   125062949.063 7      6254.490          46.062    23461491.780   125062949.067 7      6254.490          45.562    23461503.480    97271236.450 6      4864.603          40.187    23461503.760    97271238.451 6      4864.603          40.500
G10  22304941.040   117213256.826 7      1151.355          46.812    22304939.360   117213256.820 7      1151.355          44.437    22304949.020    91335036.327 7       897.160          44.312    22304949.500    91335038.340 7       897.160          46.875
G27  21154171.240   111165917.584 7      1497.892          47.750    21154170.460   111165917.589 8      1497.892          48.062    21154178.080    86622821.451 8      1167.188          48.000    21154178.420    86622823.452 8      1167.188          50.000
G07  23809971.240   125122241.183 7      2644.501          44.250    23809970.400   125122241.185 5      2644.501          30.500    23809978.540    97497859.040 5      2060.650          30.562    23809979.580    97497884.035 7      2060.650          42.312
R12  20207819.520   107946538.812 8      -607.930          48.250    20207819.520   107946538.810 8      -607.930          49.250    20207832.080    83958467.160 8      -472.834          48.750    20207832.140    83958469.155 8      -472.834          50.062
R22  21936570.860   117098899.863 7       -36.880          44.562    21936571.800   117098899.863 7       -36.880          45.375    21936582.500    91076972.134 7       -28.684          46.125    21936582.640    91076970.137 7       -28.684          46.437
G21  20585015.080   108174985.688 8      2798.883          48.250    20585013.140   108174985.696 6      2798.883          40.750    20585018.300    84292208.992 6      2180.948          40.187
R23  20336081.980   108784330.153 7      1833.173          45.250    20336081.860   108784330.173 7      1833.173          44.562
G02  21842799.840   114784674.082 7      3687.859          47.750    21842798.380   114784674.087 6      3687.859          38.437    21842802.720    89442626.929 6      2873.656          38.312
> 2024 05 10 12 52 56.0000000  0 14
R07  22744743.840   121754392.970 6      3637.587          41.187    22744743.860   121754392.982 6      3637.587          40.312    22744761.220    94697937.124 7      2829.234          42.562    22744761.000    94697939.117 7      2829.234          42.750
R24  22512473.320   120384313.997 7      4195.126          44.750    22512471.700   120384314.009 7      4195.126          44.000    22512487.040    93632304.891 7      3262.876          45.562    22512486.960    93632302.889 7      3262.876          45.625
G16  21370006.640   112300134.407 7        75.586          46.562    21370005.440   112300134.414 6        75.586          38.625    21370012.340    87506623.924 6        58.898          38.500
G08  20876199.920   109705169.560 8      3157.114          48.500    20876198.580   109705169.562 8      3157.114          48.937    20876206.180    85484574.978 8      2460.089          49.187    20876207.240    85484578.979 8      2460.089          50.125
G26  23965697.880   125940590.024 6     -1034.391          41.125    23965696.840   125940590.036 6     -1034.391          38.875    23965717.100    98135602.948 6      -806.019          38.437    23965717.240    98135601.943 7      -806.019          44.437
R14  23460318.860   125056694.781 7      6254.372          46.625    23460318.740   125056694.779 7      6254.372          45.875    23460330.040    97266372.008 6      4864.511          40.187    23460330.740    97266374.009 6      4864.511          40.937
G10  22304722.140   117212105.826 7      1150.955          46.125    22304720.400   117212105.825 7      1150.955          44.500    22304730.080    91334139.446 7       896.848          44.125    22304730.440    91334141.461 7       896.848          46.437
G27  21153886.360   111164419.738 7      1497.978          47.062    21153885.380   111164419.741 8      1497.978          48.437    21153893.040    86621654.295 8      1167.256          48.312    21153893.340    86621656.293 8      1167.256          49.625
G07  23809468.220   125119597.004 7      2644.080          44.812    23809467.360   125119597.007 4      2644.080          29.875    23809475.260    97495798.638 4      2060.322          29.937    23809476.560    97495823.634 7      2060.322          42.312
R12  20207933.300   107947147.047 8      -608.370          49.062    20207933.200   107947147.054 8      -608.370          49.000    20207945.760    83958940.230 8      -473.177          50.312    20207945.880    83958942.225 8      -473.177          50.437
R22  21936577.560   117098936.746 7       -36.534          44.750    21936578.740   117098936.744 7       -36.534          44.812    21936589.220    91077000.817 7       -28.416          46.250    21936589.260    91076998.818 7       -28.416          47.125
G21  20584482.360   108172186.998 8      2798.675          48.250    20584480.560   108172187.003 6      2798.675          40.500    20584485.720    84290028.195 6      2180.786          40.312
R23  20335739.640   108782497.078 7      1833.215          45.062    20335739.240   108782497.095 7      1833.215          44.187
G02  21842097.980   114780986.440 7      3687.647          47.812    21842096.660   114780986.444 6      3687.647          38.125    21842100.960    89439753.441 6      2873.491          38.187
> 2024 05 10 12 52 57.0000000  0 14
R07  22744064.220   121750756.078 6      3636.494          41.187    22744063.880   121750756.085 6      3636.494          40.687    22744081.800    94695108.432 7      2828.384          42.812    22744081.460    94695110.429 7      2828.384          42.437
R24  22511689.360   120380119.306 7      4194.381          44.625    22511687.160   120380119.302 7      4194.381          43.875    22511702.560    93629042.351 7      3262.297          44.875    22511702.680    93629040.345 7      3262.297          45.750
G16  21369992.400   112300059.360 7        74.660          47.187    21369991.180   112300059.367 6        74.660          39.312    21369998.040    87506565.437 6        58.177          38.937
G08  20875599.240   109702012.847 8      3156.538          49.437    20875597.920   109702012.846 8      3156.538          48.687    20875605.560    85482115.200 8      2459.640          48.937    20875606.220    85482119.203 8      2459.640          50.625
G26  23965894.560   125941624.819 6     -1034.929          41.125    23965893.940   125941624.824 6     -1034.929          38.750    23965913.980    98136409.268 6      -806.438          38.375    23965914.140    98136408.263 7      -806.438          44.812
R14  23459145.680   125050440.927 7      6253.520          46.312    23459145.320   125050440.933 7      6253.520          45.250    23459156.680    97261507.899 6      4863.849          40.500    23459157.700    97261509.905 6      4863.849          40.937
G10  22304503.280   117210955.491 7      1149.855          46.312    22304501.480   117210955.493 7      1149.855          45.062    22304511.180    91333243.079 7       895.991          45.375    22304511.560    91333245.094 7       895.991          47.062
G27  21153601.340   111162922.174 8      1497.366          48.250    21153600.440   111162922.171 8      1497.366          49.250    21153607.980    86620487.357 8      1166.779          48.750    21153608.320    86620489.358 8      1166.779          50.250
G07  23808964.880   125116953.406 7      2643.165          44.125    23808964.220   125116953.411 4      2643.165          29.875    23808972.320    97493738.694 4      2059.609          29.937    23808973.300    97493763.681 7      2059.609          42.625
R12  20208047.220   107947756.020 8      -609.420          49.312    20208047.220   107947756.016 8      -609.420          49.000    20208059.840    83959413.861 8      -473.993          50.687    20208059.860    83959415.856 8      -473.993          50.687
R22  21936584.720   117098973.688 7       -36.992          45.875    21936585.720   117098973.689 7       -36.992          44.812    21936596.240    91077029.545 7       -28.772          47.062    21936596.500    91077027.549 7       -28.772          47.312
G21  20583950.100   108169388.847 8      2797.787          49.562    20583948.000   108169388.852 6      2797.787          40.375    20583953.140    84287847.821 6      2180.094          40.625
R23  20335396.800   108780664.311 7      1832.535          45.250    20335396.740   108780664.326 7      1832.535          44.125
G02  21841396.500   114777299.226 7      3686.957          47.937    21841395.080   114777299.230 6      3686.957          38.125    21841399.280    89436880.291 6      2872.953          38.375
> 2024 05 10 12 52 58.0000000  0 14
R07  22743384.700   121747119.865 6      3635.744          41.187    22743385.000   121747119.907 6      3635.744          40.687    22743402.680    94692280.303 7      2827.801          43.000    22743402.500    94692282.291 7      2827.801          43.000
R24  22510904.720   120375924.881 7      4194.244          43.875    22510902.260   120375924.888 7      4194.244          43.750    22510918.240    93625780.027 7      3262.189          44.937    22510918.620    93625778.027 7      3262.189          45.687
G16  21369978.000   112299984.754 7        74.356          46.437    21369977.160   112299984.767 6        74.356          38.812    21369983.780    87506507.299 6        57.940          38.937
G08  20874998.480   109698856.328 8      3156.410          48.187    20874997.200   109698856.331 8      3156.410          49.187    20875004.900    85479655.577 8      2459.541          49.312    20875005.700    85479659.582 8      2459.541          50.187
G26  23966091.200   125942659.780 6     -1035.184          41.250    23966090.820   125942659.787 6     -1035.184          38.750    23966110.860    98137215.725 6      -806.637          38.750    23966111.380    98137214.724 7      -806.637          44.875
R14  23457972.640   125044187.420 7      6253.415          46.062    23457972.120   125044187.424 7      6253.415          45.375    23457983.820    97256644.061 6      4863.767          40.812    23457984.180    97256646.056 6      4863.767          41.250
G10  22304284.320   117209805.731 7      1149.391          45.937    22304282.740   117209805.733 7      1149.391          45.437    22304292.460    91332347.162 7       895.629          45.062    22304292.720    91332349.173 7       895.629          47.000
G27  21153316.300   111161424.820 7      1497.259          47.625    21153315.540   111161424.822 8      1497.259          49.625    21153323.100    86619320.588 8      1166.695          49.187    21153323.620    86619322.591 8      1166.695          49.812
G07  23808461.720   125114310.355 7      2642.712          43.250    23808461.220   125114310.357 4      2642.712          29.875    23808469.220    97491679.167 4      2059.256          29.937    23808469.940    97491704.162 7      2059.256          42.625
R12  20208161.560   107948365.648 8      -609.918          49.062    20208161.040   107948365.646 8      -609.918          49.250    20208173.720    83959888.010 8      -474.381          51.000    20208173.780    83959890.009 8      -474.381          51.000
R22  21936591.820   117099010.603 7       -36.870          45.312    21936592.340   117099010.602 7       -36.870          45.000    21936603.360    91077058.257 7       -28.677          46.687    21936603.440    91077056.261 7       -28.677          47.125
G21  20583417.740   108166591.163 8      2797.447          48.187    20583415.760   108166591.168 6      2797.447          40.750    20583420.860    84285667.806 6      2179.829          40.687
R23  20335054.480   108778831.790 7      1832.359          45.437    20335053.960   108778831.802 7      1832.359          44.625
G02  21840694.780   114773612.435 8      3686.581          48.000    21840693.520   114773612.439 6      3686.581          38.437    21840697.640    89434007.469 6      2872.661          38.062
> 2024 05 10 12 52 59.0000000  0 14
R07  22742705.480   121743484.322 6      3635.185          41.375    22742705.960   121743484.367 6      3635.185          40.687    22742723.160    94689452.662 7      2827.366          43.312    22742723.400    94689454.657 7      2827.366          43.250
R24  22510120.940   120371730.783 7      4193.986          43.625    22510117.980   120371730.792 7      4193.986          43.750    22510133.920    93622517.961 7      3261.989          45.562    22510134.220    93622515.961 7      3261.989          45.875
G16  21369964.040   112299910.626 7        73.908          46.500    21369962.900   112299910.636 6        73.908          38.625    21369969.620    87506449.533 6        57.591          38.687
G08  20874397.940   109695699.975 8      3156.337          48.750    20874396.580   109695699.980 8      3156.337          48.625    20874404.360    85477196.082 8      2459.483          48.312    20874405.220    85477200.084 8      2459.483          50.375
G26  23966288.740   125943694.877 6     -1035.250          41.625    23966287.760   125943694.887 6     -1035.250          38.250    23966307.660    98138022.290 6      -806.688          38.062    23966308.260    98138021.285 7      -806.688          44.875
R14  23456799.260   125037934.294 7      6252.946          45.937    23456799.080   125037934.300 7      6252.946          45.125    23456810.720    97251780.520 6      4863.402          40.812    23456811.200    97251782.522 6      4863.402          41.250
G10  22304065.720   117208656.583 7      1148.797          47.187    22304064.040   117208656.583 7      1148.797          44.937    22304073.720    91331451.716 7       895.167          45.125    22304073.980    91331453.727 7       895.167          46.500
G27  21153031.420   111159927.676 8      1497.090          48.437    21153030.660   111159927.681 8      1497.090          49.250    21153038.120    86618153.982 8      1166.564          49.000    21153038.700    86618155.981 8      1166.564          49.375
G07  23807959.020   125111667.821 7      2642.318          43.750    23807958.300   125111667.823 5      2642.318          30.125    23807966.380    97489620.046 4      2058.949          29.937    23807966.900    97489645.041 7      2058.949          42.437
R12  20208275.600   107948975.924 8      -610.560          48.562    20208275.200   107948975.928 8      -610.560          49.312    20208288.040    83960362.665 8      -474.880          50.812    20208288.060    83960364.662 8      -474.880          50.875
R22  21936599.060   117099047.503 7       -36.858          44.625    21936599.200   117099047.504 7       -36.858          45.062    21936610.020    91077086.950 7       -28.667          47.062    21936610.220    91077084.956 7       -28.667          47.250
G21  20582885.400   108163793.950 8      2797.040          49.000    20582883.400   108163793.952 6      2797.040          40.687    20582888.540    84283488.161 6      2179.512          40.687
R23  20334711.800   108776999.504 7      1832.173          45.062    20334711.260   108776999.516 7      1832.173          44.562
G02  21839993.320   114769926.030 7      3686.243          47.750    21839991.880   114769926.032 6      3686.243          37.812    21839996.280    89431134.950 6      2872.397          37.687
> 2024 05 10 12 53  0.0000000  0 14
R07  22742026.980   121739849.427 6      3634.484          41.375    22742026.340   121739849.461 6      3634.484          40.187    22742044.140    94686625.519 7      2826.821          42.812    22742044.440    94686627.514 7      2826.821          43.187
R24  22509336.480   120367536.950 7      4193.536          43.250    22509333.220   120367536.954 7      4193.536          43.750    22509349.400    93619256.084 7      3261.639          44.500    22509349.740    93619254.089 7      3261.639          45.000
G16  21369950.100   112299836.906 7        73.414          47.000    21369948.860   112299836.913 6        73.414          38.812    21369955.540    87506392.081 6        57.205          38.750
G08  20873797.100   109692543.780 8      3155.991          48.687    20873796.060   109692543.785 7      3155.991          47.750    20873803.720    85474736.706 7      2459.214          47.875    20873804.520    85474740.713 8      2459.214          50.125
G26  23966485.600   125944730.075 6     -1035.379          41.500    23966484.860   125944730.090 6     -1035.379          38.750    23966504.560    98138828.927 6      -806.788          38.625    23966505.020    98138827.922 7      -806.788          44.750
R14  23455626.360   125031681.446 7      6252.643          46.000    23455626.020   125031681.452 7      6252.643          45.312    23455637.920    97246917.187 6      4863.167          40.625    23455638.220    97246919.189 6      4863.167          40.937
G10  22303847.020   117207507.969 7      1148.228          46.937    22303845.520   117207507.971 7      1148.228          45.062    22303855.180    91330556.692 7       894.723          45.250    22303855.480    91330558.705 7       894.723          46.625
G27  21152746.620   111158430.716 8      1496.750          48.562    21152745.840   111158430.721 8      1496.750          48.375    21152753.320    86616987.518 8      1166.299          48.562    21152753.760    86616989.515 8      1166.299          49.937
G07  23807456.640   125109025.812 7      2641.596          43.250    23807455.540   125109025.814 5      2641.596          30.125    23807463.420    97487561.331 5      2058.386          30.062    23807464.180    97487586.325 7      2058.386          42.062
R12  20208390.040   107949586.820 8      -611.382          49.187    20208389.660   107949586.824 8      -611.382          49.187    20208402.220    83960837.798 8      -475.519          50.437    20208402.400    83960839.795 8      -475.519          50.375
R22  21936605.680   117099084.328 7       -36.950          44.687    21936606.220   117099084.326 7       -36.950          44.875    21936616.740    91077115.588 7       -28.739          46.437    21936617.400    91077113.589 7       -28.739          46.937
G21  20582353.220   108160997.178 8      2796.403          48.500    20582351.220   108160997.183 6      2796.403          40.687    20582356.280    84281308.858 6      2179.015          40.562
R23  20334369.600   108775167.427 7      1831.878          45.125    20334368.500   108775167.444 7      1831.878          44.437
G02  21839291.960   114766239.985 8      3685.703          48.062    21839290.460   114766239.990 6      3685.703          37.937    21839294.700    89428262.712 6      2871.976          37.875
> 2024 05 10 12 53  1.0000000  0 14
R07  22741347.840   121736215.096 6      3634.122          41.437    22741347.360   121736215.119 6      3634.122          40.187    22741365.560    94683798.811 7      2826.540          43.187    22741365.500    94683800.808 7      2826.540          43.187
R24  22508551.980   120363343.285 7      4193.640          43.250    22508549.200   120363343.294 7      4193.640          43.875    22508565.500    93615994.351 7      3261.720          45.312    22508565.820    93615992.353 7      3261.720          45.937
G16  21369936.180   112299763.598 8        73.113          48.062    21369935.040   112299763.606 6        73.113          39.000    21369941.640    87506334.949 6        56.971          38.687
G08  20873196.540   109689387.687 8      3156.198          48.625    20873195.460   109689387.687 8      3156.198          49.375    20873203.080    85472277.409 8      2459.375          49.125    20873203.820    85472281.414 8      2459.375          50.437
G26  23966682.640   125945765.385 7     -1035.209          42.250    23966681.900   125945765.395 6     -1035.209          38.750    23966701.660    98139635.650 6      -806.657          38.687    23966702.560    98139634.641 7      -806.657          44.687
R14  23454453.420   125025428.906 7      6252.470          46.562    23454453.180   125025428.907 7      6252.470          45.562    23454464.580    97242054.097 6      4863.032          40.625    23454465.160    97242056.092 6      4863.032          41.187
G10  22303628.380   117206359.894 7      1147.866          47.250    22303627.020   117206359.896 7      1147.866          45.437    22303636.720    91329662.088 7       894.441          45.187    22303636.920    91329664.101 7       894.441          47.187
G27  21152461.700   111156933.893 8      1496.875          48.687    21152460.980   111156933.900 8      1496.875          48.937    21152468.500    86615821.160 8      1166.396          49.125    21152468.860    86615823.155 8      1166.396          50.062
G07  23806954.180   125106384.242 7      2641.431          43.187    23806952.820   125106384.242 5      2641.431          30.125    23806960.820    97485502.959 5      2058.258          30.062    23806961.640    97485527.950 7      2058.258          42.062
R12  20208504.720   107950198.322 8      -611.754          50.375    20208504.480   107950198.323 8      -611.754          49.875    20208516.600    83961313.400 8      -475.808          50.812    20208516.600    83961315.399 8      -475.808          50.687
R22  21936612.380   117099121.056 7       -36.559          45.000    21936612.980   117099121.054 7       -36.559          45.562    21936624.100    91077144.144 7       -28.435          46.687    21936624.120    91077142.144 7       -28.435          47.062
G21  20581821.160   108158200.792 8      2796.283          48.437    20581819.040   108158200.797 6      2796.283          40.687    20581824.120    84279129.854 6      2178.922          40.375
R23  20334027.220   108773335.553 7      1831.809          44.187    20334026.560   108773335.567 7      1831.809          44.875
G02  21838590.560   114762554.255 8      3685.647          48.250    21838589.100   114762554.263 6      3685.647          38.250    21838593.500    89425390.715 6      2871.933          38.500
