     3.05           OBSERVATION DATA    MIXED               RINEX VERSION / TYPE
TPS2RIN 1.0.28.3459 TPS-USER            20250407 110045 UTC PGM / RUN BY / DATE
Win64 build Jun 01, 2022 (c) Topcon Positioning Systems     COMMENT
SRC: 20250404_grav_20250404_160111.tps                      COMMENT
Observer            Agency                                  OBSERVER / AGENCY
O0M3X53SBGM         TPS HIPER_SR        4.8 HSR Jul,08,2022 REC # / TYPE / VERS
FW: 4.8 HSR Jul,08,2022 p3                                  COMMENT
SN: HiPer SR 1212-12575                                     COMMENT
000                 TPSHIPER_SR     NONE                    ANT # / TYPE
        1.8000        0.0000        0.0000                  ANTENNA: DELTA H/E/N
DELTA H stands for **SLANT** height here!                   COMMENT
Oro03                                                       MARKER NAME
  5383905.2867 -1594892.2477  3016156.7972                  APPROX POSITION XYZ
  2025     4     4    14     1   36.0000000     GPS         TIME OF FIRST OBS
  2025     4     4    14    16   58.0000000     GPS         TIME OF LAST OBS
     1.000                                                  INTERVAL
   923 EPOCHS                                               COMMENT
G   12 C1C L1C D1C C1W L1W D1W C2W L2W D2W C2X L2X D2X      SYS / # / OBS TYPES
R   12 C1C L1C D1C C1P L1P D1P C2P L2P D2P C2C L2C D2C      SYS / # / OBS TYPES
    15                                                      # OF SATELLITES
   G01   923   923   923   923   923   923   923   923   923PRN / # OF OBS
         923   923   923                                    PRN / # OF OBS
   G02   923   923   923   923   923   923   923   923   923PRN / # OF OBS
           0     0     0                                    PRN / # OF OBS
   G07   923   923   923   923   923   923   923   923   923PRN / # OF OBS
         923   923   923                                    PRN / # OF OBS
   G08   923   923   923   923   923   923   923   923   923PRN / # OF OBS
         923   923   923                                    PRN / # OF OBS
   G10   923   923   923   923   923   923   923   923   923PRN / # OF OBS
         923   923   923                                    PRN / # OF OBS
   G16   923   923   923   923   923   923   923   923   923PRN / # OF OBS
           0     0     0                                    PRN / # OF OBS
   G23   806   806   806   802   802   802   802   802   802PRN / # OF OBS
         798   798   798                                    PRN / # OF OBS
   G26   923   923   923   923   923   923   923   923   923PRN / # OF OBS
         923   923   923                                    PRN / # OF OBS
   G27   923   923   923   923   923   923   923   923   923PRN / # OF OBS
         923   923   923                                    PRN / # OF OBS
   R14   923   923   923   923   923   923   923   923   923PRN / # OF OBS
         923   923   923                                    PRN / # OF OBS
   R15   923   923   923   923   923   923   923   923   923PRN / # OF OBS
         923   923   923                                    PRN / # OF OBS
   R16    51    51    51    51    51    51    51    51    51PRN / # OF OBS
          51    51    51                                    PRN / # OF OBS
   R17   923   923   923   923   923   923   923   923   923PRN / # OF OBS
         923   923   923                                    PRN / # OF OBS
   R18   923   923   923   923   923   923   923   923   923PRN / # OF OBS
         923   923   923                                    PRN / # OF OBS
   R24   923   923   923   923   923   923   923   923   923PRN / # OF OBS
         923   923   923                                    PRN / # OF OBS
G L1C                                                       SYS / PHASE SHIFT
G L1W -0.25000                                              SYS / PHASE SHIFT
G L2W  0.00000                                              SYS / PHASE SHIFT
G L2X  0.25000                                              SYS / PHASE SHIFT
R L1C                                                       SYS / PHASE SHIFT
R L1P -0.25000                                              SYS / PHASE SHIFT
R L2P -0.25000                                              SYS / PHASE SHIFT
R L2C                                                       SYS / PHASE SHIFT
  6 R14 -7 R15  0 R16 -1 R17  4 R18 -3 R24  2               GLONASS SLOT / FRQ #
                                                            GLONASS COD/PHS/BIS
               *** Undefined LeapSeconds ***                COMMENT
                                                            END OF HEADER
> 2025 04 04 14 01 36.0000000  0 14
G10  22341797.080   117406935.512 7      2317.776    22341796.240   117406935.522 7      2317.776    22341806.120    91485967.129 7      1806.059    22341806.580    91485964.128 8      1806.059
R24  21256356.880   113667282.446 7       463.463    21256355.520   113667282.445 7       463.463    21256368.680    88407939.563 8       360.471    21256368.600    88407933.564 8       360.471
G02  21194024.940   111375354.700 7      3595.179    21194023.780   111375354.707 6      3595.179    21194028.220    86786007.712 6      2801.438
G08  21244048.700   111638232.160 7      3826.095    21244047.720   111638232.155 6      3826.095    21244056.540    86990868.683 6      2981.373    21244057.260    86990862.690 8      2981.373
G27  21049247.680   110614546.692 7      2109.902    21049246.120   110614546.700 8      2109.902    21049254.700    86193194.078 8      1644.080    21049255.240    86193179.079 5      1644.080
G23  24409034.500   128270343.917 5       252.322    24409033.540   128270343.919 2       252.322    24409046.020    99950939.851 2       196.615    24409047.440    99950962.903 6       196.615
R15  20518026.940   109642116.237 7      5115.932    20518025.940   109642116.247 7      5115.932    20518036.660    85277241.224 8      3979.058    20518038.180    85277265.231 8      3979.058
R18  22970654.180   122618949.098 6      4914.177    22970652.320   122618949.097 6      4914.177    22970672.660    95370344.046 7      3822.138    22970673.920    95370400.051 7      3822.138
G16  21162989.560   111212245.882 7       759.357    21162987.880   111212245.892 6       759.357    21162994.800    86658910.370 6       591.707
R14  19591375.060   104433037.799 8       940.621    19591374.900   104433037.797 8       940.621    19591384.920    81225750.535 8       731.594    19591385.360    81225738.535 8       731.594
R17  20441013.260   109383992.258 8      2943.422    20441012.320   109383992.265 7      2943.422    20441024.440    85076484.676 8      2289.328    20441024.300    85076487.679 8      2289.328
G26  22991054.400   120818773.572 7      -374.688    22991052.580   120818773.574 7      -374.688    22991067.640    94144539.870 6      -291.964    22991067.660    94144577.873 7      -291.964
G01  22999389.820   120862645.073 7      5421.882    22999388.500   120862645.078 5      5421.882    22999401.520    94178745.364 5      4224.843    22999401.380    94178709.389 7      4224.843
G07  24005201.500   126148187.501 6      3546.850    24005201.000   126148187.506 5      3546.850    24005210.380    98297325.840 5      2763.779    24005208.500    98297318.871 7      2763.779
> 2025 04 04 14 01 37.0000000  0 14
G10  22341356.000   117404617.933 7      2317.355    22341355.200   117404617.941 7      2317.355    22341365.280    91484161.226 7      1805.731    22341365.520    91484158.225 8      1805.731
R24  21256270.120   113666818.940 7       463.497    21256268.760   113666818.941 7       463.497    21256281.980    88407579.062 8       360.498    21256281.980    88407573.061 8       360.498
G02  21193340.980   111371759.711 7      3594.807    21193339.800   111371759.716 6      3594.807    21193344.060    86783206.424 6      2801.149
G08  21243320.460   111634406.066 7      3826.053    21243319.780   111634406.058 6      3826.053    21243328.420    86987887.313 6      2981.340    21243329.240    86987881.320 8      2981.340
G27  21048846.060   110612436.790 8      2109.833    21048844.780   110612436.793 8      2109.833    21048853.300    86191550.000 8      1644.026    21048853.940    86191535.001 5      1644.026
G23  24408986.140   128270091.651 5       252.308    24408985.560   128270091.648 2       252.308    24408998.240    99950743.283 2       196.603    24408999.020    99950766.320 6       196.603
R15  20517069.640   109637000.521 7      5115.483    20517068.720   109637000.533 7      5115.483    20517079.460    85273262.338 8      3978.709    20517081.000    85273286.342 8      3978.709
R18  22969733.520   122614035.060 6      4914.050    22969731.840   122614035.056 6      4914.050    22969752.160    95366522.035 7      3822.039    22969753.420    95366578.048 7      3822.039
G16  21162845.180   111211486.747 7       758.980    21162843.460   111211486.755 6       758.980    21162850.460    86658318.832 6       591.413
R14  19591198.760   104432097.560 8       939.901    19591198.460   104432097.555 8       939.901    19591208.480    81225019.237 8       731.034    19591209.080    81225007.238 8       731.034
R17  20440463.280   109381048.905 7      2943.270    20440462.400   109381048.911 7      2943.270    20440474.600    85074195.407 8      2289.210    20440474.400    85074198.412 8      2289.210
G26  22991125.220   120819148.290 7      -374.806    22991124.080   120819148.292 6      -374.806    22991139.080    94144831.844 6      -292.057    22991139.480    94144869.849 7      -292.057
G01  22998357.860   120857223.311 7      5421.651    22998356.800   120857223.318 5      5421.651    22998369.800    94174520.631 5      4224.663    22998370.100    94174484.652 7      4224.663
G07  24004526.400   126144640.902 6      3546.468    24004525.960   126144640.904 5      3546.468    24004535.460    98294562.254 5      2763.481    24004533.920    98294555.266 7      2763.481
> 2025 04 04 14 01 38.0000000  0 14
G10  22340915.020   117402301.038 8      2316.636    22340914.280   117402301.048 7      2316.636    22340924.440    91482355.857 7      1805.171    22340924.680    91482352.856 8      1805.171
R24  21256183.540   113666355.594 8       463.401    21256182.200   113666355.601 7       463.401    21256195.120    88407218.682 8       360.423    21256195.280    88407212.681 8       360.423
G02  21192657.000   111368165.209 7      3594.347    21192655.700   111368165.217 6      3594.347    21192660.020    86780405.522 6      2800.790
G08  21242592.580   111630580.140 7      3826.035    21242591.580   111630580.135 6      3826.035    21242600.380    86984906.078 6      2981.326    21242601.180    86984900.087 8      2981.326
G27  21048444.600   110610327.130 8      2109.697    21048443.340   110610327.132 8      2109.697    21048451.840    86189906.107 8      1643.920    21048452.280    86189891.110 6      1643.920
G23  24408938.240   128269839.980 5       251.812    24408937.540   128269839.977 2       251.812    24408950.580    99950547.173 2       196.217    24408951.320    99950570.198 6       196.217
R15  20516112.580   109631885.612 7      5114.727    20516111.780   109631885.613 7      5114.727    20516122.240    85269284.071 8      3978.121    20516123.680    85269308.074 8      3978.121
R18  22968812.840   122609121.427 6      4913.456    22968811.740   122609121.431 6      4913.456    22968831.180    95362700.339 7      3821.577    22968832.660    95362756.344 7      3821.577
G16  21162700.520   111210728.117 7       758.575    21162699.140   111210728.125 6       758.575    21162706.000    86657727.692 6       591.097
R14  19591022.380   104431158.224 8       938.985    19591022.060   104431158.219 8       938.985    19591032.480    81224288.641 8       730.321    19591032.720    81224276.641 8       730.321
R17  20439913.100   109378105.936 8      2942.903    20439912.260   109378105.954 7      2942.903    20439924.320    85071906.446 8      2288.925    20439924.160    85071909.451 8      2288.925
G26  22991196.980   120819523.321 7      -374.945    22991195.500   120819523.323 6      -374.945    22991210.540    94145124.064 6      -292.165    22991210.560    94145162.072 7      -292.165
G01  22997326.560   120851801.922 7      5421.372    22997325.300   120851801.927 5      5421.372    22997338.120    94170296.178 5      4224.446    22997338.220    94170260.193 7      4224.446
G07  24003851.820   126141094.867 6      3545.840    24003851.120   126141094.866 5      3545.840    24003860.820    98291799.110 5      2762.993    24003859.080    98291792.130 7      2762.993
> 2025 04 04 14 01 39.0000000  0 14
G10  22340474.280   117399984.587 8      2315.922    22340473.580   117399984.594 7      2315.922    22340483.500    91480550.830 7      1804.615    22340483.860    91480547.831 8      1804.615
R24  21256096.640   113665892.136 8       463.310    21256095.620   113665892.138 7       463.310    21256108.580    88406858.208 8       360.353    21256108.540    88406852.201 8       360.353
G02  21191973.100   111364571.002 7      3593.869    21191971.760   111364571.009 6      3593.869    21191976.100    86777604.842 6      2800.417
G08  21241864.460   111626754.227 7      3825.742    21241863.580   111626754.224 6      3825.742    21241872.340    86981924.853 6      2981.098    21241872.900    86981918.859 8      2981.098
G27  21048043.160   110608217.509 8      2109.379    21048041.780   110608217.511 8      2109.379    21048050.360    86188262.247 8      1643.672    21048050.880    86188247.250 5      1643.672
G23  24408890.660   128269588.650 5       250.693    24408889.720   128269588.649 2       250.693    24408902.700    99950351.329 2       195.345    24408904.060    99950374.334 6       195.345
R15  20515155.380   109626771.232 7      5113.931    20515154.880   109626771.233 7      5113.931    20515165.280    85265306.218 8      3977.502    20515166.640    85265330.225 8      3977.502
R18  22967892.080   122604207.981 6      4913.257    22967891.020   122604207.961 6      4913.257    22967910.920    95358878.772 7      3821.422    22967912.320    95358934.783 7      3821.422
G16  21162556.220   111209969.829 7       757.927    21162554.740   111209969.834 6       757.927    21162561.800    86657136.812 6       590.592
R14  19590846.400   104430219.573 8       938.108    19590846.040   104430219.566 8       938.108    19590856.200    81223558.579 8       729.640    19590856.700    81223546.580 8       729.640
R17  20439362.940   109375163.182 8      2942.441    20439362.280   109375163.189 7      2942.441    20439374.480    85069617.637 8      2288.566    20439374.280    85069620.638 8      2288.566
G26  22991268.140   120819898.496 7      -375.422    22991266.880   120819898.496 6      -375.422    22991281.920    94145416.400 6      -292.537    22991282.060    94145454.398 7      -292.537
G01  22996295.260   120846380.712 7      5420.947    22996293.820   120846380.722 5      5420.947    22996306.460    94166071.867 5      4224.114    22996306.600    94166035.892 7      4224.114
G07  24003177.300   126137549.184 6      3545.333    24003176.500   126137549.184 5      3545.333    24003186.080    98289036.246 5      2762.597    24003184.460    98289029.269 7      2762.597
> 2025 04 04 14 01 40.0000000  0 14
G10  22340033.740   117397668.404 7      2315.818    22340032.800   117397668.414 7      2315.818    22340042.840    91478746.019 7      1804.533    22340043.020    91478743.019 8      1804.533
R24  21256010.240   113665428.357 7       463.731    21256008.780   113665428.361 7       463.731    21256021.960    88406497.493 8       360.680    21256022.140    88406491.486 8       360.680
G02  21191289.200   111360976.915 7      3593.847    21191287.680   111360976.920 6      3593.847    21191292.140    86774804.253 6      2800.400
G08  21241136.420   111622928.125 7      3826.026    21241135.600   111622928.122 6      3826.026    21241144.140    86978943.475 6      2981.319    21241144.820    86978937.485 8      2981.319
G27  21047641.560   110606107.744 8      2109.650    21047640.340   110606107.746 8      2109.650    21047648.920    86186618.278 8      1643.883    21047649.240    86186603.279 5      1643.883
G23  24408842.300   128269337.223 5       251.188    24408841.840   128269337.220 2       251.188    24408855.120    99950155.410 2       195.731    24408855.780    99950178.442 6       195.731
R15  20514198.460   109621657.226 7      5113.581    20514198.040   109621657.227 7      5113.581    20514208.120    85261328.666 8      3977.230    20514209.780    85261352.671 8      3977.230
R18  22966972.060   122599294.530 6      4913.221    22966970.240   122599294.515 6      4913.221    22966990.380    95355057.226 7      3821.394    22966991.580    95355113.237 7      3821.394
G16  21162411.980   111209211.669 7       757.861    21162410.720   111209211.679 6       757.861    21162417.460    86656546.042 6       590.541
R14  19590670.320   104429281.397 8       937.732    19590669.980   104429281.395 8       937.732    19590680.100    81222828.886 8       729.347    19590680.700    81222816.889 8       729.347
R17  20438812.800   109372220.478 7      2942.506    20438812.420   109372220.482 7      2942.506    20438824.620    85067328.867 8      2288.616    20438824.460    85067331.873 8      2288.616
G26  22991339.260   120820273.590 7      -375.314    22991338.220   120820273.593 6      -375.314    22991353.260    94145708.673 6      -292.453    22991353.260    94145746.675 7      -292.453
G01  22995263.500   120840959.509 6      5420.980    22995262.060   120840959.519 5      5420.980    22995274.780    94161847.564 5      4224.141    22995275.220    94161811.591 7      4224.141
G07  24002502.780   126134003.738 6      3545.091    24002501.720   126134003.740 5      3545.091    24002511.280    98286273.563 5      2762.408    24002509.900    98286266.586 7      2762.408
> 2025 04 04 14 01 41.0000000  0 14
G10  22339593.020   117395352.912 7      2315.232    22339592.160   117395352.924 7      2315.232    22339602.220    91476941.741 7      1804.077    22339602.360    91476938.744 8      1804.077
R24  21255923.240   113664964.683 7       463.699    21255922.020   113664964.695 7       463.699    21255935.340    88406136.860 8       360.655    21255935.200    88406130.854 8       360.655
G02  21190605.240   111357383.348 7      3593.419    21190603.800   111357383.355 6      3593.419    21190608.280    86772004.077 6      2800.067
G08  21240408.400   111619102.221 7      3825.891    21240407.560   111619102.218 6      3825.891    21240416.140    86975962.259 6      2981.214    21240416.740    86975956.266 8      2981.214
G27  21047240.080   110603998.228 8      2109.498    21047238.880   110603998.230 8      2109.498    21047247.420    86184974.499 8      1643.764    21047247.820    86184959.500 5      1643.764
G23  24408794.700   128269086.439 5       250.708    24408793.960   128269086.436 2       250.708    24408807.620    99949960.001 2       195.357    24408807.920    99949982.997 6       195.357
R15  20513241.840   109616544.008 7      5112.856    20513241.220   109616544.015 7      5112.856    20513251.260    85257351.727 8      3976.666    20513252.700    85257375.732 8      3976.666
R18  22966051.420   122594381.447 6      4912.898    22966049.980   122594381.445 6      4912.898    22966069.860    95351235.966 7      3821.143    22966071.100    95351291.975 7      3821.143
G16  21162267.960   111208454.058 7       757.372    21162266.400   111208454.069 6       757.372    21162273.300    86655955.692 6       590.160
R14  19590494.360   104428344.078 8       936.972    19590494.040   104428344.074 8       936.972    19590504.400    81222099.859 8       728.756    19590504.560    81222087.860 8       728.756
R17  20438263.360   109369278.224 7      2942.167    20438262.240   109369278.239 7      2942.167    20438274.740    85065040.456 8      2288.352    20438274.440    85065043.459 8      2288.352
G26  22991410.920   120820649.018 7      -375.503    22991409.600   120820649.018 7      -375.503    22991424.740    94146001.206 6      -292.599    22991424.600    94146039.212 7      -292.599
G01  22994231.860   120835538.691 7      5420.753    22994230.380   120835538.698 5      5420.753    22994243.000    94157623.561 5      4223.964    22994243.600    94157587.582 7      4223.964
G07  24001827.980   126130458.872 6      3544.637    24001827.280   126130458.872 5      3544.637    24001836.760    98283511.330 5      2762.054    24001835.760    98283504.344 7      2762.054
> 2025 04 04 14 01 42.0000000  0 14
G10  22339152.560   117393037.919 8      2314.717    22339151.700   117393037.931 7      2314.717    22339161.720    91475137.861 7      1803.676    22339161.800    91475134.859 8      1803.676
R24  21255836.480   113664501.016 7       463.719    21255835.480   113664501.020 7       463.719    21255848.460    88405776.224 8       360.670    21255848.380    88405770.221 8       360.670
G02  21189921.420   111353790.131 7      3593.049    21189919.980   111353790.138 6      3593.049    21189924.580    86769204.172 6      2799.779
G08  21239680.400   111615276.368 7      3825.856    21239679.440   111615276.365 6      3825.856    21239688.100    86972981.081 6      2981.187    21239688.880    86972975.089 8      2981.187
G27  21046838.800   110601888.810 8      2109.384    21046837.560   110601888.809 8      2109.384    21046846.100    86183330.793 8      1643.676    21046846.560    86183315.795 5      1643.676
G23  24408747.100   128268835.934 5       250.181    24408746.560   128268835.939 2       250.181    24408759.960    99949764.804 2       194.946    24408760.060    99949787.831 6       194.946
R15  20512285.180   109611431.410 7      5112.275    20512284.620   109611431.420 7      5112.275    20512294.500    85253375.266 8      3976.214    20512295.880    85253399.275 8      3976.214
R18  22965131.020   122589468.575 6      4912.789    22965129.820   122589468.565 6      4912.789    22965149.180    95347414.851 7      3821.058    22965150.800    95347470.850 7      3821.058
G16  21162123.520   111207696.787 7       757.187    21162122.380   111207696.794 6       757.187    21162129.160    86655365.606 6       590.016
R14  19590318.600   104427407.472 8       936.245    19590318.360   104427407.467 8       936.245    19590328.640    81221371.387 8       728.190    19590329.000    81221359.388 8       728.190
R17  20437713.080   109366336.213 7      2941.961    20437712.700   109366336.228 7      2941.961    20437724.860    85062752.234 8      2288.192    20437724.520    85062755.239 8      2288.192
G26  22991482.500   120821024.622 7      -375.619    22991481.120   120821024.624 7      -375.619    22991496.300    94146293.878 6      -292.690    22991496.320    94146331.880 7      -292.690
G01  22993200.260   120830118.108 7      5420.503    22993198.880   120830118.116 5      5420.503    22993211.420    94153399.741 5      4223.769    22993212.020    94153363.766 7      4223.769
G07  24001153.300   126126914.424 6      3544.258    24001152.760   126126914.424 5      3544.258    24001162.240    98280749.427 5      2761.759    24001161.300    98280742.443 7      2761.759
> 2025 04 04 14 01 43.0000000  0 14
G10  22338712.100   117390723.430 7      2314.242    22338711.240   117390723.443 7      2314.242    22338721.280    91473334.361 7      1803.305    22338721.260    91473331.360 8      1803.305
R24  21255749.980   113664037.368 7       463.615    21255748.520   113664037.372 7       463.615    21255761.960    88405415.613 8       360.589    21255761.840    88405409.606 8       360.589
G02  21189237.700   111350197.239 7      3592.747    21189236.140   111350197.247 6      3592.747    21189240.880    86766404.514 6      2799.543
G08  21238952.300   111611450.539 7      3825.761    21238951.340   111611450.534 6      3825.761    21238960.120    86969999.914 6      2981.112    21238960.800    86969993.921 8      2981.112
G27  21046437.400   110599779.462 8      2109.297    21046436.120   110599779.467 8      2109.297    21046444.740    86181687.149 8      1643.608    21046445.260    86181672.152 5      1643.608
G23  24408698.760   128268585.710 5       250.363    24408698.980   128268585.713 2       250.363    24408712.480    99949569.824 2       195.088    24408712.780    99949592.850 6       195.088
R15  20511328.420   109606319.424 7      5111.628    20511328.160   109606319.431 7      5111.628    20511337.780    85249399.275 8      3975.710    20511339.200    85249423.279 8      3975.710
R18  22964210.640   122584555.948 6      4912.510    22964209.740   122584555.933 6      4912.510    22964228.920    95343593.926 7      3820.841    22964230.400    95343649.935 7      3820.841
G16  21161979.600   111206939.896 7       756.759    21161978.360   111206939.906 6       756.759    21161985.140    86654775.825 6       589.682
R14  19590143.240   104426471.588 8       935.510    19590142.800   104426471.586 8       935.510    19590153.180    81220643.473 8       727.619    19590153.580    81220631.476 8       727.619
R17  20437163.240   109363394.401 8      2941.762    20437163.380   109363394.413 7      2941.762    20437175.240    85060464.162 8      2288.037    20437174.900    85060467.165 8      2288.037
G26  22991554.040   120821400.362 7      -375.680    22991552.620   120821400.369 6      -375.680    22991567.660    94146586.671 6      -292.738    22991567.800    94146624.671 7      -292.738
G01  22992168.880   120824697.736 7      5420.216    22992167.440   120824697.741 5      5420.216    22992179.900    94149176.087 5      4223.545    22992180.580    94149140.120 7      4223.545
G07  24000479.260   126123370.407 7      3543.817    24000478.240   126123370.409 5      3543.817    24000487.900    98277987.853 5      2761.415    24000486.780    98277980.873 7      2761.415
> 2025 04 04 14 01 44.0000000  0 14
G10  22338271.700   117388409.473 7      2313.651    22338271.180   117388409.483 7      2313.651    22338280.960    91471531.279 7      1802.845    22338281.100    91471528.282 8      1802.845
R24  21255662.940   113663573.709 7       463.697    21255662.080   113663573.719 7       463.697    21255675.120    88405054.990 8       360.653    21255674.940    88405048.988 8       360.653
G02  21188553.880   111346604.718 8      3592.319    21188552.680   111346604.726 6      3592.319    21188557.400    86763605.155 6      2799.210
G08  21238224.080   111607624.753 7      3825.791    21238223.280   111607624.747 6      3825.791    21238232.120    86967018.788 6      2981.136    21238232.980    86967012.801 8      2981.136
G27  21046036.140   110597670.217 7      2109.272    21046034.600   110597670.216 8      2109.272    21046043.320    86180043.582 8      1643.588    21046043.560    86180028.584 6      1643.588
G23  24408651.220   128268335.920 5       249.553    24408651.160   128268335.928 2       249.553    24408665.100    99949375.185 2       194.457    24408665.640    99949398.206 6       194.457
R15  20510371.420   109601208.026 7      5111.102    20510371.820   109601208.043 7      5111.102    20510381.320    85245423.755 8      3975.301    20510382.780    85245447.762 8      3975.301
R18  22963290.200   122579643.589 6      4912.171    22963289.280   122579643.568 6      4912.171    22963308.540    95339773.233 7      3820.578    22963310.280    95339829.240 7      3820.578
G16  21161835.540   111206183.373 7       756.508    21161834.280   111206183.381 6       756.508    21161841.280    86654186.329 6       589.487
R14  19589967.820   104425536.434 8       934.828    19589967.460   104425536.429 8       934.828    19589977.760    81219916.131 8       727.089    19589978.140    81219904.132 8       727.089
R17  20436613.640   109360452.848 8      2941.470    20436613.780   109360452.865 7      2941.470    20436625.500    85058176.295 8      2287.810    20436625.300    85058179.298 8      2287.810
G26  22991625.300   120821776.336 7      -376.102    22991624.220   120821776.343 6      -376.102    22991638.960    94146879.619 6      -293.067    22991639.340    94146917.621 7      -293.067
G01  22991137.020   120819277.609 6      5419.936    22991136.180   120819277.614 5      5419.936    22991148.580    94144952.630 5      4223.327    22991149.260    94144916.655 7      4223.327
G07  23999804.680   126119826.816 6      3543.368    23999803.860   126119826.821 5      3543.368    23999813.680    98275226.619 5      2761.066    23999812.140    98275219.642 7      2761.066
> 2025 04 04 14 01 45.0000000  0 14
G10  22337831.680   117386096.035 7      2313.379    22337830.880   117386096.043 7      2313.379    22337840.900    91469728.605 7      1802.633    22337840.600    91469725.610 8      1802.633
R24  21255576.180   113663110.037 7       463.835    21255575.500   113663110.049 7       463.835    21255588.340    88404694.358 8       360.760    21255588.100    88404688.359 8       360.760
G02  21187870.420   111343012.581 7      3592.065    21187869.180   111343012.583 6      3592.065    21187873.880    86760806.085 6      2799.012
G08  21237496.220   111603799.058 7      3825.746    21237495.340   111603799.055 6      3825.746    21237503.960    86964037.733 6      2981.101    21237504.540    86964031.742 8      2981.101
G27  21045634.660   110595561.085 8      2109.252    21045633.380   110595561.092 8      2109.252    21045641.920    86178400.110 8      1643.573    21045642.300    86178385.111 6      1643.573
G23  24408604.360   128268086.472 5       249.311    24408603.860   128268086.482 2       249.311    24408617.480    99949180.811 2       194.268    24408618.560    99949203.830 6       194.268
R15  20509415.020   109596097.304 7      5110.596    20509415.400   109596097.321 7      5110.596    20509425.060    85241448.755 8      3974.908    20509426.300    85241472.762 8      3974.908
R18  22962370.320   122574731.491 6      4912.083    22962369.640   122574731.470 6      4912.083    22962388.260    95335952.725 7      3820.509    22962389.940    95336008.727 7      3820.509
G16  21161691.740   111205427.287 7       756.045    21161690.380   111205427.294 6       756.045    21161697.260    86653597.170 6       589.126
R14  19589792.600   104424602.037 8       934.218    19589792.140   104424602.032 8       934.218    19589802.500    81219189.376 8       726.614    19589802.980    81219177.377 8       726.614
R17  20436064.200   109357511.613 8      2941.314    20436063.820   109357511.628 7      2941.314    20436075.640    85055888.662 8      2287.689    20436075.660    85055891.667 8      2287.689
G26  22991697.040   120822152.460 7      -376.031    22991695.940   120822152.465 6      -376.031    22991710.480    94147172.690 6      -293.011    22991710.680    94147210.686 7      -293.011
G01  22990105.980   120813857.733 7      5419.884    22990104.780   120813857.735 5      5419.884    22990117.240    94140729.354 5      4223.286    22990118.140    94140693.373 7      4223.286
G07  23999130.280   126116283.716 7      3542.997    23999129.460   126116283.718 5      3542.997    23999139.460    98272465.758 5      2760.777    23999137.920    98272458.770 7      2760.777
> 2025 04 04 14 01 46.0000000  0 14
G10  22337391.780   117383783.136 8      2312.711    22337390.880   117383783.144 7      2312.711    22337400.620    91467926.340 7      1802.112    22337400.520    91467923.345 8      1802.112
R24  21255489.580   113662646.309 7       463.745    21255488.920   113662646.319 7       463.745    21255501.480    88404333.674 8       360.691    21255501.560    88404327.675 8       360.691
G02  21187186.940   111339420.772 7      3591.709    21187185.660   111339420.780 6      3591.709    21187190.500    86758007.281 6      2798.734
G08  21236768.300   111599973.405 7      3825.637    21236767.540   111599973.400 6      3825.637    21236775.960    86961056.705 6      2981.016    21236776.500    86961050.714 8      2981.016
G27  21045233.260   110593452.063 7      2109.049    21045232.080   110593452.068 8      2109.049    21045240.620    86176756.715 8      1643.415    21045240.980    86176741.715 6      1643.415
G23  24408556.780   128267837.322 5       248.998    24408556.140   128267837.333 2       248.998    24408570.240    99948986.671 2       194.024    24408571.280    99949009.682 6       194.024
R15  20508458.780   109590987.223 7      5109.778    20508459.180   109590987.237 7      5109.778    20508468.440    85237474.254 8      3974.272    20508469.860    85237498.263 8      3974.272
R18  22961450.280   122569819.609 7      4911.742    22961449.520   122569819.604 6      4911.742    22961467.920    95332132.391 7      3820.243    22961469.740    95332188.404 7      3820.243
G16  21161548.060   111204671.555 7       755.554    21161546.680   111204671.562 6       755.554    21161553.640    86653008.286 6       588.743
R14  19589617.460   104423668.365 8       933.384    19589616.840   104423668.357 8       933.384    19589627.420    81218463.178 8       725.965    19589627.840    81218451.179 8       725.965
R17  20435514.520   109354570.681 7      2940.823    20435514.480   109354570.696 7      2940.823    20435526.220    85053601.276 8      2287.307    20435525.940    85053604.282 8      2287.307
G26  22991768.800   120822528.786 7      -376.374    22991767.520   120822528.791 6      -376.374    22991782.240    94147465.931 6      -293.279    22991782.120    94147503.928 7      -293.279
G01  22989074.460   120808438.115 7      5419.495    22989073.520   120808438.120 5      5419.495    22989085.860    94136506.287 5      4222.983    22989086.400    94136470.304 7      4222.983
G07  23998456.380   126112741.036 6      3542.546    23998455.180   126112741.039 5      3542.546    23998465.060    98269705.226 5      2760.426    23998463.820    98269698.239 7      2760.426
> 2025 04 04 14 01 47.0000000  0 14
G10  22336951.660   117381471.015 7      2311.766    22336950.860   117381471.023 7      2311.766    22336960.820    91466124.695 7      1801.376    22336960.600    91466121.696 8      1801.376
R24  21255402.820   113662182.816 7       463.338    21255402.560   113662182.820 7       463.338    21255415.000    88403973.176 8       360.374    21255414.880    88403967.174 8       360.374
G02  21186503.660   111335829.612 7      3590.877    21186502.200   111335829.620 6      3590.877    21186507.180    86755208.977 6      2798.086
G08  21236040.220   111596148.060 7      3825.229    21236039.540   111596148.049 6      3825.229    21236047.960    86958075.920 6      2980.698    21236048.640    86958069.930 8      2980.698
G27  21044832.040   110591343.396 8      2108.523    21044830.640   110591343.403 8      2108.523    21044839.280    86175113.601 8      1643.005    21044839.820    86175098.604 6      1643.005
G23  24408509.560   128267588.796 5       247.994    24408508.800   128267588.806 2       247.994    24408522.780    99948793.020 2       193.242    24408524.020    99948816.042 6       193.242
R15  20507502.400   109585878.037 7      5108.767    20507503.380   109585878.054 7      5108.767    20507512.700    85233500.451 8      3973.486    20507513.760    85233524.460 8      3973.486
R18  22960530.280   122564908.207 6      4911.074    22960529.260   122564908.195 6      4911.074    22960547.560    95328312.433 7      3819.724    22960549.620    95328368.444 7      3819.724
G16  21161404.400   111203916.475 7       754.707    21161403.040   111203916.477 6       754.707    21161409.920    86652419.912 6       588.083
R14  19589442.440   104422735.682 8       932.206    19589441.800   104422735.677 8       932.206    19589452.300    81217737.762 8       725.049    19589452.540    81217725.765 8       725.049
R17  20434964.880   109351630.292 7      2940.110    20434965.200   109351630.304 7      2940.110    20434976.620    85051314.309 8      2286.753    20434976.580    85051317.310 8      2286.753
G26  22991840.520   120822905.546 7      -376.891    22991839.200   120822905.546 6      -376.891    22991853.840    94147759.496 6      -293.681    22991853.840    94147797.486 7      -293.681
G01  22988043.580   120803018.976 7      5418.898    22988042.240   120803018.983 5      5418.898    22988054.540    94132283.587 5      4222.518    22988054.780    94132247.606 7      4222.518
G07  23997782.560   126109199.066 6      3541.555    23997781.260   126109199.063 5      3541.555    23997791.020    98266945.250 5      2759.653    23997789.620    98266938.268 7      2759.653
> 2025 04 04 14 01 48.0000000  0 14
G10  22336511.720   117379159.449 8      2311.300    22336510.780   117379159.454 7      2311.300    22336520.880    91464323.479 7      1801.013    22336520.840    91464320.480 8      1801.013
R24  21255316.020   113661719.337 7       463.483    21255315.800   113661719.341 7       463.483    21255328.420    88403612.692 8       360.487    21255328.060    88403606.686 8       360.487
G02  21185820.400   111332238.841 7      3590.566    21185818.980   111332238.852 6      3590.566    21185823.680    86752410.980 6      2797.843
G08  21235312.480   111592322.817 7      3825.133    21235311.440   111592322.809 6      3825.133    21235320.020    86955095.216 6      2980.623    21235320.780    86955089.227 8      2980.623
G27  21044430.780   110589234.876 8      2108.401    21044429.500   110589234.883 8      2108.401    21044438.100    86173470.601 8      1642.910    21044438.580    86173455.602 6      1642.910
G23  24408462.540   128267340.596 5       248.174    24408461.400   128267340.611 2       248.174    24408475.520    99948599.623 2       193.383    24408475.860    99948622.661 6       193.383
R15  20506546.120   109580769.535 8      5108.215    20506547.380   109580769.549 7      5108.215    20506556.600    85229527.171 8      3973.056    20506557.860    85229551.176 8      3973.056
R18  22959610.000   122559997.131 6      4910.854    22959610.600   122559997.121 6      4910.854    22959627.880    95324492.721 7      3819.553    22959629.560    95324548.733 7      3819.553
G16  21161261.000   111203161.783 7       754.490    21161259.540   111203161.793 6       754.490    21161266.300    86651831.841 6       587.914
R14  19589267.900   104421803.758 8       931.536    19589266.660   104421803.753 8       931.536    19589277.540    81217012.937 8       724.528    19589277.920    81217000.940 8       724.528
R17  20434415.560   109348690.165 7      2940.017    20434415.460   109348690.174 7      2940.017    20434427.420    85049027.542 8      2286.680    20434427.280    85049030.547 8      2286.680
G26  22991911.940   120823282.529 7      -376.996    22991910.900   120823282.523 6      -376.996    22991925.660    94148053.235 6      -293.763    22991925.760    94148091.235 7      -293.763
G01  22987012.260   120797600.130 7      5418.647    22987011.080   120797600.140 5      5418.647    22987023.400    94128061.125 5      4222.322    22987023.920    94128025.146 7      4222.322
G07  23997108.680   126105657.567 7      3541.239    23997107.300   126105657.566 5      3541.239    23997116.980    98264185.639 5      2759.407    23997115.960    98264178.650 7      2759.407
> 2025 04 04 14 01 49.0000000  0 14
G10  22336071.760   117376848.213 7      2311.232    22336070.860   117376848.221 7      2311.232    22336081.000    91462522.520 7      1800.960    22336081.100    91462519.525 7      1800.960
R24  21255229.720   113661255.684 7       463.901    21255229.200   113661255.696 7       463.901    21255241.720    88403252.072 8       360.812    21255241.520    88403246.069 8       360.812
G02  21185137.080   111328648.231 7      3590.749    21185135.720   111328648.243 6      3590.749    21185140.380    86749613.108 6      2797.986
G08  21234584.540   111588497.417 7      3825.615    21234583.640   111588497.411 6      3825.615    21234592.080    86952114.390 6      2980.999    21234592.820    86952108.404 8      2980.999
G27  21044029.560   110587126.248 8      2108.834    21044028.300   110587126.253 8      2108.834    21044036.860    86171827.514 8      1643.248    21044037.100    86171812.519 6      1643.248
G23  24408415.400   128267092.637 5       247.914    24408413.920   128267092.657 2       247.914    24408428.460    99948406.411 2       193.180    24408428.920    99948429.432 6       193.180
R15  20505590.180   109575661.452 7      5108.032    20505591.760   109575661.469 7      5108.032    20505600.560    85225554.229 8      3972.914    20505602.000    85225578.238 8      3972.914
R18  22958690.340   122555086.122 6      4911.003    22958689.920   122555086.112 6      4911.003    22958707.960    95320673.075 7      3819.669    22958709.660    95320729.077 7      3819.669
G16  21161117.280   111202407.310 7       754.579    21161116.060   111202407.315 6       754.579    21161122.840    86651243.936 6       587.984
R14  19589093.140   104420872.367 8       931.233    19589092.180   104420872.363 8       931.233    19589102.780    81216288.522 8       724.293    19589103.100    81216276.523 8       724.293
R17  20433866.020   109345750.105 7      2940.199    20433865.760   109345750.111 7      2940.199    20433877.880    85046740.835 8      2286.822    20433877.700    85046743.838 8      2286.822
G26  22991984.080   120823659.504 7      -376.795    22991982.680   120823659.504 6      -376.795    22991997.360    94148346.978 6      -293.607    22991997.560    94148384.982 7      -293.607
G01  22985981.320   120792181.306 7      5418.919    22985979.700   120792181.316 5      5418.919    22985992.300    94123838.668 5      4222.534    22985992.800    94123802.699 7      4222.534
G07  23996435.160   126102116.306 6      3541.282    23996433.380   126102116.306 5      3541.282    23996443.060    98261426.213 5      2759.441    23996442.180    98261419.226 7      2759.441
> 2025 04 04 14 01 50.0000000  0 14
G10  22335632.100   117374537.532 8      2310.456    22335631.080   117374537.542 7      2310.456    22335641.320    91460721.991 7      1800.355    22335641.240    91460718.992 8      1800.355
R24  21255142.700   113660792.057 7       463.738    21255142.240   113660792.069 7       463.738    21255155.100    88402891.478 8       360.685    21255154.780    88402885.475 8       360.685
G02  21184454.160   111325058.030 7      3590.121    21184452.460   111325058.037 6      3590.121    21184457.240    86746815.548 6      2797.497
G08  21233856.700   111584672.103 7      3825.473    21233855.660   111584672.095 6      3825.473    21233864.320    86949133.631 6      2980.888    21233865.000    86949127.638 8      2980.888
G27  21043628.280   110585017.752 8      2108.596    21043627.140   110585017.757 8      2108.596    21043635.640    86170184.532 8      1643.062    21043635.880    86170169.535 6      1643.062
G23  24408368.580   128266844.993 5       247.714    24408366.740   128266845.014 2       247.714    24408381.180    99948213.446 2       193.024    24408381.280    99948236.443 6       193.024
R15  20504634.440   109570554.024 8      5107.254    20504635.840   109570554.039 7      5107.254    20504645.020    85221581.789 8      3972.308    20504646.140    85221605.796 8      3972.308
R18  22957770.700   122550175.340 7      4910.831    22957769.600   122550175.335 6      4910.831    22957787.740    95316853.600 7      3819.535    22957789.620    95316909.611 7      3819.535
G16  21160973.800   111201653.233 7       754.029    21160972.480   111201653.241 6       754.029    21160979.180    86650656.345 6       587.555
R14  19588918.480   104419941.728 8       930.416    19588917.600   104419941.724 8       930.416    19588928.160    81215564.687 8       723.657    19588928.560    81215552.690 8       723.657
R17  20433316.680   109342810.328 7      2939.789    20433316.160   109342810.338 7      2939.789    20433328.600    85044454.350 8      2286.502    20433328.380    85044457.351 8      2286.502
G26  22992055.860   120824036.671 7      -377.078    22992054.440   120824036.674 6      -377.078    22992069.060    94148640.872 6      -293.827    22992069.000    94148678.868 7      -293.827
G01  22984950.040   120786762.768 7      5418.574    22984948.640   120786762.775 5      5418.574    22984961.300    94119616.439 5      4222.266    22984961.600    94119580.464 7      4222.266
G07  23995760.880   126098575.489 6      3540.704    23995759.580   126098575.489 5      3540.704    23995769.280    98258667.144 5      2758.990    23995768.520    98258660.177 7      2758.990
> 2025 04 04 14 01 51.0000000  0 14
G10  22335192.480   117372227.369 7      2309.907    22335191.440   117372227.373 7      2309.907    22335201.840    91458921.868 7      1799.928    22335201.760    91458918.873 8      1799.928
R24  21255056.000   113660328.393 7       463.747    21255055.440   113660328.403 7       463.747    21255068.560    88402530.848 8       360.692    21255068.020    88402524.847 8       360.692
G02  21183770.760   111321468.168 7      3589.649    21183769.420   111321468.176 6      3589.649    21183774.020    86744018.256 6      2797.129
G08  21233128.580   111580846.866 7      3825.212    21233127.800   111580846.855 6      3825.212    21233136.420    86946152.926 6      2980.685    21233137.140    86946146.938 8      2980.685
G27  21043227.240   110582909.361 7      2108.354    21043225.940   110582909.366 8      2108.354    21043234.340    86168541.632 8      1642.874    21043234.640    86168526.637 6      1642.874
G23  24408321.420   128266597.723 5       246.989    24408319.840   128266597.735 2       246.989    24408333.900    99948020.763 2       192.459    24408333.640    99948043.777 6       192.459
R15  20503678.860   109565447.200 7      5106.516    20503680.320   109565447.215 7      5106.516    20503689.320    85217609.815 8      3971.734    20503690.680    85217633.822 8      3971.734
R18  22956850.580   122545264.827 7      4910.383    22956850.040   122545264.799 6      4910.383    22956867.320    95313034.325 7      3819.186    22956869.520    95313090.326 7      3819.186
G16  21160830.460   111200899.538 7       753.622    21160829.080   111200899.548 6       753.622    21160835.700    86650069.050 6       587.238
R14  19588744.220   104419011.862 8       929.433    19588743.380   104419011.863 8       929.433    19588753.620    81214841.462 8       722.892    19588754.320    81214829.463 8       722.892
R17  20432767.320   109339870.838 7      2939.378    20432767.120   109339870.850 7      2939.378    20432779.200    85042168.082 8      2286.183    20432778.960    85042171.087 8      2286.183
G26  22992127.700   120824414.027 7      -377.367    22992126.340   120824414.032 6      -377.367    22992140.900    94148934.899 6      -294.052    22992140.700    94148972.904 7      -294.052
G01  22983919.000   120781344.479 7      5418.077    22983917.420   120781344.487 5      5418.077    22983930.100    94115394.410 5      4221.878    22983930.420    94115358.435 7      4221.878
G07  23995086.680   126095035.172 6      3540.114    23995085.860   126095035.169 5      3540.114    23995095.820    98255908.453 5      2758.531    23995094.820    98255901.467 7      2758.531
> 2025 04 04 14 01 52.0000000  0 14
G10  22334753.060   117369917.704 7      2309.299    22334752.140   117369917.709 7      2309.299    22334762.280    91457122.132 7      1799.454    22334762.260    91457119.135 8      1799.454
R24  21254968.980   113659864.676 7       463.682    21254969.000   113659864.682 7       463.682    21254981.740    88402170.177 8       360.641    21254981.280    88402164.172 8       360.641
G02  21183087.840   111317878.650 8      3589.228    21183086.260   111317878.658 6      3589.228    21183090.860    86741221.237 6      2796.801
G08  21232400.620   111577021.631 7      3825.091    21232399.860   111577021.622 6      3825.091    21232408.480    86943172.230 6      2980.590    21232409.460    86943166.243 8      2980.590
G27  21042825.900   110580801.043 7      2108.198    21042824.740   110580801.048 8      2108.198    21042833.120    86166898.789 8      1642.751    21042833.460    86166883.792 6      1642.751
G23  24408274.200   128266350.712 5       246.833    24408272.720   128266350.725 2       246.833    24408286.900    99947828.292 2       192.337    24408287.320    99947851.313 6       192.337
R15  20502723.520   109560340.975 8      5105.870    20502725.140   109560340.984 7      5105.870    20502733.800    85213638.306 8      3971.232    20502734.780    85213662.313 8      3971.232
R18  22955930.300   122540354.477 7      4910.133    22955930.800   122540354.476 7      4910.133    22955947.560    95309215.197 7      3818.992    22955949.800    95309271.202 7      3818.992
G16  21160686.940   111200146.218 7       753.084    21160685.780   111200146.225 6       753.084    21160692.520    86649482.044 6       586.819
R14  19588569.880   104418082.695 8       928.738    19588568.960   104418082.698 8       928.738    19588579.340    81214118.776 8       722.352    19588580.060    81214106.779 8       722.352
R17  20432218.340   109336931.565 7      2939.043    20432217.440   109336931.582 7      2939.043    20432229.900    85039881.993 8      2285.922    20432229.280    85039884.994 8      2285.922
G26  22992199.300   120824791.539 7      -377.614    22992198.140   120824791.538 6      -377.614    22992212.620    94149229.054 6      -294.245    22992213.000    94149267.046 7      -294.245
G01  22982887.660   120775926.372 7      5417.922    22982886.480   120775926.382 5      5417.922    22982899.160    94111172.521 5      4221.757    22982899.900    94111136.546 7      4221.757
G07  23994412.640   126091495.199 6      3539.711    23994412.280   126091495.198 5      3539.711    23994421.940    98253150.044 5      2758.217    23994420.960    98253143.071 7      2758.217
> 2025 04 04 14 01 53.0000000  0 14
G10  22334313.460   117367608.710 7      2308.799    22334312.660   117367608.712 7      2308.799    22334322.700    91455322.915 7      1799.064    22334323.180    91455319.914 8      1799.064
R24  21254882.620   113659401.095 7       463.615    21254882.280   113659401.101 7       463.615    21254895.180    88401809.608 8       360.589    21254894.760    88401803.607 8       360.589
G02  21182404.800   111314289.632 7      3588.876    21182403.220   111314289.639 6      3588.876    21182407.920    86738424.601 6      2796.527
G08  21231672.880   111573196.601 7      3825.053    21231671.900   111573196.590 6      3825.053    21231680.500    86940191.687 6      2980.561    21231681.380    86940185.700 8      2980.561
G27  21042424.680   110578692.973 7      2108.044    21042423.560   110578692.977 8      2108.044    21042432.020    86165256.137 8      1642.632    21042432.340    86165241.142 6      1642.632
G23  24408227.580   128266104.241 5       246.309    24408226.060   128266104.253 2       246.309    24408240.080    99947636.236 2       191.929    24408240.220    99947659.247 6       191.929
R15  20501767.960   109555235.521 8      5105.252    20501769.760   109555235.533 7      5105.252    20501778.420    85209667.402 8      3970.751    20501779.580    85209691.411 8      3970.751
R18  22955010.740   122535444.557 7      4909.828    22955011.060   122535444.558 7      4909.828    22955027.960    95305396.393 7      3818.755    22955030.060    95305452.398 7      3818.755
G16  21160543.900   111199393.421 7       752.657    21160542.420   111199393.426 6       752.657    21160549.140    86648895.449 6       586.486
R14  19588395.400   104417154.430 8       928.008    19588394.760   104417154.431 8       928.008    19588405.280    81213396.791 8       721.784    19588405.740    81213384.792 8       721.784
R17  20431669.060   109333992.719 7      2938.753    20431668.320   109333992.734 7      2938.753    20431680.740    85037596.224 8      2285.697    20431680.640    85037599.230 8      2285.697
G26  22992271.160   120825169.378 7      -377.871    22992269.860   120825169.381 6      -377.871    22992284.620    94149523.464 6      -294.445    22992284.860    94149561.456 7      -294.445
G01  22981857.060   120770508.678 7      5417.706    22981855.480   120770508.688 5      5417.706    22981868.200    94106950.949 5      4221.589    22981868.760    94106914.970 7      4221.589
G07  23993739.560   126087955.867 6      3539.186    23993738.660   126087955.866 5      3539.186    23993748.240    98250392.121 5      2757.807    23993747.280    98250385.142 7      2757.807
> 2025 04 04 14 01 54.0000000  0 14
G10  22333874.280   117365300.226 7      2308.271    22333873.340   117365300.228 7      2308.271    22333883.400    91453524.100 7      1798.653    22333883.400    91453521.105 8      1798.653
R24  21254796.120   113658937.487 7       463.715    21254795.680   113658937.493 7       463.715    21254808.420    88401449.026 8       360.667    21254808.360    88401443.021 8       360.667
G02  21181721.840   111310700.968 7      3588.512    21181720.360   111310700.978 6      3588.512    21181725.140    86735628.244 6      2796.243
G08  21230945.060   111569371.613 7      3825.081    21230944.200   111569371.599 6      3825.081    21230952.580    86937211.181 6      2980.582    21230953.280    86937205.192 8      2980.582
G27  21042023.640   110576584.983 7      2108.018    21042022.480   110576584.988 8      2108.018    21042031.000    86163613.550 8      1642.612    21042031.060    86163598.557 6      1642.612
G23  24408179.880   128265858.116 5       245.895    24408179.380   128265858.129 2       245.895    24408193.300    99947444.453 2       191.606    24408193.660    99947467.449 6       191.606
R15  20500812.780   109550130.725 8      5104.518    20500814.700   109550130.742 7      5104.518    20500823.160    85205697.013 8      3970.180    20500824.240    85205721.018 8      3970.180
R18  22954090.960   122530534.899 7      4909.621    22954091.660   122530534.899 7      4909.621    22954107.980    95301577.784 7      3818.594    22954109.940    95301633.787 7      3818.594
G16  21160400.300   111198640.992 7       752.318    21160399.260   111198640.999 6       752.318    21160405.980    86648309.136 6       586.222
R14  19588221.400   104416226.894 8       927.295    19588220.920   104416226.894 8       927.295    19588231.380    81212675.372 8       721.230    19588231.700    81212663.374 8       721.230
R17  20431119.920   109331054.155 7      2938.441    20431119.200   109331054.164 7      2938.441    20431131.540    85035310.674 8      2285.454    20431131.380    85035313.679 8      2285.454
G26  22992343.020   120825547.399 7      -378.114    22992341.880   120825547.402 6      -378.114    22992356.580    94149818.020 6      -294.634    22992357.000    94149856.012 7      -294.634
G01  22980825.840   120765091.233 7      5417.284    22980824.540   120765091.240 5      5417.284    22980837.100    94102729.574 5      4221.260    22980837.780    94102693.590 7      4221.260
G07  23993066.000   126084416.944 6      3538.821    23993065.240   126084416.944 5      3538.821    23993074.800    98247634.520 5      2757.523    23993074.240    98247627.542 7      2757.523
> 2025 04 04 14 01 55.0000000  0 14
G10  22333435.060   117362992.306 7      2307.612    22333434.160   117362992.316 7      2307.612    22333444.300    91451725.724 7      1798.139    22333444.180    91451722.726 8      1798.139
R24  21254709.400   113658473.938 7       463.474    21254709.000   113658473.953 7       463.474    21254721.660    88401088.486 8       360.480    21254721.600    88401082.483 8       360.480
G02  21181039.020   111307112.712 7      3587.951    21181037.420   111307112.724 6      3587.951    21181042.500    86732832.206 6      2795.806
G08  21230217.020   111565546.735 7      3824.810    21230216.200   111565546.722 6      3824.810    21230224.780    86934230.761 6      2980.372    21230225.340    86934224.770 8      2980.372
G27  21041622.660   110574477.162 7      2107.695    21041621.380   110574477.165 8      2107.695    21041629.820    86161971.092 8      1642.360    21041629.860    86161956.097 6      1642.360
G23  24408133.760   128265612.314 5       245.695    24408132.680   128265612.322 2       245.695    24408146.340    99947252.915 2       191.451    24408147.080    99947275.930 6       191.451
R15  20499857.640   109545026.610 8      5103.722    20499859.340   109545026.627 7      5103.722    20499868.180    85201727.152 8      3969.562    20499869.080    85201751.157 8      3969.562
R18  22953171.380   122525625.542 7      4909.033    22953171.720   122525625.524 7      4909.033    22953188.400    95297759.400 7      3818.137    22953190.380    95297815.398 7      3818.137
G16  21160257.500   111197889.009 7       751.694    21160256.120   111197889.014 6       751.694    21160263.040    86647723.180 6       585.735
R14  19588047.540   104415300.120 8       926.278    19588046.820   104415300.125 8       926.278    19588057.520    81211954.551 8       720.438    19588057.980    81211942.554 8       720.438
R17  20430570.700   109328115.879 7      2938.068    20430570.140   109328115.891 7      2938.068    20430582.540    85033025.355 8      2285.164    20430582.460    85033028.356 8      2285.164
G26  22992415.060   120825925.644 7      -378.473    22992413.980   120825925.646 6      -378.473    22992428.620    94150112.749 6      -294.914    22992428.560    94150150.740 7      -294.914
G01  22979795.180   120759674.040 7      5417.022    22979793.600   120759674.045 5      5417.022    22979806.180    94098508.391 5      4221.056    22979806.740    94098472.405 7      4221.056
G07  23992393.180   126080878.514 6      3538.168    23992391.880   126080878.516 5      3538.168    23992401.400    98244877.305 5      2757.014    23992400.680    98244870.334 7      2757.014
> 2025 04 04 14 01 56.0000000  0 14
G10  22332996.080   117360685.022 7      2307.059    22332995.220   117360685.032 7      2307.059    22333005.320    91449927.846 7      1797.709    22333005.160    91449924.851 8      1797.709
R24  21254622.920   113658010.461 7       463.469    21254622.440   113658010.470 7       463.469    21254635.280    88400728.004 8       360.476    21254635.040    88400722.001 8       360.476
G02  21180356.320   111303524.936 7      3587.545    21180354.700   111303524.946 6      3587.545    21180359.640    86730036.537 6      2795.490
G08  21229489.120   111561722.026 7      3824.578    21229488.400   111561722.015 6      3824.578    21229496.880    86931250.474 6      2980.191    21229497.700    86931244.490 8      2980.191
G27  21041221.720   110572369.552 7      2107.452    21041220.260   110572369.557 8      2107.452    21041228.740    86160328.800 8      1642.170    21041228.800    86160313.805 6      1642.170
G23  24408087.280   128265367.012 5       245.144    24408085.860   128265367.022 2       245.144    24408099.660    99947061.772 2       191.021    24408099.660    99947084.812 6       191.021
R15  20498902.780   109539923.222 8      5103.027    20498904.340   109539923.234 7      5103.027    20498913.180    85197757.853 8      3969.021    20498914.140    85197781.857 8      3969.021
R18  22952251.320   122520716.470 7      4908.911    22952252.140   122520716.463 6      4908.911    22952268.680    95293941.258 7      3818.042    22952270.420    95293997.261 7      3818.042
G16  21160114.300   111197137.518 8       751.215    21160113.320   111197137.523 6       751.215    21160120.000    86647137.598 6       585.363
R14  19587873.760   104414374.147 8       925.561    19587873.220   104414374.153 8       925.561    19587883.680    81211234.349 8       719.881    19587884.260    81211222.354 8       719.881
R17  20430021.680   109325177.992 7      2937.824    20430021.160   109325177.999 7      2937.824    20430033.640    85030740.331 8      2284.975    20430033.360    85030743.337 8      2284.975
G26  22992487.200   120826304.169 7      -378.782    22992485.960   120826304.177 6      -378.782    22992500.480    94150407.698 6      -295.154    22992501.040    94150445.694 7      -295.154
G01  22978764.700   120754257.215 7      5416.655    22978762.840   120754257.220 5      5416.655    22978775.420    94094287.496 5      4220.770    22978775.760    94094251.523 7      4220.770
G07  23991719.940   126077340.642 6      3537.638    23991718.680   126077340.645 5      3537.638    23991728.160    98242120.526 5      2756.601    23991727.240    98242113.541 7      2756.601
> 2025 04 04 14 01 57.0000000  0 14
G10  22332557.160   117358378.393 7      2306.170    22332556.200   117358378.400 7      2306.170    22332566.380    91448130.469 7      1797.016    22332566.340    91448127.473 8      1797.016
R24  21254536.300   113657547.051 7       463.298    21254536.000   113657547.063 7       463.298    21254548.560    88400367.572 8       360.343    21254548.300    88400361.567 8       360.343
G02  21179673.620   111299937.612 7      3587.016    21179672.020   111299937.620 6      3587.016    21179677.060    86727241.224 6      2795.078
G08  21228761.360   111557897.456 7      3824.372    21228760.620   111557897.450 6      3824.372    21228769.100    86928270.293 6      2980.030    21228770.160    86928264.309 8      2980.030
G27  21040820.400   110570262.122 7      2107.236    21040819.280   110570262.130 8      2107.236    21040827.740    86158686.649 8      1642.002    21040827.860    86158671.654 6      1642.002
G23  24408040.180   128265122.180 5       244.438    24408039.660   128265122.190 2       244.438    24408052.780    99946870.998 2       190.472    24408052.940    99946894.023 6       190.472
R15  20497947.680   109534820.553 8      5102.200    20497949.680   109534820.567 7      5102.200    20497958.160    85193789.114 8      3968.378    20497959.500    85193813.119 8      3968.378
R18  22951331.980   122515807.796 7      4908.362    22951332.200   122515807.792 6      4908.362    22951349.220    95290123.423 7      3817.615    22951351.020    95290179.426 7      3817.615
G16  21159971.480   111196386.497 7       750.672    21159970.460   111196386.505 6       750.672    21159977.180    86646552.385 6       584.940
R14  19587700.060   104413449.050 8       924.528    19587699.660   104413449.056 8       924.528    19587710.160    81210514.828 8       719.077    19587710.580    81210502.829 8       719.077
R17  20429472.980   109322240.503 7      2937.175    20429472.080   109322240.510 7      2937.175    20429484.660    85028455.620 8      2284.469    20429484.340    85028458.625 8      2284.469
G26  22992559.460   120826682.989 7      -379.150    22992558.040   120826682.996 6      -379.150    22992572.400    94150702.874 6      -295.442    22992572.940    94150740.870 7      -295.442
G01  22977734.020   120748840.740 7      5416.224    22977732.260   120748840.742 5      5416.224    22977744.720    94090066.876 5      4220.434    22977745.440    94090030.901 7      4220.434
G07  23991046.800   126073803.305 6      3537.003    23991045.540   126073803.310 5      3537.003    23991055.080    98239364.165 5      2756.106    23991053.900    98239357.192 7      2756.106
> 2025 04 04 14 01 58.0000000  0 14
G10  22332118.220   117356072.105 7      2306.322    22332117.320   117356072.117 7      2306.322    22332127.480    91446333.371 7      1797.134    22332127.660    91446330.376 8      1797.134
R24  21254449.460   113657083.457 7       464.039    21254449.140   113657083.469 7       464.039    21254461.900    88400006.996 8       360.919    21254461.520    88400000.991 8       360.919
G02  21178991.080   111296350.509 7      3587.295    21178989.360   111296350.517 6      3587.295    21178994.360    86724446.083 6      2795.295
G08  21228033.800   111554072.815 7      3824.964    21228032.800   111554072.806 6      3824.964    21228041.320    86925290.056 6      2980.492    21228042.440    86925284.069 8      2980.492
G27  21040419.360   110568154.656 7      2107.796    21040418.260   110568154.666 8      2107.796    21040426.600    86157044.472 8      1642.439    21040426.780    86157029.479 6      1642.439
G23  24407994.420   128264877.503 5       244.833    24407993.460   128264877.510 2       244.833    24408006.300    99946680.347 2       190.779    24408006.600    99946703.370 6       190.779
R15  20496993.060   109529718.378 8      5102.219    20496994.760   109529718.392 7      5102.219    20497003.480    85189820.762 8      3968.392    20497004.480    85189844.767 8      3968.392
R18  22950412.440   122510899.200 7      4908.901    22950413.100   122510899.190 7      4908.901    22950429.620    95286305.643 7      3818.034    22950431.280    95286361.644 7      3818.034
G16  21159828.800   111195635.724 7       750.937    21159827.540   111195635.731 6       750.937    21159834.320    86645967.365 6       585.146
R14  19587526.580   104412524.538 8       924.486    19587526.200   104412524.539 8       924.486    19587536.860    81209795.758 8       719.045    19587537.020    81209783.760 8       719.045
R17  20428924.140   109319303.124 7      2937.656    20428923.280   109319303.131 7      2937.656    20428935.820    85026170.996 8      2284.843    20428935.580    85026173.999 8      2284.843
G26  22992631.300   120827061.830 7      -378.580    22992630.100   120827061.837 6      -378.580    22992644.520    94150998.061 6      -294.997    22992644.700    94151036.055 7      -294.997
G01  22976702.960   120743424.361 7      5416.587    22976701.560   120743424.364 5      5416.587    22976714.000    94085846.330 5      4220.717    22976714.480    94085810.353 7      4220.717
G07  23990374.240   126070266.285 6      3537.206    23990372.660   126070266.290 5      3537.206    23990382.080    98236608.046 5      2756.265    23990380.960    98236601.069 7      2756.265
> 2025 04 04 14 01 59.0000000  0 14
G10  22331679.460   117353766.248 7      2305.567    22331678.640   117353766.260 7      2305.567    22331688.760    91444536.604 7      1796.545    22331688.900    91444533.611 8      1796.545
R24  21254362.460   113656619.766 7       463.643    21254362.360   113656619.781 7       463.643    21254375.060    88399646.352 8       360.611    21254374.800    88399640.347 8       360.611
G02  21178308.600   111292763.674 7      3586.630    21178306.840   111292763.685 6      3586.630    21178311.760    86721651.153 6      2794.777
G08  21227305.920   111550248.129 7      3824.542    21227304.980   111550248.115 6      3824.542    21227313.520    86922309.787 6      2980.163    21227314.660    86922303.799 8      2980.163
G27  21040018.660   110566047.213 7      2107.401    21040017.300   110566047.218 8      2107.401    21040025.560    86155402.307 8      1642.131    21040025.620    86155387.312 6      1642.131
G23  24407948.380   128264633.096 5       244.146    24407946.920   128264633.104 2       244.146    24407959.340    99946489.906 2       190.244    24407960.040    99946512.932 6       190.244
R15  20496038.420   109524616.732 8      5101.311    20496040.020   109524616.746 7      5101.311    20496048.860    85185852.819 8      3967.686    20496049.900    85185876.826 8      3967.686
R18  22949492.820   122505990.753 7      4908.297    22949493.100   122505990.754 7      4908.297    22949509.940    95282487.993 7      3817.564    22949511.620    95282543.994 7      3817.564
G16  21159685.960   111194885.228 7       750.287    21159684.660   111194885.238 6       750.287    21159691.420    86645382.565 6       584.640
R14  19587353.400   104411600.658 8       923.568    19587352.860   104411600.656 8       923.568    19587363.400    81209077.182 8       718.331    19587363.920    81209065.183 8       718.331
R17  20428375.340   109316365.924 7      2937.047    20428374.100   109316365.925 7      2937.047    20428386.760    85023886.511 8      2284.370    20428386.520    85023889.512 8      2284.370
G26  22992703.260   120827440.783 7      -379.133    22992702.200   120827440.783 6      -379.133    22992716.660    94151293.339 6      -295.429    22992717.500    94151331.335 7      -295.429
G01  22975672.340   120738008.130 7      5415.989    22975670.920   120738008.133 5      5415.989    22975683.440    94081625.898 5      4220.251    22975683.800    94081589.930 7      4220.251
G07  23989701.060   126066729.607 6      3536.451    23989699.520   126066729.611 5      3536.451    23989709.020    98233852.195 5      2755.676    23989707.900    98233845.219 7      2755.676
> 2025 04 04 14 02  0.0000000  0 14
G10  22331240.500   117351461.021 7      2304.908    22331239.940   117351461.031 7      2304.908    22331250.040    91442740.321 7      1796.032    22331250.260    91442737.326 8      1796.032
R24  21254276.080   113656156.174 7       463.516    21254275.720   113656156.191 7       463.516    21254288.480    88399285.779 8       360.513    21254288.400    88399279.776 8       360.513
G02  21177626.000   111289177.305 7      3586.108    21177624.380   111289177.315 6      3586.108    21177629.320    86718856.583 6      2794.370
G08  21226577.940   111546423.574 7      3824.459    21226577.200   111546423.566 6      3824.459    21226585.740    86919329.619 6      2980.098    21226586.780    86919323.635 8      2980.098
G27  21039617.540   110563939.960 7      2107.192    21039616.320   110563939.965 8      2107.192    21039624.540    86153760.293 8      1641.968    21039624.660    86153745.298 6      1641.968
G23  24407901.440   128264389.081 5       244.067    24407900.740   128264389.083 2       244.067    24407912.860    99946299.763 2       190.182    24407914.580    99946322.780 5       190.182
R15  20495083.520   109519515.815 8      5100.610    20495085.480   109519515.824 7      5100.610    20495094.400    85181885.441 8      3967.141    20495095.440    85181909.448 8      3967.141
R18  22948573.160   122501082.640 7      4907.935    22948573.740   122501082.636 7      4907.935    22948590.540    95278670.576 7      3817.283    22948592.320    95278726.579 7      3817.283
G16  21159543.200   111194135.230 7       749.697    21159541.920   111194135.237 6       749.697    21159548.660    86644798.149 6       584.180
R14  19587180.340   104410677.610 8       922.676    19587179.640   104410677.608 8       922.676    19587190.240    81208359.256 8       717.637    19587190.760    81208347.257 8       717.637
R17  20427825.920   109313429.064 7      2936.699    20427825.180   109313429.076 7      2936.699    20427837.960    85021602.295 8      2284.099    20427837.740    85021605.300 8      2284.099
G26  22992775.720   120827819.987 7      -379.408    22992774.340   120827819.994 6      -379.408    22992788.920    94151588.818 6      -295.643    22992789.140    94151626.816 7      -295.643
G01  22974641.460   120732592.212 7      5415.807    22974640.220   120732592.212 5      5415.807    22974652.880    94077405.715 5      4220.109    22974653.260    94077369.742 7      4220.109
G07  23989027.760   126063193.464 6      3535.897    23989026.560   126063193.469 5      3535.897    23989036.160    98231096.763 5      2755.244    23989035.400    98231089.780 7      2755.244
> 2025 04 04 14 02  1.0000000  0 14
G10  22330802.100   117349156.397 7      2304.270    22330801.420   117349156.401 7      2304.270    22330811.540    91440944.508 7      1795.535    22330811.440    91440941.513 8      1795.535
R24  21254189.160   113655692.663 7       463.460    21254189.040   113655692.677 7       463.460    21254201.940    88398925.270 8       360.469    21254201.640    88398919.264 8       360.469
G02  21176943.580   111285591.360 7      3585.760    21176941.860   111285591.365 6      3585.760    21176947.060    86716062.338 6      2794.098
G08  21225850.300   111542599.170 7      3824.302    21225849.380   111542599.162 6      3824.302    21225858.020    86916349.570 6      2979.976    21225858.920    86916343.585 8      2979.976
G27  21039216.700   110561832.885 7      2107.024    21039215.340   110561832.892 8      2107.024    21039223.640    86152118.419 8      1641.837    21039223.740    86152103.426 6      1641.837
G23  24407854.920   128264145.526 5       243.587    24407854.340   128264145.526 2       243.587    24407866.660    99946109.981 2       189.808    24407868.920    99946133.019 5       189.808
R15  20494129.380   109514415.617 8      5099.979    20494130.960   109514415.626 7      5099.979    20494139.900    85177918.623 8      3966.650    20494140.940    85177942.630 8      3966.650
R18  22947653.680   122496174.826 7      4907.716    22947654.360   122496174.819 7      4907.716    22947671.220    95274853.406 7      3817.112    22947673.000    95274909.404 7      3817.112
G16  21159400.620   111193385.665 7       749.429    21159399.440   111193385.667 6       749.429    21159406.040    86644214.066 6       583.970
R14  19587007.160   104409755.372 8       921.872    19587006.680   104409755.373 8       921.872    19587017.240    81207641.958 8       717.011    19587017.620    81207629.960 8       717.011
R17  20427277.380   109310492.549 7      2936.434    20427276.580   109310492.553 7      2936.434    20427289.480    85019318.339 8      2283.893    20427289.080    85019321.338 8      2283.893
G26  22992847.900   120828199.453 7      -379.580    22992846.540   120828199.455 6      -379.580    22992861.260    94151884.496 6      -295.777    22992861.680    94151922.490 7      -295.777
G01  22973611.020   120727176.635 7      5415.407    22973609.820   120727176.640 5      5415.407    22973622.240    94073185.797 5      4219.797    22973622.740    94073149.826 7      4219.797
G07  23988354.780   126059657.832 6      3535.411    23988353.760   126059657.834 5      3535.411    23988363.420    98228341.725 5      2754.866    23988362.540    98228334.750 7      2754.866
> 2025 04 04 14 02  2.0000000  0 14
G10  22330363.540   117346852.190 7      2304.152    22330362.900   117346852.195 7      2304.152    22330373.000    91439149.024 7      1795.443    22330373.000    91439146.033 8      1795.443
R24  21254102.820   113655229.004 7       463.885    21254102.480   113655229.016 7       463.885    21254115.300    88398564.646 8       360.799    21254115.240    88398558.639 8       360.799
G02  21176261.200   111282005.676 7      3585.739    21176259.640   111282005.681 6      3585.739    21176264.640    86713268.305 6      2794.082
G08  21225122.480   111538774.718 7      3824.644    21225121.600   111538774.707 6      3824.644    21225130.280    86913369.477 6      2980.242    21225131.180    86913363.493 8      2980.242
G27  21038815.720   110559725.815 7      2107.250    21038814.360   110559725.823 8      2107.250    21038822.680    86150476.548 8      1642.013    21038822.680    86150461.553 6      1642.013
G23  24407808.100   128263902.249 5       243.396    24407808.120   128263902.252 2       243.396    24407820.240    99945920.415 2       189.659    24407822.460    99945943.441 5       189.659
R15  20493175.040   109509315.954 8      5099.613    20493176.440   109509315.968 7      5099.613    20493185.600    85173952.228 8      3966.366    20493186.560    85173976.237 8      3966.366
R18  22946734.400   122491267.230 7      4907.564    22946734.940   122491267.228 7      4907.564    22946752.080    95271036.414 7      3816.994    22946753.740    95271092.415 7      3816.994
G16  21159258.160   111192636.407 7       749.251    21159256.800   111192636.414 6       749.251    21159263.460    86643630.233 6       583.832
R14  19586834.240   104408833.779 8       921.435    19586833.660   104408833.774 8       921.435    19586844.400    81206925.163 8       716.672    19586844.780    81206913.166 8       716.672
R17  20426728.860   109307556.219 7      2936.407    20426727.840   109307556.228 7      2936.407    20426740.600    85017034.535 8      2283.872    20426740.380    85017037.536 8      2283.872
G26  22992920.200   120828579.021 7      -379.501    22992918.820   120828579.024 6      -379.501    22992933.480    94152180.253 6      -295.715    22992933.500    94152218.251 7      -295.715
G01  22972580.780   120721761.200 7      5415.508    22972579.260   120721761.208 5      5415.508    22972591.640    94068965.988 5      4219.876    22972592.240    94068930.015 8      4219.876
G07  23987681.560   126056122.549 6      3535.329    23987681.000   126056122.551 5      3535.329    23987690.620    98225586.959 5      2754.802    23987689.660    98225579.975 7      2754.802
> 2025 04 04 14 02  3.0000000  0 14
G10  22329925.260   117344548.511 7      2303.389    22329924.580   117344548.518 7      2303.389    22329934.520    91437353.954 7      1794.849    22329934.700    91437350.961 8      1794.849
R24  21254015.980   113654765.278 7       463.820    21254015.600   113654765.296 7       463.820    21254028.420    88398203.967 8       360.749    21254028.280    88398197.964 8       360.749
G02  21175578.960   111278420.376 7      3585.091    21175577.360   111278420.383 6      3585.091    21175582.480    86710474.568 6      2793.578
G08  21224394.840   111534950.340 7      3824.314    21224393.860   111534950.326 6      3824.314    21224402.420    86910389.444 6      2979.985    21224403.380    86910383.458 8      2979.985
G27  21038414.560   110557618.867 8      2106.853    21038413.440   110557618.874 8      2106.853    21038421.720    86148834.772 8      1641.704    21038421.780    86148819.779 6      1641.704
G23  24407762.480   128263659.320 5       242.865    24407761.760   128263659.322 2       242.865    24407773.780    99945731.117 2       189.245    24407775.400    99945754.118 5       189.245
R15  20492220.820   109504216.947 7      5098.684    20492222.080   109504216.959 7      5098.684    20492231.540    85169986.335 8      3965.643    20492232.580    85170010.346 8      3965.643
R18  22945815.260   122486359.859 6      4907.241    22945815.800   122486359.863 7      4907.241    22945832.400    95267219.584 7      3816.743    22945834.640    95267275.591 7      3816.743
G16  21159115.760   111191887.525 7       748.688    21159114.320   111191887.535 6       748.688    21159121.020    86643046.690 6       583.394
R14  19586661.720   104407912.911 8       920.490    19586660.840   104407912.909 8       920.490    19586671.660    81206208.930 8       715.937    19586672.200    81206196.933 8       715.937
R17  20426179.640   109304620.191 7      2935.880    20426179.060   109304620.200 7      2935.880    20426191.880    85014750.956 8      2283.462    20426191.580    85014753.959 8      2283.462
G26  22992992.580   120828958.777 7      -379.969    22992991.120   120828958.779 6      -379.969    22993005.720    94152476.156 6      -296.080    22993005.920    94152514.154 7      -296.080
G01  22971550.080   120716346.002 7      5415.081    22971548.720   120716346.012 5      5415.081    22971561.160    94064746.367 5      4219.544    22971561.640    94064710.394 7      4219.544
G07  23987009.180   126052587.720 6      3534.631    23987008.260   126052587.722 5      3534.631    23987018.120    98222832.547 5      2754.258    23987017.360    98222825.562 7      2754.258
> 2025 04 04 14 02  4.0000000  0 14
G10  22329486.940   117342245.321 7      2303.104    22329486.300   117342245.323 7      2303.104    22329496.180    91435559.266 7      1794.626    22329496.360    91435556.271 8      1794.626
R24  21253929.120   113654301.542 7       463.889    21253928.920   113654301.549 7       463.889    21253941.680    88397843.277 8       360.803    21253941.480    88397837.272 8       360.803
G02  21174896.800   111274835.398 7      3584.865    21174895.020   111274835.403 6      3584.865    21174900.240    86707681.082 6      2793.401
G08  21223666.940   111531125.974 7      3824.400    21223666.120   111531125.961 6      3824.400    21223674.560    86907409.426 6      2980.052    21223675.620    86907403.441 8      2980.052
G27  21038013.900   110555511.963 8      2106.958    21038012.540   110555511.973 8      2106.958    21038020.800    86147193.033 8      1641.786    21038021.160    86147178.036 6      1641.786
G23  24407716.940   128263416.661 5       242.374    24407715.600   128263416.658 2       242.374    24407727.560    99945542.040 2       188.863    24407729.320    99945565.099 5       188.863
R15  20491266.760   109499118.553 8      5098.225    20491268.060   109499118.557 7      5098.225    20491277.360    85166020.919 8      3965.286    20491278.340    85166044.928 8      3965.286
R18  22944895.840   122481452.675 6      4907.274    22944896.600   122481452.691 7      4907.274    22944913.300    95263402.916 7      3816.769    22944915.160    95263458.919 7      3816.769
G16  21158973.220   111191138.998 7       748.468    21158971.980   111191139.005 6       748.468    21158978.580    86642463.418 6       583.222
R14  19586489.160   104406992.728 8       919.942    19586488.280   104406992.731 8       919.942    19586499.020    81205493.237 8       715.511    19586499.680    81205481.237 8       715.511
R17  20425631.360   109301684.366 7      2935.919    20425630.320   109301684.376 7      2935.919    20425643.440    85012467.543 8      2283.493    20425642.780    85012470.546 8      2283.493
G26  22993064.620   120829338.647 7      -379.821    22993063.500   120829338.652 6      -379.821    22993078.000    94152772.155 6      -295.964    22993078.480    94152810.151 7      -295.964
G01  22970519.380   120710931.032 7      5414.975    22970518.260   120710931.040 5      5414.975    22970530.680    94060526.920 5      4219.461    22970531.480    94060490.941 7      4219.461
G07  23986336.440   126049053.302 6      3534.401    23986335.680   126049053.304 5      3534.401    23986345.600    98220078.457 5      2754.079    23986344.600    98220071.467 7      2754.079
> 2025 04 04 14 02  5.0000000  0 14
G10  22329048.920   117339942.646 7      2302.317    22329048.100   117339942.653 7      2302.317    22329058.140    91433764.974 7      1794.014    22329058.320    91433761.981 8      1794.014
R24  21253842.680   113653837.774 7       463.757    21253842.300   113653837.789 7       463.757    21253855.100    88397482.568 8       360.700    21253855.040    88397476.563 8       360.700
G02  21174214.740   111271250.739 7      3584.406    21174212.840   111271250.747 6      3584.406    21174218.020    86704887.845 6      2793.043
G08  21222939.160   111527301.635 7      3824.164    21222938.300   111527301.627 6      3824.164    21222946.840    86904429.425 6      2979.868    21222947.740    86904423.441 8      2979.868
G27  21037612.960   110553405.148 8      2106.644    21037611.640   110553405.156 8      2106.644    21037619.960    86145551.359 8      1641.541    21037620.160    86145536.364 6      1641.541
G23  24407669.440   128263174.311 5       242.139    24407669.320   128263174.308 2       242.139    24407681.800    99945353.193 2       188.679    24407683.760    99945376.241 6       188.679
R15  20490312.860   109494020.765 8      5097.417    20490313.900   109494020.774 7      5097.417    20490323.440    85162055.981 8      3964.657    20490324.260    85162079.988 8      3964.657
R18  22943976.640   122476545.722 7      4906.686    22943977.360   122476545.726 7      4906.686    22943993.880    95259586.408 7      3816.311    22943995.900    95259642.411 7      3816.311
G16  21158830.820   111190390.828 7       747.879    21158829.400   111190390.835 6       747.879    21158836.180    86641880.429 6       582.763
R14  19586316.720   104406073.243 8       919.044    19586315.700   104406073.247 8       919.044    19586326.580    81204778.082 8       714.812    19586327.060    81204766.085 8       714.812
R17  20425082.680   109298748.774 7      2935.356    20425081.920   109298748.787 7      2935.356    20425094.760    85010184.313 8      2283.055    20425094.460    85010187.316 8      2283.055
G26  22993137.120   120829718.710 7      -380.283    22993135.740   120829718.717 6      -380.283    22993150.480    94153068.302 6      -296.324    22993150.700    94153106.298 7      -296.324
G01  22969489.080   120705516.278 7      5414.522    22969487.860   120705516.285 5      5414.522    22969500.300    94056307.641 5      4219.108    22969500.900    94056271.664 7      4219.108
G07  23985664.100   126045519.309 6      3533.598    23985663.400   126045519.308 5      3533.598    23985673.020    98217324.694 5      2753.453    23985672.020    98217317.706 7      2753.453
> 2025 04 04 14 02  6.0000000  0 14
G10  22328610.840   117337640.693 7      2301.653    22328610.100   117337640.698 7      2301.653    22328619.980    91431971.249 7      1793.496    22328620.100    91431968.254 8      1793.496
R24  21253755.660   113653374.249 7       463.610    21253755.600   113653374.261 7       463.610    21253768.380    88397122.049 8       360.586    21253768.180    88397116.044 8       360.586
G02  21173532.480   111267666.666 7      3583.945    21173530.880   111267666.676 6      3583.945    21173535.840    86702095.066 6      2792.684
G08  21222211.480   111523477.551 7      3824.116    21222210.560   111523477.538 6      3824.116    21222219.060    86901449.622 6      2979.831    21222220.080    86901443.633 8      2979.831
G27  21037212.000   110551298.646 8      2106.439    21037210.840   110551298.651 8      2106.439    21037219.120    86143909.929 8      1641.381    21037219.260    86143894.934 6      1641.381
G23  24407623.100   128262932.551 5       241.690    24407623.400   128262932.548 2       241.690    24407635.620    99945164.810 2       188.330    24407636.520    99945187.842 6       188.330
R15  20489358.920   109488923.811 7      5096.699    20489359.740   109488923.825 7      5096.699    20489369.460    85158091.691 8      3964.099    20489370.320    85158115.698 8      3964.099
R18  22943057.580   122471639.213 7      4906.395    22943058.000   122471639.219 7      4906.395    22943074.880    95255770.255 7      3816.085    22943076.400    95255826.260 7      3816.085
G16  21158688.660   111189643.241 7       747.485    21158687.100   111189643.251 6       747.485    21158693.940    86641297.894 6       582.456
R14  19586144.440   104405154.718 8       918.171    19586143.500   104405154.721 8       918.171    19586154.340    81204063.671 8       714.133    19586154.660    81204051.674 8       714.133
R17  20424534.340   109295813.656 7      2934.952    20424533.200   109295813.668 7      2934.952    20424546.160    85007901.447 8      2282.741    20424546.000    85007904.451 8      2282.741
G26  22993209.280   120830099.135 7      -380.440    22993208.180   120830099.140 6      -380.440    22993222.780    94153364.727 6      -296.447    22993223.020    94153402.721 7      -296.447
G01  22968458.960   120700101.952 7      5414.290    22968457.540   120700101.959 5      5414.290    22968470.040    94052088.696 5      4218.928    22968470.600    94052052.725 7      4218.928
G07  23984991.800   126041985.923 6      3533.237    23984991.060   126041985.920 5      3533.237    23985000.680    98214571.406 5      2753.172    23984999.780    98214564.429 7      2753.172
> 2025 04 04 14 02  7.0000000  0 14
G10  22328172.780   117335339.172 7      2301.105    22328172.000   117335339.176 7      2301.105    22328182.060    91430177.861 7      1793.069    22328181.840    91430174.866 8      1793.069
R24  21253669.120   113652910.599 7       463.517    21253668.840   113652910.611 7       463.517    21253681.840    88396761.432 8       360.513    21253681.300    88396755.427 8       360.513
G02  21172850.760   111264082.860 7      3583.526    21172848.920   111264082.868 6      3583.526    21172854.160    86699302.493 6      2792.358
G08  21221484.000   111519653.446 7      3823.914    21221482.840   111519653.433 6      3823.914    21221491.340    86898469.802 6      2979.673    21221492.540    86898463.817 8      2979.673
G27  21036811.200   110549192.160 8      2106.233    21036809.980   110549192.167 8      2106.233    21036818.240    86142268.513 8      1641.221    21036818.280    86142253.520 6      1641.221
G23  24407577.440   128262690.995 5       241.526    24407577.380   128262690.995 2       241.526    24407589.540    99944976.585 2       188.202    24407590.900    99944999.631 6       188.202
R15  20488405.080   109483827.388 8      5095.959    20488405.800   109483827.400 7      5095.959    20488415.880    85154127.811 8      3963.524    20488416.860    85154151.818 8      3963.524
R18  22942138.340   122466732.888 7      4906.109    22942138.340   122466732.878 7      4906.109    22942155.760    95251954.235 7      3815.862    22942157.700    95252010.240 7      3815.862
G16  21158546.340   111188895.965 7       746.926    21158544.980   111188895.972 6       746.926    21158551.760    86640715.596 6       582.020
R14  19585972.140   104404236.846 8       917.274    19585971.400   104404236.852 8       917.274    19585982.100    81203349.773 8       713.435    19585982.360    81203337.775 8       713.435
R17  20423986.160   109292878.739 7      2934.635    20423984.940   109292878.753 7      2934.635    20423997.780    85005618.738 8      2282.494    20423997.640    85005621.737 8      2282.494
G26  22993281.900   120830479.676 7      -380.785    22993280.720   120830479.683 6      -380.785    22993295.220    94153661.244 6      -296.715    22993295.460    94153699.230 7      -296.715
G01  22967428.400   120694687.802 7      5413.960    22967427.260   120694687.806 5      5413.960    22967439.720    94047869.884 5      4218.670    22967440.500    94047833.909 7      4218.670
G07  23984319.280   126038452.944 6      3532.562    23984318.820   126038452.943 5      3532.562    23984328.320    98211818.440 5      2752.646    23984327.060    98211811.454 7      2752.646
> 2025 04 04 14 02  8.0000000  0 14
G10  22327734.800   117333038.320 7      2300.574    22327734.200   117333038.330 7      2300.574    22327744.180    91428384.994 7      1792.655    22327744.300    91428382.003 8      1792.655
R24  21253582.480   113652447.036 8       463.645    21253582.180   113652447.043 7       463.645    21253595.120    88396400.879 8       360.613    21253594.740    88396394.874 8       360.613
G02  21172168.920   111260499.570 7      3583.148    21172167.020   111260499.580 6      3583.148    21172172.260    86696510.324 6      2792.063
G08  21220756.240   111515829.544 7      3823.810    21220755.240   111515829.535 6      3823.810    21220763.820    86895490.145 6      2979.592    21220764.680    86895484.163 8      2979.592
G27  21036410.260   110547085.921 8      2106.115    21036409.180   110547085.931 8      2106.115    21036417.440    86140627.294 8      1641.128    21036417.500    86140612.297 6      1641.128
G23  24407531.220   128262450.010 5       240.777    24407531.260   128262450.002 2       240.777    24407544.100    99944788.810 1       187.619    24407544.580    99944811.834 6       187.619
R15  20487451.400   109478731.740 8      5095.330    20487452.080   109478731.750 7      5095.330    20487462.260    85150164.534 8      3963.035    20487463.060    85150188.541 8      3963.035
R18  22941219.100   122461826.969 7      4905.794    22941219.300   122461826.973 7      4905.794    22941236.580    95248138.549 7      3815.618    22941238.560    95248194.554 7      3815.618
G16  21158404.300   111188149.211 7       746.561    21158402.940   111188149.218 6       746.561    21158409.720    86640133.710 6       581.736
R14  19585800.160   104403319.864 8       916.634    19585799.420   104403319.867 8       916.634    19585810.020    81202636.560 8       712.937    19585810.300    81202624.563 8       712.937
R17  20423437.660   109289944.241 7      2934.375    20423436.600   109289944.256 7      2934.375    20423449.420    85003336.353 8      2282.292    20423449.080    85003339.354 8      2282.292
G26  22993354.360   120830860.535 7      -380.956    22993353.100   120830860.539 6      -380.956    22993367.660    94153958.002 6      -296.849    22993368.020    94153995.996 7      -296.849
G01  22966398.380   120689274.051 7      5413.561    22966397.040   120689274.056 5      5413.561    22966409.480    94043651.387 5      4218.359    22966410.260    94043615.425 7      4218.359
G07  23983647.440   126034920.509 6      3532.125    23983646.580   126034920.511 5      3532.125    23983656.120    98209065.897 5      2752.305    23983654.780    98209058.916 7      2752.305
> 2025 04 04 14 02  9.0000000  0 14
G10  22327297.300   117330738.078 7      2300.038    22327296.460   117330738.088 7      2300.038    22327306.380    91426592.600 7      1792.237    22327306.420    91426589.605 8      1792.237
R24  21253495.800   113651983.543 8       463.594    21253495.480   113651983.550 8       463.594    21253508.300    88396040.387 8       360.573    21253507.960    88396034.379 8       360.573
G02  21171486.880   111256916.723 7      3582.744    21171485.280   111256916.728 6      3582.744    21171490.260    86693718.494 6      2791.749
G08  21220028.760   111512005.762 7      3823.857    21220027.520   111512005.751 6      3823.857    21220036.040    86892510.579 6      2979.628    21220036.980    86892504.593 8      2979.628
G27  21036009.580   110544979.852 8      2106.055    21036008.460   110544979.860 8      2106.055    21036016.680    86138986.200 8      1641.081    21036016.800    86138971.207 6      1641.081
G23  24407486.140   128262209.353 5       240.513    24407485.440   128262209.345 2       240.513    24407498.200    99944601.289 1       187.413    24407498.540    99944624.343 6       187.413
R15  20486497.720   109473636.782 8      5094.765    20486498.800   109473636.794 8      5094.765    20486508.680    85146201.791 8      3962.595    20486509.620    85146225.798 8      3962.595
R18  22940300.120   122456921.338 7      4905.563    22940300.320   122456921.347 7      4905.563    22940317.820    95244323.083 7      3815.438    22940319.640    95244379.093 7      3815.438
G16  21158262.220   111187402.907 7       746.242    21158260.920   111187402.911 6       746.242    21158267.680    86639552.172 6       581.487
R14  19585628.460   104402403.700 8       915.874    19585627.740   104402403.700 8       915.874    19585638.200    81201923.988 8       712.346    19585638.640    81201911.991 8       712.346
R17  20422889.320   109287010.070 7      2934.097    20422888.540   109287010.085 7      2934.097    20422901.180    85001054.224 8      2282.076    20422900.640    85001057.223 8      2282.076
G26  22993426.600   120831241.653 7      -381.179    22993425.760   120831241.661 6      -381.179    22993440.140    94154254.968 6      -297.023    22993440.340    94154292.964 7      -297.023
G01  22965368.400   120683860.587 7      5413.460    22965366.980   120683860.594 5      5413.460    22965379.260    94039433.118 5      4218.281    22965379.820    94039397.139 7      4218.281
G07  23982975.380   126031388.602 6      3531.725    23982974.480   126031388.610 5      3531.725    23982984.040    98206313.766 5      2751.993    23982982.880    98206306.789 7      2751.993
> 2025 04 04 14 02 10.0000000  0 14
G10  22326859.560   117328438.425 8      2299.383    22326858.840   117328438.432 7      2299.383    22326868.800    91424800.664 7      1791.727    22326868.840    91424797.671 8      1791.727
R24  21253409.440   113651520.128 8       463.390    21253408.960   113651520.132 8       463.390    21253421.540    88395679.951 8       360.414    21253421.160    88395673.945 8       360.414
G02  21170805.200   111253334.310 7      3582.107    21170803.520   111253334.321 6      3582.107    21170808.540    86690927.014 6      2791.252
G08  21219300.920   111508182.106 7      3823.713    21219300.020   111508182.095 6      3823.713    21219308.380    86889531.111 6      2979.516    21219309.380    86889525.127 8      2979.516
G27  21035608.620   110542873.960 8      2105.842    21035607.800   110542873.973 8      2105.842    21035615.960    86137345.249 8      1640.916    21035616.400    86137330.256 6      1640.916
G23  24407440.560   128261969.132 5       240.326    24407439.320   128261969.126 1       240.326    24407451.920    99944414.106 1       187.267    24407452.440    99944437.146 6       187.267
R15  20485544.440   109468542.550 8      5093.883    20485545.100   109468542.557 8      5093.883    20485555.280    85142239.615 8      3961.909    20485556.360    85142263.624 8      3961.909
R18  22939381.140   122452016.027 7      4905.238    22939381.800   122452016.025 7      4905.238    22939398.900    95240507.856 7      3815.185    22939400.880    95240563.867 7      3815.185
G16  21158120.240   111186657.059 7       745.700    21158119.000   111186657.067 6       745.700    21158125.820    86638970.995 6       581.065
R14  19585457.000   104401488.317 8       915.029    19585455.900   104401488.320 8       915.029    19585466.500    81201212.022 8       711.689    19585466.900    81201200.027 8       711.689
R17  20422341.020   109284076.247 8      2933.757    20422340.320   109284076.259 7      2933.757    20422352.820    84998772.362 8      2281.811    20422352.500    84998775.361 8      2281.811
G26  22993499.280   120831623.009 7      -381.405    22993498.300   120831623.016 6      -381.405    22993512.740    94154552.120 6      -297.198    22993513.400    94154590.116 7      -297.198
G01  22964337.700   120678447.474 7      5412.933    22964336.900   120678447.482 5      5412.933    22964349.040    94035215.116 5      4217.870    22964349.700    94035179.144 7      4217.870
G07  23982303.500   126027857.208 6      3531.274    23982302.200   126027857.213 5      3531.274    23982311.960    98203562.030 5      2751.642    23982310.760    98203555.055 7      2751.642
> 2025 04 04 14 02 11.0000000  0 14
G10  22326422.100   117326139.152 7      2299.059    22326421.280   117326139.160 7      2299.059    22326431.080    91423009.025 7      1791.474    22326431.380    91423006.032 8      1791.474
R24  21253322.940   113651056.563 7       463.618    21253322.140   113651056.570 7       463.618    21253334.920    88395319.396 8       360.591    21253334.760    88395313.391 8       360.591
G02  21170123.440   111249752.108 7      3582.013    21170121.960   111249752.115 6      3582.013    21170127.040    86688135.687 6      2791.179
G08  21218573.420   111504358.387 7      3823.686    21218572.380   111504358.376 6      3823.686    21218580.780    86886551.594 6      2979.495    21218581.780    86886545.608 8      2979.495
G27  21035207.820   110540768.039 8      2105.906    21035207.040   110540768.049 8      2105.906    21035215.320    86135704.267 8      1640.966    21035215.440    86135689.272 6      1640.966
G23  24407394.900   128261729.182 5       239.879    24407393.500   128261729.176 1       239.879    24407405.880    99944227.138 1       186.919    24407406.780    99944250.168 6       186.919
R15  20484591.180   109463448.802 7      5093.471    20484591.860   109463448.811 7      5093.471    20484602.220    85138277.815 8      3961.589    20484603.200    85138301.822 8      3961.589
R18  22938462.040   122447110.821 7      4905.052    22938462.180   122447110.821 7      4905.052    22938480.060    95236692.723 7      3815.040    22938481.940    95236748.725 7      3815.040
G16  21157978.600   111185911.467 7       745.436    21157977.120   111185911.480 6       745.436    21157983.920    86638390.014 6       580.859
R14  19585285.180   104400573.510 8       914.483    19585284.360   104400573.513 8       914.483    19585294.940    81200500.507 8       711.264    19585295.280    81200488.510 8       711.264
R17  20421792.320   109281142.563 7      2933.598    20421791.700   109281142.580 7      2933.598    20421804.700    84996490.618 8      2281.687    20421804.420    84996493.617 8      2281.687
G26  22993571.680   120832004.430 7      -381.503    22993571.000   120832004.432 6      -381.503    22993585.240    94154849.322 6      -297.275    22993585.680    94154887.323 7      -297.275
G01  22963307.720   120673034.423 7      5412.990    22963306.680   120673034.427 5      5412.990    22963319.040    94030997.164 5      4217.914    22963319.780    94030961.197 7      4217.914
G07  23981631.380   126024326.137 7      3530.950    23981630.340   126024326.139 5      3530.950    23981640.000    98200810.548 5      2751.390    23981638.880    98200803.561 7      2751.390
> 2025 04 04 14 02 12.0000000  0 14
G10  22325984.840   117323840.429 7      2298.463    22325983.860   117323840.434 7      2298.463    22325993.820    91421217.814 7      1791.010    22325993.900    91421214.819 8      1791.010
R24  21253235.980   113650592.990 7       463.574    21253235.480   113650592.994 7       463.574    21253248.200    88394958.835 8       360.557    21253248.040    88394952.832 8       360.557
G02  21169441.760   111246170.281 7      3581.606    21169440.260   111246170.288 6      3581.606    21169445.380    86685344.657 6      2790.862
G08  21217845.720   111500534.721 7      3823.596    21217844.660   111500534.713 6      3823.596    21217853.100    86883572.122 6      2979.425    21217854.180    86883566.136 8      2979.425
G27  21034807.260   110538662.230 8      2105.732    21034806.260   110538662.238 8      2105.732    21034814.540    86134063.381 8      1640.830    21034814.620    86134048.386 6      1640.830
G23  24407349.880   128261489.529 5       239.576    24407347.940   128261489.528 1       239.576    24407360.240    99944040.396 1       186.682    24407361.120    99944063.429 6       186.682
R15  20483638.160   109458355.711 7      5092.747    20483638.680   109458355.723 7      5092.747    20483649.120    85134316.530 8      3961.026    20483650.200    85134340.539 8      3961.026
R18  22937543.060   122442205.878 7      4904.853    22937543.700   122442205.874 7      4904.853    22937561.140    95232877.788 7      3814.886    22937563.140    95232933.789 7      3814.886
G16  21157836.560   111185166.274 7       744.979    21157835.340   111185166.284 6       744.979    21157842.100    86637809.342 6       580.503
R14  19585113.600   104399659.468 8       913.660    19585112.980   104399659.471 8       913.660    19585123.380    81199789.585 8       710.625    19585123.800    81199777.588 8       710.625
R17  20421244.360   109278209.170 7      2933.162    20421243.920   109278209.185 7      2933.162    20421256.360    84994209.099 8      2281.348    20421256.180    84994212.096 8      2281.348
G26  22993644.460   120832386.035 7      -381.710    22993643.680   120832386.039 6      -381.710    22993658.000    94155146.673 6      -297.436    22993658.380    94155184.673 7      -297.436
G01  22962278.200   120667621.657 7      5412.643    22962276.580   120667621.665 5      5412.643    22962289.060    94026779.439 5      4217.644    22962289.640    94026743.468 7      4217.644
G07  23980959.600   126020795.512 6      3530.449    23980958.520   126020795.515 5      3530.449    23980968.220    98198059.412 5      2750.999    23980967.420    98198052.435 7      2750.999
> 2025 04 04 14 02 13.0000000  0 14
G10  22325547.580   117321542.291 7      2297.807    22325546.540   117321542.296 7      2297.807    22325556.440    91419427.060 7      1790.499    22325556.520    91419424.065 8      1790.499
R24  21253149.440   113650129.441 7       463.531    21253148.460   113650129.442 7       463.531    21253161.520    88394598.299 8       360.524    21253161.500    88394592.291 8       360.524
G02  21168760.260   111242588.869 7      3581.245    21168758.820   111242588.877 6      3581.245    21168763.760    86682553.953 6      2790.581
G08  21217118.160   111496711.183 7      3823.514    21217117.160   111496711.170 6      3823.514    21217125.440    86880592.742 6      2979.362    21217126.560    86880586.756 8      2979.362
G27  21034406.760   110536556.582 7      2105.617    21034405.560   110536556.587 8      2105.617    21034413.900    86132422.617 8      1640.741    21034413.980    86132407.620 6      1640.741
G23  24407304.360   128261250.312 5       239.010    24407302.440   128261250.311 1       239.010    24407314.520    99943853.993 1       186.242    24407316.180    99943877.024 6       186.242
R15  20482685.400   109453263.310 7      5092.056    20482685.380   109453263.325 7      5092.056    20482696.200    85130355.782 8      3960.488    20482697.340    85130379.787 8      3960.488
R18  22936624.380   122437301.256 6      4904.471    22936625.180   122437301.268 6      4904.471    22936642.160    95229063.109 7      3814.588    22936644.220    95229119.112 7      3814.588
G16  21157694.940   111184421.520 7       744.537    21157693.600   111184421.527 6       744.537    21157700.420    86637229.014 6       580.159
R14  19584942.000   104398746.220 8       912.871    19584941.800   104398746.228 8       912.871    19584952.040    81199079.286 8       710.010    19584952.500    81199067.288 8       710.010
R17  20420696.240   109275276.067 7      2932.940    20420695.660   109275276.081 7      2932.940    20420708.320    84991927.796 8      2281.176    20420708.020    84991930.793 8      2281.176
G26  22993717.380   120832767.907 7      -382.062    22993716.420   120832767.912 6      -382.062    22993730.620    94155444.228 6      -297.711    22993731.460    94155482.228 7      -297.711
G01  22961248.260   120662209.215 7      5412.205    22961246.480   120662209.220 5      5412.205    22961258.940    94022561.964 5      4217.303    22961259.700    94022525.991 7      4217.303
G07  23980287.700   126017265.400 6      3529.840    23980286.900   126017265.400 5      3529.840    23980296.500    98195308.678 5      2750.525    23980295.600    98195301.696 7      2750.525
> 2025 04 04 14 02 14.0000000  0 14
G10  22325110.220   117319244.651 8      2297.434    22325109.280   117319244.653 7      2297.434    22325119.260    91417636.687 7      1790.208    22325119.340    91417633.696 8      1790.208
R24  21253062.660   113649665.841 7       463.683    21253062.020   113649665.850 7       463.683    21253074.740    88394237.721 8       360.642    21253074.660    88394231.716 8       360.642
G02  21168078.960   111239007.812 7      3581.009    21168077.420   111239007.822 6      3581.009    21168082.300    86679763.521 6      2790.397
G08  21216390.560   111492887.677 7      3823.571    21216389.400   111492887.669 6      3823.571    21216397.860    86877613.391 6      2979.406    21216398.800    86877607.400 8      2979.406
G27  21034006.060   110534451.031 7      2105.541    21034004.880   110534451.036 8      2105.541    21034013.280    86130781.928 8      1640.681    21034013.380    86130766.931 6      1640.681
G23  24407258.300   128261011.378 5       238.741    24407257.100   128261011.380 1       238.741    24407269.080    99943667.817 1       186.032    24407270.960    99943690.865 6       186.032
R15  20481732.400   109448171.528 7      5091.531    20481732.380   109448171.527 7      5091.531    20481743.280    85126395.497 8      3960.080    20481744.320    85126419.502 8      3960.080
R18  22935706.060   122432396.850 6      4904.410    22935706.060   122432396.862 6      4904.410    22935723.420    95225248.590 7      3814.541    22935725.340    95225304.588 7      3814.541
G16  21157553.340   111183677.142 7       744.202    21157551.900   111183677.149 6       744.202    21157558.800    86636648.977 6       579.898
R14  19584770.820   104397833.683 8       912.223    19584770.700   104397833.689 8       912.223    19584780.960    81198369.531 8       709.507    19584781.380    81198357.532 8       709.507
R17  20420148.480   109272343.207 7      2932.797    20420147.940   109272343.219 7      2932.797    20420160.320    84989646.682 8      2281.064    20420159.740    84989649.682 8      2281.064
G26  22993790.040   120833149.912 7      -382.065    22993789.080   120833149.911 6      -382.065    22993803.360    94155741.881 6      -297.713    22993803.680    94155779.878 7      -297.713
G01  22960217.880   120656796.959 7      5412.203    22960216.540   120656796.964 5      5412.203    22960229.120    94018344.630 5      4217.301    22960230.040    94018308.653 7      4217.301
G07  23979615.940   126013735.714 6      3529.375    23979615.140   126013735.719 5      3529.375    23979624.700    98192558.275 5      2750.162    23979623.740    98192551.295 7      2750.162
> 2025 04 04 14 02 15.0000000  0 14
G10  22324673.000   117316947.619 7      2296.855    22324672.100   117316947.627 7      2296.855    22324682.060    91415846.796 7      1789.757    22324682.320    91415843.803 8      1789.757
R24  21252975.960   113649202.313 7       463.584    21252975.500   113649202.326 7       463.584    21252988.100    88393877.202 8       360.565    21252987.940    88393871.196 8       360.565
G02  21167397.460   111235427.215 7      3580.422    21167396.000   111235427.220 6      3580.422    21167400.940    86676973.445 6      2789.939
G08  21215663.060   111489064.316 7      3823.367    21215661.800   111489064.305 6      3823.367    21215670.260    86874634.150 6      2979.247    21215671.100    86874628.162 8      2979.247
G27  21033605.440   110532345.646 7      2105.414    21033604.220   110532345.654 8      2105.414    21033612.540    86129141.374 8      1640.583    21033612.660    86129126.379 6      1640.583
G23  24407213.040   128260772.892 5       238.361    24407211.500   128260772.894 1       238.361    24407223.720    99943481.991 1       185.735    24407225.360    99943505.021 5       185.735
R15  20480779.600   109443080.439 7      5090.839    20480779.360   109443080.440 7      5090.839    20480790.640    85122435.767 8      3959.542    20480791.680    85122459.774 8      3959.542
R18  22934787.260   122427492.778 6      4903.943    22934787.580   122427492.781 6      4903.943    22934804.880    95221434.324 7      3814.178    22934806.420    95221490.324 7      3814.178
G16  21157411.660   111182933.220 7       743.731    21157410.400   111182933.228 6       743.731    21157417.240    86636069.294 6       579.531
R14  19584599.920   104396921.949 8       911.377    19584599.600   104396921.958 8       911.377    19584609.880    81197660.406 8       708.849    19584610.440    81197648.407 8       708.849
R17  20419600.220   109269410.718 7      2932.277    20419600.000   109269410.733 7      2932.277    20419612.280    84987365.865 8      2280.660    20419611.900    84987368.864 8      2280.660
G26  22993862.660   120833532.189 7      -382.291    22993861.820   120833532.189 6      -382.291    22993876.160    94156039.748 6      -297.889    22993876.340    94156077.748 7      -297.889
G01  22959188.460   120651385.051 7      5411.723    22959186.580   120651385.058 5      5411.723    22959199.180    94014127.565 5      4216.927    22959200.280    94014091.598 7      4216.927
G07  23978944.480   126010206.526 6      3529.011    23978943.460   126010206.534 5      3529.011    23978953.060    98189808.259 5      2749.879    23978952.240    98189801.281 7      2749.879
> 2025 04 04 14 02 16.0000000  0 14
G10  22324235.880   117314651.151 7      2296.285    22324235.080   117314651.153 7      2296.285    22324245.080    91414057.342 7      1789.313    22324245.000    91414054.347 8      1789.313
R24  21252889.340   113648738.821 7       463.486    21252888.700   113648738.833 7       463.486    21252901.500    88393516.705 8       360.489    21252901.260    88393510.702 8       360.489
G02  21166716.200   111231846.985 7      3580.125    21166714.760   111231846.990 6      3580.125    21166719.660    86674183.658 6      2789.708
G08  21214935.460   111485241.033 7      3823.280    21214934.160   111485241.025 6      3823.280    21214942.680    86871654.973 6      2979.180    21214943.560    86871648.987 8      2979.180
G27  21033204.820   110530240.418 8      2105.258    21033203.660   110530240.429 8      2105.258    21033211.980    86127500.937 8      1640.461    21033211.960    86127485.940 6      1640.461
G23  24407167.500   128260534.778 5       238.180    24407165.880   128260534.780 1       238.180    24407178.260    99943296.450 1       185.595    24407180.700    99943319.466 5       185.595
R15  20479827.200   109437990.031 7      5090.127    20479826.900   109437990.037 7      5090.127    20479837.940    85118476.567 8      3958.987    20479839.020    85118500.571 8      3958.987
R18  22933868.320   122422588.970 7      4903.750    22933868.680   122422588.957 6      4903.750    22933886.280    95217620.255 7      3814.028    22933887.700    95217676.254 7      3814.028
G16  21157270.260   111182189.706 7       743.420    21157269.020   111182189.714 6       743.420    21157275.740    86635489.932 6       579.289
R14  19584428.840   104396010.977 8       910.644    19584428.600   104396010.983 8       910.644    19584439.120    81196951.869 8       708.279    19584439.340    81196939.871 8       708.279
R17  20419052.260   109266478.543 7      2932.091    20419051.980   109266478.561 7      2932.091    20419064.100    84985085.290 8      2280.515    20419064.000    84985088.289 8      2280.515
G26  22993935.340   120833914.664 7      -382.435    22993934.660   120833914.664 6      -382.435    22993948.900    94156337.774 6      -298.001    22993949.520    94156375.772 7      -298.001
G01  22958158.440   120645973.413 7      5411.493    22958156.840   120645973.420 5      5411.493    22958169.440    94009910.718 5      4216.748    22958170.180    94009874.745 7      4216.748
G07  23978273.220   126006677.849 6      3528.505    23978272.020   126006677.856 5      3528.505    23978281.700    98187058.642 5      2749.484    23978280.780    98187051.656 7      2749.484
> 2025 04 04 14 02 17.0000000  0 14
G10  22323798.780   117312355.207 7      2295.634    22323798.220   117312355.217 7      2295.634    22323808.140    91412268.299 7      1788.806    22323808.300    91412265.306 8      1788.806
R24  21252802.320   113648275.296 7       463.478    21252802.180   113648275.308 7       463.478    21252814.780    88393156.184 8       360.483    21252814.500    88393150.176 8       360.483
G02  21166035.160   111228267.140 7      3579.621    21166033.540   111228267.145 6      3579.621    21166038.420    86671394.172 6      2789.315
G08  21214207.860   111481417.819 7      3823.114    21214206.700   111481417.813 6      3823.114    21214215.140    86868675.851 6      2979.050    21214216.180    86868669.871 8      2979.050
G27  21032804.160   110528135.293 8      2105.036    21032803.120   110528135.301 8      2105.036    21032811.400    86125860.580 8      1640.288    21032811.580    86125845.587 7      1640.288
G23  24407122.340   128260297.027 5       237.609    24407120.920   128260297.029 1       237.609    24407133.000    99943111.192 1       185.150    24407134.780    99943134.209 5       185.150
R15  20478874.620   109432900.280 7      5089.409    20478874.120   109432900.278 7      5089.409    20478885.580    85114517.871 8      3958.429    20478886.520    85114541.876 8      3958.429
R18  22932950.020   122417685.404 7      4903.378    22932949.700   122417685.408 6      4903.378    22932967.740    95213806.404 7      3813.738    22932969.120    95213862.401 7      3813.738
G16  21157129.060   111181446.592 7       742.961    21157127.540   111181446.597 6       742.961    21157134.340    86634910.876 6       578.931
R14  19584258.240   104395100.752 8       909.800    19584257.840   104395100.758 8       909.800    19584268.280    81196243.913 8       707.622    19584268.720    81196231.916 8       707.622
R17  20418504.320   109263546.697 7      2931.662    20418504.180   109263546.718 7      2931.662    20418516.320    84982804.970 8      2280.182    20418516.140    84982807.971 8      2280.182
G26  22994008.200   120834297.343 7      -382.745    22994007.420   120834297.348 6      -382.745    22994021.780    94156635.957 6      -298.243    22994021.880    94156673.966 7      -298.243
G01  22957128.380   120640562.013 7      5411.230    22957127.120   120640562.024 5      5411.230    22957139.740    94005694.056 5      4216.543    22957140.320    94005658.083 7      4216.543
G07  23977601.940   126003149.595 6      3527.995    23977600.520   126003149.599 5      3527.995    23977610.220    98184309.353 5      2749.087    23977609.260    98184302.367 7      2749.087
> 2025 04 04 14 02 18.0000000  0 14
G10  22323362.040   117310059.671 7      2295.230    22323361.380   117310059.679 7      2295.230    22323371.200    91410479.574 7      1788.491    22323371.740    91410476.579 8      1788.491
R24  21252715.360   113647811.653 7       463.571    21252715.440   113647811.665 7       463.571    21252728.100    88392795.571 8       360.556    21252727.680    88392789.563 8       360.556
G02  21165353.940   111224687.538 7      3579.328    21165352.400   111224687.543 6      3579.328    21165357.180    86668604.878 6      2789.087
G08  21213480.160   111477594.528 7      3823.301    21213479.140   111477594.520 6      3823.301    21213487.640    86865696.666 6      2979.195    21213488.140    86865690.681 8      2979.195
G27  21032403.660   110526030.150 8      2105.035    21032402.560   110526030.157 8      2105.035    21032410.780    86124220.208 8      1640.287    21032410.780    86124205.217 7      1640.287
G23  24407077.060   128260059.486 5       237.520    24407075.480   128260059.486 1       237.520    24407088.100    99942926.093 1       185.080    24407090.080    99942949.119 5       185.080
R15  20477922.140   109427811.066 7      5088.742    20477921.660   109427811.062 7      5088.742    20477933.260    85110559.600 8      3957.910    20477934.060    85110583.605 8      3957.910
R18  22932030.920   122412781.994 7      4903.125    22932031.240   122412782.006 6      4903.125    22932049.260    95209992.672 7      3813.542    22932050.900    95210048.670 7      3813.542
G16  21156987.500   111180703.751 7       742.610    21156986.100   111180703.755 6       742.610    21156992.920    86634332.040 6       578.657
R14  19584087.720   104394191.158 8       909.164    19584087.200   104394191.158 8       909.164    19584097.700    81195536.447 8       707.128    19584098.160    81195524.450 8       707.128
R17  20417956.100   109260614.953 7      2931.602    20417956.560   109260614.976 7      2931.602    20417968.540    84980524.733 8      2280.135    20417968.180    84980527.734 8      2280.135
G26  22994081.280   120834680.094 7      -382.927    22994080.240   120834680.096 6      -382.927    22994094.360    94156934.194 6      -298.385    22994094.780    94156972.199 7      -298.385
G01  22956098.740   120635150.751 7      5411.026    22956097.480   120635150.764 5      5411.026    22956110.100    94001477.496 5      4216.384    22956110.020    94001441.529 7      4216.384
G07  23976930.560   125999621.692 6      3527.501    23976929.140   125999621.697 5      3527.501    23976938.920    98181560.342 5      2748.702    23976937.940    98181553.361 7      2748.702
> 2025 04 04 14 02 19.0000000  0 14
G10  22322925.320   117307764.705 8      2294.623    22322924.680   117307764.713 7      2294.623    22322934.620    91408691.289 7      1788.018    22322934.980    91408688.296 8      1788.018
R24  21252628.780   113647348.021 7       463.556    21252628.700   113647348.036 7       463.556    21252641.580    88392434.968 8       360.543    21252641.200    88392428.961 8       360.543
G02  21164672.940   111221108.336 7      3578.964    21164671.260   111221108.344 6      3578.964    21164676.180    86665815.894 6      2788.803
G08  21212752.700   111473771.359 7      3823.077    21212751.560   111473771.353 6      3823.077    21212759.960    86862717.581 6      2979.021    21212761.060    86862711.592 8      2979.021
G27  21032002.660   110523925.153 8      2104.886    21032001.940   110523925.161 8      2104.886    21032010.240    86122579.953 8      1640.171    21032010.120    86122564.960 7      1640.171
G23  24407031.920   128259822.321 5       237.264    24407030.300   128259822.318 1       237.264    24407042.980    99942741.293 1       184.881    24407045.000    99942764.311 5       184.881
R15  20476970.020   109422722.506 7      5088.198    20476969.220   109422722.505 7      5088.198    20476980.920    85106601.836 8      3957.487    20476982.100    85106625.843 8      3957.487
R18  22931112.580   122407878.875 6      4903.001    22931112.780   122407878.875 6      4903.001    22931130.520    95206179.142 7      3813.445    22931132.160    95206235.141 7      3813.445
G16  21156846.020   111179961.338 7       742.150    21156844.920   111179961.342 6       742.150    21156851.780    86633753.535 6       578.299
R14  19583917.220   104393282.356 8       908.361    19583916.660   104393282.359 8       908.361    19583927.140    81194829.603 8       706.503    19583927.580    81194817.606 8       706.503
R17  20417408.540   109257683.508 7      2931.282    20417408.580   109257683.531 7      2931.282    20417420.820    84978244.722 8      2279.886    20417420.320    84978247.723 8      2279.886
G26  22994154.080   120835063.068 7      -383.114    22994153.220   120835063.070 6      -383.114    22994167.380    94157232.607 6      -298.531    22994167.680    94157270.612 7      -298.531
G01  22955069.120   120629739.767 7      5410.913    22955067.700   120629739.777 5      5410.913    22955080.480    93997261.155 5      4216.296    22955080.820    93997225.186 7      4216.296
G07  23976259.280   125996094.244 6      3527.257    23976258.000   125996094.247 5      3527.257    23976267.700    98178811.673 5      2748.512    23976266.600    98178804.692 7      2748.512
> 2025 04 04 14 02 20.0000000  0 14
G10  22322488.740   117305470.257 7      2294.146    22322488.000   117305470.264 7      2294.146    22322498.080    91406903.407 7      1787.646    22322498.060    91406900.414 8      1787.646
R24  21252542.020   113646884.355 7       463.583    21252541.940   113646884.364 7       463.583    21252554.740    88392074.332 8       360.564    21252554.400    88392068.327 8       360.564
G02  21163991.700   111217529.476 7      3578.770    21163990.180   111217529.486 6      3578.770    21163995.180    86663027.175 6      2788.652
G08  21212025.160   111469948.247 7      3823.021    21212024.240   111469948.238 6      3823.021    21212032.400    86859738.532 6      2978.977    21212033.340    86859732.542 8      2978.977
G27  21031602.420   110521820.251 7      2104.866    21031601.480   110521820.259 8      2104.866    21031609.680    86120939.770 8      1640.156    21031609.480    86120924.775 7      1640.156
G23  24406987.720   128259585.522 5       236.968    24406985.120   128259585.519 1       236.968    24406997.820    99942556.778 1       184.651    24406999.060    99942579.798 5       184.651
R15  20476018.080   109417634.588 7      5087.583    20476017.120   109417634.592 7      5087.583    20476028.780    85102644.575 8      3957.009    20476029.740    85102668.579 8      3957.009
R18  22930194.540   122402975.974 7      4902.727    22930194.120   122402975.983 6      4902.727    22930211.940    95202365.802 7      3813.232    22930213.520    95202421.801 7      3813.232
G16  21156704.620   111179219.290 7       741.846    21156703.720   111179219.295 6       741.846    21156710.560    86633175.316 6       578.062
R14  19583746.900   104392374.251 8       907.712    19583746.380   104392374.260 8       907.712    19583756.700    81194123.304 8       705.998    19583757.380    81194111.305 8       705.998
R17  20416861.160   109254752.321 7      2930.999    20416861.120   109254752.349 7      2930.999    20416873.000    84975964.916 8      2279.666    20416872.480    84975967.919 8      2279.666
G26  22994227.080   120835446.194 7      -383.147    22994225.960   120835446.199 6      -383.147    22994240.220    94157531.141 6      -298.556    22994240.920    94157569.141 7      -298.556
G01  22954039.840   120624329.028 7      5410.731    22954038.140   120624329.038 5      5410.731    22954050.820    93993045.005 5      4216.154    22954051.160    93993009.036 7      4216.154
G07  23975587.820   125992567.241 6      3526.825    23975586.780   125992567.238 5      3526.825    23975596.620    98176063.367 5      2748.175    23975595.860    98176056.379 7      2748.175
> 2025 04 04 14 02 21.0000000  0 14
G10  22322052.060   117303176.486 7      2293.396    22322051.460   117303176.491 7      2293.396    22322061.540    91405116.055 7      1787.062    22322061.740    91405113.060 8      1787.062
R24  21252455.720   113646420.816 7       463.332    21252455.220   113646420.828 7       463.332    21252467.980    88391713.803 8       360.369    21252467.820    88391707.795 8       360.369
G02  21163310.900   111213951.172 7      3577.966    21163309.180   111213951.180 6      3577.966    21163314.220    86660238.889 6      2788.025
G08  21211297.660   111466125.321 7      3822.706    21211296.660   111466125.318 6      3822.706    21211304.980    86856759.636 6      2978.732    21211305.680    86856753.647 8      2978.732
G27  21031201.760   110519715.612 7      2104.504    21031200.980   110519715.622 8      2104.504    21031209.080    86119299.795 8      1639.873    21031209.140    86119284.798 7      1639.873
G23  24406942.680   128259349.229 5       236.078    24406940.580   128259349.226 1       236.078    24406952.720    99942372.656 1       183.957    24406955.320    99942395.677 5       183.957
R15  20475065.880   109412547.507 7      5086.580    20475064.920   109412547.497 7      5086.580    20475076.700    85098687.951 8      3956.229    20475077.640    85098711.956 8      3956.229
R18  22929276.060   122398073.458 7      4902.229    22929275.380   122398073.472 6      4902.229    22929293.480    95198552.755 7      3812.845    22929294.980    95198608.749 7      3812.845
G16  21156563.820   111178477.804 7       741.088    21156562.700   111178477.809 6       741.088    21156569.220    86632597.533 6       577.471
R14  19583576.560   104391467.024 8       906.722    19583576.240   104391467.030 8       906.722    19583586.680    81193417.679 8       705.228    19583587.080    81193405.677 8       705.228
R17  20416313.320   109251821.585 7      2930.434    20416313.880   109251821.603 7      2930.434    20416325.200    84973685.450 8      2279.227    20416324.880    84973688.452 8      2279.227
G26  22994300.220   120835829.675 7      -383.608    22994299.100   120835829.680 6      -383.608    22994313.240    94157829.949 6      -298.915    22994314.220    94157867.947 7      -298.915
G01  22953010.220   120618918.698 7      5410.093    22953008.540   120618918.713 5      5410.093    22953021.200    93988829.178 5      4215.657    22953021.720    93988793.207 7      4215.657
G07  23974916.800   125989040.841 7      3526.072    23974915.840   125989040.843 5      3526.072    23974925.480    98173315.521 5      2747.589    23974924.940    98173308.540 7      2747.589
> 2025 04 04 14 02 22.0000000  0 14
G10  22321615.820   117300883.189 7      2292.709    22321615.120   117300883.194 7      2292.709    22321625.120    91403329.070 7      1786.526    22321625.460    91403326.073 8      1786.526
R24  21252368.940   113645957.200 7       463.293    21252368.580   113645957.218 7       463.293    21252381.360    88391353.215 8       360.339    21252381.000    88391347.211 8       360.339
G02  21162630.060   111210373.155 7      3577.516    21162628.280   111210373.160 6      3577.516    21162633.300    86657450.824 6      2787.675
G08  21210570.300   111462302.409 7      3822.556    21210569.160   111462302.406 6      3822.556    21210577.480    86853780.745 6      2978.615    21210578.340    86853774.755 8      2978.615
G27  21030801.360   110517611.039 7      2104.200    21030800.540   110517611.039 8      2104.200    21030808.700    86117659.864 8      1639.636    21030808.760    86117644.869 7      1639.636
G23  24406897.860   128259113.210 5       235.479    24406896.100   128259113.207 1       235.479    24406907.620    99942188.749 1       183.490    24406909.960    99942211.776 5       183.490
R15  20474114.300   109407460.943 7      5085.960    20474112.680   109407460.931 7      5085.960    20474124.920    85094731.737 8      3955.746    20474125.820    85094755.742 8      3955.746
R18  22928357.600   122393171.168 6      4901.702    22928357.140   122393171.188 6      4901.702    22928375.100    95194739.888 7      3812.435    22928376.800    95194795.889 7      3812.435
G16  21156422.460   111177736.618 7       740.664    21156421.620   111177736.623 6       740.664    21156428.200    86632019.983 6       577.141
R14  19583406.320   104390560.445 8       905.902    19583406.160   104390560.453 8       905.902    19583416.600    81192712.564 8       704.590    19583417.100    81192700.564 8       704.590
R17  20415765.400   109248891.090 7      2929.972    20415765.840   109248891.102 7      2929.972    20415777.760    84971406.179 8      2278.867    20415777.220    84971409.182 8      2278.867
G26  22994373.300   120836213.290 7      -384.036    22994372.100   120836213.300 6      -384.036    22994386.220    94158128.868 6      -299.248    22994387.000    94158166.870 7      -299.248
G01  22951980.480   120613508.552 7      5409.741    22951979.000   120613508.565 5      5409.741    22951991.460    93984613.490 5      4215.382    22951992.060    93984577.517 7      4215.382
G07  23974245.560   125985514.836 6      3525.492    23974244.940   125985514.835 5      3525.492    23974254.480    98170567.984 5      2747.137    23974253.920    98170561.007 7      2747.137
> 2025 04 04 14 02 23.0000000  0 14
G10  22321179.580   117298590.322 7      2292.476    22321178.780   117298590.330 7      2292.476    22321188.860    91401542.425 7      1786.345    22321188.940    91401539.430 8      1786.345
R24  21252282.500   113645493.483 7       463.633    21252281.800   113645493.498 7       463.633    21252294.580    88390992.545 8       360.603    21252294.440    88390986.540 8       360.603
G02  21161949.280   111206795.406 7      3577.397    21161947.480   111206795.411 6      3577.397    21161952.560    86654662.974 6      2787.582
G08  21209842.880   111458479.471 7      3822.765    21209841.680   111458479.460 6      3822.765    21209849.940    86850801.836 6      2978.778    21209850.720    86850795.839 8      2978.778
G27  21030400.980   110515506.445 8      2104.461    21030400.020   110515506.452 8      2104.461    21030408.160    86116019.926 8      1639.839    21030408.280    86116004.931 7      1639.839
G23  24406852.540   128258877.442 5       235.355    24406851.200   128258877.442 1       235.355    24406862.820    99942005.034 1       183.393    24406864.720    99942028.066 5       183.393
R15  20473162.480   109402374.893 7      5085.629    20473160.680   109402374.880 7      5085.629    20473172.880    85090775.927 8      3955.490    20473174.040    85090799.933 8      3955.490
R18  22927439.280   122388269.010 6      4901.930    22927438.740   122388269.021 6      4901.930    22927456.600    95190927.113 7      3812.612    22927458.460    95190983.111 7      3812.612
G16  21156281.540   111176995.748 7       740.524    21156280.660   111176995.752 6       740.524    21156287.320    86631442.681 6       577.032
R14  19583236.380   104389654.542 8       905.329    19583236.240   104389654.546 8       905.329    19583246.660    81192007.967 8       704.145    19583247.080    81191995.967 8       704.145
R17  20415218.080   109245960.761 7      2930.046    20415218.380   109245960.779 7      2930.046    20415230.160    84969127.040 8      2278.924    20415229.740    84969130.041 8      2278.924
G26  22994446.420   120836596.986 7      -383.898    22994445.100   120836596.994 6      -383.898    22994459.340    94158427.842 6      -299.141    22994459.820    94158465.840 7      -299.141
G01  22950951.000   120608098.559 7      5409.737    22950949.440   120608098.572 5      5409.737    22950961.960    93980397.921 5      4215.380    22950962.640    93980361.950 7      4215.380
G07  23973574.780   125981989.177 6      3525.259    23973574.040   125981989.177 5      3525.259    23973583.720    98167820.722 5      2746.955    23973582.580    98167813.745 7      2746.955
> 2025 04 04 14 02 24.0000000  0 14
G10  22320743.380   117296297.913 7      2292.172    22320742.520   117296297.923 7      2292.172    22320752.560    91399756.134 7      1786.108    22320752.580    91399753.135 8      1786.108
R24  21252195.780   113645029.707 7       463.839    21252195.360   113645029.719 7       463.839    21252207.760    88390631.822 8       360.764    21252207.660    88390625.819 8       360.764
G02  21161268.500   111203217.957 7      3577.257    21161266.740   111203217.967 6      3577.257    21161271.860    86651875.357 6      2787.473
G08  21209115.460   111454656.506 7      3822.965    21209114.120   111454656.498 6      3822.965    21209122.360    86847822.907 6      2978.934    21209123.140    86847816.914 8      2978.934
G27  21030000.700   110513401.918 8      2104.541    21029999.600   110513401.921 8      2104.541    21030007.740    86114380.034 8      1639.902    21030007.780    86114365.037 7      1639.902
G23  24406808.060   128258641.959 5       235.146    24406806.040   128258641.956 1       235.146    24406817.880    99941821.545 1       183.231    24406820.180    99941844.578 5       183.231
R15  20472210.640   109397289.411 7      5085.193    20472209.040   109397289.404 7      5085.193    20472221.320    85086820.554 8      3955.150    20472222.420    85086844.563 8      3955.150
R18  22926520.500   122383367.065 6      4901.820    22926520.500   122383367.092 6      4901.820    22926538.600    95187114.516 7      3812.527    22926540.280    95187170.512 7      3812.527
G16  21156140.720   111176255.184 7       740.355    21156139.600   111176255.194 6       740.355    21156146.480    86630865.619 6       576.900
R14  19583066.760   104388749.322 8       904.806    19583066.280   104388749.328 8       904.806    19583076.920    81191303.906 8       703.738    19583077.300    81191291.907 8       703.738
R17  20414670.620   109243030.593 7      2930.076    20414671.200   109243030.611 7      2930.076    20414682.440    84966848.025 8      2278.948    20414682.100    84966851.026 8      2278.948
G26  22994519.160   120836980.814 7      -383.926    22994518.040   120836980.819 6      -383.926    22994532.340    94158726.914 6      -299.163    22994533.080    94158764.912 7      -299.163
G01  22949921.320   120602688.744 7      5409.714    22949920.020   120602688.760 5      5409.714    22949932.460    93976182.493 5      4215.362    22949933.120    93976146.522 7      4215.362
G07  23972903.700   125978463.921 7      3524.953    23972903.140   125978463.918 5      3524.953    23972912.780    98165073.771 5      2746.717    23972911.420    98165066.788 7      2746.717
> 2025 04 04 14 02 25.0000000  0 14
G10  22320307.440   117294006.276 7      2291.231    22320306.480   117294006.284 7      2291.231    22320316.380    91397970.445 7      1785.374    22320316.620    91397967.446 8      1785.374
R24  21252108.800   113644566.158 7       463.394    21252108.520   113644566.172 7       463.394    21252120.920    88390271.288 8       360.417    21252121.000    88390265.287 8       360.417
G02  21160587.720   111199641.104 7      3576.563    21160586.120   111199641.111 6      3576.563    21160591.040    86649088.199 6      2786.932
G08  21208387.940   111450833.841 7      3822.554    21208386.580   111450833.835 6      3822.554    21208395.040    86844844.207 6      2978.614    21208395.700    86844838.218 8      2978.614
G27  21029600.160   110511297.723 7      2104.013    21029599.160   110511297.731 8      2104.013    21029607.320    86112740.408 8      1639.491    21029607.280    86112725.415 7      1639.491
G23  24406763.400   128258406.996 5       234.766    24406761.160   128258406.998 1       234.766    24406772.980    99941638.463 1       182.934    24406774.940    99941661.482 5       182.934
R15  20471259.020   109392204.814 7      5084.241    20471257.520   109392204.807 7      5084.241    20471269.760    85082865.870 8      3954.410    20471270.800    85082889.875 8      3954.410
R18  22925602.280   122378465.581 6      4901.342    22925602.040   122378465.595 6      4901.342    22925620.120    95183302.263 7      3812.155    22925621.820    95183358.254 7      3812.155
G16  21156000.100   111175515.244 7       739.675    21155998.820   111175515.251 6       739.675    21156005.540    86630289.040 6       576.370
R14  19582897.020   104387845.088 8       903.802    19582896.680   104387845.091 8       903.802    19582907.280    81190600.613 8       702.957    19582907.640    81190588.612 8       702.957
R17  20414123.100   109240100.928 7      2929.315    20414123.500   109240100.945 7      2929.315    20414134.980    84964569.402 8      2278.356    20414134.500    84964572.405 8      2278.356
G26  22994592.240   120837365.033 7      -384.384    22994591.160   120837365.036 6      -384.384    22994605.440    94159026.296 6      -299.520    22994605.700    94159064.292 7      -299.520
G01  22948892.060   120597279.403 7      5409.171    22948890.460   120597279.415 5      5409.171    22948903.040    93971967.432 5      4214.939    22948903.760    93971931.457 7      4214.939
G07  23972232.860   125974939.313 7      3524.275    23972232.460   125974939.313 5      3524.275    23972241.740    98162327.326 5      2746.189    23972240.740    98162320.338 7      2746.189
> 2025 04 04 14 02 26.0000000  0 14
G10  22319871.500   117291715.259 7      2290.702    22319870.380   117291715.264 7      2290.702    22319880.580    91396185.233 7      1784.962    22319880.940    91396182.236 8      1784.962
R24  21252022.200   113644102.692 7       463.434    21252021.900   113644102.706 7       463.434    21252034.540    88389910.811 8       360.448    21252034.300    88389904.809 8       360.448
G02  21159907.200   111196064.713 7      3576.189    21159905.640   111196064.721 6      3576.189    21159910.580    86646301.403 6      2786.641
G08  21207660.560   111447011.338 7      3822.420    21207659.260   111447011.335 6      3822.420    21207667.640    86841865.639 6      2978.509    21207668.460    86841859.649 8      2978.509
G27  21029199.860   110509193.728 8      2103.892    21029198.780   110509193.733 8      2103.892    21029207.000    86111100.933 8      1639.397    21029207.160    86111085.940 7      1639.397
G23  24406717.800   128258172.561 5       234.331    24406716.600   128258172.566 1       234.331    24406728.480    99941455.788 1       182.595    24406730.920    99941478.793 5       182.595
R15  20470307.720   109387121.000 7      5083.427    20470306.100   109387120.991 7      5083.427    20470318.520    85078911.796 8      3953.776    20470319.160    85078935.799 8      3953.776
R18  22924684.000   122373564.453 6      4901.054    22924683.540   122373564.462 6      4901.054    22924702.020    95179490.287 7      3811.931    22924703.940    95179546.288 7      3811.931
G16  21155859.380   111174775.800 7       739.221    21155858.040   111174775.810 6       739.221    21155864.940    86629712.850 6       576.017
R14  19582727.600   104386941.710 8       903.008    19582727.180   104386941.710 8       903.008    19582737.760    81189897.979 8       702.339    19582738.180    81189885.980 8       702.339
R17  20413575.700   109237171.626 7      2929.123    20413576.100   109237171.641 7      2929.123    20413587.540    84962291.057 8      2278.207    20413587.260    84962294.062 8      2278.207
G26  22994665.380   120837749.568 7      -384.726    22994664.400   120837749.568 6      -384.726    22994678.680    94159325.923 6      -299.786    22994679.180    94159363.917 7      -299.786
G01  22947863.060   120591870.429 7      5408.747    22947861.300   120591870.439 5      5408.747    22947873.900    93967752.655 5      4214.608    22947874.120    93967716.689 7      4214.608
G07  23971562.980   125971415.266 7      3523.644    23971561.960   125971415.265 5      3523.644    23971571.180    98159581.315 5      2745.696    23971570.480    98159574.331 7      2745.696
> 2025 04 04 14 02 27.0000000  0 14
G10  22319435.640   117289424.820 7      2290.125    22319434.660   117289424.828 7      2290.125    22319444.740    91394400.484 7      1784.513    22319444.800    91394397.483 8      1784.513
R24  21251935.620   113643639.252 7       463.381    21251934.940   113643639.264 7       463.381    21251947.580    88389550.360 8       360.408    21251947.660    88389544.357 8       360.408
G02  21159226.660   111192488.777 7      3575.702    21159225.120   111192488.785 6      3575.702    21159230.120    86643514.965 6      2786.261
G08  21206933.080   111443188.968 7      3822.292    21206931.960   111443188.962 6      3822.292    21206940.160    86838887.171 6      2978.409    21206941.240    86838881.180 8      2978.409
G27  21028799.400   110507089.919 8      2103.715    21028798.460   110507089.922 8      2103.715    21028806.680    86109461.601 8      1639.259    21028806.680    86109446.608 7      1639.259
G23  24406673.000   128257938.533 5       233.581    24406672.320   128257938.530 1       233.581    24406684.020    99941273.431 1       182.011    24406686.560    99941296.446 5       182.011
R15  20469356.640   109382037.865 7      5082.825    20469354.900   109382037.860 7      5082.825    20469367.180    85074958.249 8      3953.309    20469368.060    85074982.253 8      3953.309
R18  22923766.280   122368663.629 6      4900.594    22923765.420   122368663.640 6      4900.594    22923783.740    95175678.560 7      3811.573    22923785.900    95175734.554 7      3811.573
G16  21155718.460   111174036.816 7       738.701    21155717.380   111174036.823 6       738.701    21155724.280    86629137.022 6       575.611
R14  19582558.140   104386039.096 8       902.257    19582557.840   104386039.089 8       902.257    19582568.380    81189195.940 8       701.756    19582568.740    81189183.941 8       701.756
R17  20413028.300   109234242.672 7      2928.797    20413028.740   109234242.695 7      2928.797    20413040.340    84960012.994 8      2277.953    20413039.980    84960015.999 8      2277.953
G26  22994738.580   120838134.321 7      -384.863    22994737.540   120838134.318 6      -384.863    22994751.840    94159625.720 6      -299.893    22994752.000    94159663.716 7      -299.893
G01  22946833.820   120586461.746 6      5408.568    22946831.920   120586461.759 5      5408.568    22946844.600    93963538.106 5      4214.468    22946845.000    93963502.135 7      4214.468
G07  23970892.140   125967891.741 6      3523.129    23970891.380   125967891.743 5      3523.129    23970900.720    98156835.698 5      2745.296    23970900.320    98156828.711 7      2745.296
> 2025 04 04 14 02 28.0000000  0 14
G10  22318999.540   117287134.713 8      2290.082    22318998.700   117287134.720 7      2290.082    22319008.900    91392615.989 7      1784.480    22319009.060    91392612.989 8      1784.480
R24  21251848.720   113643175.545 7       463.990    21251848.360   113643175.563 7       463.990    21251860.840    88389189.701 8       360.881    21251860.760    88389183.696 8       360.881
G02  21158546.340   111188912.967 7      3575.875    21158544.620   111188912.975 6      3575.875    21158549.680    86640728.622 6      2786.396
G08  21206205.580   111439366.431 7      3822.765    21206204.500   111439366.428 6      3822.765    21206212.600    86835908.575 6      2978.778    21206213.920    86835902.584 8      2978.778
G27  21028399.040   110504985.987 8      2104.111    21028398.100   110504985.992 8      2104.111    21028406.240    86107822.175 8      1639.567    21028406.280    86107807.180 7      1639.567
G23  24406629.100   128257704.576 5       234.207    24406627.720   128257704.563 1       234.207    24406639.740    99941091.127 1       182.499    24406643.040    99941114.132 5       182.499
R15  20468405.300   109376955.173 7      5082.609    20468403.720   109376955.171 7      5082.609    20468416.080    85071005.056 8      3953.141    20468416.900    85071029.059 8      3953.141
R18  22922848.280   122363762.850 6      4900.779    22922847.460   122363762.859 6      4900.779    22922866.080    95171866.855 7      3811.717    22922867.520    95171922.854 7      3811.717
G16  21155577.980   111173297.997 7       738.815    21155576.880   111173298.007 6       738.815    21155583.640    86628561.315 6       575.700
R14  19582389.060   104385136.960 8       901.970    19582388.560   104385136.960 8       901.970    19582399.300    81188494.285 8       701.532    19582399.620    81188482.288 8       701.532
R17  20412481.080   109231313.804 7      2928.951    20412481.720   109231313.817 7      2928.951    20412493.040    84957734.977 8      2278.073    20412492.660    84957737.983 8      2278.073
G26  22994811.840   120838519.045 7      -384.505    22994810.860   120838519.042 6      -384.505    22994825.020    94159925.498 6      -299.614    22994825.480    94159963.499 7      -299.614
G01  22945804.280   120581053.101 7      5408.839    22945802.740   120581053.111 5      5408.839    22945815.060    93959323.589 5      4214.680    22945815.640    93959287.621 7      4214.680
G07  23970221.840   125964368.418 6      3523.314    23970220.920   125964368.420 5      3523.314    23970230.300    98154090.260 5      2745.440    23970229.580    98154083.265 7      2745.440
> 2025 04 04 14 02 29.0000000  0 14
G10  22318564.060   117284845.028 8      2289.383    22318562.840   117284845.033 7      2289.383    22318573.100    91390831.815 7      1783.935    22318573.200    91390828.809 8      1783.935
R24  21251762.200   113642711.761 7       463.758    21251761.540   113642711.779 7       463.758    21251774.180    88388828.980 8       360.701    21251774.060    88388822.975 8       360.701
G02  21157865.860   111185337.412 7      3575.367    21157864.220   111185337.420 6      3575.367    21157869.280    86637942.477 6      2786.000
G08  21205478.200   111435543.837 7      3822.513    21205476.940   111435543.836 6      3822.513    21205485.160    86832929.936 6      2978.582    21205486.260    86832923.946 8      2978.582
G27  21027998.580   110502882.049 8      2103.893    21027997.760   110502882.057 8      2103.893    21028005.860    86106182.746 8      1639.397    21028006.060    86106167.751 7      1639.397
G23  24406584.780   128257470.848 5       233.687    24406583.160   128257470.835 1       233.687    24406595.640    99940908.999 1       182.093    24406598.260    99940932.020 5       182.093
R15  20467454.300   109371872.980 7      5081.881    20467452.560   109371872.971 7      5081.881    20467464.860    85067052.236 8      3952.574    20467466.060    85067076.239 8      3952.574
R18  22921930.560   122358862.199 6      4900.513    22921929.120   122358862.190 6      4900.513    22921947.900    95168055.247 7      3811.510    22921949.500    95168111.245 7      3811.510
G16  21155437.440   111172559.441 7       738.335    21155436.400   111172559.452 6       738.335    21155443.180    86627985.815 6       575.326
R14  19582220.000   104384235.450 8       901.135    19582219.320   104384235.450 8       901.135    19582230.180    81187793.108 8       700.883    19582230.560    81187781.111 8       700.883
R17  20411933.680   109228385.084 7      2928.480    20411934.340   109228385.096 7      2928.480    20411945.740    84955457.087 8      2277.706    20411945.400    84955460.091 8      2277.706
G26  22994885.460   120838903.842 7      -384.867    22994884.060   120838903.844 6      -384.867    22994898.240    94160225.336 6      -299.896    22994898.680    94160263.337 7      -299.896
G01  22944775.180   120575644.608 7      5408.282    22944773.580   120575644.621 5      5408.282    22944785.860    93955109.185 5      4214.245    22944786.600    93955073.221 7      4214.245
G07  23969551.300   125960845.450 6      3522.607    23969550.440   125960845.452 5      3522.607    23969559.940    98151345.091 5      2744.888    23969559.160    98151338.109 7      2744.888
> 2025 04 04 14 02 30.0000000  0 14
G10  22318128.200   117282555.790 7      2288.973    22318127.240   117282555.798 7      2288.973    22318137.580    91389048.001 7      1783.615    22318137.500    91389044.998 8      1783.615
R24  21251675.220   113642247.937 7       463.859    21251675.000   113642247.952 7       463.859    21251687.180    88388468.223 8       360.779    21251687.440    88388462.220 8       360.779
G02  21157185.400   111181762.178 7      3575.028    21157183.880   111181762.185 6      3575.028    21157189.000    86635156.584 6      2785.736
G08  21204751.160   111431721.266 7      3822.584    21204749.560   111431721.261 6      3822.584    21204757.800    86829951.310 6      2978.637    21204758.640    86829945.317 8      2978.637
G27  21027598.360   110500778.186 8      2103.773    21027597.320   110500778.190 8      2103.773    21027605.500    86104543.369 8      1639.304    21027605.900    86104528.374 7      1639.304
G23  24406540.560   128257237.485 5       233.035    24406538.640   128257237.466 1       233.035    24406551.280    99940727.160 1       181.586    24406553.000    99940750.181 5       181.586
R15  20466503.140   109366791.395 7      5081.203    20466501.560   109366791.393 7      5081.203    20466513.980    85063099.900 8      3952.047    20466515.060    85063123.902 8      3952.047
R18  22921012.340   122353961.741 6      4900.300    22921010.680   122353961.750 6      4900.300    22921029.480    95164243.818 7      3811.345    22921031.540    95164299.817 7      3811.345
G16  21155296.960   111171821.230 7       738.070    21155295.920   111171821.237 6       738.070    21155302.620    86627410.583 6       575.120
R14  19582051.260   104383334.675 8       900.375    19582050.420   104383334.673 8       900.375    19582061.060    81187092.502 8       700.292    19582061.740    81187080.505 8       700.292
R17  20411386.300   109225456.569 7      2928.300    20411387.060   109225456.584 7      2928.300    20411398.460    84953179.362 8      2277.567    20411398.100    84953182.365 8      2277.567
G26  22994958.360   120839288.805 7      -385.125    22994957.240   120839288.807 6      -385.125    22994971.540    94160525.297 6      -300.098    22994971.920    94160563.297 7      -300.098
G01  22943745.940   120570236.281 7      5408.289    22943744.520   120570236.291 5      5408.289    22943756.680    93950894.921 5      4214.251    22943757.520    93950858.948 7      4214.251
G07  23968880.540   125957322.861 7      3522.308    23968880.260   125957322.866 5      3522.308    23968889.740    98148600.216 5      2744.656    23968888.580    98148593.232 7      2744.656
> 2025 04 04 14 02 31.0000000  0 14
G10  22317692.660   117280267.270 8      2288.181    22317691.760   117280267.269 7      2288.181    22317702.060    91387264.734 7      1782.998    22317701.800    91387261.731 8      1782.998
R24  21251588.280   113641784.225 7       463.651    21251588.620   113641784.242 7       463.651    21251600.640    88388107.556 8       360.618    21251600.500    88388101.555 8       360.618
G02  21156505.200   111178187.458 7      3574.460    21156503.520   111178187.466 6      3574.460    21156508.700    86632371.091 6      2785.293
G08  21204023.660   111427898.903 7      3822.244    21204022.100   111427898.898 6      3822.244    21204030.420    86826972.849 6      2978.372    21204031.140    86826966.859 8      2978.372
G27  21027198.020   110498674.563 8      2103.525    21027197.060   110498674.568 8      2103.525    21027205.200    86102904.185 8      1639.110    21027205.280    86102889.190 7      1639.110
G23  24406496.340   128257004.556 5       232.598    24406493.740   128257004.534 1       232.598    24406506.820    99940545.658 1       181.245    24406508.060    99940568.719 5       181.245
R15  20465552.760   109361710.602 7      5080.331    20465550.640   109361710.593 7      5080.331    20465563.220    85059148.174 8      3951.368    20465563.920    85059172.175 8      3951.368
R18  22920094.160   122349061.704 6      4899.837    22920092.520   122349061.708 6      4899.837    22920111.400    95160432.695 7      3810.984    22920113.500    95160488.690 7      3810.984
G16  21155156.540   111171083.573 7       737.341    21155155.520   111171083.580 6       737.341    21155162.280    86626835.786 6       574.552
R14  19581882.640   104382434.791 8       899.444    19581881.580   104382434.792 8       899.444    19581892.280    81186392.590 8       699.567    19581892.840    81186380.590 8       699.567
R17  20410839.540   109222528.485 7      2927.848    20410839.640   109222528.507 7      2927.848    20410851.160    84950901.969 8      2277.215    20410850.840    84950904.975 8      2277.215
G26  22995031.580   120839674.075 7      -385.486    22995030.620   120839674.080 6      -385.486    22995044.920    94160825.504 6      -300.379    22995045.180    94160863.506 7      -300.379
G01  22942716.840   120564828.389 7      5407.630    22942715.400   120564828.399 5      5407.630    22942727.840    93946680.990 5      4213.737    22942728.360    93946645.021 7      4213.737
G07  23968210.420   125953800.878 7      3521.725    23968210.020   125953800.883 5      3521.725    23968219.520    98145855.814 5      2744.201    23968218.440    98145848.832 7      2744.201
> 2025 04 04 14 02 32.0000000  0 14
G10  22317257.260   117277979.301 7      2287.802    22317256.200   117277979.308 7      2287.802    22317266.720    91385481.903 7      1782.703    22317266.360    91385478.908 8      1782.703
R24  21251501.840   113641320.531 7       463.747    21251501.740   113641320.546 7       463.747    21251513.740    88387746.902 8       360.692    21251513.660    88387740.901 8       360.692
G02  21155825.180   111174613.162 7      3574.098    21155823.480   111174613.169 6      3574.098    21155828.500    86629585.933 6      2785.012
G08  21203296.340   111424076.653 7      3822.244    21203294.900   111424076.650 6      3822.244    21203303.060    86823994.481 6      2978.372    21203303.780    86823988.484 8      2978.372
G27  21026797.720   110496571.117 8      2103.390    21026796.800   110496571.125 8      2103.390    21026804.980    86101265.138 8      1639.006    21026805.000    86101250.143 7      1639.006
G23  24406452.120   128256772.036 5       232.516    24406449.460   128256772.015 1       232.516    24406462.580    99940364.478 1       181.182    24406463.580    99940387.512 5       181.182
R15  20464602.040   109356630.513 7      5079.806    20464599.980   109356630.503 7      5079.806    20464612.500    85055196.991 8      3950.960    20464613.320    85055220.994 8      3950.960
R18  22919176.280   122344161.937 6      4899.666    22919174.800   122344161.962 6      4899.666    22919193.560    95156621.794 7      3810.851    22919195.620    95156677.801 7      3810.851
G16  21155016.500   111170346.331 7       737.121    21155015.140   111170346.338 6       737.121    21155022.000    86626261.307 6       574.380
R14  19581713.760   104381535.712 8       898.690    19581712.780   104381535.712 8       898.690    19581723.560    81185693.308 8       698.981    19581724.020    81185681.309 8       698.981
R17  20410292.000   109219600.727 7      2927.667    20410292.860   109219600.744 7      2927.667    20410304.100    84948624.829 8      2277.074    20410303.760    84948627.832 8      2277.074
G26  22995105.160   120840059.598 7      -385.639    22995103.980   120840059.600 6      -385.639    22995118.340    94161125.892 6      -300.498    22995118.760    94161163.893 7      -300.498
G01  22941687.700   120559420.769 7      5407.529    22941686.420   120559420.779 5      5407.529    22941698.680    93942467.269 5      4213.659    22941699.400    93942431.303 7      4213.659
G07  23967541.080   125950279.397 6      3521.313    23967539.960   125950279.402 5      3521.313    23967549.280    98143111.809 5      2743.880    23967548.080    98143104.825 7      2743.880
> 2025 04 04 14 02 33.0000000  0 14
G10  22316822.000   117275691.907 7      2287.052    22316821.060   117275691.912 7      2287.052    22316831.360    91383699.521 7      1782.119    22316831.560    91383696.522 8      1782.119
R24  21251415.440   113640856.825 7       463.643    21251415.160   113640856.845 7       463.643    21251427.120    88387386.247 8       360.611    21251427.260    88387380.246 8       360.611
G02  21155145.060   111171039.238 7      3573.615    21155143.360   111171039.249 6      3573.615    21155148.420    86626801.059 6      2784.635
G08  21202568.860   111420254.485 7      3822.047    21202567.620   111420254.482 6      3822.047    21202575.920    86821016.167 6      2978.218    21202576.620    86821010.175 8      2978.218
G27  21026397.460   110494467.779 8      2103.190    21026396.560   110494467.789 8      2103.190    21026404.720    86099626.175 8      1638.849    21026404.900    86099611.182 7      1638.849
G23  24406408.020   128256539.913 5       232.028    24406405.380   128256539.892 1       232.028    24406418.560    99940183.612 1       180.801    24406419.440    99940206.627 5       180.801
R15  20463651.260   109351551.107 7      5078.898    20463649.420   109351551.103 7      5078.898    20463662.000    85051246.353 8      3950.254    20463662.940    85051270.358 8      3950.254
R18  22918258.200   122339262.469 6      4899.083    22918257.080   122339262.491 6      4899.083    22918275.960    95152811.113 7      3810.398    22918277.640    95152867.112 7      3810.398
G16  21154876.360   111169609.501 7       736.587    21154874.940   111169609.511 6       736.587    21154881.740    86625687.154 6       573.964
R14  19581544.840   104380637.344 8       897.880    19581544.400   104380637.350 8       897.880    19581554.920    81184994.577 8       698.351    19581555.360    81184982.578 8       698.351
R17  20409744.940   109216673.237 7      2927.260    20409745.680   109216673.252 7      2927.260    20409757.160    84946347.890 8      2276.758    20409756.720    84946350.893 8      2276.758
G26  22995178.360   120840445.294 7      -385.886    22995177.460   120840445.296 6      -385.886    22995191.600    94161426.431 6      -300.690    22995192.540    94161464.431 7      -300.690
G01  22940658.760   120554013.445 7      5407.052    22940657.380   120554013.455 5      5407.052    22940669.680    93938253.783 5      4213.287    22940670.540    93938217.816 7      4213.287
G07  23966871.100   125946758.384 6      3520.704    23966869.880   125946758.392 5      3520.704    23966879.260    98140368.166 5      2743.405    23966878.280    98140361.181 7      2743.405
> 2025 04 04 14 02 34.0000000  0 14
G10  22316386.860   117273405.131 7      2286.329    22316386.000   117273405.136 7      2286.329    22316396.240    91381917.619 7      1781.555    22316395.900    91381914.616 8      1781.555
R24  21251328.200   113640393.249 7       463.372    21251328.240   113640393.266 7       463.372    21251340.600    88387025.690 8       360.400    21251340.340    88387019.685 8       360.400
G02  21154464.820   111167465.804 7      3573.013    21154463.360   111167465.814 6      3573.013    21154468.520    86624016.567 6      2784.166
G08  21201841.400   111416432.471 7      3821.814    21201840.240   111416432.471 6      3821.814    21201848.520    86818037.981 6      2978.037    21201849.080    86818031.989 8      2978.037
G27  21025997.280   110492364.666 8      2102.886    21025996.420   110492364.671 8      2102.886    21026004.500    86097987.384 8      1638.613    21026004.700    86097972.391 7      1638.613
G23  24406363.600   128256308.261 5       231.205    24406361.680   128256308.247 1       231.205    24406374.560    99940003.103 1       180.160    24406374.780    99940026.112 5       180.160
R15  20462700.940   109346472.412 7      5078.158    20462699.320   109346472.408 7      5078.158    20462711.540    85047296.261 8      3949.679    20462712.460    85047320.262 8      3949.679
R18  22917340.400   122334363.340 6      4898.846    22917339.320   122334363.354 6      4898.846    22917358.220    95149000.694 7      3810.214    22917359.940    95149056.693 7      3810.214
G16  21154736.140   111168873.176 7       735.955    21154734.780   111168873.183 6       735.955    21154741.680    86625113.395 6       573.472
R14  19581376.640   104379739.810 8       896.922    19581375.960   104379739.814 8       896.922    19581386.880    81184296.494 8       697.606    19581387.180    81184284.497 8       697.606
R17  20409197.780   109213746.137 7      2926.709    20409198.880   109213746.163 7      2926.709    20409210.100    84944071.267 8      2276.329    20409209.600    84944074.271 8      2276.329
G26  22995251.880   120840831.302 7      -386.268    22995250.900   120840831.307 6      -386.268    22995265.100    94161727.208 6      -300.988    22995265.560    94161765.209 7      -300.988
G01  22939630.140   120548606.465 7      5406.613    22939628.500   120548606.475 5      5406.613    22939640.680    93934040.562 5      4212.945    22939641.520    93934004.585 7      4212.945
G07  23966201.140   125943237.934 6      3519.920    23966199.820   125943237.941 5      3519.920    23966209.440    98137624.962 5      2742.794    23966208.120    98137617.979 7      2742.794
> 2025 04 04 14 02 35.0000000  0 14
G10  22315951.880   117271118.899 7      2285.972    22315950.980   117271118.907 7      2285.972    22315961.240    91380136.144 7      1781.277    22315961.000    91380133.147 8      1781.277
R24  21251241.720   113639929.646 7       463.673    21251241.600   113639929.661 7       463.673    21251253.560    88386665.109 8       360.635    21251253.680    88386659.105 8       360.635
G02  21153784.920   111163892.721 7      3572.892    21153783.380   111163892.729 6      3572.892    21153788.560    86621232.351 6      2784.071
G08  21201113.980   111412610.552 7      3821.811    21201112.860   111412610.549 6      3821.811    21201121.180    86815059.865 6      2978.035    21201121.660    86815053.874 8      2978.035
G27  21025597.140   110490261.667 8      2102.975    21025596.220   110490261.674 8      2102.975    21025604.180    86096348.691 8      1638.682    21025604.480    86096333.696 7      1638.682
G23  24406318.320   128256076.895 5       231.208    24406317.860   128256076.884 1       231.208    24406330.500    99939822.814 1       180.162    24406331.600    99939845.854 5       180.162
R15  20461750.820   109341394.340 7      5077.825    20461749.140   109341394.333 7      5077.825    20461761.320    85043346.647 8      3949.420    20461762.100    85043370.648 8      3949.420
R18  22916422.680   122329464.501 6      4898.787    22916420.940   122329464.505 6      4898.787    22916440.140    95145190.497 7      3810.168    22916442.220    95145246.491 7      3810.168
G16  21154596.180   111168137.242 7       735.732    21154594.900   111168137.250 6       735.732    21154601.720    86624539.940 6       573.298
R14  19581208.380   104378842.991 8       896.443    19581207.920   104378842.994 8       896.443    19581218.600    81183598.968 8       697.233    19581218.920    81183586.968 8       697.233
R17  20408651.100   109210819.348 7      2926.698    20408651.980   109210819.377 7      2926.698    20408663.040    84941794.882 8      2276.320    20408662.500    84941797.885 8      2276.320
G26  22995325.400   120841217.513 7      -386.357    22995324.380   120841217.518 6      -386.357    22995338.620    94162028.144 6      -301.058    22995339.360    94162066.146 7      -301.058
G01  22938601.160   120543199.730 7      5406.615    22938599.700   120543199.740 5      5406.615    22938611.780    93929827.534 5      4212.947    22938612.820    93929791.561 7      4212.947
G07  23965531.180   125939717.930 6      3519.799    23965529.920   125939717.940 5      3519.799    23965539.640    98134882.106 5      2742.700    23965538.740    98134875.116 7      2742.700
> 2025 04 04 14 02 36.0000000  0 14
G10  22315517.000   117268833.187 7      2285.543    22315516.120   117268833.197 7      2285.543    22315526.200    91378355.078 7      1780.942    22315526.300    91378352.077 8      1780.942
R24  21251154.780   113639466.020 7       463.747    21251154.620   113639466.035 7       463.747    21251167.040    88386304.508 8       360.692    21251167.220    88386298.505 8       360.692
G02  21153105.180   111160320.017 7      3572.647    21153103.500   111160320.022 6      3572.647    21153108.740    86618448.430 6      2783.880
G08  21200386.960   111408788.662 7      3821.968    21200385.620   111408788.656 6      3821.968    21200393.840    86812081.770 6      2978.157    21200394.520    86812075.778 8      2978.157
G27  21025196.920   110488158.780 8      2102.961    21025195.960   110488158.782 8      2102.961    21025204.120    86094710.072 8      1638.671    21025204.160    86094695.077 7      1638.671
G23  24406275.100   128255845.902 5       231.013    24406273.840   128255845.901 1       231.013    24406286.700    99939642.823 1       180.010    24406287.620    99939665.871 5       180.010
R15  20460800.500   109336316.917 7      5077.150    20460798.720   109336316.910 7      5077.150    20460811.180    85039397.545 8      3948.894    20460812.040    85039421.547 8      3948.894
R18  22915505.100   122324565.892 6      4898.654    22915503.540   122324565.904 6      4898.654    22915522.320    95141380.474 7      3810.064    22915524.740    95141436.471 7      3810.064
G16  21154456.160   111167401.687 7       735.514    21154454.780   111167401.695 6       735.514    21154461.500    86623966.776 6       573.128
R14  19581040.300   104377946.916 8       895.810    19581039.860   104377946.916 8       895.810    19581050.400    81182902.016 8       696.741    19581050.960    81182890.019 8       696.741
R17  20408104.160   109207892.856 7      2926.426    20408105.180   109207892.879 7      2926.426    20408116.180    84939518.720 8      2276.109    20408115.820    84939521.723 8      2276.109
G26  22995398.700   120841603.871 7      -386.271    22995397.940   120841603.873 6      -386.271    22995412.240    94162329.196 6      -300.990    22995412.800    94162367.196 7      -300.990
G01  22937572.500   120537793.247 7      5406.493    22937570.720   120537793.255 5      5406.493    22937583.020    93925614.696 5      4212.852    22937583.960    93925578.729 7      4212.852
G07  23964861.620   125936198.375 6      3519.541    23964860.080   125936198.382 5      3519.541    23964869.860    98132139.596 5      2742.500    23964869.060    98132132.606 7      2742.500
> 2025 04 04 14 02 37.0000000  0 14
G10  22315081.980   117266547.883 7      2285.189    22315081.200   117266547.888 7      2285.189    22315091.280    91376574.319 7      1780.667    22315091.140    91376571.320 8      1780.667
R24  21251068.260   113639002.238 7       463.878    21251068.040   113639002.250 7       463.878    21251080.400    88385943.789 8       360.794    21251080.400    88385937.788 8       360.794
G02  21152425.640   111156747.536 7      3572.486    21152423.580   111156747.541 6      3572.486    21152428.860    86615664.678 6      2783.755
G08  21199659.940   111404966.711 7      3822.031    21199658.320   111404966.708 6      3822.031    21199666.500    86809103.631 6      2978.206    21199667.360    86809097.641 8      2978.206
G27  21024796.900   110486055.862 8      2102.996    21024795.720   110486055.867 8      2102.996    21024803.900    86093071.441 8      1638.699    21024804.000    86093056.444 7      1638.699
G23  24406231.120   128255615.161 5       230.593    24406229.820   128255615.166 1       230.593    24406242.680    99939463.030 1       179.683    24406244.760    99939486.067 5       179.683
R15  20459850.800   109331240.012 7      5076.695    20459848.400   109331239.995 7      5076.695    20459861.060    85035448.841 8      3948.541    20459861.880    85035472.842 8      3948.541
R18  22914587.120   122319667.369 6      4898.551    22914585.960   122319667.381 6      4898.551    22914605.120    95137570.536 7      3809.984    22914606.740    95137626.533 7      3809.984
G16  21154316.380   111166666.400 7       735.199    21154315.000   111166666.407 6       735.199    21154321.680    86623393.821 6       572.882
R14  19580872.280   104377051.485 8       895.182    19580871.880   104377051.486 8       895.182    19580882.400    81182205.570 8       696.252    19580882.820    81182193.571 8       696.252
R17  20407557.520   109204966.452 7      2926.405    20407558.100   109204966.475 7      2926.405    20407569.300    84937242.632 8      2276.092    20407568.860    84937245.635 8      2276.092
G26  22995472.480   120841990.321 7      -386.376    22995471.500   120841990.326 6      -386.376    22995485.760    94162630.318 6      -301.072    22995486.060    94162668.310 7      -301.072
G01  22936543.660   120532386.874 7      5406.414    22936541.860   120532386.885 5      5406.414    22936554.260    93921401.951 5      4212.790    22936555.080    93921365.982 7      4212.790
G07  23964192.000   125932679.130 6      3519.221    23964190.340   125932679.138 5      3519.221    23964200.020    98129397.333 5      2742.250    23964198.860    98129390.350 7      2742.250
> 2025 04 04 14 02 38.0000000  0 14
G10  22314647.380   117264262.983 7      2284.597    22314646.280   117264262.990 7      2284.597    22314656.560    91374793.884 7      1780.205    22314656.500    91374790.885 8      1780.205
R24  21250981.500   113638538.323 7       463.922    21250981.360   113638538.335 7       463.922    21250993.480    88385582.968 8       360.828    21250993.580    88385576.967 8       360.828
G02  21151745.780   111153175.323 7      3572.005    21151743.800   111153175.328 6      3572.005    21151749.120    86612881.142 6      2783.381
G08  21198932.640   111401144.706 7      3821.955    21198931.020   111401144.703 6      3821.955    21198939.260    86806125.449 6      2978.147    21198940.060    86806119.457 8      2978.147
G27  21024396.600   110483952.931 7      2102.874    21024395.680   110483952.936 8      2102.874    21024403.700    86091432.797 8      1638.603    21024403.900    86091417.802 7      1638.603
G23  24406187.640   128255384.623 5       230.154    24406185.980   128255384.625 1       230.154    24406198.860    99939283.389 1       179.341    24406200.480    99939306.427 5       179.341
R15  20458900.560   109326163.661 7      5075.996    20458898.640   109326163.656 7      5075.996    20458911.000    85031500.580 8      3947.997    20458912.020    85031524.579 8      3947.997
R18  22913670.180   122314768.990 6      4898.222    22913667.700   122314769.001 6      4898.222    22913687.700    95133760.715 7      3809.728    22913689.200    95133816.709 7      3809.728
G16  21154176.280   111165931.362 7       734.817    21154175.100   111165931.370 6       734.817    21154181.860    86622821.070 6       572.584
R14  19580704.580   104376156.705 8       894.375    19580703.980   104376156.708 8       894.375    19580714.540    81181509.632 8       695.625    19580715.200    81181497.632 8       695.625
R17  20407010.040   109202040.188 8      2926.030    20407011.280   109202040.219 7      2926.030    20407022.500    84934966.659 8      2275.801    20407022.160    84934969.664 8      2275.801
G26  22995546.100   120842376.824 7      -386.606    22995545.160   120842376.826 6      -386.606    22995559.200    94162931.478 6      -301.251    22995560.220    94162969.479 7      -301.251
G01  22935514.700   120526980.660 7      5406.027    22935513.000   120526980.667 5      5406.027    22935525.560    93917189.324 5      4212.489    22935526.300    93917153.359 7      4212.489
G07  23963522.440   125929160.224 6      3518.678    23963520.880   125929160.232 5      3518.678    23963530.340    98126655.331 5      2741.827    23963529.600    98126648.345 7      2741.827
> 2025 04 04 14 02 39.0000000  0 14
G10  22314212.640   117261978.769 7      2283.664    22314211.540   117261978.776 7      2283.664    22314221.800    91373013.979 7      1779.479    22314221.540    91373010.982 8      1779.479
R24  21250895.180   113638074.584 7       463.554    21250894.540   113638074.593 7       463.554    21250906.780    88385222.282 8       360.542    21250906.960    88385216.285 8       360.542
G02  21151066.040   111149603.602 7      3571.362    21151064.320   111149603.609 6      3571.362    21151069.460    86610097.986 6      2782.880
G08  21198205.020   111397322.892 7      3821.641    21198203.700   111397322.889 6      3821.641    21198211.940    86803147.419 6      2977.902    21198212.800    86803141.424 8      2977.902
G27  21023996.480   110481850.247 8      2102.506    21023995.500   110481850.254 8      2102.506    21024003.580    86089794.346 8      1638.317    21024003.660    86089779.351 7      1638.317
G23  24406144.120   128255154.560 5       229.612    24406142.060   128255154.562 1       229.612    24406155.080    99939104.118 1       178.919    24406156.780    99939127.127 5       178.919
R15  20457950.620   109321088.116 7      5075.007    20457948.680   109321088.109 7      5075.007    20457961.180    85027552.936 8      3947.228    20457962.180    85027576.937 8      3947.228
R18  22912752.460   122309870.990 6      4897.715    22912750.200   122309871.001 6      4897.715    22912769.900    95129951.178 7      3809.334    22912771.680    95130007.172 7      3809.334
G16  21154036.560   111165196.874 7       734.130    21154035.420   111165196.884 6       734.130    21154041.860    86622248.740 6       572.049
R14  19580536.780   104375262.809 8       893.332    19580536.400   104375262.813 8       893.332    19580546.880    81180814.378 8       694.814    19580547.440    81180802.383 8       694.814
R17  20406463.520   109199114.335 7      2925.544    20406464.740   109199114.361 7      2925.544    20406475.580    84932690.993 8      2275.423    20406475.420    84932693.997 8      2275.423
G26  22995619.600   120842763.642 7      -387.111    22995618.660   120842763.652 6      -387.111    22995632.740    94163232.895 6      -301.645    22995633.360    94163270.893 7      -301.645
G01  22934486.060   120521574.807 7      5405.648    22934484.340   120521574.815 5      5405.648    22934496.780    93912976.982 5      4212.193    22934497.520    93912941.013 7      4212.193
G07  23962852.660   125925641.910 6      3517.928    23962851.440   125925641.920 5      3517.928    23962860.900    98123913.789 5      2741.243    23962860.160    98123906.797 7      2741.243
> 2025 04 04 14 02 40.0000000  0 14
G10  22313778.060   117259695.351 7      2283.116    22313776.980   117259695.356 7      2283.116    22313787.280    91371234.698 7      1779.051    22313787.080    91371231.701 8      1779.051
R24  21250808.300   113637611.118 7       463.395    21250807.660   113637611.135 7       463.395    21250820.140    88384861.809 8       360.418    21250820.160    88384855.810 8       360.418
G02  21150386.560   111146032.558 7      3570.749    21150384.700   111146032.566 6      3570.749    21150389.860    86607315.357 6      2782.402
G08  21197477.880   111393501.441 7      3821.418    21197476.540   111393501.443 6      3821.418    21197484.720    86800169.675 6      2977.728    21197485.660    86800163.682 8      2977.728
G27  21023596.560   110479747.983 8      2102.163    21023595.480   110479747.990 8      2102.163    21023603.520    86088156.219 8      1638.049    21023603.700    86088141.220 7      1638.049
G23  24406101.220   128254925.130 5       229.065    24406098.640   128254925.135 1       229.065    24406111.480    99938925.339 1       178.492    24406113.340    99938948.377 5       178.492
R15  20457001.220   109316013.477 7      5074.174    20456999.400   109316013.473 7      5074.174    20457011.640    85023606.003 8      3946.580    20457012.400    85023630.002 8      3946.580
R18  22911835.140   122304973.584 6      4897.115    22911832.140   122304973.601 6      4897.115    22911851.560    95126142.110 7      3808.867    22911854.140    95126198.106 7      3808.867
G16  21153896.880   111164463.061 7       733.545    21153895.600   111164463.068 6       733.545    21153902.220    86621676.935 6       571.594
R14  19580368.900   104374369.911 8       892.522    19580368.880   104374369.911 8       892.522    19580379.340    81180119.897 8       694.184    19580379.620    81180107.898 8       694.184
R17  20405916.860   109196189.063 7      2925.060    20405917.920   109196189.083 7      2925.060    20405928.940    84930415.782 8      2275.047    20405928.720    84930418.787 8      2275.047
G26  22995693.380   120843150.956 7      -387.433    22995692.420   120843150.959 6      -387.433    22995706.620    94163534.682 6      -301.896    22995707.100    94163572.676 7      -301.896
G01  22933457.340   120516169.504 7      5405.372    22933455.860   120516169.511 5      5405.372    22933468.220    93908765.065 5      4211.978    22933468.900    93908729.076 7      4211.978
G07  23962183.200   125922124.328 6      3517.370    23962181.960   125922124.333 5      3517.370    23962191.540    98121172.812 5      2740.808    23962190.680    98121165.817 7      2740.808
> 2025 04 04 14 02 41.0000000  0 14
G10  22313343.640   117257412.624 7      2282.354    22313342.840   117257412.629 7      2282.354    22313352.820    91369455.942 7      1778.457    22313352.920    91369452.947 8      1778.457
R24  21250721.580   113637147.772 7       463.200    21250721.220   113637147.784 7       463.200    21250733.500    88384501.425 8       360.266    21250733.480    88384495.423 8       360.266
G02  21149707.040   111142462.001 7      3570.272    21149705.120   111142462.003 6      3570.272    21149710.280    86604533.107 6      2782.030
G08  21196750.520   111389680.207 7      3821.158    21196749.480   111389680.207 6      3821.158    21196757.740    86797192.088 6      2977.526    21196758.360    86797186.094 8      2977.526
G27  21023196.440   110477645.971 8      2101.796    21023195.440   110477645.974 8      2101.796    21023203.560    86086518.286 8      1637.763    21023203.880    86086503.291 7      1637.763
G23  24406057.920   128254696.168 5       228.766    24406055.200   128254696.171 1       228.766    24406067.600    99938746.923 1       178.259    24406069.940    99938769.965 5       178.259
R15  20456051.640   109310939.589 7      5073.397    20456049.700   109310939.587 7      5073.397    20456061.920    85019659.645 8      3945.975    20456062.840    85019683.644 8      3945.975
R18  22910917.660   122300076.548 6      4896.681    22910915.400   122300076.567 6      4896.681    22910934.920    95122333.322 7      3808.530    22910936.980    95122389.315 7      3808.530
G16  21153757.500   111163729.773 7       732.908    21153756.020   111163729.781 6       732.908    21153762.920    86621105.542 6       571.097
R14  19580201.940   104373477.881 8       891.531    19580201.460   104373477.887 8       891.531    19580212.200    81179426.100 8       693.413    19580212.600    81179414.101 8       693.413
R17  20405370.400   109193264.206 7      2924.655    20405371.360   109193264.229 7      2924.655    20405382.340    84928140.903 8      2274.732    20405382.240    84928143.906 8      2274.732
G26  22995767.040   120843538.578 7      -387.848    22995766.240   120843538.580 6      -387.848    22995780.420    94163836.715 6      -302.219    22995781.040    94163874.717 7      -302.219
G01  22932428.860   120510764.624 7      5404.572    22932427.380   120510764.634 5      5404.572    22932439.760    93904553.485 5      4211.355    22932440.440    93904517.514 7      4211.355
G07  23961514.060   125918607.348 6      3516.717    23961512.720   125918607.353 5      3516.717    23961522.320    98118432.307 5      2740.299    23961521.320    98118425.315 7      2740.299
> 2025 04 04 14 02 42.0000000  0 14
G10  22312909.320   117255130.435 7      2282.043    22312908.500   117255130.446 7      2282.043    22312918.640    91367677.617 7      1778.215    22312918.720    91367674.624 8      1778.215
R24  21250635.100   113636684.418 7       463.489    21250634.340   113636684.430 7       463.489    21250646.880    88384141.034 8       360.492    21250646.900    88384135.035 8       360.492
G02  21149027.480   111138891.848 7      3570.063    21149025.760   111138891.856 6      3570.063    21149030.920    86601751.173 6      2781.867
G08  21196023.360   111385859.061 7      3821.216    21196022.480   111385859.061 6      3821.216    21196030.400    86794214.573 6      2977.571    21196031.280    86794208.581 8      2977.571
G27  21022796.460   110475544.083 8      2101.859    21022795.400   110475544.088 8      2101.859    21022803.620    86084880.455 8      1637.812    21022803.920    86084865.458 7      1637.812
G23  24406014.280   128254467.616 5       228.518    24406011.540   128254467.616 1       228.518    24406024.200    99938568.833 1       178.066    24406026.400    99938591.881 5       178.066
R15  20455102.180   109305866.376 7      5072.973    20455100.300   109305866.372 7      5072.973    20455112.620    85015713.820 8      3945.646    20455113.560    85015737.819 8      3945.646
R18  22910000.140   122295179.751 6      4896.723    22909997.280   122295179.773 6      4896.723    22910017.560    95118524.719 7      3808.562    22910019.540    95118580.716 7      3808.562
G16  21153617.920   111162996.898 7       732.821    21153616.620   111162996.908 6       732.821    21153623.400    86620534.466 6       571.029
R14  19580034.760   104372586.603 8       890.966    19580034.360   104372586.606 8       890.966    19580045.000    81178732.882 8       692.974    19580045.300    81178720.883 8       692.974
R17  20404824.000   109190339.688 7      2924.539    20404824.940   109190339.711 7      2924.539    20404835.720    84925866.278 8      2274.641    20404835.480    84925869.282 8      2274.641
G26  22995841.020   120843926.416 7      -387.831    22995840.080   120843926.426 6      -387.831    22995854.080    94164138.924 6      -302.206    22995854.700    94164176.926 7      -302.206
G01  22931400.360   120505360.001 7      5404.465    22931398.800   120505360.009 5      5404.465    22931411.340    93900342.103 5      4211.271    22931412.200    93900306.130 7      4211.271
G07  23960844.980   125915090.855 6      3516.286    23960843.540   125915090.860 5      3516.286    23960852.980    98115692.182 5      2739.963    23960852.100    98115685.192 7      2739.963
> 2025 04 04 14 02 43.0000000  0 14
G10  22312475.100   117252848.709 7      2281.540    22312474.340   117252848.717 7      2281.540    22312484.460    91365899.651 7      1777.823    22312484.500    91365896.652 7      1777.823
R24  21250548.580   113636220.995 7       463.448    21250547.580   113636221.007 7       463.448    21250560.340    88383780.598 8       360.460    21250560.360    88383774.599 8       360.460
G02  21148348.200   111135321.963 7      3569.847    21148346.520   111135321.971 6      3569.847    21148351.720    86598969.447 6      2781.699
G08  21195296.280   111382037.888 7      3821.185    21195295.420   111382037.885 6      3821.185    21195303.180    86791237.036 6      2977.547    21195304.080    86791231.044 8      2977.547
G27  21022396.380   110473442.216 7      2101.830    21022395.440   110473442.224 8      2101.830    21022403.560    86083242.636 8      1637.790    21022403.860    86083227.643 7      1637.790
G23  24405970.060   128254239.343 5       227.970    24405968.380   128254239.350 1       227.970    24405980.640    99938390.968 1       177.639    24405983.800    99938414.016 5       177.639
R15  20454152.680   109300793.763 7      5072.335    20454151.060   109300793.764 7      5072.335    20454163.140    85011768.460 8      3945.149    20454164.260    85011792.459 8      3945.149
R18  22909082.520   122290283.115 6      4896.623    22909079.980   122290283.134 6      4896.623    22909100.040    95114716.247 7      3808.484    22909101.920    95114772.242 7      3808.484
G16  21153478.480   111162264.333 7       732.456    21153477.360   111162264.340 6       732.456    21153484.020    86619963.634 6       570.745
R14  19579867.980   104371695.957 8       890.392    19579867.220   104371695.954 8       890.392    19579877.780    81178040.153 8       692.527    19579878.300    81178028.155 8       692.527
R17  20404277.400   109187415.353 7      2924.248    20404278.300   109187415.376 7      2924.248    20404289.360    84923591.799 8      2274.415    20404289.020    84923594.805 8      2274.415
G26  22995914.740   120844314.369 7      -387.957    22995913.860   120844314.376 6      -387.957    22995928.120    94164441.212 6      -302.304    22995928.260    94164479.209 7      -302.304
G01  22930371.820   120499955.523 7      5404.378    22930370.320   120499955.530 5      5404.378    22930382.840    93896130.833 5      4211.204    22930383.560    93896094.866 7      4211.204
G07  23960175.620   125911574.684 6      3516.100    23960174.320   125911574.692 5      3516.100    23960183.960    98112952.315 5      2739.818    23960182.960    98112945.333 7      2739.818
> 2025 04 04 14 02 44.0000000  0 14
G10  22312041.300   117250567.459 7      2281.171    22312040.340   117250567.467 7      2281.171    22312050.440    91364122.055 7      1777.536    22312050.520    91364119.054 8      1777.536
R24  21250462.040   113635757.521 7       463.595    21250460.980   113635757.528 7       463.595    21250473.520    88383420.112 8       360.574    21250473.880    88383414.115 8       360.574
G02  21147669.160   111131752.420 7      3569.550    21147667.060   111131752.427 6      3569.550    21147672.580    86596187.985 6      2781.467
G08  21194569.220   111378216.729 7      3821.179    21194568.280   111378216.731 6      3821.179    21194576.100    86788259.515 6      2977.542    21194576.780    86788253.523 8      2977.542
G27  21021996.540   110471340.423 8      2101.825    21021995.440   110471340.428 8      2101.825    21022003.620    86081604.875 8      1637.786    21022004.020    86081589.878 7      1637.786
G23  24405926.180   128254011.340 5       227.915    24405925.080   128254011.350 1       227.915    24405937.360    99938213.311 1       177.596    24405939.860    99938236.326 6       177.596
R15  20453203.860   109295721.761 7      5071.853    20453201.660   109295721.762 7      5071.853    20453214.040    85007823.574 8      3944.774    20453215.000    85007847.572 8      3944.774
R18  22908164.820   122285386.719 6      4896.477    22908162.560   122285386.733 6      4896.477    22908183.000    95110907.953 7      3808.371    22908185.060    95110963.950 7      3808.371
G16  21153339.160   111161532.107 7       732.189    21153338.040   111161532.114 6       732.189    21153344.620    86619393.071 6       570.537
R14  19579700.480   104370806.043 8       889.652    19579700.240   104370806.038 8       889.652    19579710.800    81177347.994 8       691.951    19579711.420    81177335.994 8       691.951
R17  20403731.240   109184491.223 7      2924.086    20403731.960   109184491.251 7      2924.086    20403742.900    84921317.483 8      2274.289    20403742.260    84921320.484 8      2274.289
G26  22995988.620   120844702.453 7      -387.947    22995987.600   120844702.450 6      -387.947    22996001.940    94164743.602 6      -302.296    22996002.040    94164781.598 7      -302.296
G01  22929343.720   120494551.255 7      5404.367    22929341.840   120494551.262 5      5404.367    22929354.200    93891919.732 5      4211.195    22929354.760    93891883.755 7      4211.195
G07  23959506.500   125908058.953 6      3515.553    23959505.320   125908058.957 5      3515.553    23959515.100    98110212.784 5      2739.392    23959513.920    98110205.800 7      2739.392
> 2025 04 04 14 02 45.0000000  0 14
G10  22311607.120   117248286.650 7      2280.560    22311606.240   117248286.660 7      2280.560    22311616.340    91362344.806 7      1777.060    22311616.480    91362341.809 8      1777.060
R24  21250374.800   113635293.926 7       463.576    21250374.160   113635293.941 7       463.576    21250386.880    88383059.547 8       360.559    21250386.760    88383053.550 8       360.559
G02  21146989.980   111128183.150 7      3568.996    21146987.900   111128183.160 6      3568.996    21146993.300    86593406.746 6      2781.036
G08  21193842.180   111374395.529 7      3821.108    21193841.100   111374395.532 6      3821.108    21193848.920    86785281.964 6      2977.487    21193849.800    86785275.975 8      2977.487
G27  21021596.500   110469238.637 8      2101.687    21021595.440   110469238.642 8      2101.687    21021603.660    86079967.122 8      1637.678    21021604.000    86079952.127 7      1637.678
G23  24405883.420   128253783.637 5       227.283    24405881.700   128253783.647 1       227.283    24405894.440    99938035.878 1       177.103    24405896.020    99938058.906 6       177.103
R15  20452254.560   109290650.328 7      5071.053    20452252.680   109290650.329 7      5071.053    20452264.960    85003879.130 8      3944.152    20452266.020    85003903.127 8      3944.152
R18  22907247.740   122280490.491 6      4896.135    22907244.420   122280490.508 6      4896.135    22907266.040    95107099.805 7      3808.105    22907267.580    95107155.798 7      3808.105
G16  21153199.860   111160800.180 7       731.713    21153198.680   111160800.188 6       731.713    21153205.340    86618822.732 6       570.166
R14  19579533.760   104369916.767 8       888.865    19579533.460   104369916.767 8       888.865    19579544.020    81176656.338 8       691.339    19579544.140    81176644.339 8       691.339
R17  20403184.880   109181567.251 7      2923.855    20403185.360   109181567.272 7      2923.855    20403196.600    84919043.287 8      2274.109    20403196.020    84919046.290 8      2274.109
G26  22996062.460   120845090.627 7      -388.284    22996061.540   120845090.632 6      -388.284    22996076.000    94165046.068 6      -302.559    22996076.060    94165084.069 7      -302.559
G01  22928315.260   120489147.158 7      5403.968    22928313.640   120489147.165 5      5403.968    22928326.000    93887708.761 5      4210.884    22928326.740    93887672.784 7      4210.884
G07  23958837.980   125904543.573 6      3515.090    23958836.280   125904543.575 5      3515.090    23958846.240    98107473.527 5      2739.031    23958844.880    98107466.541 7      2739.031
> 2025 04 04 14 02 46.0000000  0 14
G10  22311173.240   117246006.572 7      2279.710    22311172.420   117246006.579 7      2279.710    22311182.360    91360568.125 7      1776.397    22311182.960    91360565.124 7      1776.397
R24  21250288.300   113634830.522 7       463.239    21250287.600   113634830.539 7       463.239    21250300.200    88382699.119 8       360.297    21250300.200    88382693.120 8       360.297
G02  21146310.800   111124614.426 7      3568.476    21146308.820   111124614.437 6      3568.476    21146314.400    86590625.926 6      2780.630
G08  21193115.200   111370574.596 7      3820.752    21193114.040   111370574.598 6      3820.752    21193121.880    86782304.619 6      2977.209    21193122.700    86782298.624 8      2977.209
G27  21021196.580   110467137.162 8      2101.285    21021195.560   110467137.166 8      2101.285    21021203.680    86078329.611 8      1637.365    21021203.980    86078314.616 7      1637.365
G23  24405839.720   128253556.404 5       227.058    24405838.500   128253556.414 1       227.058    24405851.500    99937858.822 1       176.929    24405853.140    99937881.812 6       176.929
R15  20451305.800   109285579.697 7      5070.197    20451303.920   109285579.701 7      5070.197    20451316.180    84999935.310 8      3943.486    20451317.020    84999959.311 8      3943.486
R18  22906330.720   122275594.730 6      4895.553    22906327.840   122275594.752 6      4895.553    22906348.840    95103292.010 7      3807.652    22906350.680    95103348.004 7      3807.652
G16  21153060.560   111160068.837 7       730.996    21153059.380   111160068.844 6       730.996    21153066.000    86618252.856 6       569.607
R14  19579367.280   104369028.460 8       887.781    19579366.840   104369028.458 8       887.781    19579377.300    81175965.429 8       690.497    19579377.740    81175953.432 8       690.497
R17  20402638.240   109178643.785 7      2923.282    20402639.100   109178643.800 7      2923.282    20402650.120    84916769.480 8      2273.663    20402650.060    84916772.483 8      2273.663
G26  22996136.440   120845479.197 7      -388.766    22996135.720   120845479.199 6      -388.766    22996149.920    94165348.838 6      -302.934    22996150.360    94165386.826 7      -302.934
G01  22927286.980   120483743.520 7      5403.372    22927285.320   120483743.528 5      5403.372    22927297.640    93883498.145 5      4210.420    22927298.320    93883462.166 7      4210.420
G07  23958169.160   125901028.832 6      3514.367    23958167.340   125901028.839 5      3514.367    23958177.260    98104734.767 5      2738.467    23958176.160    98104727.780 7      2738.467
> 2025 04 04 14 02 47.0000000  0 14
G10  22310739.420   117243726.974 7      2279.388    22310738.600   117243726.984 7      2279.388    22310748.620    91358791.820 7      1776.146    22310749.040    91358788.822 8      1776.146
R24  21250201.620   113634367.042 7       463.489    21250200.940   113634367.054 7       463.489    21250213.520    88382338.635 8       360.492    21250213.400    88382332.638 8       360.492
G02  21145631.620   111121046.065 7      3568.160    21145629.800   111121046.070 6      3568.160    21145635.200    86587845.385 6      2780.384
G08  21192388.060   111366753.686 7      3820.931    21192386.980   111366753.685 6      3820.931    21192394.920    86779327.287 6      2977.349    21192395.880    86779321.292 8      2977.349
G27  21020796.800   110465035.762 8      2101.334    21020795.700   110465035.764 8      2101.334    21020803.880    86076692.157 8      1637.403    21020803.960    86076677.164 7      1637.403
G23  24405797.020   128253329.507 5       226.775    24405795.120   128253329.512 1       226.775    24405808.180    99937682.023 1       176.708    24405810.420    99937705.032 6       176.708
R15  20450356.900   109280509.656 7      5069.654    20450355.100   109280509.660 7      5069.654    20450367.400    84995991.949 8      3943.064    20450368.360    84996015.950 8      3943.064
R18  22905413.280   122270699.134 6      4895.593    22905410.500   122270699.156 6      4895.593    22905431.700    95099484.339 7      3807.683    22905433.380    95099540.329 7      3807.683
G16  21152921.400   111159337.830 7       730.820    21152920.460   111159337.840 6       730.820    21152926.840    86617683.245 6       569.470
R14  19579200.720   104368140.839 8       887.309    19579200.220   104368140.837 8       887.309    19579210.940    81175275.057 8       690.129    19579211.180    81175263.060 8       690.129
R17  20402092.000   109175720.571 7      2923.155    20402092.620   109175720.588 7      2923.155    20402103.820    84914495.875 8      2273.565    20402103.540    84914498.876 8      2273.565
G26  22996210.660   120845867.909 7      -388.844    22996209.680   120845867.912 6      -388.844    22996223.940    94165651.723 6      -302.996    22996224.500    94165689.725 7      -302.996
G01  22926258.540   120478340.072 7      5403.330    22926257.240   120478340.082 5      5403.330    22926269.340    93879287.678 5      4210.387    22926270.020    93879251.705 7      4210.387
G07  23957500.140   125897514.503 6      3514.147    23957498.380   125897514.513 5      3514.147    23957508.380    98101996.334 5      2738.296    23957507.560    98101989.346 7      2738.296
> 2025 04 04 14 02 48.0000000  0 14
G10  22310305.760   117241447.760 7      2279.046    22310304.940   117241447.773 7      2279.046    22310314.860    91357015.813 7      1775.880    22310315.300    91357012.812 8      1775.880
R24  21250115.140   113633903.405 7       463.724    21250114.300   113633903.422 7       463.724    21250126.820    88381978.030 8       360.674    21250127.060    88381972.033 8       360.674
G02  21144952.620   111117477.883 7      3568.116    21144950.820   111117477.888 6      3568.116    21144956.200    86585064.988 6      2780.350
G08  21191660.940   111362932.694 7      3821.004    21191659.820   111362932.697 6      3821.004    21191667.740    86776349.899 6      2977.406    21191668.860    86776343.906 8      2977.406
G27  21020396.960   110462934.310 8      2101.448    21020395.660   110462934.320 8      2101.448    21020403.920    86075054.668 8      1637.492    21020404.260    86075039.673 7      1637.492
G23  24405753.780   128253102.802 5       226.605    24405752.040   128253102.807 1       226.605    24405764.900    99937505.378 1       176.575    24405767.540    99937528.393 6       176.575
R15  20449408.360   109275440.099 7      5069.273    20449406.380   109275440.097 7      5069.273    20449418.660    84992048.962 8      3942.768    20449419.640    84992072.959 8      3942.768
R18  22904495.980   122265803.646 6      4895.393    22904493.440   122265803.665 6      4895.393    22904514.620    95095676.753 7      3807.528    22904516.840    95095732.752 7      3807.528
G16  21152782.500   111158607.073 7       730.703    21152781.380   111158607.080 6       730.703    21152787.720    86617113.819 6       569.379
R14  19579034.500   104367253.785 8       886.848    19579033.980   104367253.783 8       886.848    19579044.380    81174585.127 8       689.771    19579044.960    81174573.127 8       689.771
R17  20401545.600   109172797.463 7      2923.108    20401546.100   109172797.492 7      2923.108    20401557.420    84912222.359 8      2273.528    20401557.380    84912225.362 8      2273.528
G26  22996284.620   120846256.638 7      -388.692    22996283.580   120846256.635 6      -388.692    22996297.840    94165954.616 6      -302.877    22996298.080    94165992.608 7      -302.877
G01  22925230.160   120472936.737 7      5403.332    22925228.900   120472936.745 5      5403.332    22925241.000    93875077.295 5      4210.388    22925242.120    93875041.318 7      4210.388
G07  23956831.420   125894000.495 6      3513.695    23956829.780   125894000.508 5      3513.695    23956839.780    98099258.152 5      2737.944    23956838.600    98099251.160 7      2737.944
> 2025 04 04 14 02 49.0000000  0 14
G10  22309872.160   117239169.040 7      2278.568    22309871.340   117239169.050 7      2278.568    22309881.280    91355240.187 7      1775.508    22309881.480    91355237.186 8      1775.508
R24  21250028.260   113633439.709 7       463.907    21250027.780   113633439.718 7       463.907    21250040.180    88381617.373 8       360.816    21250040.160    88381611.372 8       360.816
G02  21144273.640   111113910.048 7      3567.723    21144271.780   111113910.058 6      3567.723    21144277.200    86582284.864 6      2780.044
G08  21190933.740   111359111.713 7      3821.023    21190932.800   111359111.718 6      3821.023    21190940.700    86773372.515 6      2977.420    21190941.640    86773366.525 8      2977.420
G27  21019997.180   110460832.919 8      2101.494    21019995.820   110460832.924 8      2101.494    21020004.120    86073417.218 8      1637.528    21020004.420    86073402.221 7      1637.528
G23  24405710.920   128252876.384 5       226.471    24405708.960   128252876.389 1       226.471    24405721.880    99937328.954 1       176.471    24405724.380    99937351.980 6       176.471
R15  20448459.940   109270371.148 7      5068.733    20448457.720   109270371.144 7      5068.733    20448469.960    84988106.449 8      3942.348    20448471.020    84988130.448 8      3942.348
R18  22903579.480   122260908.373 6      4895.194    22903575.680   122260908.382 6      4895.194    22903597.780    95091869.336 7      3807.373    22903599.380    95091925.332 7      3807.373
G16  21152643.600   111157876.654 7       730.376    21152642.400   111157876.662 6       730.376    21152648.800    86616544.662 6       569.124
R14  19578868.160   104366367.382 8       886.237    19578867.520   104366367.380 8       886.237    19578877.980    81173895.702 8       689.295    19578878.560    81173883.705 8       689.295
R17  20400999.380   109169874.578 7      2922.915    20400999.760   109169874.601 7      2922.915    20401011.340    84909949.004 8      2273.378    20401011.200    84909952.005 8      2273.378
G26  22996358.440   120846645.510 7      -388.759    22996357.500   120846645.510 6      -388.759    22996371.800    94166257.627 6      -302.929    22996372.080    94166295.619 7      -302.929
G01  22924201.900   120467533.599 7      5403.129    22924200.700   120467533.609 5      5403.129    22924212.860    93870867.074 5      4210.230    22924214.060    93870831.097 7      4210.230
G07  23956162.920   125890486.850 6      3513.499    23956161.280   125890486.860 5      3513.499    23956171.180    98096520.244 5      2737.791    23956169.960    98096513.250 7      2737.791
> 2025 04 04 14 02 50.0000000  0 14
G10  22309438.680   117236890.796 7      2278.067    22309437.820   117236890.803 7      2278.067    22309447.700    91353464.934 7      1775.117    22309448.040    91353461.932 8      1775.117
R24  21249941.460   113632975.965 7       463.747    21249940.940   113632975.980 7       463.747    21249953.260    88381256.684 8       360.692    21249953.420    88381250.684 8       360.692
G02  21143594.640   111110342.530 7      3567.332    21143593.040   111110342.538 6      3567.332    21143598.200    86579504.987 6      2779.740
G08  21190206.620   111355290.767 7      3820.896    21190205.720   111355290.769 6      3820.896    21190213.560    86770395.154 6      2977.322    21190214.440    86770389.164 8      2977.322
G27  21019597.220   110458731.627 8      2101.257    21019596.060   110458731.635 8      2101.257    21019604.240    86071779.850 8      1637.343    21019604.680    86071764.855 7      1637.343
G23  24405667.760   128252650.346 5       226.093    24405665.720   128252650.348 1       226.093    24405679.020    99937152.815 1       176.176    24405681.280    99937175.820 6       176.176
R15  20447511.340   109265302.825 7      5068.029    20447509.220   109265302.821 7      5068.029    20447521.460    84984164.425 8      3941.800    20447522.560    84984188.423 8      3941.800
R18  22902662.480   122256013.306 6      4894.968    22902658.180   122256013.323 6      4894.968    22902680.460    95088062.084 7      3807.197    22902682.340    95088118.081 7      3807.197
G16  21152504.640   111157146.598 7       729.874    21152503.400   111157146.603 6       729.874    21152509.780    86615975.783 6       568.733
R14  19578701.780   104365481.688 8       885.346    19578701.500   104365481.686 8       885.346    19578711.940    81173206.828 8       688.602    19578712.260    81173194.827 8       688.602
R17  20400453.480   109166951.899 7      2922.558    20400453.540   109166951.916 7      2922.558    20400465.060    84907675.811 8      2273.100    20400465.100    84907678.814 8      2273.100
G26  22996432.500   120847034.559 7      -389.148    22996431.700   120847034.564 6      -389.148    22996445.920    94166560.778 6      -303.232    22996446.540    94166598.776 7      -303.232
G01  22923173.800   120462130.689 7      5402.869    22923172.440   120462130.697 5      5402.869    22923184.720    93866657.021 5      4210.028    22923185.920    93866621.040 7      4210.028
G07  23955494.640   125886973.635 6      3512.967    23955492.640   125886973.648 5      3512.967    23955502.720    98093782.674 5      2737.377    23955501.340    98093775.680 7      2737.377
> 2025 04 04 14 02 51.0000000  0 14
G10  22309005.120   117234613.140 7      2277.368    22309004.400   117234613.150 7      2277.368    22309014.360    91351690.137 7      1774.572    22309014.180    91351687.140 8      1774.572
R24  21249854.580   113632512.205 7       463.700    21249854.640   113632512.227 7       463.700    21249866.660    88380895.987 8       360.655    21249866.620    88380889.984 8       360.655
G02  21142915.860   111106775.423 7      3566.886    21142914.100   111106775.430 6      3566.886    21142919.360    86576725.422 6      2779.391
G08  21189479.580   111351469.906 7      3820.834    21189478.520   111351469.909 6      3820.834    21189486.440    86767417.865 6      2977.273    21189487.180    86767411.870 8      2977.273
G27  21019197.300   110456630.451 8      2101.159    21019196.140   110456630.459 8      2101.159    21019204.360    86070142.574 8      1637.266    21019204.860    86070127.579 7      1637.266
G23  24405625.120   128252424.648 5       225.396    24405622.940   128252424.647 1       225.396    24405636.100    99936976.948 1       175.633    24405638.440    99936999.990 6       175.633
R15  20446563.020   109260235.181 7      5067.390    20446561.340   109260235.183 7      5067.390    20446573.200    84980222.928 8      3941.303    20446574.140    84980246.927 8      3941.303
R18  22901745.420   122251118.535 6      4894.587    22901741.060   122251118.547 6      4894.587    22901763.560    95084255.061 7      3806.901    22901765.700    95084311.058 7      3806.901
G16  21152365.940   111156416.953 7       729.424    21152364.620   111156416.957 6       729.424    21152370.780    86615407.228 6       568.382
R14  19578535.700   104364596.798 8       884.445    19578535.200   104364596.794 8       884.445    19578545.840    81172518.577 8       687.902    19578546.260    81172506.576 8       687.902
R17  20399907.140   109164029.506 7      2922.206    20399907.320   109164029.523 7      2922.206    20399919.080    84905402.841 8      2272.827    20399918.880    84905405.846 8      2272.827
G26  22996506.640   120847423.807 7      -389.429    22996505.700   120847423.815 6      -389.429    22996519.940    94166864.080 6      -303.451    22996520.340    94166902.078 7      -303.451
G01  22922145.760   120456728.066 7      5402.473    22922144.460   120456728.074 5      5402.473    22922156.560    93862447.199 5      4209.719    22922157.700    93862411.212 7      4209.719
G07  23954826.100   125883460.909 6      3512.452    23954824.140   125883460.919 5      3512.452    23954834.280    98091045.487 5      2736.976    23954833.400    98091038.500 7      2736.976
> 2025 04 04 14 02 52.0000000  0 14
G10  22308571.940   117232335.902 7      2276.932    22308571.140   117232335.909 7      2276.932    22308581.000    91349915.672 7      1774.233    22308581.180    91349912.668 8      1774.233
R24  21249768.340   113632048.346 7       463.906    21249767.640   113632048.360 7       463.906    21249779.700    88380535.202 8       360.816    21249780.140    88380529.203 8       360.816
G02  21142237.240   111103208.568 7      3566.715    21142235.360   111103208.575 6      3566.715    21142240.660    86573946.059 6      2779.259
G08  21188752.360   111347649.025 7      3820.824    21188751.760   111347649.025 6      3820.824    21188759.360    86764440.557 6      2977.265    21188759.920    86764434.562 8      2977.265
G27  21018797.440   110454529.302 7      2101.206    21018796.320   110454529.301 8      2101.206    21018804.500    86068505.308 8      1637.303    21018804.900    86068490.311 7      1637.303
G23  24405582.160   128252199.165 5       225.267    24405580.200   128252199.167 1       225.267    24405593.260    99936801.251 1       175.533    24405594.800    99936824.283 6       175.533
R15  20445614.360   109255168.122 7      5066.728    20445613.080   109255168.121 7      5066.728    20445624.900    84976281.884 8      3940.788    20445626.000    84976305.881 8      3940.788
R18  22900828.960   122246223.903 6      4894.659    22900825.040   122246223.894 6      4894.659    22900846.760    95080448.127 7      3806.957    22900848.960    95080504.126 7      3806.957
G16  21152227.100   111155687.598 7       729.170    21152225.700   111155687.600 6       729.170    21152232.100    86614838.894 6       568.184
R14  19578369.980   104363712.562 8       883.841    19578369.520   104363712.555 8       883.841    19578379.940    81171830.833 8       687.432    19578380.540    81171818.834 8       687.432
R17  20399361.080   109161107.289 7      2922.081    20399361.020   109161107.309 7      2922.081    20399372.940    84903130.012 8      2272.730    20399372.600    84903133.015 8      2272.730
G26  22996580.660   120847813.124 7      -389.304    22996579.720   120847813.129 6      -389.304    22996594.020    94167167.431 6      -303.354    22996594.660    94167205.432 7      -303.354
G01  22921117.660   120451325.588 7      5402.292    22921116.540   120451325.592 5      5402.292    22921128.480    93858237.484 5      4209.578    22921129.780    93858201.500 7      4209.578
G07  23954157.360   125879948.525 6      3512.238    23954155.740   125879948.533 5      3512.238    23954165.960    98088308.565 5      2736.809    23954164.900    98088301.577 7      2736.809
> 2025 04 04 14 02 53.0000000  0 14
G10  22308138.540   117230059.155 7      2276.472    22308137.860   117230059.165 7      2276.472    22308147.800    91348141.587 7      1773.874    22308148.000    91348138.588 8      1773.874
R24  21249681.460   113631584.460 7       463.881    21249680.840   113631584.477 7       463.881    21249693.000    88380174.402 8       360.796    21249693.200    88380168.407 8       360.796
G02  21141558.440   111099642.054 7      3566.369    21141556.700   111099642.061 6      3566.369    21141562.040    86571166.961 6      2778.989
G08  21188025.320   111343828.144 7      3820.862    21188024.560   111343828.144 6      3820.862    21188032.220    86761463.251 6      2977.295    21188033.060    86761457.262 8      2977.295
G27  21018397.440   110452428.217 7      2101.106    21018396.480   110452428.225 8      2101.106    21018404.680    86066868.104 8      1637.225    21018405.040    86066853.113 7      1637.225
G23  24405538.340   128251973.952 5       225.421    24405537.280   128251973.954 1       225.421    24405550.500    99936625.763 1       175.652    24405552.080    99936648.790 6       175.652
R15  20444666.060   109250101.643 7      5066.105    20444665.100   109250101.642 7      5066.105    20444676.800    84972341.295 8      3940.304    20444677.840    84972365.292 8      3940.304
R18  22899911.440   122241329.477 6      4894.449    22899907.200   122241329.489 6      4894.449    22899930.020    95076641.393 7      3806.794    22899931.880    95076697.393 7      3806.794
G16  21152088.300   111154958.580 7       728.857    21152087.040   111154958.585 6       728.857    21152093.360    86614270.834 6       567.941
R14  19578204.380   104362829.029 8       883.158    19578203.780   104362829.027 8       883.158    19578214.160    81171143.645 8       686.901    19578214.840    81171131.642 8       686.901
R17  20398814.760   109158185.327 7      2921.914    20398815.060   109158185.342 7      2921.914    20398826.880    84900857.381 8      2272.600    20398826.840    84900860.382 8      2272.600
G26  22996655.000   120848202.611 7      -389.516    22996653.840   120848202.614 6      -389.516    22996668.140    94167470.924 6      -303.519    22996668.400    94167508.922 7      -303.519
G01  22920090.000   120445923.314 7      5402.103    22920088.360   120445923.321 5      5402.103    22920100.580    93854027.930 5      4209.431    22920101.540    93853991.947 7      4209.431
G07  23953488.560   125876436.569 6      3511.710    23953487.620   125876436.577 5      3511.710    23953497.660    98085571.973 5      2736.397    23953496.700    98085564.986 7      2736.397
> 2025 04 04 14 02 54.0000000  0 14
G10  22307705.380   117227783.094 7      2275.637    22307704.720   117227783.102 7      2275.637    22307714.720    91346368.029 7      1773.224    22307714.580    91346365.030 8      1773.224
R24  21249594.700   113631120.731 7       463.526    21249594.400   113631120.749 7       463.526    21249606.340    88379813.722 8       360.520    21249606.420    88379807.721 8       360.520
G02  21140879.900   111096076.058 7      3565.720    21140877.980   111096076.065 6      3565.720    21140883.460    86568388.267 6      2778.483
G08  21187298.400   111340007.497 7      3820.486    21187297.520   111340007.499 6      3820.486    21187305.240    86758486.129 6      2977.002    21187305.980    86758480.141 8      2977.002
G27  21017997.700   110450327.401 7      2100.663    21017996.700   110450327.409 8      2100.663    21018004.880    86065231.109 8      1636.880    21018005.440    86065216.116 7      1636.880
G23  24405496.280   128251749.389 5       224.249    24405494.660   128251749.386 1       224.249    24405507.440    99936450.785 1       174.739    24405509.140    99936473.802 6       174.739
R15  20443718.500   109245035.920 7      5065.298    20443717.200   109245035.919 7      5065.298    20443728.820    84968401.287 8      3939.677    20443729.700    84968425.285 8      3939.677
R18  22898995.100   122236435.496 6      4893.842    22898990.060   122236435.508 6      4893.842    22899013.140    95072834.984 7      3806.322    22899015.100    95072890.981 7      3806.322
G16  21151949.780   111154230.122 7       728.166    21151948.340   111154230.132 6       728.166    21151954.820    86613703.204 6       567.402
R14  19578038.500   104361946.387 8       882.181    19578038.040   104361946.382 8       882.181    19578048.560    81170457.139 8       686.141    19578049.040    81170445.142 8       686.141
R17  20398268.960   109155263.817 7      2921.287    20398268.920   109155263.826 7      2921.287    20398280.920    84898585.095 8      2272.112    20398280.680    84898588.096 8      2272.112
G26  22996728.900   120848592.438 7      -389.987    22996727.980   120848592.437 6      -389.987    22996742.240    94167774.673 6      -303.886    22996742.600    94167812.669 7      -303.886
G01  22919061.860   120440521.455 7      5401.518    22919060.520   120440521.460 5      5401.518    22919072.920    93849818.698 5      4208.975    22919073.600    93849782.725 7      4208.975
G07  23952820.440   125872925.212 6      3510.985    23952819.480   125872925.214 5      3510.985    23952829.500    98082835.855 5      2735.833    23952828.200    98082828.859 7      2735.833
> 2025 04 04 14 02 55.0000000  0 14
G10  22307272.320   117225507.577 7      2275.371    22307271.760   117225507.579 7      2275.371    22307281.680    91344594.905 7      1773.016    22307281.720    91344591.900 8      1773.016
R24  21249507.880   113630656.969 7       463.845    21249507.540   113630656.991 7       463.845    21249519.500    88379453.022 8       360.768    21249519.640    88379447.023 8       360.768
G02  21140201.540   111092510.453 7      3565.534    21140199.520   111092510.458 6      3565.534    21140205.040    86565609.874 6      2778.338
G08  21186571.300   111336186.936 7      3820.568    21186570.380   111336186.936 6      3820.568    21186578.340    86755509.073 6      2977.066    21186579.180    86755503.081 8      2977.066
G27  21017597.940   110448226.719 7      2100.692    21017596.820   110448226.727 8      2100.692    21017605.180    86063594.214 8      1636.902    21017605.660    86063579.219 7      1636.902
G23  24405453.060   128251525.099 5       224.312    24405451.840   128251525.093 1       224.312    24405464.720    99936276.013 1       174.789    24405467.160    99936299.002 6       174.789
R15  20442770.820   109239970.849 7      5064.815    20442769.680   109239970.845 7      5064.815    20442780.820    84964461.791 8      3939.301    20442781.840    84964485.790 8      3939.301
R18  22898078.540   122231541.820 6      4893.522    22898074.100   122231541.818 6      4893.522    22898096.320    95069028.802 7      3806.073    22898097.960    95069084.802 7      3806.073
G16  21151811.300   111153502.068 7       727.974    21151809.820   111153502.079 6       727.974    21151816.420    86613135.890 6       567.253
R14  19577873.120   104361064.450 8       881.669    19577872.700   104361064.446 8       881.669    19577883.040    81169771.187 8       685.743    19577883.600    81169759.188 8       685.743
R17  20397723.060   109152342.593 7      2921.164    20397723.240   109152342.602 7      2921.164    20397734.940    84896313.036 8      2272.017    20397734.640    84896316.037 8      2272.017
G26  22996803.380   120848982.472 7      -390.032    22996802.080   120848982.474 6      -390.032    22996816.480    94168078.583 6      -303.921    22996816.660    94168116.579 7      -303.921
G01  22918033.680   120435119.844 7      5401.731    22918032.740   120435119.846 5      5401.731    22918044.780    93845609.660 5      4209.141    22918045.400    93845573.671 7      4209.141
G07  23952152.900   125869414.305 6      3510.815    23952151.380   125869414.309 5      3510.815    23952161.420    98080100.083 5      2735.700    23952159.540    98080093.083 7      2735.700
> 2025 04 04 14 02 56.0000000  0 14
G10  22306839.460   117223232.473 7      2275.039    22306838.700   117223232.477 7      2275.039    22306848.780    91342822.101 7      1772.758    22306848.740    91342819.101 8      1772.758
R24  21249421.040   113630193.045 7       464.158    21249421.220   113630193.057 7       464.158    21249432.840    88379092.182 8       361.012    21249433.000    88379086.181 8       361.012
G02  21139522.980   111088945.085 7      3565.378    21139521.000   111088945.090 6      3565.378    21139526.520    86562831.667 6      2778.217
G08  21185844.120   111332366.302 7      3820.770    21185843.380   111332366.302 6      3820.770    21185851.140    86752531.960 6      2977.223    21185851.780    86752525.967 8      2977.223
G27  21017198.160   110446126.014 7      2100.857    21017197.100   110446126.019 8      2100.857    21017205.300    86061957.298 8      1637.031    21017205.960    86061942.305 7      1637.031
G23  24405409.340   128251301.037 5       224.101    24405408.780   128251301.042 1       224.101    24405422.020    99936101.426 1       174.624    24405423.760    99936124.423 6       174.624
R15  20441822.880   109234906.288 7      5064.435    20441821.780   109234906.292 7      5064.435    20441832.880    84960522.696 8      3939.005    20441833.940    84960546.695 8      3939.005
R18  22897161.660   122226648.170 6      4893.833    22897157.180   122226648.179 6      4893.833    22897179.920    95065222.659 7      3806.314    22897181.360    95065278.653 7      3806.314
G16  21151672.660   111152774.285 7       727.817    21151671.260   111152774.290 6       727.817    21151677.800    86612568.782 6       567.130
R14  19577707.760   104360183.085 8       881.212    19577707.200   104360183.077 8       881.212    19577717.560    81169085.678 8       685.387    19577718.280    81169073.679 8       685.387
R17  20397177.140   109149421.487 7      2921.200    20397176.980   109149421.496 7      2921.200    20397189.140    84894041.069 8      2272.045    20397188.640    84894044.074 8      2272.045
G26  22996877.600   120849372.540 7      -389.938    22996876.600   120849372.547 6      -389.938    22996890.620    94168382.530 6      -303.848    22996890.760    94168420.532 7      -303.848
G01  22917006.000   120429718.385 7      5401.555    22917004.920   120429718.390 5      5401.555    22917016.860    93841400.741 5      4209.004    22917017.560    93841364.766 7      4209.004
G07  23951484.760   125865903.744 6      3510.496    23951483.280   125865903.749 5      3510.496    23951493.400    98077364.583 5      2735.451    23951492.140    98077357.592 7      2735.451
> 2025 04 04 14 02 57.0000000  0 14
G10  22306406.900   117220957.949 7      2274.186    22306405.920   117220957.954 7      2274.186    22306416.060    91341049.744 7      1772.093    22306415.900    91341046.749 8      1772.093
R24  21249334.460   113629729.149 7       463.837    21249334.360   113629729.158 7       463.837    21249346.120    88378731.370 8       360.762    21249346.320    88378725.368 8       360.762
G02  21138844.580   111085380.132 7      3564.621    21138842.680   111085380.139 6      3564.621    21138848.100    86560053.790 6      2777.627
G08  21185117.160   111328545.792 7      3820.322    21185116.460   111328545.794 6      3820.322    21185124.160    86749554.940 6      2976.874    21185125.000    86749548.950 8      2976.874
G27  21016798.500   110444025.479 7      2100.369    21016797.440   110444025.481 8      2100.369    21016805.640    86060320.518 8      1636.652    21016806.160    86060305.523 7      1636.652
G23  24405369.180   128251077.435 5       223.186    24405366.320   128251077.440 1       223.186    24405379.520    99935927.187 1       173.911    24405380.220    99935950.159 6       173.911
R15  20440874.780   109229842.457 7      5063.441    20440874.240   109229842.458 7      5063.441    20440885.280    84956584.163 8      3938.232    20440886.340    84956608.160 8      3938.232
R18  22896245.580   122221754.899 6      4893.002    22896239.800   122221754.892 6      4893.002    22896262.880    95061416.788 7      3805.668    22896264.520    95061472.780 7      3805.668
G16  21151534.280   111152046.928 7       727.117    21151532.740   111152046.933 6       727.117    21151539.420    86612002.008 6       566.585
R14  19577542.640   104359302.510 8       880.031    19577542.040   104359302.511 8       880.031    19577552.480    81168400.791 8       684.468    19577553.200    81168388.794 8       684.468
R17  20396631.320   109146500.728 7      2920.509    20396631.240   109146500.738 7      2920.509    20396643.440    84891769.370 8      2271.507    20396643.040    84891772.371 8      2271.507
G26  22996951.780   120849762.892 7      -390.645    22996950.720   120849762.897 6      -390.645    22996964.960    94168686.692 6      -304.399    22996965.500    94168724.688 7      -304.399
G01  22915978.000   120424317.241 7      5400.810    22915977.080   120424317.246 5      5400.810    22915988.880    93837192.066 5      4208.424    22915989.640    93837156.085 7      4208.424
G07  23950817.040   125862393.685 6      3509.642    23950815.080   125862393.690 5      3509.642    23950825.220    98074629.470 5      2734.786    23950824.180    98074622.479 7      2734.786
> 2025 04 04 14 02 58.0000000  0 14
G10  22305974.020   117218683.974 7      2273.718    22305973.300   117218683.979 7      2273.718    22305983.180    91339277.818 7      1771.728    22305983.220    91339274.821 8      1771.728
R24  21249247.600   113629265.273 7       463.834    21249247.620   113629265.288 7       463.834    21249259.200    88378370.582 8       360.760    21249259.700    88378364.583 8       360.760
G02  21138166.200   111081815.568 7      3564.317    21138164.260   111081815.578 6      3564.317    21138169.920    86557276.211 6      2777.390
G08  21184390.120   111324725.341 7      3820.435    21184389.500   111324725.346 6      3820.435    21184397.100    86746577.970 6      2976.963    21184397.840    86746571.978 8      2976.963
G27  21016398.580   110441925.062 7      2100.287    21016397.680   110441925.070 8      2100.287    21016405.980    86058683.835 8      1636.587    21016406.460    86058668.842 7      1636.587
G23  24405326.880   128250854.067 5       223.082    24405324.220   128250854.083 1       223.082    24405337.380    99935753.136 1       173.830    24405338.240    99935776.157 6       173.830
R15  20439927.400   109224779.320 7      5062.791    20439927.020   109224779.319 7      5062.791    20439937.880    84952646.172 8      3937.726    20439938.860    84952670.171 8      3937.726
R18  22895328.700   122216861.847 6      4892.773    22895323.300   122216861.838 6      4892.773    22895346.060    95057611.101 7      3805.490    22895348.020    95057667.100 7      3805.490
G16  21151396.020   111151319.994 7       726.698    21151394.300   111151320.001 6       726.698    21151401.080    86611435.568 6       566.258
R14  19577377.580   104358422.714 8       879.304    19577377.220   104358422.715 8       879.304    19577387.460    81167716.505 8       683.903    19577388.060    81167704.508 8       683.903
R17  20396085.420   109143580.275 7      2920.204    20396085.360   109143580.282 7      2920.204    20396097.680    84889497.911 8      2271.270    20396097.400    84889500.912 8      2271.270
G26  22997026.160   120850153.399 7      -390.647    22997025.080   120850153.404 6      -390.647    22997039.420    94168990.971 6      -304.400    22997039.740    94169028.975 7      -304.400
G01  22914950.500   120418916.352 7      5400.614    22914949.320   120418916.362 5      5400.614    22914961.280    93832983.593 5      4208.270    22914962.100    93832947.612 7      4208.270
G07  23950149.200   125858884.078 7      3509.282    23950147.260   125858884.085 5      3509.282    23950157.340    98071894.716 5      2734.505    23950156.140    98071887.730 7      2734.505
> 2025 04 04 14 02 59.0000000  0 14
G10  22305541.240   117216410.654 7      2273.069    22305540.640   117216410.653 7      2273.069    22305550.660    91337506.402 7      1771.223    22305550.760    91337503.402 8      1771.223
R24  21249160.820   113628801.516 7       463.718    21249160.980   113628801.533 7       463.718    21249172.600    88378009.884 8       360.669    21249172.820    88378003.876 8       360.669
G02  21137487.980   111078251.490 7      3563.919    21137485.960   111078251.495 6      3563.919    21137491.680    86554499.010 6      2777.080
G08  21183663.120   111320905.096 7      3820.249    21183662.540   111320905.096 6      3820.249    21183670.280    86743601.158 6      2976.817    21183671.140    86743595.169 8      2976.817
G27  21015999.040   110439824.877 7      2100.147    21015998.060   110439824.882 8      2100.147    21016006.260    86057047.327 8      1636.478    21016006.680    86057032.330 7      1636.478
G23  24405283.760   128250631.225 5       222.675    24405281.380   128250631.240 1       222.675    24405295.420    99935579.494 1       173.513    24405296.860    99935602.524 6       173.513
R15  20438979.880   109219716.961 7      5062.025    20438979.620   109219716.962 7      5062.025    20438990.460    84948708.786 8      3937.131    20438991.600    84948732.784 8      3937.131
R18  22894411.800   122211969.185 6      4892.375    22894406.020   122211969.184 6      4892.375    22894430.020    95053805.722 7      3805.180    22894431.460    95053861.721 7      3805.180
G16  21151257.760   111150593.546 7       726.318    21151256.000   111150593.553 6       726.318    21151262.780    86610869.502 6       565.962
R14  19577212.700   104357543.792 8       878.545    19577212.180   104357543.788 8       878.545    19577222.440    81167032.895 8       683.313    19577223.180    81167020.896 8       683.313
R17  20395539.840   109140660.178 7      2920.043    20395539.600   109140660.176 7      2920.043    20395551.960    84887226.724 8      2271.145    20395551.480    84887229.723 8      2271.145
G26  22997100.000   120850544.221 7      -390.892    22997099.460   120850544.223 6      -390.892    22997113.840    94169295.500 6      -304.591    22997114.520    94169333.504 7      -304.591
G01  22913922.960   120413515.823 7      5400.393    22913921.620   120413515.828 5      5400.393    22913933.640    93828775.397 5      4208.098    22913934.340    93828739.412 7      4208.098
G07  23949481.340   125855375.046 6      3508.729    23949479.420   125855375.057 5      3508.729    23949489.660    98069160.412 5      2734.074    23949488.380    98069153.420 7      2734.074
> 2025 04 04 14 03  0.0000000  0 14
G10  22305108.740   117214137.864 7      2272.355    22305108.280   117214137.866 7      2272.355    22305118.180    91335735.399 7      1770.666    22305118.120    91335732.401 8      1770.666
R24  21249074.220   113628337.758 7       463.621    21249074.300   113628337.770 7       463.621    21249086.140    88377649.177 8       360.594    21249086.060    88377643.178 8       360.594
G02  21136809.760   111074687.790 7      3563.345    21136807.840   111074687.798 6      3563.345    21136813.540    86551722.103 6      2776.632
G08  21182936.260   111317084.930 7      3819.958    21182935.600   111317084.929 6      3819.958    21182943.320    86740624.405 6      2976.591    21182944.160    86740618.410 8      2976.591
G27  21015599.440   110437724.807 7      2099.821    21015598.380   110437724.812 8      2099.821    21015606.600    86055410.909 8      1636.224    21015606.960    86055395.916 7      1636.224
G23  24405240.880   128250408.745 5       222.125    24405239.080   128250408.753 1       222.125    24405253.220    99935406.129 1       173.084    24405254.760    99935429.169 6       173.084
R15  20438032.660   109214655.259 7      5061.149    20438032.340   109214655.260 7      5061.149    20438043.260    84944771.906 8      3936.449    20438044.360    84944795.905 8      3936.449
R18  22893494.440   122207076.761 6      4892.065    22893489.260   122207076.759 6      4892.065    22893513.140    95050000.520 7      3804.939    22893514.800    95050056.521 7      3804.939
G16  21151119.560   111149867.512 7       725.657    21151117.880   111149867.523 6       725.657    21151124.480    86610303.764 6       565.447
R14  19577047.960   104356665.611 8       877.668    19577047.400   104356665.607 8       877.668    19577057.720    81166349.861 8       682.631    19577058.580    81166337.864 8       682.631
R17  20394994.300   109137740.375 7      2919.427    20394994.000   109137740.373 7      2919.427    20395006.440    84884955.766 8      2270.665    20395005.820    84884958.771 8      2270.665
G26  22997174.660   120850935.243 7      -391.209    22997173.820   120850935.240 6      -391.209    22997188.300    94169600.180 6      -304.838    22997189.180    94169638.172 7      -304.838
G01  22912895.320   120408115.543 7      5400.028    22912893.880   120408115.548 5      5400.028    22912906.020    93824567.397 5      4207.814    22912906.820    93824531.418 7      4207.814
G07  23948813.820   125851866.469 7      3508.182    23948811.840   125851866.480 5      3508.182    23948822.080    98066426.451 5      2733.648    23948820.840    98066419.454 7      2733.648
> 2025 04 04 14 03  1.0000000  0 14
G10  22304676.360   117211865.673 7      2271.881    22304675.740   117211865.678 7      2271.881    22304685.740    91333964.869 7      1770.297    22304685.880    91333961.876 8      1770.297
R24  21248987.520   113627874.054 7       463.747    21248987.500   113627874.061 7       463.747    21248999.080    88377288.516 8       360.692    21248999.240    88377282.513 8       360.692
G02  21136131.760   111071124.519 7      3563.100    21136129.800   111071124.524 6      3563.100    21136135.260    86548945.532 6      2776.441
G08  21182209.280   111313264.868 7      3820.005    21182208.720   111313264.865 6      3820.005    21182216.340    86737647.738 6      2976.627    21182217.180    86737641.747 8      2976.627
G27  21015200.020   110435624.916 8      2099.835    21015198.780   110435624.921 8      2099.835    21015207.080    86053774.628 8      1636.235    21015207.240    86053759.635 8      1636.235
G23  24405198.620   128250186.657 5       221.975    24405196.700   128250186.664 1       221.975    24405211.180    99935233.078 1       172.968    24405212.900    99935256.130 6       172.968
R15  20437085.880   109209594.257 7      5060.675    20437085.400   109209594.258 7      5060.675    20437096.140    84940835.582 8      3936.080    20437097.140    84940859.583 8      3936.080
R18  22892577.720   122202184.590 5      4892.277    22892573.320   122202184.585 6      4892.277    22892596.860    95046195.525 7      3805.104    22892598.460    95046251.526 7      3805.104
G16  21150981.540   111149141.934 7       725.303    21150979.840   111149141.941 6       725.303    21150986.320    86609738.378 6       565.171
R14  19576883.160   104355788.227 8       877.053    19576882.660   104355788.220 8       877.053    19576893.040    81165667.454 8       682.152    19576893.740    81165655.454 8       682.152
R17  20394449.000   109134820.858 7      2919.360    20394448.440   109134820.865 7      2919.360    20394460.840    84882685.041 8      2270.613    20394460.320    84882688.044 8      2270.613
G26  22997249.240   120851326.512 7      -391.398    22997248.340   120851326.517 6      -391.398    22997262.840    94169905.061 6      -304.985    22997263.520    94169943.061 7      -304.985
G01  22911867.860   120402715.598 7      5399.906    22911866.400   120402715.605 5      5399.906    22911878.420    93820359.659 5      4207.719    22911879.160    93820323.674 7      4207.719
G07  23948146.220   125848358.428 7      3507.904    23948144.300   125848358.433 5      3507.904    23948154.680    98063692.903 5      2733.431    23948153.300    98063685.889 7      2733.431
> 2025 04 04 14 03  2.0000000  0 14
G10  22304244.240   117209594.013 7      2271.506    22304243.500   117209594.018 7      2271.506    22304253.440    91332194.744 7      1770.004    22304253.260    91332191.749 8      1770.004
R24  21248900.640   113627410.342 7       463.771    21248900.820   113627410.357 7       463.771    21248912.280    88376927.855 8       360.710    21248912.440    88376921.852 8       360.710
G02  21135453.580   111067561.623 7      3562.802    21135451.800   111067561.625 6      3562.802    21135457.340    86546169.250 6      2776.210
G08  21181482.420   111309444.875 7      3820.044    21181481.780   111309444.878 6      3820.044    21181489.500    86734671.128 6      2976.658    21181490.160    86734665.144 8      2976.658
G27  21014800.340   110433525.132 8      2099.868    21014799.300   110433525.140 8      2099.868    21014807.500    86052138.442 8      1636.260    21014807.620    86052123.447 8      1636.260
G23  24405156.380   128249964.957 5       221.601    24405154.540   128249964.965 1       221.601    24405169.040    99935060.327 1       172.676    24405170.420    99935083.367 6       172.676
R15  20436138.920   109204533.921 7      5060.056    20436138.360   109204533.924 7      5060.056    20436149.180    84936899.767 8      3935.599    20436150.220    84936923.765 8      3935.599
R18  22891661.740   122197292.811 5      4891.778    22891656.840   122197292.798 6      4891.778    22891680.240    95042390.810 7      3804.716    22891682.140    95042446.813 7      3804.716
G16  21150843.460   111148416.744 7       725.032    21150841.840   111148416.752 6       725.032    21150848.340    86609173.291 6       564.960
R14  19576719.120   104354911.598 8       876.333    19576718.240   104354911.590 8       876.333    19576728.640    81164985.629 8       681.592    19576729.380    81164973.631 8       681.592
R17  20393903.220   109131901.654 7      2919.164    20393902.980   109131901.661 7      2919.164    20393915.360    84880414.557 8      2270.461    20393914.800    84880417.561 8      2270.461
G26  22997323.760   120851717.970 7      -391.433    22997322.760   120851717.975 6      -391.433    22997337.260    94170210.087 6      -305.013    22997337.720    94170248.083 7      -305.013
G01  22910840.620   120397315.925 7      5399.696    22910838.760   120397315.930 5      5399.696    22910850.880    93816152.129 5      4207.555    22910851.480    93816116.148 7      4207.555
G07  23947478.500   125844850.824 6      3507.410    23947476.840   125844850.829 5      3507.410    23947486.980    98060959.712 5      2733.047    23947485.340    98060952.711 7      2733.047
> 2025 04 04 14 03  3.0000000  0 14
G10  22303812.060   117207322.866 7      2270.974    22303811.380   117207322.876 7      2270.974    22303821.320    91330425.029 7      1769.590    22303821.300    91330422.032 8      1769.590
R24  21248813.700   113626946.574 7       463.963    21248814.160   113626946.589 7       463.963    21248825.660    88376567.145 8       360.860    21248825.760    88376561.142 8       360.860
G02  21134775.780   111063999.069 7      3562.504    21134773.960   111063999.069 6      3562.504    21134779.440    86543393.237 6      2775.978
G08  21180755.600   111305624.943 7      3819.973    21180754.940   111305624.945 6      3819.973    21180762.640    86731694.563 6      2976.602    21180763.300    86731688.575 8      2976.602
G27  21014400.960   110431425.457 7      2099.688    21014399.680   110431425.461 8      2099.688    21014407.940    86050502.329 8      1636.121    21014408.280    86050487.336 8      1636.121
G23  24405113.700   128249743.597 5       221.307    24405112.480   128249743.604 1       221.307    24405126.760    99934887.840 1       172.447    24405127.540    99934910.870 6       172.447
R15  20435192.020   109199474.164 7      5059.568    20435191.160   109199474.160 7      5059.568    20435202.260    84932964.398 8      3935.220    20435203.640    84932988.399 8      3935.220
R18  22890745.460   122192401.166 5      4891.699    22890740.340   122192401.161 6      4891.699    22890764.020    95038586.222 7      3804.655    22890765.720    95038642.219 7      3804.655
G16  21150705.420   111147691.920 7       724.702    21150703.900   111147691.925 6       724.702    21150710.560    86608608.495 6       564.703
R14  19576554.800   104354035.693 8       875.634    19576553.780   104354035.686 8       875.634    19576564.300    81164304.371 8       681.048    19576565.060    81164292.372 8       681.048
R17  20393357.740   109128982.718 7      2918.894    20393357.040   109128982.727 7      2918.894    20393369.840    84878144.284 8      2270.251    20393369.580    84878147.287 8      2270.251
G26  22997398.220   120852109.602 7      -391.643    22997397.200   120852109.606 6      -391.643    22997411.700    94170515.250 6      -305.177    22997411.980    94170553.250 7      -305.177
G01  22909813.180   120391916.468 7      5399.422    22909811.360   120391916.476 5      5399.422    22909823.300    93811944.772 5      4207.342    22909824.140    93811908.793 7      4207.342
G07  23946810.980   125841343.634 7      3507.181    23946809.500   125841343.642 5      3507.181    23946819.580    98058226.839 5      2732.868    23946818.460    98058219.840 7      2732.868
> 2025 04 04 14 03  4.0000000  0 14
G10  22303379.940   117205052.417 7      2270.117    22303379.400   117205052.425 7      2270.117    22303389.200    91328655.850 7      1768.922    22303389.400    91328652.855 8      1768.922
R24  21248727.300   113626482.996 7       463.559    21248727.460   113626482.997 7       463.559    21248738.920    88376206.575 8       360.546    21248739.240    88376200.572 8       360.546
G02  21134097.980   111060437.035 7      3561.775    21134096.140   111060437.040 6      3561.775    21134101.680    86540617.637 6      2775.409
G08  21180028.700   111301805.221 7      3819.608    21180028.060   111301805.218 6      3819.608    21180035.880    86728718.154 6      2976.318    21180036.420    86728712.166 8      2976.318
G27  21014001.360   110429326.036 7      2099.250    21014000.140   110429326.041 8      2099.250    21014008.380    86048866.418 8      1635.779    21014008.720    86048851.423 7      1635.779
G23  24405071.360   128249522.749 5       220.212    24405070.700   128249522.751 1       220.212    24405084.400    99934715.749 1       171.594    24405086.360    99934738.784 6       171.594
R15  20434245.500   109194415.238 7      5058.387    20434244.500   109194415.236 7      5058.387    20434255.620    84929029.689 8      3934.301    20434256.960    84929053.687 8      3934.301
R18  22889829.080   122187509.977 5      4890.952    22889824.600   122187509.986 6      4890.952    22889847.740    95034782.001 7      3804.074    22889849.460    95034838.000 7      3804.074
G16  21150567.820   111146967.655 7       723.904    21150566.120   111146967.660 6       723.904    21150572.760    86608044.129 6       564.081
R14  19576390.340   104353160.694 8       874.508    19576389.760   104353160.692 8       874.508    19576400.080    81163623.817 8       680.173    19576400.780    81163611.822 8       680.173
R17  20392812.360   109126064.234 7      2918.204    20392811.620   109126064.233 7      2918.204    20392824.680    84875874.346 8      2269.715    20392824.380    84875877.349 8      2269.715
G26  22997472.920   120852501.577 7      -392.170    22997471.880   120852501.577 6      -392.170    22997486.220    94170820.669 6      -305.587    22997486.880    94170858.667 7      -305.587
G01  22908785.480   120386517.421 7      5398.850    22908783.800   120386517.426 5      5398.850    22908795.840    93807737.736 5      4206.896    22908796.720    93807701.755 7      4206.896
G07  23946143.500   125837837.083 7      3506.197    23946142.240   125837837.088 5      3506.197    23946152.320    98055494.470 5      2732.101    23946151.000    98055487.480 7      2732.101
> 2025 04 04 14 03  5.0000000  0 14
G10  22302948.100   117202782.478 7      2269.643    22302947.440   117202782.483 7      2269.643    22302957.500    91326887.063 7      1768.553    22302957.540    91326884.070 8      1768.553
R24  21248640.500   113626019.350 7       463.658    21248640.540   113626019.362 7       463.658    21248652.200    88375845.969 8       360.623    21248652.380    88375839.970 8       360.623
G02  21133420.300   111056875.351 7      3561.534    21133418.260   111056875.356 6      3561.534    21133423.760    86537842.300 6      2775.221
G08  21179301.820   111297985.535 8      3819.743    21179301.380   111297985.527 6      3819.743    21179308.940    86725741.776 6      2976.423    21179309.780    86725735.783 8      2976.423
G27  21013601.880   110427226.707 8      2099.286    21013600.600   110427226.709 8      2099.286    21013608.920    86047230.576 8      1635.807    21013609.180    86047215.579 7      1635.807
G23  24405029.960   128249302.132 5       220.452    24405028.600   128249302.137 1       220.452    24405042.620    99934543.843 1       171.781    24405044.820    99934566.867 6       171.781
R15  20433299.060   109189356.911 7      5058.028    20433298.040   109189356.909 7      5058.028    20433308.900    84925095.432 8      3934.022    20433310.140    84925119.432 8      3934.022
R18  22888913.380   122182619.076 6      4890.896    22888907.980   122182619.034 6      4890.896    22888931.900    95030977.955 7      3804.030    22888933.140    95031033.956 7      3804.030
G16  21150429.940   111146243.732 7       723.699    21150428.300   111146243.742 6       723.699    21150434.920    86607480.035 6       563.921
R14  19576226.300   104352286.394 8       873.953    19576225.740   104352286.387 8       873.953    19576236.240    81162943.799 8       679.741    19576236.760    81162931.802 8       679.741
R17  20392267.140   109123145.956 7      2918.179    20392266.340   109123145.955 7      2918.179    20392279.340    84873604.578 8      2269.695    20392278.780    84873607.583 8      2269.695
G26  22997547.680   120852893.711 7      -392.285    22997546.460   120852893.713 6      -392.285    22997561.080    94171126.217 6      -305.676    22997561.240    94171164.222 7      -305.676
G01  22907758.360   120381118.613 7      5398.641    22907756.420   120381118.618 5      5398.641    22907768.540    93803530.883 5      4206.733    22907769.080    93803494.904 7      4206.733
G07  23945476.420   125834330.931 6      3505.945    23945475.100   125834330.933 5      3505.945    23945485.260    98052762.406 5      2731.905    23945483.920    98052755.406 7      2731.905
> 2025 04 04 14 03  6.0000000  0 14
G10  22302516.340   117200512.847 7      2269.412    22302515.620   117200512.854 7      2269.412    22302525.560    91325118.525 7      1768.373    22302525.820    91325115.530 8      1768.373
R24  21248553.720   113625555.475 7       463.990    21248554.140   113625555.490 7       463.990    21248565.500    88375485.177 8       360.881    21248565.500    88375479.178 8       360.881
G02  21132742.700   111053313.811 7      3561.458    21132740.440   111053313.818 6      3561.458    21132746.200    86535067.079 6      2775.162
G08  21178574.880   111294165.700 7      3819.917    21178574.400   111294165.694 6      3819.917    21178582.100    86722765.285 6      2976.558    21178582.980    86722759.301 8      2976.558
G27  21013202.340   110425127.268 8      2099.452    21013201.280   110425127.273 8      2099.452    21013209.480    86045594.653 8      1635.937    21013209.660    86045579.660 7      1635.937
G23  24404988.040   128249081.715 5       220.093    24404986.640   128249081.725 1       220.093    24405000.780    99934372.094 1       171.501    24405002.680    99934395.121 6       171.501
R15  20432352.720   109184299.043 7      5057.680    20432351.380   109184299.044 7      5057.680    20432362.520    84921161.543 8      3933.751    20432363.780    84921185.546 8      3933.751
R18  22887997.080   122177728.117 6      4890.976    22887991.460   122177728.096 6      4890.976    22888015.420    95027173.915 7      3804.092    22888017.120    95027229.920 7      3804.092
G16  21150292.200   111145520.003 7       723.557    21150290.540   111145520.016 6       723.557    21150297.180    86606916.090 6       563.811
R14  19576062.440   104351412.560 8       873.617    19576061.900   104351412.550 8       873.617    19576072.240    81162264.149 8       679.480    19576072.800    81162252.154 8       679.480
R17  20391721.840   109120227.761 7      2918.251    20391721.060   109120227.754 7      2918.251    20391733.940    84871334.873 8      2269.751    20391733.560    84871337.876 8      2269.751
G26  22997622.360   120853285.786 7      -392.009    22997621.060   120853285.788 6      -392.009    22997635.720    94171431.721 6      -305.461    22997635.540    94171469.731 7      -305.461
G01  22906731.180   120375719.818 7      5398.803    22906729.000   120375719.823 5      5398.803    22906741.160    93799324.038 5      4206.860    22906741.860    93799288.059 7      4206.860
G07  23944809.140   125830825.013 6      3505.848    23944807.960   125830825.021 5      3505.848    23944818.220    98050030.526 5      2731.829    23944817.260    98050023.526 7      2731.829
> 2025 04 04 14 03  7.0000000  0 14
G10  22302084.580   117198243.896 7      2268.563    22302083.820   117198243.904 7      2268.563    22302093.720    91323350.515 7      1767.711    22302093.960    91323347.520 8      1767.711
R24  21248466.920   113625091.736 7       463.650    21248467.180   113625091.751 7       463.650    21248478.820    88375124.491 8       360.617    21248478.800    88375118.488 8       360.617
G02  21132065.320   111049752.804 7      3560.734    21132062.960   111049752.807 6      3560.734    21132068.380    86532292.271 6      2774.598
G08  21177848.240   111290346.069 7      3819.557    21177847.600   111290346.071 6      3819.557    21177855.180    86719788.958 6      2976.278    21177856.200    86719782.973 8      2976.278
G27  21012802.880   110423028.086 7      2099.024    21012801.680   110423028.093 8      2099.024    21012809.960    86043958.927 8      1635.603    21012810.280    86043943.934 8      1635.603
G23  24404946.480   128248861.773 5       219.426    24404944.380   128248861.781 1       219.426    24404959.000    99934200.709 1       170.981    24404960.200    99934223.751 6       170.981
R15  20431406.200   109179241.987 7      5056.696    20431404.700   109179241.986 7      5056.696    20431416.160    84917228.284 8      3932.986    20431417.340    84917252.284 8      3932.986
R18  22887080.620   122172837.595 6      4890.296    22887075.160   122172837.583 6      4890.296    22887099.480    95023370.199 7      3803.564    22887101.020    95023426.195 7      3803.564
G16  21150154.540   111144796.805 7       722.864    21150152.880   111144796.818 6       722.864    21150159.380    86606352.560 6       563.271
R14  19575898.680   104350539.593 8       872.505    19575898.120   104350539.588 8       872.505    19575908.340    81161585.174 8       678.615    19575909.120    81161573.179 8       678.615
R17  20391176.440   109117310.002 7      2917.546    20391175.440   109117310.006 7      2917.546    20391188.860    84869065.517 8      2269.202    20391188.560    84869068.523 8      2269.202
G26  22997697.020   120853678.222 7      -392.575    22997695.840   120853678.229 6      -392.575    22997710.560    94171737.510 6      -305.903    22997710.540    94171775.511 7      -305.903
G01  22905703.420   120370321.452 7      5398.084    22905701.720   120370321.457 5      5398.084    22905713.860    93795117.529 5      4206.299    22905714.680    93795081.556 7      4206.299
G07  23944141.880   125827319.710 6      3505.060    23944140.820   125827319.715 5      3505.060    23944151.400    98047299.117 5      2731.216    23944149.880    98047292.119 7      2731.216
> 2025 04 04 14 03  8.0000000  0 14
G10  22301652.760   117195975.634 8      2268.218    22301652.340   117195975.641 7      2268.218    22301662.100    91321583.040 7      1767.442    22301662.220    91321580.047 8      1767.442
R24  21248380.360   113624628.120 8       463.915    21248380.500   113624628.127 7       463.915    21248392.100    88374763.897 8       360.822    21248392.260    88374757.894 8       360.822
G02  21131387.700   111046192.305 7      3560.565    21131385.400   111046192.310 6      3560.565    21131390.780    86529517.862 6      2774.466
G08  21177121.480   111286526.675 7      3819.612    21177120.860   111286526.677 6      3819.612    21177128.400    86716812.811 6      2976.321    21177129.140    86716806.826 8      2976.321
G27  21012403.360   110420929.180 8      2099.068    21012402.280   110420929.185 8      2099.068    21012410.480    86042323.416 8      1635.637    21012410.860    86042308.421 8      1635.637
G23  24404905.180   128248642.341 5       219.408    24404902.580   128248642.343 1       219.408    24404917.460    99934029.723 1       170.967    24404918.280    99934052.748 6       170.967
R15  20430459.820   109174185.728 7      5056.211    20430458.520   109174185.732 7      5056.211    20430470.040    84913295.642 8      3932.609    20430471.020    84913319.644 8      3932.609
R18  22886164.580   122167947.492 6      4890.158    22886159.460   122167947.485 6      4890.158    22886183.440    95019566.811 7      3803.456    22886184.980    95019622.811 7      3803.456
G16  21150016.980   111144074.159 7       722.648    21150015.280   111144074.169 6       722.648    21150021.820    86605789.455 6       563.103
R14  19575734.780   104349667.521 8       871.929    19575734.560   104349667.513 8       871.929    19575744.900    81160906.894 8       678.167    19575745.320    81160894.899 8       678.167
R17  20390631.520   109114392.700 8      2917.352    20390630.420   109114392.704 7      2917.352    20390643.660    84866796.509 8      2269.052    20390643.220    84866799.512 8      2269.052
G26  22997771.940   120854071.004 7      -392.649    22997770.580   120854071.006 6      -392.649    22997785.280    94172043.564 6      -305.960    22997785.400    94172081.565 7      -305.960
G01  22904676.220   120364923.482 7      5398.043    22904674.520   120364923.490 5      5398.043    22904686.600    93790911.329 5      4206.267    22904687.420    93790875.348 7      4206.267
G07  23943475.240   125823815.009 6      3504.693    23943473.820   125823815.016 5      3504.693    23943484.340    98044568.185 5      2730.930    23943483.260    98044561.187 7      2730.930
> 2025 04 04 14 03  9.0000000  0 14
G10  22301221.260   117193707.715 8      2267.595    22301220.760   117193707.723 8      2267.595    22301230.460    91319815.833 8      1766.957    22301230.660    91319812.836 8      1766.957
R24  21248293.460   113624164.304 8       463.820    21248293.840   113624164.311 8       463.820    21248305.260    88374403.147 8       360.749    21248305.440    88374397.143 8       360.749
G02  21130710.180   111042631.990 7      3560.147    21130707.880   111042631.994 6      3560.147    21130713.260    86526743.592 6      2774.141
G08  21176394.680   111282707.150 7      3819.488    21176394.020   111282707.150 6      3819.488    21176401.640    86713836.561 6      2976.224    21176402.480    86713830.573 8      2976.224
G27  21012004.040   110418830.195 8      2098.860    21012002.940   110418830.203 8      2098.860    21012011.080    86040687.846 8      1635.475    21012011.480    86040672.849 8      1635.475
G23  24404862.760   128248423.012 5       219.159    24404860.880   128248423.011 1       219.159    24404875.980    99933858.821 1       170.773    24404876.480    99933881.853 6       170.773
R15  20429513.680   109169129.944 7      5055.459    20429512.520   109169129.945 7      5055.459    20429523.880    84909363.370 8      3932.023    20429524.920    84909387.370 8      3932.023
R18  22885248.000   122163057.435 6      4889.801    22885243.380   122163057.425 6      4889.801    22885267.600    95015763.451 7      3803.178    22885268.720    95015819.456 7      3803.178
G16  21149879.440   111143351.713 7       722.223    21149877.780   111143351.720 6       722.223    21149884.400    86605226.503 6       562.771
R14  19575571.580   104348796.022 8       871.103    19575571.160   104348796.017 8       871.103    19575581.360    81160229.061 8       677.525    19575582.080    81160217.066 8       677.525
R17  20390086.200   109111475.450 8      2917.041    20390085.080   109111475.449 7      2917.041    20390098.740    84864527.535 8      2268.810    20390097.960    84864530.540 8      2268.810
G26  22997846.400   120854463.763 7      -392.853    22997845.420   120854463.770 6      -392.853    22997859.980    94172349.602 6      -306.119    22997860.380    94172387.600 7      -306.119
G01  22903649.220   120359525.575 7      5397.699    22903647.360   120359525.585 5      5397.699    22903659.340    93786705.185 5      4205.999    22903660.320    93786669.201 7      4205.999
G07  23942808.400   125820310.591 6      3504.014    23942806.920   125820310.596 5      3504.014    23942817.540    98041837.472 5      2730.401    23942816.020    98041830.470 7      2730.401
> 2025 04 04 14 03 10.0000000  0 14
G10  22300789.560   117191440.346 8      2266.809    22300789.300   117191440.354 7      2266.809    22300799.080    91318049.052 7      1766.345    22300798.920    91318046.055 8      1766.345
R24  21248206.560   113623700.496 8       463.512    21248206.800   113623700.497 8       463.512    21248218.400    88374042.403 8       360.509    21248218.620    88374036.399 8       360.509
G02  21130032.280   111039072.055 8      3559.514    21130030.340   111039072.060 6      3559.514    21130035.820    86523969.623 6      2773.647
G08  21175667.560   111278887.701 8      3819.208    21175667.200   111278887.698 6      3819.208    21175674.880    86710860.369 6      2976.006    21175675.640    86710854.385 8      2976.006
G27  21011604.520   110416731.332 8      2098.600    21011603.460   110416731.334 8      2098.600    21011611.640    86039052.365 8      1635.273    21011612.080    86039037.366 7      1635.273
G23  24404821.160   128248204.087 5       218.617    24404819.200   128248204.087 1       218.617    24404834.420    99933688.226 1       170.351    24404834.780    99933711.266 6       170.351
R15  20428567.740   109164074.807 7      5054.531    20428566.340   109164074.811 7      5054.531    20428577.860    84905431.603 8      3931.302    20428579.000    84905455.605 8      3931.302
R18  22884332.340   122158167.626 6      4889.528    22884327.660   122158167.606 6      4889.528    22884351.300    95011960.283 7      3802.966    22884353.020    95012016.290 7      3802.966
G16  21149741.880   111142629.668 7       721.558    21149740.380   111142629.676 6       721.558    21149746.820    86604663.873 6       562.253
R14  19575408.440   104347925.312 8       870.079    19575407.760   104347925.309 8       870.079    19575418.020    81159551.844 8       676.728    19575418.880    81159539.849 8       676.728
R17  20389541.100   109108558.445 7      2916.673    20389539.720   109108558.444 7      2916.673    20389553.560    84862258.760 8      2268.524    20389552.540    84862261.763 8      2268.524
G26  22997921.240   120854856.745 7      -393.288    22997920.120   120854856.747 6      -393.288    22997934.660    94172655.812 6      -306.458    22997935.240    94172693.818 7      -306.458
G01  22902622.020   120354127.937 6      5397.222    22902620.260   120354127.944 5      5397.222    22902632.220    93782499.242 5      4205.627    22902633.000    93782463.266 7      4205.627
G07  23942141.600   125816806.602 6      3503.377    23942140.060   125816806.609 5      3503.377    23942150.860    98039107.099 5      2729.904    23942149.480    98039100.093 7      2729.904
> 2025 04 04 14 03 11.0000000  0 14
G10  22300358.400   117189173.568 8      2266.564    22300358.080   117189173.576 7      2266.564    22300367.560    91316282.734 7      1766.154    22300367.760    91316279.738 8      1766.154
R24  21248119.640   113623236.706 7       463.976    21248119.740   113623236.710 7       463.976    21248131.700    88373681.680 8       360.870    21248131.760    88373675.676 8       360.870
G02  21129354.840   111035512.560 7      3559.348    21129353.220   111035512.564 6      3559.348    21129358.340    86521195.988 6      2773.518
G08  21174940.780   111275068.386 7      3819.349    21174940.420   111275068.388 6      3819.349    21174948.080    86707884.286 6      2976.116    21174948.980    86707878.295 8      2976.116
G27  21011205.340   110414632.647 7      2098.739    21011204.160   110414632.651 8      2098.739    21011212.240    86037417.030 8      1635.381    21011212.400    86037402.035 7      1635.381
G23  24404779.120   128247985.548 5       218.578    24404777.580   128247985.553 1       218.578    24404792.980    99933517.934 1       170.321    24404793.280    99933540.990 6       170.321
R15  20427621.680   109159020.386 7      5054.155    20427620.320   109159020.384 7      5054.155    20427632.060    84901500.386 8      3931.010    20427632.960    84901524.389 8      3931.010
R18  22883416.780   122153278.191 6      4889.293    22883411.740   122153278.154 6      4889.293    22883435.400    95008157.395 7      3802.783    22883437.000    95008213.396 7      3802.783
G16  21149604.760   111141908.052 7       721.619    21149603.020   111141908.065 6       721.619    21149609.760    86604101.577 6       562.301
R14  19575244.980   104347055.401 8       869.693    19575244.640   104347055.399 8       869.693    19575254.820    81158875.241 8       676.428    19575255.420    81158863.246 8       676.428
R17  20388995.860   109105641.770 7      2916.707    20388994.640   109105641.777 7      2916.707    20389008.600    84859990.241 8      2268.550    20389007.880    84859993.246 8      2268.550
G26  22997996.220   120855249.961 7      -393.235    22997995.100   120855249.968 6      -393.235    22998009.600    94172962.205 6      -306.417    22998010.360    94173000.212 7      -306.417
G01  22901594.660   120348730.611 7      5397.354    22901593.240   120348730.618 5      5397.354    22901605.200    93778293.546 5      4205.731    22901606.300    93778257.565 7      4205.731
G07  23941474.840   125813303.138 6      3503.291    23941473.300   125813303.145 5      3503.291    23941484.360    98036377.123 5      2729.837    23941482.660    98036370.117 7      2729.837
> 2025 04 04 14 03 12.0000000  0 14
G10  22299926.980   117186907.205 7      2266.219    22299926.700   117186907.210 7      2266.219    22299936.420    91314516.737 7      1765.885    22299936.480    91314513.741 8      1765.885
R24  21248033.080   113622772.804 7       464.085    21248033.320   113622772.800 7       464.085    21248045.000    88373320.867 8       360.955    21248045.300    88373314.864 8       360.955
G02  21128677.760   111031953.295 7      3559.186    21128675.940   111031953.303 6      3559.186    21128681.060    86518422.546 6      2773.392
G08  21174214.020   111271249.018 7      3819.423    21174213.580   111271249.018 6      3819.423    21174221.280    86704908.155 6      2976.174    21174222.200    86704902.167 8      2976.174
G27  21010805.880   110412533.961 7      2098.698    21010804.820   110412533.966 8      2098.698    21010812.940    86035781.693 8      1635.349    21010812.920    86035766.702 8      1635.349
G23  24404736.600   128247767.291 5       218.529    24404735.660   128247767.293 1       218.529    24404751.060    99933347.874 1       170.283    24404751.480    99933370.887 6       170.283
R15  20426675.900   109153966.491 7      5053.642    20426674.560   109153966.487 7      5053.642    20426686.240    84897569.585 8      3930.611    20426687.480    84897593.588 8      3930.611
R18  22882500.920   122148388.806 6      4889.334    22882495.880   122148388.780 6      4889.334    22882519.420    95004354.568 7      3802.816    22882521.080    95004410.573 7      3802.816
G16  21149467.440   111141186.759 7       721.160    21149465.720   111141186.772 6       721.160    21149472.500    86603539.534 6       561.943
R14  19575081.860   104346186.088 8       868.996    19575081.680   104346186.085 8       868.996    19575091.740    81158199.112 8       675.886    19575092.340    81158187.115 8       675.886
R17  20388450.920   109102725.295 7      2916.361    20388449.660   109102725.300 7      2916.361    20388463.640    84857721.880 8      2268.281    20388462.960    84857724.883 8      2268.281
G26  22998071.040   120855643.253 7      -393.383    22998070.000   120855643.258 6      -393.383    22998084.460    94173268.663 6      -306.532    22998084.940    94173306.663 7      -306.532
G01  22900567.820   120343333.434 7      5397.145    22900566.200   120343333.442 5      5397.145    22900578.120    93774087.964 5      4205.568    22900579.280    93774051.990 7      4205.568
G07  23940808.380   125809800.005 6      3502.872    23940806.760   125809800.013 5      3502.872    23940817.800    98033647.411 5      2729.511    23940816.260    98033640.417 7      2729.511
> 2025 04 04 14 03 13.0000000  0 14
G10  22299495.880   117184641.549 7      2265.211    22299495.560   117184641.554 7      2265.211    22299505.200    91312751.294 7      1765.100    22299505.280    91312748.299 8      1765.100
R24  21247946.340   113622309.068 7       463.652    21247946.780   113622309.069 7       463.652    21247958.320    88372960.181 8       360.618    21247958.580    88372954.178 8       360.618
G02  21128000.480   111028394.572 7      3558.504    21127998.620   111028394.577 6      3558.504    21128003.840    86515649.519 6      2772.860
G08  21173487.220   111267429.871 7      3818.970    21173486.820   111267429.873 6      3818.970    21173494.460    86701932.207 6      2975.821    21173495.560    86701926.220 8      2975.821
G27  21010406.580   110410435.542 8      2098.260    21010405.400   110410435.547 8      2098.260    21010413.640    86034146.563 8      1635.008    21010413.840    86034131.570 8      1635.008
G23  24404695.320   128247549.517 5       217.689    24404694.200   128247549.522 1       217.689    24404710.140    99933178.182 1       169.628    24404710.700    99933201.220 6       169.628
R15  20425730.360   109148913.403 7      5052.674    20425728.960   109148913.402 7      5052.674    20425740.680    84893639.410 8      3929.858    20425741.680    84893663.415 8      3929.858
R18  22881584.640   122143499.862 6      4888.780    22881579.920   122143499.839 6      4888.780    22881603.620    95000552.089 7      3802.384    22881605.000    95000608.091 7      3802.384
G16  21149330.220   111140465.997 7       720.443    21149328.600   111140466.007 6       720.443    21149335.320    86602977.899 6       561.384
R14  19574919.120   104345317.656 8       867.950    19574918.800   104345317.652 8       867.950    19574928.880    81157523.666 8       675.072    19574929.500    81157511.669 8       675.072
R17  20387905.960   109099809.233 7      2915.818    20387904.780   109099809.240 7      2915.818    20387918.560    84855453.835 8      2267.858    20387917.900    84855456.840 8      2267.858
G26  22998145.900   120856036.884 7      -393.831    22998144.780   120856036.886 6      -393.831    22998159.240    94173575.370 6      -306.882    22998159.620    94173613.366 7      -306.882
G01  22899540.640   120337936.647 7      5396.676    22899539.200   120337936.652 5      5396.676    22899550.940    93769882.690 5      4205.202    22899552.020    93769846.711 7      4205.202
G07  23940141.780   125806297.503 6      3502.074    23940140.360   125806297.505 5      3502.074    23940151.200    98030918.195 5      2728.889    23940149.700    98030911.186 7      2728.889
> 2025 04 04 14 03 14.0000000  0 14
G10  22299065.020   117182376.456 7      2264.679    22299064.600   117182376.463 7      2264.679    22299074.180    91310986.288 7      1764.685    22299074.120    91310983.297 8      1764.685
R24  21247859.580   113621845.377 7       463.706    21247859.740   113621845.379 7       463.706    21247871.700    88372599.535 8       360.660    21247871.720    88372593.534 8       360.660
G02  21127323.320   111024836.267 7      3558.100    21127321.520   111024836.277 6      3558.100    21127326.820    86512876.819 6      2772.546
G08  21172760.400   111263610.829 7      3819.013    21172759.980   111263610.831 6      3819.013    21172767.740    86698956.330 6      2975.855    21172768.760    86698950.345 8      2975.855
G27  21010007.260   110408337.277 8      2098.174    21010006.040   110408337.284 8      2098.174    21010014.360    86032511.556 8      1634.941    21010014.500    86032496.561 8      1634.941
G23  24404655.120   128247332.127 5       217.428    24404652.460   128247332.129 1       217.428    24404668.640    99933008.787 1       169.424    24404669.380    99933031.806 6       169.424
R15  20424784.700   109143861.031 7      5052.000    20424783.460   109143861.025 7      5052.000    20424795.200    84889709.790 8      3929.333    20424796.480    84889733.792 8      3929.333
R18  22880668.800   122138611.214 6      4888.690    22880664.280   122138611.207 6      4888.690    22880687.380    94996749.830 7      3802.315    22880689.080    94996805.830 7      3802.315
G16  21149193.080   111139745.655 7       720.158    21149191.520   111139745.665 6       720.158    21149198.220    86602416.592 6       561.162
R14  19574756.240   104344450.025 8       867.203    19574755.960   104344450.022 8       867.203    19574765.800    81156848.843 8       674.491    19574766.520    81156836.848 8       674.491
R17  20387360.820   109096893.515 7      2915.589    20387359.600   109096893.522 7      2915.589    20387373.980    84853186.057 8      2267.680    20387373.180    84853189.058 8      2267.680
G26  22998220.860   120856430.725 7      -393.922    22998219.720   120856430.727 6      -393.922    22998234.060    94173882.257 6      -306.952    22998234.340    94173920.261 7      -306.952
G01  22898513.600   120332540.183 7      5396.486    22898512.440   120332540.190 5      5396.486    22898524.040    93765677.657 5      4205.054    22898524.820    93765641.666 7      4205.054
G07  23939475.760   125802795.455 6      3501.727    23939473.880   125802795.455 5      3501.727    23939484.720    98028189.330 5      2728.619    23939483.100    98028182.328 7      2728.619
> 2025 04 04 14 03 15.0000000  0 14
G10  22298634.040   117180111.901 7      2264.392    22298633.860   117180111.906 7      2264.392    22298643.260    91309221.716 7      1764.462    22298643.060    91309218.721 8      1764.462
R24  21247773.040   113621381.681 7       463.804    21247773.240   113621381.680 7       463.804    21247784.780    88372238.880 8       360.736    21247785.140    88372232.879 8       360.736
G02  21126646.280   111021278.353 7      3557.763    21126644.700   111021278.360 6      3557.763    21126649.800    86510104.423 6      2772.283
G08  21172033.780   111259791.877 7      3819.028    21172033.280   111259791.876 6      3819.028    21172041.140    86695980.533 6      2975.866    21172042.220    86695974.557 8      2975.866
G27  21009608.060   110406239.154 8      2098.150    21009606.840   110406239.156 8      2098.150    21009614.940    86030876.655 8      1634.922    21009615.360    86030861.656 8      1634.922
G23  24404613.820   128247115.157 5       216.986    24404611.120   128247115.159 1       216.986    24404627.260    99932839.721 1       169.080    24404627.360    99932862.722 6       169.080
R15  20423839.740   109138809.333 7      5051.433    20423838.180   109138809.326 7      5051.433    20423849.680    84885780.693 8      3928.892    20423850.900    84885804.696 8      3928.892
R18  22879753.480   122133722.889 6      4888.588    22879750.460   122133722.869 6      4888.588    22879771.640    94992947.801 7      3802.235    22879773.640    94993003.800 7      3802.235
G16  21149056.020   111139025.741 7       719.799    21149054.400   111139025.749 6       719.799    21149061.240    86601855.616 6       560.882
R14  19574593.760   104343583.190 8       866.557    19574593.340   104343583.185 8       866.557    19574603.620    81156174.632 8       673.988    19574604.120    81156162.637 8       673.988
R17  20386816.220   109093978.073 7      2915.387    20386814.840   109093978.078 7      2915.387    20386828.820    84850918.499 8      2267.523    20386828.400    84850921.503 8      2267.523
G26  22998295.700   120856824.811 7      -394.147    22998294.740   120856824.813 6      -394.147    22998309.040    94174189.333 6      -307.128    22998309.720    94174227.333 7      -307.128
G01  22897486.680   120327143.992 6      5396.153    22897485.360   120327144.002 5      5396.153    22897496.980    93761472.837 5      4204.794    22897498.200    93761436.872 7      4204.794
G07  23938809.800   125799293.925 6      3501.260    23938808.020   125799293.933 5      3501.260    23938818.320    98025460.870 5      2728.255    23938817.100    98025453.859 7      2728.255
> 2025 04 04 14 03 16.0000000  0 14
G10  22298203.220   117177847.861 7      2263.587    22298202.960   117177847.865 7      2263.587    22298212.440    91307457.519 7      1763.834    22298212.320    91307454.522 8      1763.834
R24  21247686.520   113620917.940 7       463.600    21247686.340   113620917.938 7       463.600    21247698.120    88371878.190 8       360.578    21247698.480    88371872.191 8       360.578
G02  21125969.420   111017720.754 7      3557.340    21125967.680   111017720.759 6      3557.340    21125972.780    86507332.268 6      2771.953
G08  21171307.160   111255972.966 7      3818.777    21171306.540   111255972.966 6      3818.777    21171314.460    86693004.759 6      2975.670    21171315.300    86692998.766 8      2975.670
G27  21009208.960   110404141.089 8      2097.881    21009207.640   110404141.097 8      2097.881    21009215.720    86029241.795 8      1634.712    21009216.080    86029226.800 8      1634.712
G23  24404572.760   128246898.447 5       216.411    24404569.960   128246898.452 1       216.411    24404586.240    99932670.855 1       168.632    24404586.200    99932693.858 6       168.632
R15  20422894.520   109133758.265 7      5050.502    20422892.740   109133758.261 7      5050.502    20422904.800    84881852.093 8      3928.168    20422905.580    84881876.093 8      3928.168
R18  22878837.560   122128834.764 6      4887.819    22878833.300   122128834.746 6      4887.819    22878856.220    94989145.962 7      3801.637    22878857.760    94989201.967 7      3801.637
G16  21148919.220   111138306.177 7       719.204    21148917.360   111138306.187 6       719.204    21148924.340    86601294.917 6       560.419
R14  19574431.240   104342717.069 8       865.654    19574430.920   104342717.062 8       865.654    19574440.940    81155500.977 8       673.286    19574441.540    81155488.982 8       673.286
R17  20386271.680   109091062.894 7      2914.976    20386270.500   109091062.893 7      2914.976    20386284.140    84848651.131 8      2267.204    20386283.500    84848654.137 8      2267.204
G26  22998370.980   120857219.015 7      -394.412    22998369.740   120857219.017 6      -394.412    22998384.020    94174496.494 6      -307.334    22998384.600    94174534.499 7      -307.334
G01  22896459.780   120321748.021 7      5395.676    22896458.500   120321748.034 5      5395.676    22896470.120    93757268.205 5      4204.423    22896471.340    93757232.228 7      4204.423
G07  23938143.320   125795792.782 6      3500.815    23938141.620   125795792.787 5      3500.815    23938152.180    98022732.704 5      2727.908    23938150.420    98022725.702 7      2727.908
> 2025 04 04 14 03 17.0000000  0 14
G10  22297772.540   117175584.551 8      2262.828    22297772.260   117175584.561 7      2262.828    22297781.680    91305693.907 7      1763.243    22297781.480    91305690.912 8      1763.243
R24  21247599.740   113620454.391 7       463.332    21247599.820   113620454.400 7       463.332    21247611.460    88371517.652 8       360.369    21247611.520    88371511.653 8       360.369
G02  21125292.700   111014163.765 7      3556.611    21125290.780   111014163.770 6      3556.611    21125295.800    86504560.593 6      2771.385
G08  21170580.440   111252154.334 7      3818.351    21170579.920   111252154.337 6      3818.351    21170587.940    86690029.203 6      2975.338    21170588.700    86690023.219 8      2975.338
G27  21008809.660   110402043.374 7      2097.425    21008808.360   110402043.378 8      2097.425    21008816.620    86027607.218 8      1634.357    21008816.800    86027592.220 8      1634.357
G23  24404531.520   128246682.263 5       215.830    24404528.980   128246682.262 1       215.830    24404544.820    99932502.401 1       168.179    24404545.280    99932525.449 6       168.179
R15  20421949.160   109128708.017 7      5049.712    20421947.600   109128708.016 7      5049.712    20421959.740    84877924.128 8      3927.554    20421960.580    84877948.131 8      3927.554
R18  22877921.660   122123947.072 6      4887.484    22877918.040   122123947.054 6      4887.484    22877940.660    94985344.450 7      3801.376    22877942.120    94985400.451 7      3801.376
G16  21148782.400   111137587.225 7       718.485    21148780.580   111137587.233 6       718.485    21148787.380    86600734.688 6       559.858
R14  19574268.920   104341851.874 8       864.632    19574268.580   104341851.874 8       864.632    19574278.640    81154828.055 8       672.492    19574279.300    81154816.060 8       672.492
R17  20385726.920   109088148.185 7      2914.384    20385725.720   109088148.176 7      2914.384    20385739.480    84846384.133 8      2266.743    20385738.760    84846387.139 8      2266.743
G26  22998445.940   120857613.636 7      -394.868    22998444.780   120857613.639 6      -394.868    22998459.300    94174803.985 6      -307.689    22998459.500    94174841.988 7      -307.689
G01  22895433.320   120316352.524 7      5395.140    22895431.800   120316352.532 5      5395.140    22895443.580    93753063.932 5      4204.005    22895444.520    93753027.951 7      4204.005
G07  23937477.340   125792292.308 6      3500.107    23937475.460   125792292.313 5      3500.107    23937486.120    98020005.064 5      2727.356    23937484.560    98019998.062 7      2727.356
> 2025 04 04 14 03 18.0000000  0 14
G10  22297342.000   117173321.959 8      2262.449    22297341.720   117173321.966 7      2262.449    22297351.040    91303930.848 7      1762.948    22297351.060    91303927.853 8      1762.948
R24  21247513.260   113619990.999 7       463.635    21247513.000   113619991.001 7       463.635    21247524.800    88371157.233 8       360.605    21247525.120    88371151.234 8       360.605
G02  21124615.760   111010607.294 7      3556.469    21124614.060   111010607.299 6      3556.469    21124619.200    86501789.316 6      2771.274
G08  21169853.560   111248335.920 7      3818.553    21169853.400   111248335.920 6      3818.553    21169861.220    86687053.818 6      2975.496    21169862.240    86687047.831 8      2975.496
G27  21008410.420   110399945.926 7      2097.527    21008409.360   110399945.928 8      2097.527    21008417.460    86025972.841 8      1634.437    21008417.580    86025957.846 8      1634.437
G23  24404490.900   128246466.670 5       215.475    24404487.800   128246466.669 1       215.475    24404503.820    99932334.409 1       167.902    24404504.120    99932357.447 6       167.902
R15  20421004.300   109123658.595 7      5049.317    20421002.720   109123658.594 7      5049.317    20421014.680    84873996.802 8      3927.247    20421015.640    84874020.805 8      3927.247
R18  22877005.920   122119059.854 6      4887.205    22877002.340   122119059.829 6      4887.205    22877025.080    94981543.291 7      3801.160    22877026.680    94981599.292 7      3801.160
G16  21148645.800   111136868.801 7       718.397    21148644.000   111136868.811 6       718.397    21148650.840    86600174.880 6       559.790
R14  19574106.920   104340987.539 8       864.152    19574106.360   104340987.537 8       864.152    19574116.480    81154155.793 8       672.118    19574117.400    81154143.797 8       672.118
R17  20385182.100   109085233.883 7      2914.313    20385181.220   109085233.876 7      2914.313    20385194.900    84844117.462 8      2266.688    20385194.400    84844120.466 8      2266.688
G26  22998521.100   120858008.615 7      -394.910    22998520.000   120858008.615 6      -394.910    22998534.460    94175111.743 6      -307.722    22998534.840    94175149.747 7      -307.722
G01  22894406.880   120310957.416 7      5395.185    22894405.240   120310957.420 5      5395.185    22894417.000    93748859.966 5      4204.040    22894417.720    93748823.995 7      4204.040
G07  23936811.220   125788792.475 6      3499.702    23936809.260   125788792.483 5      3499.702    23936819.980    98017277.926 5      2727.040    23936818.300    98017270.922 7      2727.040
> 2025 04 04 14 03 19.0000000  0 14
G10  22296911.520   117171059.705 8      2261.955    22296911.120   117171059.713 7      2261.955    22296920.600    91302168.056 8      1762.562    22296920.420    91302165.061 8      1762.562
R24  21247426.540   113619527.453 7       463.541    21247426.280   113619527.457 7       463.541    21247438.200    88370796.697 8       360.532    21247438.280    88370790.698 8       360.532
G02  21123939.040   111007051.006 7      3556.129    21123937.180   111007051.011 6      3556.129    21123942.300    86499018.191 6      2771.010
G08  21169127.060   111244517.399 7      3818.499    21169126.620   111244517.396 6      3818.499    21169134.520    86684078.351 6      2975.454    21169135.260    86684072.360 8      2975.454
G27  21008011.420   110397848.405 8      2097.483    21008010.180   110397848.407 8      2097.483    21008018.220    86024338.409 8      1634.403    21008018.420    86024323.412 8      1634.403
G23  24404449.080   128246251.145 5       215.516    24404446.540   128246251.147 1       215.516    24404462.760    99932194.472 1       167.934    24404463.040    99932196.530 6       167.934
R15  20420059.520   109118609.654 7      5048.670    20420057.400   109118609.647 7      5048.670    20420069.820    84870069.848 8      3926.743    20420070.660    84870093.853 8      3926.743
R18  22876090.720   122114172.682 6      4886.940    22876087.400   122114172.651 6      4886.940    22876110.040    94977742.172 7      3800.954    22876111.260    94977798.173 7      3800.954
G16  21148509.280   111136150.596 7       718.055    21148507.320   111136150.603 6       718.055    21148514.160    86599615.237 6       559.524
R14  19573944.480   104340123.753 8       863.402    19573944.260   104340123.748 8       863.402    19573954.500    81153483.953 8       671.535    19573954.960    81153471.958 8       671.535
R17  20384637.580   109082319.701 7      2914.004    20384636.680   109082319.700 7      2914.004    20384650.500    84841850.883 8      2266.448    20384649.940    84841853.886 8      2266.448
G26  22998596.020   120858403.597 7      -395.160    22998595.200   120858403.602 6      -395.160    22998609.760    94175419.519 6      -307.917    22998609.700    94175457.521 7      -307.917
G01  22893380.300   120305562.407 7      5394.921    22893378.720   120305562.409 5      5394.921    22893390.300    93744656.073 5      4203.834    22893391.020    93744620.100 7      4203.834
G07  23936145.300   125785292.895 6      3499.328    23936143.220   125785292.897 5      3499.328    23936154.020    98014550.978 5      2726.749    23936151.980    98014543.972 7      2726.749
> 2025 04 04 14 03 20.0000000  0 14
G10  22296481.160   117168798.022 8      2261.307    22296480.860   117168798.030 7      2261.307    22296490.220    91300405.707 7      1762.058    22296490.220    91300402.714 8      1762.058
R24  21247339.940   113619063.942 7       463.491    21247339.740   113619063.940 7       463.491    21247351.480    88370436.186 8       360.493    21247351.700    88370430.182 8       360.493
G02  21123262.180   111003495.131 7      3555.650    21123260.620   111003495.131 6      3555.650    21123265.600    86496247.378 6      2770.637
G08  21168400.360   111240698.969 7      3818.358    21168400.040   111240698.966 6      3818.358    21168408.020    86681102.951 6      2975.344    21168408.660    86681096.960 8      2975.344
G27  21007612.280   110395751.034 8      2097.266    21007611.040   110395751.038 8      2097.266    21007619.120    86022704.097 8      1634.233    21007619.300    86022689.100 8      1634.233
G23  24404408.980   128246036.140 5       214.131    24404405.220   128246036.148 1       214.131    24404421.720    99932026.934 1       166.855    24404421.340    99932028.957 6       166.855
R15  20419114.920   109113561.370 7      5047.965    20419112.740   109113561.361 7      5047.965    20419125.240    84866143.409 8      3926.195    20419126.080    84866167.412 8      3926.195
R18  22875175.080   122109285.799 6      4886.585    22875171.940   122109285.773 6      4886.585    22875194.320    94973941.290 7      3800.677    22875195.580    94973997.286 7      3800.677
G16  21148372.580   111135432.821 7       717.511    21148370.700   111135432.834 6       717.511    21148377.440    86599055.934 6       559.100
R14  19573783.060   104339260.746 8       862.555    19573782.420   104339260.744 8       862.555    19573792.600    81152812.727 8       670.876    19573793.440    81152800.732 8       670.876
R17  20384092.980   109079405.854 7      2913.630    20384092.360   109079405.850 7      2913.630    20384105.780    84839584.557 8      2266.157    20384105.180    84839587.558 8      2266.157
G26  22998671.160   120858798.789 7      -395.422    22998670.300   120858798.791 6      -395.422    22998684.960    94175727.448 6      -308.121    22998685.480    94175765.450 7      -308.121
G01  22892353.360   120300167.685 7      5394.574    22892352.300   120300167.687 5      5394.574    22892363.560    93740452.408 5      4203.564    22892364.320    93740416.423 7      4203.564
G07  23935479.220   125781793.782 6      3498.819    23935477.280   125781793.785 5      3498.819    23935488.220    98011824.399 5      2726.352    23935486.560    98011817.399 7      2726.352
> 2025 04 04 14 03 21.0000000  0 14
G10  22296051.020   117166536.959 8      2260.787    22296050.460   117166536.967 7      2260.787    22296059.960    91298643.840 7      1761.652    22296060.040    91298640.847 8      1761.652
R24  21247253.060   113618600.467 7       463.544    21247253.080   113618600.471 7       463.544    21247264.760    88370075.706 8       360.535    21247264.940    88370069.707 8       360.535
G02  21122585.760   110999939.693 7      3555.258    21122584.040   110999939.695 6      3555.258    21122589.020    86493476.912 6      2770.331
G08  21167673.920   111236880.700 7      3818.261    21167673.540   111236880.694 6      3818.261    21167681.480    86678127.682 6      2975.268    21167682.400    86678121.692 8      2975.268
G27  21007213.200   110393653.867 7      2097.117    21007211.940   110393653.869 8      2097.117    21007220.060    86021069.942 8      1634.117    21007220.240    86021054.945 8      1634.117
G23  24404367.880   128245821.365 5       214.926    24404364.620   128245821.375 1       214.926    24404381.040    99931859.578 1       167.475    24404380.480    99931861.607 6       167.475
R15  20418170.200   109108513.813 7      5047.318    20418168.240   109108513.803 7      5047.318    20418180.700    84862217.533 8      3925.692    20418181.440    84862241.538 8      3925.692
R18  22874259.880   122104399.294 6      4886.310    22874256.600   122104399.257 6      4886.310    22874278.940    94970140.687 7      3800.464    22874280.340    94970196.688 7      3800.464
G16  21148236.240   111134715.506 7       717.247    21148234.060   111134715.513 6       717.247    21148241.120    86598496.983 6       558.894
R14  19573621.100   104338398.583 8       861.850    19573620.720   104338398.581 8       861.850    19573630.700    81152142.156 8       670.328    19573631.480    81152130.161 8       670.328
R17  20383548.460   109076492.365 7      2913.388    20383547.940   109076492.361 7      2913.388    20383561.200    84837318.515 8      2265.968    20383560.700    84837321.518 8      2265.968
G26  22998746.780   120859194.243 7      -395.590    22998745.580   120859194.245 6      -395.590    22998760.300    94176035.584 6      -308.252    22998760.820    94176073.591 7      -308.252
G01  22891326.800   120294773.296 7      5394.254    22891325.680   120294773.304 5      5394.254    22891337.000    93736249.000 5      4203.315    22891337.980    93736213.021 7      4203.315
G07  23934813.420   125778295.224 6      3498.424    23934811.640   125778295.224 5      3498.424    23934822.480    98009098.247 5      2726.045    23934820.920    98009091.251 7      2726.045
> 2025 04 04 14 03 22.0000000  0 14
G10  22295620.640   117164276.519 8      2259.879    22295620.320   117164276.524 7      2259.879    22295629.740    91296882.466 8      1760.945    22295629.860    91296879.471 7      1760.945
R24  21247166.280   113618137.033 7       463.199    21247166.480   113618137.045 7       463.199    21247178.200    88369715.261 8       360.266    21247177.980    88369709.262 8       360.266
G02  21121909.140   110996384.722 7      3554.554    21121907.620   110996384.726 6      3554.554    21121912.520    86490706.809 6      2769.782
G08  21166947.300   111233062.588 7      3817.831    21166946.960   111233062.585 6      3817.831    21166954.960    86675152.532 6      2974.933    21166955.820    86675146.544 8      2974.933
G27  21006814.140   110391556.914 8      2096.563    21006812.880   110391556.918 8      2096.563    21006821.080    86019435.954 8      1633.685    21006821.240    86019420.959 8      1633.685
G23  24404327.840   128245607.245 4       213.579    24404323.680   128245607.256 1       213.579    24404340.340    99931692.732 1       166.425    24404340.260    99931694.757 6       166.425
R15  20417225.680   109103467.015 7      5046.273    20417224.040   109103467.010 7      5046.273    20417236.160    84858292.256 8      3924.879    20417237.080    84858316.263 8      3924.879
R18  22873344.780   122099513.067 6      4885.929    22873341.120   122099513.030 6      4885.929    22873363.720    94966340.309 7      3800.167    22873364.880    94966396.316 7      3800.167
G16  21148099.940   111133998.708 7       716.377    21148097.740   111133998.716 6       716.377    21148104.620    86597938.440 6       558.215
R14  19573459.680   104337537.260 8       860.692    19573459.000   104337537.258 8       860.692    19573469.260    81151472.236 8       669.427    19573470.100    81151460.239 8       669.427
R17  20383004.480   109073579.216 7      2912.783    20383003.580   109073579.221 7      2912.783    20383016.880    84835052.745 8      2265.498    20383016.120    84835055.746 8      2265.498
G26  22998822.020   120859589.989 7      -396.123    22998820.960   120859589.992 6      -396.123    22998835.400    94176343.954 6      -308.668    22998836.140    94176381.958 7      -308.668
G01  22890300.600   120289379.273 7      5393.590    22890299.160   120289379.275 5      5393.590    22890310.600    93732045.871 5      4202.798    22890311.620    93732009.888 7      4202.798
G07  23934147.940   125774797.225 6      3497.544    23934145.920   125774797.228 5      3497.544    23934157.000    98006372.538 5      2725.359    23934155.620    98006365.542 7      2725.359
> 2025 04 04 14 03 23.0000000  0 14
G10  22295190.660   117162016.719 8      2259.502    22295190.280   117162016.727 7      2259.502    22295199.720    91295121.585 8      1760.651    22295199.800    91295118.592 7      1760.651
R24  21247079.800   113617673.677 7       463.414    21247080.120   113617673.678 7       463.414    21247091.320    88369354.867 8       360.433    21247091.460    88369348.865 8       360.433
G02  21121232.700   110992830.213 7      3554.410    21121231.220   110992830.220 6      3554.410    21121236.040    86487937.068 6      2769.671
G08  21166220.720   111229244.631 7      3817.954    21166220.340   111229244.626 6      3817.954    21166228.340    86672177.505 6      2975.029    21166229.140    86672171.519 8      2975.029
G27  21006415.160   110389460.144 7      2096.722    21006413.900   110389460.151 8      2096.722    21006422.000    86017802.112 8      1633.809    21006422.140    86017787.117 8      1633.809
G23  24404285.720   128245393.402 4       213.870    24404282.780   128245393.412 1       213.870    24404299.560    99931526.101 1       166.652    24404298.800    99931528.134 6       166.652
R15  20416281.180   109098421.010 7      5045.808    20416279.920   109098421.006 7      5045.808    20416291.880    84854367.590 8      3924.517    20416293.000    84854391.593 8      3924.517
R18  22872428.860   122094627.213 6      4885.703    22872426.420   122094627.187 6      4885.703    22872448.400    94962540.228 7      3799.991    22872449.660    94962596.231 7      3799.991
G16  21147963.220   111133282.374 7       716.234    21147961.400   111133282.378 6       716.234    21147968.280    86597380.251 6       558.104
R14  19573298.160   104336676.750 8       860.243    19573297.660   104336676.743 8       860.243    19573307.860    81150802.944 8       669.078    19573308.580    81150790.949 8       669.078
R17  20382459.860   109070666.429 7      2912.737    20382459.300   109070666.420 7      2912.737    20382472.560    84832787.235 8      2265.462    20382472.040    84832790.234 8      2265.462
G26  22998897.540   120859986.017 7      -396.147    22998896.340   120859986.019 6      -396.147    22998910.800    94176652.536 6      -308.686    22998911.120    94176690.539 7      -308.686
G01  22889274.200   120283985.594 7      5393.567    22889272.700   120283985.596 5      5393.567    22889284.220    93727843.011 5      4202.779    22889285.000    93727807.026 7      4202.779
G07  23933482.300   125771299.758 6      3497.387    23933480.380   125771299.760 5      3497.387    23933491.640    98003647.238 5      2725.237    23933489.580    98003640.243 7      2725.237
> 2025 04 04 14 03 24.0000000  0 14
G10  22294760.720   117159757.154 8      2259.390    22294760.360   117159757.159 7      2259.390    22294769.680    91293360.885 8      1760.563    22294769.660    91293357.892 8      1760.563
R24  21246993.260   113617210.048 7       463.651    21246993.120   113617210.046 7       463.651    21247004.460    88368994.262 8       360.618    21247004.580    88368988.261 8       360.618
G02  21120556.360   110989275.820 7      3554.195    21120554.820   110989275.825 6      3554.195    21120559.680    86485167.413 6      2769.503
G08  21165494.160   111225426.480 7      3818.117    21165493.700   111225426.477 6      3818.117    21165501.660    86669202.322 6      2975.156    21165502.560    86669196.336 8      2975.156
G27  21006016.160   110387363.232 8      2096.912    21006014.880   110387363.232 8      2096.912    21006022.980    86016168.151 8      1633.957    21006023.320    86016153.155 8      1633.957
G23  24404245.060   128245179.685 4       213.826    24404242.060   128245179.695 1       213.826    24404258.860    99931359.566 1       166.618    24404257.900    99931361.598 6       166.618
R15  20415337.200   109093375.403 7      5045.309    20415335.440   109093375.396 7      5045.309    20415347.760    84850443.233 8      3924.129    20415348.520    84850467.236 8      3924.129
R18  22871513.020   122089741.336 6      4885.607    22871511.020   122089741.313 6      4885.607    22871533.280    94958740.120 7      3799.917    22871534.300    94958796.120 7      3799.917
G16  21147826.980   111132566.165 7       716.086    21147825.040   111132566.172 6       716.086    21147832.080    86596822.168 6       557.989
R14  19573136.760   104335816.691 8       859.693    19573136.220   104335816.686 8       859.693    19573146.480    81150134.007 8       668.650    19573147.180    81150122.010 8       668.650
R17  20381915.720   109067753.601 7      2912.725    20381915.520   109067753.592 7      2912.725    20381928.040    84830521.704 8      2265.453    20381927.580    84830524.705 8      2265.453
G26  22998972.800   120860381.947 7      -395.989    22998971.720   120860381.949 6      -395.989    22998986.180    94176961.043 6      -308.563    22998986.420    94176999.043 7      -308.563
G01  22888247.880   120278591.868 7      5393.651    22888246.240   120278591.870 5      5393.651    22888257.660    93723640.119 5      4202.845    22888258.880    93723604.142 7      4202.845
G07  23932817.020   125767802.463 6      3497.304    23932814.880   125767802.463 5      3497.304    23932826.100    98000922.076 5      2725.172    23932824.080    98000915.078 7      2725.172
> 2025 04 04 14 03 25.0000000  0 14
G10  22294330.840   117157498.027 7      2258.862    22294330.320   117157498.032 7      2258.862    22294339.700    91291600.529 8      1760.152    22294339.660    91291597.536 7      1760.152
R24  21246906.800   113616746.298 7       463.749    21246906.580   113616746.302 7       463.749    21246917.980    88368633.570 8       360.694    21246918.240    88368627.571 8       360.694
G02  21119880.120   110985721.653 7      3553.956    21119878.600   110985721.658 6      3553.956    21119883.420    86482397.936 6      2769.317
G08  21164767.720   111221608.274 7      3818.058    21164767.180   111221608.268 6      3818.058    21164775.060    86666227.103 6      2975.110    21164775.900    86666221.116 8      2975.110
G27  21005617.200   110385266.302 7      2096.889    21005615.820   110385266.307 8      2096.889    21005623.900    86014534.183 8      1633.939    21005624.480    86014519.188 8      1633.939
G23  24404205.420   128244966.220 4       213.546    24404201.580   128244966.231 1       213.546    24404217.640    99931193.226 1       166.400    24404218.300    99931195.263 6       166.400
R15  20414393.160   109088330.285 7      5044.789    20414391.160   109088330.281 7      5044.789    20414403.760    84846519.259 8      3923.725    20414404.480    84846543.264 8      3923.725
R18  22870597.860   122084855.557 6      4885.764    22870596.020   122084855.537 6      4885.764    22870618.040    94954940.094 7      3800.039    22870619.120    94954996.091 7      3800.039
G16  21147690.740   111131850.232 7       715.705    21147688.700   111131850.237 6       715.705    21147695.840    86596264.296 6       557.692
R14  19572975.760   104334957.223 8       859.056    19572975.020   104334957.218 8       859.056    19572985.060    81149465.534 8       668.154    19572986.100    81149453.539 8       668.154
R17  20381371.760   109064840.931 7      2912.566    20381370.820   109064840.927 7      2912.566    20381383.740    84828256.298 8      2265.329    20381383.460    84828259.300 8      2265.329
G26  22999048.000   120860777.945 7      -396.098    22999047.120   120860777.950 6      -396.098    22999061.540    94177269.605 6      -308.648    22999062.100    94177307.603 7      -308.648
G01  22887221.500   120273198.309 7      5393.440    22887219.920   120273198.314 5      5393.440    22887231.300    93719437.359 5      4202.681    22887232.120    93719401.376 7      4202.681
G07  23932151.500   125764305.545 6      3496.695    23932149.380   125764305.547 5      3496.695    23932160.780    97998197.206 5      2724.697    23932159.280    97998190.211 7      2724.697
