     3.05           OBSERVATION DATA    MIXED               RINEX VERSION / TYPE
TPS2RIN 1.0.28.3459 TPS-USER            20250407 105607 UTC PGM / RUN BY / DATE
Win64 build Jun 01, 2022 (c) Topcon Positioning Systems     COMMENT
SRC: 20250404_grav_20250404_192339.tps                      COMMENT
Observer            Agency                                  OBSERVER / AGENCY
O0M3X53SBGM         TPS HIPER_SR        4.8 HSR Jul,08,2022 REC # / TYPE / VERS
FW: 4.8 HSR Jul,08,2022 p3                                  COMMENT
SN: HiPer SR 1212-12575                                     COMMENT
000                 TPSHIPER_SR     NONE                    ANT # / TYPE
        1.8000        0.0000        0.0000                  ANTENNA: DELTA H/E/N
DELTA H stands for **SLANT** height here!                   COMMENT
Oro01                                                       MARKER NAME
  5382445.5442 -1596050.9771  3017149.8930                  APPROX POSITION XYZ
  2025     4     4    17    24    6.0000000     GPS         TIME OF FIRST OBS
  2025     4     4    17    39   20.0000000     GPS         TIME OF LAST OBS
     1.000                                                  INTERVAL
   915 EPOCHS                                               COMMENT
G   12 C1C L1C D1C C1W L1W D1W C2W L2W D2W C2X L2X D2X      SYS / # / OBS TYPES
R   12 C1C L1C D1C C1P L1P D1P C2P L2P D2P C2C L2C D2C      SYS / # / OBS TYPES
    14                                                      # OF SATELLITES
   G01   915   915   915   915   915   915   915   915   915PRN / # OF OBS
         915   915   915                                    PRN / # OF OBS
   G02   915   915   915   915   915   915   915   915   915PRN / # OF OBS
           0     0     0                                    PRN / # OF OBS
   G03   915   915   915   915   915   915   915   915   915PRN / # OF OBS
         915   915   915                                    PRN / # OF OBS
   G04   915   915   915   915   915   915   915   915   915PRN / # OF OBS
         915   915   915                                    PRN / # OF OBS
   G08   915   915   915   915   915   915   915   915   915PRN / # OF OBS
         915   915   915                                    PRN / # OF OBS
   G14   915   915   915   915   915   915   915   915   915PRN / # OF OBS
         915   915   915                                    PRN / # OF OBS
   G17   417   417   417   415   415   415   415   415   415PRN / # OF OBS
         411   411   411                                    PRN / # OF OBS
   G22   915   915   915   915   915   915   915   915   915PRN / # OF OBS
           0     0     0                                    PRN / # OF OBS
   R02   915   915   915   915   915   915   915   915   915PRN / # OF OBS
         915   915   915                                    PRN / # OF OBS
   R03   915   915   915   915   915   915   915   915   915PRN / # OF OBS
         915   915   915                                    PRN / # OF OBS
   R04   915   915   915   915   915   915   915   915   915PRN / # OF OBS
         915   915   915                                    PRN / # OF OBS
   R16   915   915   915   915   915   915   915   915   915PRN / # OF OBS
         915   915   915                                    PRN / # OF OBS
   R17   915   915   915   915   915   915   915   915   915PRN / # OF OBS
         915   915   915                                    PRN / # OF OBS
   R18   915   915   915   915   915   915   915   915   915PRN / # OF OBS
         915   915   915                                    PRN / # OF OBS
G L1C                                                       SYS / PHASE SHIFT
G L1W -0.25000                                              SYS / PHASE SHIFT
G L2W  0.00000                                              SYS / PHASE SHIFT
G L2X  0.25000                                              SYS / PHASE SHIFT
R L1C                                                       SYS / PHASE SHIFT
R L1P -0.25000                                              SYS / PHASE SHIFT
R L2P -0.25000                                              SYS / PHASE SHIFT
R L2C                                                       SYS / PHASE SHIFT
  6 R02 -4 R03  5 R04  6 R16 -1 R17  4 R18 -3               GLONASS SLOT / FRQ #
                                                            GLONASS COD/PHS/BIS
    18                  GPS                                 LEAP SECONDS
                                                            END OF HEADER
> 2025 04 04 17 24  6.0000000  0 13
G02  22637008.560   118958280.583 7      1444.950    22637007.680   118958280.583 6      1444.950    22637012.920    92694781.390 6      1125.935
G03  20021208.760   105212161.819 8      2413.992    20021208.260   105212161.821 8      2413.992    20021214.880    81983527.131 8      1881.032    20021215.560    81983530.133 8      1881.032
G14  22301711.040   117196281.506 7      2733.563    22301710.180   117196281.513 5      2733.563    22301718.020    91321805.287 5      2130.049    22301718.300    91321808.301 8      2130.049
R03  19870322.980   106367392.426 8      2674.513    19870323.500   106367392.455 8      2674.513    19870333.980    82730240.249 8      2080.177    19870333.700    82730239.248 8      2080.177
G01  21227042.260   111548861.138 7      2046.505    21227041.680   111548861.143 6      2046.505    21227046.660    86921206.811 6      1594.679    21227047.000    86921207.823 8      1594.679
R18  20650865.700   110235723.191 7      3123.835    20650864.880   110235723.191 7      3123.835    20650876.220    85738939.732 8      2429.649    20650876.180    85738940.734 8      2429.649
G08  22227456.580   116806070.203 7        70.010    22227455.100   116806070.207 6        70.010    22227466.000    91017755.248 6        54.553    22227467.640    91017761.243 7        54.553
R04  20967192.460   112278365.401 7      6246.120    20967192.760   112278365.427 6      6246.120    20967209.200    87327687.314 8      4858.093    20967209.360    87327686.318 8      4858.093
G22  23695484.300   124520613.836 6      3889.950    23695482.580   124520613.807 1      3889.950    23695492.400    97029043.451 1      3031.130
R17  22142608.120   118489571.051 7      1240.997    22142606.840   118489571.047 7      1240.997    22142624.300    92158619.086 7       965.220    22142623.820    92158617.097 7       965.220
G04  23282746.780   122351659.835 7      5682.287    23282745.920   122351659.845 5      5682.287    23282760.840    95339008.048 5      4427.756    23282760.940    95339013.062 7      4427.756
R02  22877554.540   122079010.864 7      -775.521    22877553.160   122079010.846 7      -775.521    22877567.780    94950400.257 7      -603.183    22877567.840    94950398.268 7      -603.183
R16  22775216.700   121661117.174 7      -322.728    22775217.420   121661117.186 7      -322.728    22775236.460    94625394.946 7      -251.011    22775236.480    94625394.944 7      -251.011
> 2025 04 04 17 24  7.0000000  0 13
G02  22636733.660   118956835.204 7      1445.974    22636732.520   118956835.209 6      1445.974    22636737.760    92693655.130 6      1126.733
G03  20020749.460   105209747.597 8      2414.588    20020748.880   105209747.602 8      2414.588    20020755.320    81981645.936 8      1881.497    20020756.140    81981648.936 8      1881.497
G14  22301190.760   117193547.636 7      2734.242    22301189.960   117193547.644 6      2734.242    22301197.820    91319675.006 5      2130.578    22301198.180    91319678.018 8      2130.578
R03  19869823.160   106364717.779 8      2674.776    19869823.920   106364717.805 8      2674.776    19869834.420    82728159.981 8      2080.381    19869834.200    82728158.982 8      2080.381
G01  21226652.980   111546814.108 7      2047.597    21226652.340   111546814.115 6      2047.597    21226657.160    86919611.737 6      1595.530    21226657.620    86919612.748 8      1595.530
R18  20650280.700   110232599.020 7      3124.722    20650279.360   110232599.020 7      3124.722    20650291.080    85736509.832 8      2430.340    20650291.060    85736510.835 8      2430.340
G08  22227443.140   116805999.838 7        70.785    22227441.840   116805999.840 6        70.785    22227452.760    91017700.426 6        55.157    22227454.340    91017706.427 7        55.157
R04  20966026.080   112272119.010 7      6246.741    20966026.580   112272119.041 6      6246.741    20966042.640    87322829.032 8      4858.577    20966042.940    87322828.037 8      4858.577
G22  23694743.800   124516723.741 6      3890.622    23694743.600   124516723.722 1      3890.622    23694752.060    97026012.208 1      3031.654
R17  22142375.920   118488329.545 7      1242.112    22142374.940   118488329.541 7      1242.112    22142392.420    92157653.475 7       966.087    22142391.880    92157651.486 7       966.087
G04  23281665.320   122345977.050 7      5683.364    23281664.760   122345977.058 5      5683.364    23281679.520    95334579.930 5      4428.595    23281679.600    95334584.936 7      4428.595
R02  22877700.180   122079786.154 7      -774.875    22877698.520   122079786.149 7      -774.875    22877712.580    94951003.283 7      -602.680    22877713.040    94951001.294 7      -602.680
R16  22775277.540   121661439.593 7      -321.938    22775277.760   121661439.604 7      -321.938    22775297.040    94625645.708 7      -250.396    22775296.640    94625645.704 7      -250.396
> 2025 04 04 17 24  8.0000000  0 13
G02  22636457.940   118955388.435 7      1447.576    22636457.300   118955388.443 6      1447.576    22636462.420    92692527.794 6      1127.981
G03  20020289.860   105207332.528 8      2415.642    20020289.360   105207332.532 8      2415.642    20020295.800    81979764.076 8      1882.318    20020296.620    81979767.078 8      1882.318
G14  22300670.400   117190812.963 7      2735.197    22300669.500   117190812.973 6      2735.197    22300677.580    91317544.106 5      2131.323    22300677.860    91317547.120 8      2131.323
R03  19869323.520   106362042.589 8      2675.698    19869324.220   106362042.618 8      2675.698    19869334.760    82726079.290 8      2081.098    19869334.360    82726078.289 8      2081.098
G01  21226263.220   111544765.771 7      2049.241    21226262.440   111544765.781 6      2049.241    21226267.120    86918015.638 6      1596.811    21226267.800    86918016.646 8      1596.811
R18  20649695.000   110229473.485 7      3126.433    20649693.840   110229473.480 7      3126.433    20649705.460    85734078.866 8      2431.670    20649705.440    85734079.872 8      2431.670
G08  22227429.660   116805928.388 7        72.223    22227428.180   116805928.382 6        72.223    22227439.240    91017644.736 6        56.278    22227440.740    91017650.736 7        56.278
R04  20964859.720   112265871.641 7      6248.112    20964859.980   112265871.664 7      6248.112    20964876.160    87317969.980 8      4859.643    20964876.240    87317968.983 8      4859.643
G22  23694003.900   124512832.695 6      3891.910    23694001.740   124512832.689 1      3891.910    23694010.600    97022980.236 1      3032.658
R17  22142143.880   118487086.801 7      1243.620    22142142.360   118487086.802 7      1243.620    22142160.440    92156686.921 7       967.260    22142159.580    92156684.934 7       967.260
G04  23280583.540   122340292.915 7      5684.952    23280582.900   122340292.925 5      5684.952    23280597.740    95330150.762 5      4429.833    23280597.680    95330155.777 7      4429.833
R02  22877845.260   122080560.502 7      -773.578    22877843.880   122080560.495 7      -773.578    22877857.860    94951605.570 7      -601.672    22877858.200    94951603.575 7      -601.672
R16  22775337.820   121661760.831 7      -320.469    22775337.740   121661760.840 7      -320.469    22775357.100    94625895.558 7      -249.254    22775356.860    94625895.558 7      -249.254
> 2025 04 04 17 24  9.0000000  0 13
G02  22636182.680   118953940.568 7      1448.247    22636181.840   118953940.573 6      1448.247    22636186.880    92691399.594 6      1128.504
G03  20019830.300   105204916.877 8      2415.712    20019829.720   105204916.882 8      2415.712    20019836.100    81977881.769 8      1882.373    20019836.760    81977884.773 8      1882.373
G14  22300149.800   117188077.738 7      2735.317    22300149.060   117188077.746 6      2735.317    22300157.120    91315412.778 5      2131.416    22300157.360    91315415.796 8      2131.416
R03  19868823.640   106359367.172 8      2675.401    19868824.260   106359367.195 8      2675.401    19868834.860    82723998.424 8      2080.868    19868834.500    82723997.423 8      2080.868
G01  21225872.940   111542716.420 7      2049.733    21225872.460   111542716.425 6      2049.733    21225877.360    86916418.754 6      1597.195    21225877.720    86916419.766 8      1597.195
R18  20649109.800   110226346.962 7      3126.852    20649108.380   110226346.955 7      3126.852    20649119.880    85731647.135 8      2431.996    20649119.720    85731648.139 8      2431.996
G08  22227415.640   116805856.123 7        72.488    22227414.320   116805856.123 6        72.488    22227425.580    91017588.435 6        56.484    22227427.200    91017594.434 7        56.484
R04  20963692.920   112259623.598 7      6248.232    20963692.580   112259623.616 7      6248.232    20963709.340    87313110.408 8      4859.736    20963709.600    87313109.410 8      4859.736
G22  23693263.220   124508941.081 6      3891.759    23693260.860   124508941.065 1      3891.759    23693270.780    97019947.830 1      3032.540
R17  22141911.600   118485843.192 7      1243.829    22141909.920   118485843.188 7      1243.829    22141928.140    92155719.668 7       967.422    22141927.300    92155717.677 7       967.422
G04  23279501.820   122334607.731 7      5685.494    23279500.920   122334607.741 5      5685.494    23279515.700    95325720.776 5      4430.255    23279515.840    95325725.790 7      4430.255
R02  22877990.220   122081334.234 7      -773.535    22877988.380   122081334.219 7      -773.535    22878003.040    94952207.366 7      -601.639    22878003.060    94952205.370 7      -601.639
R16  22775397.860   121662081.212 7      -320.156    22775398.180   121662081.227 7      -320.156    22775417.060    94626144.749 7      -249.010    22775417.000    94626144.746 7      -249.010
> 2025 04 04 17 24 10.0000000  0 13
G02  22635906.860   118952491.558 7      1449.630    22635906.080   118952491.560 6      1449.630    22635910.940    92690270.512 6      1129.582
G03  20019370.620   105202500.596 8      2416.774    20019369.900   105202500.598 8      2416.774    20019376.300    81975998.963 8      1883.200    20019376.960    81976001.969 8      1883.200
G14  22299629.320   117185341.948 7      2736.265    22299628.540   117185341.959 6      2736.265    22299636.500    91313281.006 6      2132.154    22299636.580    91313284.012 8      2132.154
R03  19868323.740   106356691.473 8      2675.919    19868324.460   106356691.496 8      2675.919    19868334.900    82721917.337 8      2081.270    19868334.660    82721916.334 8      2081.270
G01  21225482.700   111540665.995 8      2051.129    21225482.260   111540666.000 6      2051.129    21225487.000    86914821.032 6      1598.283    21225487.540    86914822.042 8      1598.283
R18  20648524.020   110223219.388 7      3128.191    20648522.520   110223219.392 7      3128.191    20648533.920    85729214.598 8      2433.037    20648534.000    85729215.604 8      2433.037
G08  22227401.780   116805783.023 7        73.707    22227400.440   116805783.022 6        73.707    22227411.920    91017531.480 6        57.434    22227413.100    91017537.483 7        57.434
R04  20962525.940   112253374.832 7      6249.299    20962525.460   112253374.855 6      6249.299    20962542.220    87308250.273 8      4860.566    20962542.560    87308249.280 8      4860.566
G22  23692522.400   124505048.778 6      3892.754    23692520.780   124505048.749 1      3892.754    23692531.900    97016914.873 1      3033.314
R17  22141678.780   118484598.604 7      1245.212    22141677.840   118484598.592 7      1245.212    22141695.620    92154751.655 7       968.498    22141695.060    92154749.658 7       968.498
G04  23278419.720   122328921.454 7      5686.809    23278418.640   122328921.464 5      5686.809    23278433.720    95321289.939 5      4431.280    23278434.060    95321294.952 7      4431.280
R02  22878135.380   122082107.264 7      -772.506    22878133.720   122082107.249 7      -772.506    22878148.080    94952808.624 7      -600.838    22878148.000    94952806.628 7      -600.838
R16  22775457.520   121662400.653 7      -318.859    22775457.960   121662400.665 7      -318.859    22775476.880    94626393.209 7      -248.002    22775476.720    94626393.212 7      -248.002
> 2025 04 04 17 24 11.0000000  0 13
G02  22635631.060   118951041.044 7      1451.088    22635630.100   118951041.044 6      1451.088    22635634.960    92689140.241 6      1130.718
G03  20018910.500   105200083.348 8      2417.622    20018909.900   105200083.353 8      2417.622    20018916.340    81974115.410 8      1883.862    20018917.040    81974118.416 8      1883.862
G14  22299108.640   117182605.207 7      2737.094    22299107.860   117182605.218 6      2737.094    22299115.720    91311148.495 6      2132.801    22299115.920    91311151.501 8      2132.801
R03  19867823.540   106354015.086 8      2676.566    19867824.620   106354015.109 8      2676.566    19867834.920    82719835.718 8      2081.774    19867834.800    82719834.715 8      2081.774
G01  21225092.460   111538614.148 8      2052.462    21225091.780   111538614.153 6      2052.462    21225096.600    86913222.198 6      1599.321    21225097.140    86913223.206 8      1599.321
R18  20647937.500   110220090.405 7      3129.607    20647936.420   110220090.403 7      3129.607    20647947.760    85726780.957 8      2434.139    20647947.800    85726781.961 8      2434.139
G08  22227387.560   116805708.743 7        74.671    22227386.360   116805708.745 6        74.671    22227397.780    91017473.607 6        58.185    22227398.920    91017479.608 7        58.185
R04  20961358.980   112247124.997 7      6250.298    20961358.860   112247125.007 6      6250.298    20961375.020    87303389.307 8      4861.343    20961375.560    87303388.314 8      4861.343
G22  23691781.980   124501155.370 6      3893.948    23691777.820   124501155.367 1      3893.948    23691791.120    97013881.069 1      3034.245
R17  22141446.040   118483352.662 7      1246.469    22141445.160   118483352.653 7      1246.469    22141462.480    92153782.598 7       969.476    22141462.060    92153780.604 7       969.476
G04  23277337.360   122323233.693 7      5688.318    23277336.180   122323233.695 5      5688.318    23277351.140    95316857.946 5      4432.456    23277351.700    95316862.950 7      4432.456
R02  22878280.060   122082879.243 7      -771.542    22878278.560   122082879.228 7      -771.542    22878292.700    94953409.060 7      -600.088    22878292.720    94953407.063 7      -600.088
R16  22775517.200   121662718.788 7      -317.491    22775517.800   121662718.802 7      -317.491    22775536.420    94626640.635 7      -246.937    22775536.360    94626640.631 7      -246.937
> 2025 04 04 17 24 12.0000000  0 13
G02  22635354.680   118949589.180 7      1452.399    22635353.800   118949589.185 6      1452.399    22635358.640    92688008.937 6      1131.739
G03  20018450.260   105197665.286 8      2418.429    20018449.700   105197665.290 8      2418.429    20018456.180    81972231.217 8      1884.490    20018456.740    81972234.221 8      1884.490
G14  22298587.740   117179867.681 7      2737.981    22298586.840   117179867.696 6      2737.981    22298594.720    91309015.370 5      2133.491    22298594.920    91309018.384 8      2133.491
R03  19867323.880   106351338.178 8      2677.159    19867324.340   106351338.203 8      2677.159    19867334.720    82717753.695 8      2082.235    19867334.600    82717752.691 8      2082.235
G01  21224701.700   111536561.018 7      2053.735    21224701.080   111536561.026 6      2053.735    21224705.880    86911622.378 6      1600.313    21224706.600    86911623.388 8      1600.313
R18  20647351.420   110216960.175 7      3130.815    20647350.020   110216960.176 7      3130.815    20647361.340    85724346.342 8      2435.079    20647361.220    85724347.348 8      2435.079
G08  22227373.120   116805633.394 7        75.711    22227371.900   116805633.398 6        75.711    22227383.360    91017414.902 6        58.995    22227384.560    91017420.911 7        58.995
R04  20960191.240   112240874.207 7      6251.231    20960191.340   112240874.227 6      6251.231    20960207.820    87298527.615 8      4862.069    20960207.920    87298526.620 8      4862.069
G22  23691040.560   124497261.147 6      3894.700    23691038.140   124497261.144 2      3894.700    23691050.540    97010846.642 1      3034.831
R17  22141213.380   118482105.506 7      1247.701    22141212.020   118482105.502 7      1247.701    22141229.580    92152812.604 7       970.434    22141229.180    92152810.610 7       970.434
G04  23276254.860   122317544.634 7      5689.660    23276253.740   122317544.633 5      5689.660    23276268.380    95312424.942 5      4433.501    23276268.900    95312429.954 7      4433.501
R02  22878424.340   122083650.277 7      -770.470    22878423.120   122083650.254 7      -770.470    22878437.040    94954008.758 7      -599.254    22878437.140    94954006.760 7      -599.254
R16  22775576.820   121663035.825 7      -316.565    22775577.580   121663035.842 7      -316.565    22775595.680    94626887.223 7      -246.217    22775595.360    94626887.222 7      -246.217
> 2025 04 04 17 24 13.0000000  0 13
G02  22635078.240   118948136.195 7      1453.531    22635077.280   118948136.197 6      1453.531    22635082.100    92686876.751 6      1132.622
G03  20017990.020   105195246.637 8      2418.902    20017989.540   105195246.637 8      2418.902    20017995.860    81970346.569 8      1884.858    20017996.680    81970349.574 8      1884.858
G14  22298066.460   117177129.637 7      2738.301    22298065.920   117177129.649 5      2738.301    22298073.620    91306881.837 5      2133.741    22298074.200    91306884.843 8      2133.741
R03  19866823.560   106348660.980 8      2677.359    19866824.420   106348661.006 8      2677.359    19866834.480    82715671.447 8      2082.390    19866834.400    82715670.443 8      2082.390
G01  21224310.980   111534506.864 8      2054.640    21224310.260   111534506.872 6      2054.640    21224315.040    86910021.749 6      1601.018    21224315.540    86910022.754 8      1601.018
R18  20646764.660   110213828.859 7      3131.777    20646763.620   110213828.855 7      3131.777    20646774.840    85721910.889 8      2435.827    20646774.880    85721911.894 8      2435.827
G08  22227358.700   116805557.248 7        76.456    22227357.480   116805557.242 6        76.456    22227369.100    91017355.572 6        59.576    22227370.600    91017361.581 7        59.576
R04  20959023.800   112234622.755 7      6251.641    20959023.840   112234622.778 6      6251.641    20959040.440    87293665.402 8      4862.388    20959040.680    87293664.407 8      4862.388
G22  23690299.020   124493366.246 6      3895.266    23690298.140   124493366.238 2      3895.266    23690308.080    97007811.665 2      3035.272
R17  22140980.080   118480857.368 7      1248.584    22140978.200   118480857.364 7      1248.584    22140996.320    92151841.833 7       971.121    22140995.700    92151839.836 7       971.121
G04  23275172.360   122311854.505 7      5690.636    23275171.160   122311854.507 5      5690.636    23275185.900    95307991.104 5      4434.262    23275186.260    95307996.118 7      4434.262
R02  22878568.720   122084420.580 7      -769.910    22878566.840   122084420.560 7      -769.910    22878581.400    94954607.897 7      -598.819    22878581.400    94954605.895 7      -598.819
R16  22775635.380   121663351.972 7      -315.733    22775636.420   121663351.987 7      -315.733    22775654.920    94627133.114 7      -245.570    22775654.760    94627133.115 7      -245.570
> 2025 04 04 17 24 14.0000000  0 13
G02  22634801.380   118946681.914 7      1454.727    22634800.500   118946681.918 6      1454.727    22634805.300    92685743.555 6      1133.554
G03  20017529.600   105192827.211 8      2419.502    20017529.100   105192827.216 8      2419.502    20017535.460    81968461.320 8      1885.326    20017536.140    81968464.324 8      1885.326
G14  22297545.240   117174390.828 7      2738.893    22297544.760   117174390.835 5      2738.893    22297552.400    91304747.710 6      2134.202    22297552.880    91304750.722 8      2134.202
R03  19866323.400   106345983.328 8      2677.585    19866324.100   106345983.356 8      2677.585    19866334.500    82713588.840 8      2082.566    19866334.220    82713587.839 8      2082.566
G01  21223919.880   111532451.470 7      2055.733    21223919.140   111532451.475 6      2055.733    21223923.880    86908420.153 6      1601.870    21223924.360    86908421.165 8      1601.870
R18  20646177.740   110210696.289 7      3132.931    20646176.460   110210696.293 7      3132.931    20646187.840    85719474.466 8      2436.724    20646187.820    85719475.472 8      2436.724
G08  22227344.000   116805480.073 7        77.432    22227342.700   116805480.067 6        77.432    22227354.500    91017295.437 6        60.336    22227355.900    91017301.450 7        60.336
R04  20957855.720   112228370.420 7      6252.284    20957856.000   112228370.454 6      6252.284    20957872.900    87288802.506 8      4862.888    20957873.020    87288801.510 8      4862.888
G22  23689558.540   124489470.518 6      3896.001    23689557.280   124489470.528 2      3896.001    23689566.220    97004776.053 2      3035.845
R17  22140746.680   118479608.100 7      1249.608    22140744.700   118479608.077 7      1249.608    22140762.860    92150870.179 7       971.917    22140762.380    92150868.181 7       971.917
G04  23274089.140   122306163.112 7      5691.737    23274088.140   122306163.117 5      5691.737    23274103.100    95303556.281 5      4435.119    23274103.380    95303561.301 7      4435.119
R02  22878712.720   122085189.971 7      -769.163    22878711.440   122085189.953 7      -769.163    22878725.640    94955206.324 7      -598.238    22878725.840    94955204.327 7      -598.238
R16  22775694.820   121663667.049 7      -314.685    22775695.900   121663667.058 7      -314.685    22775713.920    94627378.171 7      -244.755    22775713.800    94627378.170 7      -244.755
> 2025 04 04 17 24 15.0000000  0 13
G02  22634524.520   118945226.681 7      1455.995    22634523.580   118945226.686 6      1455.995    22634528.500    92684609.618 6      1134.541
G03  20017069.280   105190407.348 8      2420.262    20017068.620   105190407.353 8      2420.262    20017074.960    81966575.725 8      1885.918    20017075.660    81966578.731 8      1885.918
G14  22297024.140   117171651.633 7      2739.606    22297023.640   117171651.643 5      2739.606    22297031.200    91302613.285 5      2134.758    22297031.640    91302616.295 8      2134.758
R03  19865823.180   106343305.541 8      2678.030    19865823.740   106343305.570 8      2678.030    19865834.180    82711506.130 8      2082.912    19865833.820    82711505.129 8      2082.912
G01  21223528.540   111530395.201 7      2056.932    21223527.840   111530395.206 6      2056.932    21223532.480    86906817.876 6      1602.804    21223533.240    86906818.887 8      1602.804
R18  20645590.660   110207562.875 7      3134.098    20645589.760   110207562.881 7      3134.098    20645600.840    85717037.379 8      2437.632    20645601.080    85717038.386 8      2437.632
G08  22227328.920   116805402.259 7        78.362    22227327.920   116805402.256 6        78.362    22227339.800    91017234.809 6        61.061    22227340.980    91017240.822 7        61.061
R04  20956688.160   112222117.587 7      6253.311    20956688.120   112222117.615 6      6253.311    20956705.240    87283939.206 8      4863.686    20956705.180    87283938.210 8      4863.686
G22  23688816.740   124485574.295 6      3896.943    23688815.380   124485574.313 2      3896.943    23688825.220    97001740.039 2      3036.579
R17  22140513.020   118478358.059 7      1250.668    22140511.360   118478358.034 7      1250.668    22140529.220    92149897.931 7       972.742    22140528.540    92149895.934 7       972.742
G04  23273005.940   122300470.834 7      5692.884    23273004.780   122300470.844 5      5692.884    23273019.960    95299120.770 5      4436.014    23273020.460    95299125.791 7      4436.014
R02  22878856.800   122085958.802 7      -768.304    22878855.540   122085958.789 7      -768.304    22878869.820    94955804.318 7      -597.570    22878869.900    94955802.327 7      -597.570
R16  22775753.620   121663981.407 7      -313.660    22775754.360   121663981.419 7      -313.660    22775772.880    94627622.662 7      -243.958    22775772.600    94627622.663 7      -243.958
> 2025 04 04 17 24 16.0000000  0 13
G02  22634247.460   118943770.190 7      1457.098    22634246.760   118943770.195 6      1457.098    22634251.300    92683474.700 6      1135.401
G03  20016608.520   105187986.748 8      2420.962    20016608.000   105187986.750 8      2420.962    20016614.320    81964689.553 8      1886.464    20016614.920    81964692.557 8      1886.464
G14  22296502.960   117168911.738 7      2740.108    22296502.300   117168911.743 6      2740.108    22296509.580    91300478.311 6      2135.149    22296510.200    91300481.325 8      2135.149
R03  19865322.800   106340627.332 8      2678.405    19865323.580   106340627.360 8      2678.405    19865333.800    82709423.091 8      2083.204    19865333.720    82709422.088 8      2083.204
G01  21223137.160   111528337.742 7      2058.002    21223136.380   111528337.747 6      2058.002    21223141.100    86905214.673 6      1603.638    21223141.540    86905215.685 8      1603.638
R18  20645003.540   110204428.306 7      3135.109    20645002.300   110204428.315 7      3135.109    20645013.640    85714599.393 8      2438.418    20645013.640    85714600.400 8      2438.418
G08  22227313.820   116805323.470 7        79.249    22227313.080   116805323.472 6        79.249    22227324.860    91017173.425 6        61.752    22227326.180    91017179.435 7        61.752
R04  20955521.100   112215863.913 7      6254.024    20955520.520   112215863.931 6      6254.024    20955537.320    87279075.252 8      4864.241    20955537.340    87279074.254 8      4864.241
G22  23688075.100   124481677.282 6      3897.595    23688073.840   124481677.292 2      3897.595    23688084.320    96998703.403 2      3037.087
R17  22140278.940   118477106.865 7      1251.740    22140277.440   118477106.851 7      1251.740    22140295.540    92148924.795 7       973.575    22140294.720    92148922.801 7       973.575
G04  23271922.580   122294777.300 7      5694.100    23271921.320   122294777.310 5      5694.100    23271936.500    95294684.279 5      4436.961    23271937.340    95294689.304 7      4436.961
R02  22879000.860   122086726.826 7      -767.603    22878999.620   122086726.808 7      -767.603    22879013.520    94956401.675 7      -597.025    22879013.380    94956399.682 7      -597.025
R16  22775812.560   121664294.729 7      -312.895    22775813.240   121664294.733 7      -312.895    22775831.380    94627866.352 7      -243.363    22775831.200    94627866.351 7      -243.363
> 2025 04 04 17 24 17.0000000  0 13
G02  22633970.200   118942312.646 7      1458.060    22633969.340   118942312.651 6      1458.060    22633974.020    92682338.964 6      1136.151
G03  20016147.820   105185565.632 8      2421.411    20016147.300   105185565.634 8      2421.411    20016153.560    81962802.986 8      1886.814    20016154.380    81962805.989 8      1886.814
G14  22295981.220   117166171.327 7      2740.692    22295980.760   117166171.337 5      2740.692    22295988.120    91298342.941 5      2135.604    22295988.560    91298345.957 8      2135.604
R03  19864822.320   106337948.906 8      2678.543    19864823.220   106337948.942 8      2678.543    19864833.620    82707339.891 8      2083.311    19864833.360    82707338.888 8      2083.311
G01  21222745.480   111526279.292 7      2058.969    21222744.720   111526279.299 6      2058.969    21222749.500    86903610.700 6      1604.391    21222749.940    86903611.716 8      1604.391
R18  20644415.860   110201292.783 7      3136.054    20644415.240   110201292.790 7      3136.054    20644426.480    85712160.666 8      2439.153    20644426.440    85712161.673 8      2439.153
G08  22227299.020   116805243.951 7        79.940    22227297.900   116805243.950 6        79.940    22227309.700    91017111.466 6        62.291    22227311.040    91017117.480 7        62.291
R04  20954353.120   112209609.580 7      6254.609    20954352.160   112209609.603 6      6254.609    20954369.260    87274210.794 8      4864.696    20954369.520    87274209.802 8      4864.696
G22  23687333.520   124477779.727 6      3897.773    23687331.900   124477779.734 2      3897.773    23687342.700    96995666.372 2      3037.226
R17  22140045.140   118475854.796 7      1252.588    22140043.680   118475854.790 7      1252.588    22140061.160    92147950.974 7       974.235    22140061.000    92147948.978 7       974.235
G04  23270838.860   122289082.778 7      5694.996    23270837.780   122289082.791 4      5694.996    23270852.620    95290247.020 5      4437.659    23270853.140    95290252.042 7      4437.659
R02  22879144.480   122087494.259 7      -767.192    22879143.200   122087494.246 7      -767.192    22879157.500    94956998.588 7      -596.705    22879157.080    94956996.588 7      -596.705
R16  22775870.640   121664607.183 7      -311.974    22775871.760   121664607.186 7      -311.974    22775889.980    94628109.380 7      -242.646    22775889.900    94628109.385 7      -242.646
> 2025 04 04 17 24 18.0000000  0 13
G02  22633692.380   118940854.134 7      1459.101    22633691.800   118940854.137 6      1459.101    22633696.540    92681202.469 6      1136.962
G03  20015687.140   105183144.078 8      2421.853    20015686.520   105183144.080 8      2421.853    20015692.860    81960916.072 8      1887.158    20015693.300    81960919.076 8      1887.158
G14  22295459.760   117163430.547 7      2741.068    22295459.220   117163430.555 6      2741.068    22295466.640    91296207.279 5      2135.897    22295467.100    91296210.287 8      2135.897
R03  19864321.880   106335270.391 8      2678.615    19864322.880   106335270.414 8      2678.615    19864333.220    82705256.607 8      2083.367    19864332.940    82705255.603 8      2083.367
G01  21222353.640   111524219.970 7      2059.865    21222352.880   111524219.977 6      2059.865    21222357.680    86902006.046 6      1605.089    21222357.940    86902007.058 8      1605.089
R18  20643828.500   110198156.386 7      3136.974    20643827.600   110198156.392 7      3136.974    20643838.640    85709721.257 8      2439.869    20643838.720    85709722.265 8      2439.869
G08  22227283.640   116805163.764 7        80.498    22227282.660   116805163.764 6        80.498    22227294.420    91017048.992 6        62.726    22227295.540    91017055.005 7        62.726
R04  20953184.940   112203354.715 7      6255.172    20953184.140   112203354.733 6      6255.172    20953201.200    87269345.915 8      4865.134    20953201.280    87269344.920 8      4865.134
G22  23686591.640   124473881.597 6      3898.513    23686591.240   124473881.594 2      3898.513    23686600.900    96992628.868 2      3037.802
R17  22139811.200   118474601.981 7      1253.308    22139809.460   118474601.964 7      1253.308    22139827.180    92146976.562 7       974.795    22139826.740    92146974.560 7       974.795
G04  23269754.900   122283387.313 7      5696.158    23269754.140   122283387.323 4      5696.158    23269768.860    95285809.024 4      4438.565    23269769.280    95285814.038 7      4438.565
R02  22879287.820   122088261.150 7      -766.552    22879287.220   122088261.137 7      -766.552    22879301.060    94957595.066 7      -596.207    22879300.960    94957593.065 7      -596.207
R16  22775928.600   121664918.942 7      -311.271    22775930.180   121664918.948 7      -311.271    22775948.320    94628351.860 7      -242.100    22775948.240    94628351.858 7      -242.100
> 2025 04 04 17 24 19.0000000  0 13
G02  22633414.740   118939394.640 7      1460.068    22633414.120   118939394.645 6      1460.068    22633418.660    92680065.214 6      1137.715
G03  20015226.160   105180722.055 8      2422.322    20015225.560   105180722.058 8      2422.322    20015231.900    81959028.799 8      1887.523    20015232.560    81959031.805 8      1887.523
G14  22294937.940   117160689.316 7      2741.608    22294937.620   117160689.323 6      2741.608    22294944.920    91294071.265 5      2136.318    22294945.420    91294074.281 8      2136.318
R03  19863821.980   106332591.727 8      2678.787    19863822.500   106332591.750 8      2678.787    19863832.800    82703173.216 8      2083.501    19863832.620    82703172.214 8      2083.501
G01  21221961.540   111522159.725 8      2060.785    21221960.840   111522159.735 6      2060.785    21221965.680    86900400.677 6      1605.807    21221966.100    86900401.687 8      1605.807
R18  20643240.560   110195019.062 7      3137.897    20643239.760   110195019.068 7      3137.897    20643251.080    85707281.131 8      2440.586    20643251.140    85707282.137 8      2440.586
G08  22227268.220   116805082.884 7        81.252    22227267.280   116805082.881 6        81.252    22227278.940    91016985.976 6        63.313    22227279.960    91016991.986 7        63.313
R04  20952017.060   112197099.290 7      6255.836    20952015.900   112197099.308 6      6255.836    20952033.260    87264480.613 8      4865.650    20952033.240    87264479.616 8      4865.650
G22  23685849.640   124469982.957 6      3899.265    23685849.920   124469982.959 2      3899.265    23685858.460    96989590.977 2      3038.388
R17  22139576.880   118473348.296 7      1254.232    22139575.500   118473348.284 7      1254.232    22139592.400    92146001.484 7       975.514    22139592.360    92145999.487 7       975.514
G04  23268671.040   122277690.933 7      5696.965    23268670.240   122277690.941 4      5696.965    23268684.860    95281370.313 4      4439.194    23268685.260    95281375.344 7      4439.194
R02  22879431.780   122089027.472 7      -765.871    22879430.640   122089027.465 7      -765.871    22879444.580    94958191.105 7      -595.677    22879444.580    94958189.110 7      -595.677
R16  22775987.260   121665229.980 7      -310.654    22775988.440   121665229.992 7      -310.654    22776006.420    94628593.780 7      -241.620    22776006.400    94628593.777 7      -241.620
> 2025 04 04 17 24 20.0000000  0 13
G02  22633136.900   118937934.145 7      1460.974    22633136.120   118937934.152 6      1460.974    22633140.720    92678927.178 6      1138.421
G03  20014765.140   105178299.560 8      2422.725    20014764.560   105178299.560 8      2422.725    20014770.940    81957141.150 8      1887.838    20014771.660    81957144.154 8      1887.838
G14  22294416.320   117157947.661 7      2741.904    22294415.780   117157947.669 5      2741.904    22294423.240    91291934.925 5      2136.548    22294423.740    91291937.941 8      2136.548
R03  19863321.280   106329912.905 8      2678.906    19863321.900   106329912.925 8      2678.906    19863332.380    82701089.700 8      2083.593    19863332.220    82701088.701 8      2083.593
G01  21221569.380   111520098.558 7      2061.617    21221568.540   111520098.566 6      2061.617    21221573.160    86898794.581 6      1606.455    21221573.760    86898795.593 8      1606.455
R18  20642653.040   110191880.785 7      3138.751    20642651.980   110191880.794 7      3138.751    20642663.060    85704840.266 8      2441.251    20642663.180    85704841.273 8      2441.251
G08  22227252.900   116805001.305 7        81.915    22227251.800   116805001.302 6        81.915    22227263.540    91016922.414 6        63.830    22227264.500    91016928.417 7        63.830
R04  20950848.680   112190843.305 7      6256.416    20950848.000   112190843.323 6      6256.416    20950864.840    87259614.868 8      4866.101    20950864.800    87259613.875 8      4866.101
G22  23685107.760   124466083.805 6      3899.373    23685107.260   124466083.815 2      3899.373    23685116.400    96986552.675 2      3038.473
R17  22139342.600   118472093.790 7      1254.966    22139341.020   118472093.780 7      1254.966    22139357.800    92145025.767 7       976.085    22139357.880    92145023.770 7       976.085
G04  23267586.560   122271993.584 7      5697.781    23267586.140   122271993.592 4      5697.781    23267600.760    95276930.851 4      4439.829    23267601.020    95276935.879 7      4439.829
R02  22879575.300   122089793.250 7      -765.449    22879574.480   122089793.227 7      -765.449    22879588.200    94958786.711 7      -595.349    22879588.180    94958784.711 7      -595.349
R16  22776045.460   121665540.228 7      -309.838    22776046.840   121665540.240 7      -309.838    22776064.600    94628835.076 7      -240.985    22776064.660    94628835.077 7      -240.985
> 2025 04 04 17 24 21.0000000  0 13
G02  22632858.780   118936472.441 7      1462.324    22632857.940   118936472.449 6      1462.324    22632862.600    92677788.202 6      1139.473
G03  20014304.000   105175876.382 8      2423.565    20014303.400   105175876.382 8      2423.565    20014309.720    81955252.976 8      1888.492    20014310.480    81955255.982 8      1888.492
G14  22293894.640   117155205.379 7      2742.577    22293893.920   117155205.384 6      2742.577    22293901.340    91289798.094 5      2137.073    22293901.960    91289801.110 8      2137.073
R03  19862820.620   106327233.727 8      2679.372    19862821.320   106327233.755 8      2679.372    19862831.960    82699005.917 8      2083.956    19862831.740    82699004.914 8      2083.956
G01  21221176.900   111518036.243 7      2063.008    21221176.060   111518036.248 6      2063.008    21221180.820    86897187.595 6      1607.539    21221181.500    86897188.604 8      1607.539
R18  20642064.660   110188741.400 7      3140.011    20642063.660   110188741.406 7      3140.011    20642074.960    85702398.535 8      2442.231    20642075.000    85702399.540 8      2442.231
G08  22227237.220   116804918.814 7        82.925    22227236.040   116804918.811 6        82.925    22227248.020    91016858.144 6        64.617    22227248.920    91016864.153 7        64.617
R04  20949680.020   112184586.584 7      6257.171    20949679.660   112184586.597 6      6257.171    20949696.680    87254748.549 8      4866.689    20949696.440    87254747.553 8      4866.689
G22  23684366.240   124462183.909 6      3900.267    23684365.080   124462183.927 2      3900.267    23684373.880    96983513.811 2      3039.169
R17  22139107.620   118470838.243 7      1256.037    22139105.920   118470838.247 7      1256.037    22139123.240    92144049.253 7       976.918    22139123.160    92144047.260 7       976.918
G04  23266502.280   122266295.068 7      5699.218    23266501.600   122266295.071 4      5699.218    23266516.480    95272490.475 4      4440.949    23266516.960    95272495.492 7      4440.949
R02  22879718.540   122090558.228 7      -764.553    22879717.620   122090558.207 7      -764.553    22879731.420    94959381.706 7      -594.653    22879731.780    94959379.706 7      -594.653
R16  22776103.300   121665849.517 7      -308.747    22776104.620   121665849.528 7      -308.747    22776122.340    94629075.634 7      -240.136    22776122.320    94629075.632 7      -240.136
> 2025 04 04 17 24 22.0000000  0 13
G02  22632580.380   118935009.728 7      1463.256    22632579.640   118935009.733 6      1463.256    22632584.180    92676648.434 6      1140.199
G03  20013842.900   105173452.728 8      2423.860    20013842.120   105173452.730 8      2423.860    20013848.560    81953364.429 8      1888.722    20013849.360    81953367.432 8      1888.722
G14  22293372.760   117152462.624 7      2742.978    22293372.100   117152462.628 5      2742.978    22293379.420    91287660.892 6      2137.386    22293379.880    91287663.908 8      2137.386
R03  19862320.140   106324554.382 8      2679.436    19862320.920   106324554.408 8      2679.436    19862331.360    82696921.995 8      2084.006    19862331.120    82696920.992 8      2084.006
G01  21220784.340   111515973.017 7      2063.786    21220783.400   111515973.021 6      2063.786    21220788.280    86895579.896 6      1608.145    21220788.800    86895580.907 8      1608.145
R18  20641476.340   110185601.124 7      3140.786    20641475.520   110185601.125 7      3140.786    20641486.640    85699956.106 8      2442.833    20641486.800    85699957.112 8      2442.833
G08  22227221.480   116804835.629 7        83.473    22227220.260   116804835.631 6        83.473    22227232.260    91016793.331 6        65.044    22227233.400    91016799.342 7        65.044
R04  20948511.700   112178329.234 7      6257.604    20948511.280   112178329.257 6      6257.604    20948528.060    87249881.748 8      4867.025    20948528.100    87249880.755 8      4867.025
G22  23683623.640   124458283.480 6      3900.718    23683622.680   124458283.492 2      3900.718    23683631.560    96980474.520 2      3039.521
R17  22138872.780   118469581.844 7      1256.855    22138871.720   118469581.841 7      1256.855    22138888.540    92143072.057 7       977.554    22138888.020    92143070.062 7       977.554
G04  23265417.880   122260595.580 7      5700.060    23265416.940   122260595.580 4      5700.060    23265431.880    95268049.347 5      4441.606    23265432.540    95268054.375 7      4441.606
R02  22879862.080   122091322.603 7      -764.139    22879860.720   122091322.585 7      -764.139    22879874.240    94959976.236 7      -594.330    22879875.260    94959974.232 7      -594.330
R16  22776160.820   121666157.983 7      -308.091    22776162.380   121666158.002 7      -308.091    22776180.120    94629315.554 7      -239.627    22776179.940    94629315.550 7      -239.627
> 2025 04 04 17 24 23.0000000  0 13
G02  22632301.840   118933546.117 7      1464.035    22632301.140   118933546.124 6      1464.035    22632305.840    92675507.972 6      1140.807
G03  20013381.820   105171028.698 8      2424.180    20013380.840   105171028.703 8      2424.180    20013387.260    81951475.591 8      1888.971    20013388.000    81951478.593 8      1888.971
G14  22292850.520   117149719.550 7      2743.181    22292850.060   117149719.558 5      2743.181    22292857.400    91285523.447 5      2137.543    22292858.000    91285526.465 8      2137.543
R03  19861819.260   106321874.977 8      2679.385    19861820.340   106321875.002 8      2679.385    19861830.820    82694838.028 8      2083.966    19861830.720    82694837.027 8      2083.966
G01  21220391.500   111513908.975 8      2064.339    21220390.620   111513908.983 6      2064.339    21220395.580    86893971.566 6      1608.576    21220396.160    86893972.578 8      1608.576
R18  20640888.180   110182460.034 7      3141.480    20640886.960   110182460.041 7      3141.480    20640898.200    85697513.055 8      2443.373    20640898.140    85697514.061 8      2443.373
G08  22227205.340   116804751.851 7        83.966    22227204.380   116804751.848 6        83.966    22227216.380    91016728.051 6        65.428    22227217.480    91016734.066 7        65.428
R04  20947343.180   112172071.429 7      6257.952    20947342.180   112172071.452 6      6257.952    20947359.400    87245014.593 8      4867.296    20947359.380    87245013.598 8      4867.296
G22  23682881.420   124454382.598 5      3901.082    23682881.160   124454382.611 2      3901.082    23682889.520    96977434.884 2      3039.804
R17  22138637.960   118468324.716 7      1257.433    22138636.720   118468324.715 7      1257.433    22138653.520    92142094.301 7       978.003    22138653.020    92142092.303 7       978.003
G04  23264333.220   122254895.257 7      5700.691    23264332.240   122254895.262 4      5700.691    23264347.320    95263607.569 5      4442.097    23264347.620    95263612.596 7      4442.097
R02  22880004.900   122092086.468 7      -763.648    22880003.760   122092086.450 7      -763.648    22880017.460    94960570.360 7      -593.948    22880018.080    94960568.360 7      -593.948
R16  22776218.360   121666465.794 7      -307.553    22776220.060   121666465.809 7      -307.553    22776237.680    94629554.961 7      -239.208    22776237.720    94629554.960 7      -239.208
> 2025 04 04 17 24 24.0000000  0 13
G02  22632023.320   118932081.617 7      1464.864    22632022.460   118932081.625 6      1464.864    22632027.000    92674366.816 6      1141.452
G03  20012920.340   105168604.314 8      2424.463    20012919.480   105168604.316 8      2424.463    20012925.880    81949586.470 8      1889.192    20012926.540    81949589.474 8      1889.192
G14  22292328.640   117146976.141 7      2743.453    22292328.020   117146976.148 5      2743.453    22292335.440    91283385.735 5      2137.755    22292335.880    91283388.751 8      2137.755
R03  19861319.000   106319195.509 8      2679.354    19861319.960   106319195.538 8      2679.354    19861330.340    82692754.012 8      2083.942    19861330.000    82692753.011 8      2083.942
G01  21219998.560   111511844.085 8      2065.232    21219997.680   111511844.093 6      2065.232    21220002.600    86892362.573 6      1609.272    21220003.100    86892363.583 8      1609.272
R18  20640299.580   110179318.146 7      3142.205    20640298.600   110179318.145 7      3142.205    20640309.620    85695069.370 8      2443.938    20640309.740    85695070.374 8      2443.938
G08  22227189.500   116804667.458 7        84.562    22227188.320   116804667.455 6        84.562    22227200.360    91016662.298 6        65.892    22227201.080    91016668.309 7        65.892
R04  20946174.740   112165813.152 7      6258.499    20946173.260   112165813.176 6      6258.499    20946190.700    87240147.068 8      4867.722    20946190.640    87240146.074 8      4867.722
G22  23682139.460   124450481.276 6      3901.610    23682138.600   124450481.289 2      3901.610    23682147.100    96974394.907 2      3040.216
R17  22138402.760   118467066.830 7      1258.110    22138401.480   118467066.829 7      1258.110    22138418.500    92141115.950 7       978.530    22138418.000    92141113.958 7       978.530
G04  23263248.200   122249194.085 7      5701.479    23263247.220   122249194.092 4      5701.479    23263262.420    95259165.130 5      4442.711    23263262.680    95259170.161 7      4442.711
R02  22880147.940   122092849.882 7      -763.279    22880147.180   122092849.864 7      -763.279    22880160.420    94961164.135 7      -593.662    22880161.200    94961162.139 7      -593.662
R16  22776276.040   121666772.928 7      -306.900    22776277.880   121666772.939 7      -306.900    22776295.160    94629793.836 7      -238.700    22776294.980    94629793.837 7      -238.700
> 2025 04 04 17 24 25.0000000  0 13
G02  22631744.460   118930616.287 7      1465.776    22631743.600   118930616.295 6      1465.776    22631748.260    92673225.008 6      1142.163
G03  20012458.880   105166179.612 8      2424.898    20012458.040   105166179.614 8      2424.898    20012464.520    81947697.106 8      1889.531    20012465.060    81947700.104 8      1889.531
G14  22291806.380   117144232.455 7      2743.874    22291805.880   117144232.462 5      2743.874    22291813.340    91281247.809 5      2138.083    22291813.720    91281250.833 8      2138.083
R03  19860818.400   106316516.045 8      2679.496    19860819.500   106316516.073 8      2679.496    19860829.820    82690669.999 8      2084.053    19860829.560    82690668.998 8      2084.053
G01  21219605.540   111509778.473 8      2065.968    21219604.580   111509778.480 6      2065.968    21219609.420    86890753.015 6      1609.845    21219609.900    86890754.025 8      1609.845
R18  20639710.600   110176175.492 7      3143.053    20639709.860   110176175.499 7      3143.053    20639720.800    85692625.103 8      2444.597    20639721.040    85692626.106 8      2444.597
G08  22227173.300   116804582.547 6        85.289    22227172.100   116804582.546 6        85.289    22227184.120    91016596.142 6        66.459    22227184.860    91016602.151 7        66.459
R04  20945005.740   112159554.541 7      6258.815    20945005.020   112159554.570 6      6258.815    20945021.880    87235279.276 8      4867.967    20945021.960    87235278.278 8      4867.967
G22  23681397.000   124446579.599 6      3901.895    23681396.500   124446579.609 2      3901.895    23681404.860    96971354.651 2      3040.438
R17  22138167.800   118465808.292 7      1258.920    22138166.460   118465808.296 7      1258.920    22138183.020    92140137.097 7       979.160    22138182.840    92140135.103 7       979.160
G04  23262163.300   122243492.132 7      5702.370    23262162.120   122243492.140 5      5702.370    23262177.200    95254722.079 5      4443.405    23262177.480    95254727.105 7      4443.405
R02  22880291.520   122093612.915 7      -762.850    22880290.080   122093612.902 7      -762.850    22880303.620    94961757.615 7      -593.328    22880304.080    94961755.617 7      -593.328
R16  22776333.480   121667079.476 7      -306.274    22776334.980   121667079.477 7      -306.274    22776352.900    94630032.261 7      -238.213    22776352.620    94630032.259 7      -238.213
> 2025 04 04 17 24 26.0000000  0 13
G02  22631465.380   118929150.219 7      1466.440    22631464.360   118929150.227 6      1466.440    22631469.560    92672082.622 6      1142.680
G03  20011997.420   105163754.705 8      2424.994    20011996.460   105163754.709 8      2424.994    20012002.980    81945807.589 8      1889.606    20012003.680    81945810.590 8      1889.606
G14  22291284.360   117141488.609 7      2743.911    22291283.860   117141488.619 6      2743.911    22291291.220    91279109.763 6      2138.113    22291291.660    91279112.781 8      2138.113
R03  19860317.840   106313836.693 8      2679.365    19860318.720   106313836.718 8      2679.365    19860329.380    82688586.075 8      2083.950    19860328.860    82688585.074 8      2083.950
G01  21219212.260   111507712.164 8      2066.659    21219211.400   111507712.166 6      2066.659    21219216.240    86889142.917 6      1610.384    21219216.680    86889143.924 8      1610.384
R18  20639121.900   110173032.195 7      3143.624    20639120.900   110173032.199 7      3143.624    20639131.860    85690180.335 8      2445.041    20639132.100    85690181.338 8      2445.041
G08  22227157.220   116804497.210 7        85.489    22227155.780   116804497.210 6        85.489    22227167.760    91016529.668 6        66.615    22227169.020    91016535.682 7        66.615
R04  20943837.320   112153295.595 7      6259.173    20943836.780   112153295.608 6      6259.173    20943852.880    87230411.229 8      4868.246    20943853.100    87230410.236 8      4868.246
G22  23680653.760   124442677.669 6      3901.989    23680653.360   124442677.677 2      3901.989    23680661.940    96968314.193 2      3040.511
R17  22137932.600   118464549.218 7      1259.397    22137932.020   118464549.214 7      1259.397    22137948.080    92139157.823 7       979.531    22137947.640    92139155.830 7       979.531
G04  23261078.180   122237789.465 7      5703.004    23261077.020   122237789.472 5      5703.004    23261091.980    95250278.470 5      4443.899    23261092.520    95250283.501 7      4443.899
R02  22880434.420   122094375.675 7      -762.656    22880433.540   122094375.660 7      -762.656    22880445.920    94962350.879 7      -593.177    22880446.760    94962348.884 7      -593.177
R16  22776390.680   121667385.514 7      -305.851    22776392.280   121667385.513 7      -305.851    22776409.980    94630270.270 7      -237.884    22776410.160    94630270.266 7      -237.884
> 2025 04 04 17 24 27.0000000  0 13
G02  22631186.180   118927683.166 7      1467.797    22631185.320   118927683.173 6      1467.797    22631190.280    92670939.477 6      1143.738
G03  20011535.860   105161329.340 8      2425.892    20011534.900   105161329.345 8      2425.892    20011541.580    81943917.705 8      1890.305    20011542.220    81943920.704 8      1890.305
G14  22290762.120   117138744.338 7      2744.762    22290761.400   117138744.348 6      2744.762    22290769.060    91276971.378 6      2138.776    22290769.460    91276974.400 8      2138.776
R03  19859817.440   106311157.212 8      2679.850    19859818.340   106311157.240 8      2679.850    19859828.740    82686502.049 8      2084.328    19859828.500    82686501.048 8      2084.328
G01  21218818.660   111505644.970 7      2067.918    21218818.180   111505644.974 6      2067.918    21218822.800    86887532.126 6      1611.365    21218823.360    86887533.138 8      1611.365
R18  20638532.960   110169888.020 7      3144.919    20638532.260   110169888.018 7      3144.919    20638542.920    85687734.869 8      2446.048    20638542.920    85687735.873 8      2446.048
G08  22227140.840   116804411.170 7        86.628    22227139.320   116804411.167 6        86.628    22227151.480    91016462.630 6        67.502    22227152.620    91016468.637 7        67.502
R04  20942668.160   112147036.101 7      6260.176    20942667.600   112147036.116 6      6260.176    20942684.240    87225542.754 8      4869.026    20942684.180    87225541.759 8      4869.026
G22  23679910.960   124438775.198 6      3903.132    23679910.340   124438775.206 2      3903.132    23679919.100    96965273.309 2      3041.402
R17  22137696.860   118463289.294 7      1260.596    22137696.840   118463289.303 7      1260.596    22137712.460    92138177.899 7       980.463    22137712.320    92138175.908 7       980.463
G04  23259992.580   122232085.862 7      5704.416    23259991.480   122232085.870 5      5704.416    23260006.620    95245834.133 5      4444.999    23260007.300    95245839.158 7      4444.999
R02  22880577.040   122095137.900 7      -761.852    22880576.660   122095137.895 7      -761.852    22880588.560    94962943.741 7      -592.552    22880589.940    94962941.750 7      -592.552
R16  22776447.720   121667690.797 7      -304.629    22776449.500   121667690.792 7      -304.629    22776467.360    94630507.699 7      -236.933    22776467.360    94630507.698 7      -236.933
> 2025 04 04 17 24 28.0000000  0 13
G02  22630906.760   118926215.129 7      1468.712    22630905.960   118926215.140 6      1468.712    22630910.840    92669795.565 6      1144.451
G03  20011074.160   105158903.519 8      2426.251    20011073.380   105158903.523 8      2426.251    20011080.040    81942027.472 8      1890.585    20011080.600    81942030.476 8      1890.585
G14  22290239.760   117135999.648 7      2745.072    22290239.120   117135999.656 5      2745.072    22290246.980    91274832.672 5      2139.017    22290247.060    91274835.698 8      2139.017
R03  19859316.820   106308477.603 8      2679.895    19859317.720   106308477.631 8      2679.895    19859328.200    82684417.927 8      2084.363    19859327.820    82684416.924 8      2084.363
G01  21218425.220   111503576.858 7      2068.723    21218424.480   111503576.866 6      2068.723    21218429.440    86885920.627 6      1611.992    21218429.780    86885921.637 8      1611.992
R18  20637943.560   110166742.958 7      3145.672    20637943.160   110166742.956 7      3145.672    20637953.800    85685288.725 8      2446.634    20637954.060    85685289.728 8      2446.634
G08  22227124.180   116804324.475 7        87.049    22227122.780   116804324.474 6        87.049    22227134.860    91016395.077 6        67.830    22227136.220    91016401.079 7        67.830
R04  20941499.200   112140776.057 7      6260.388    20941499.280   112140776.075 7      6260.388    20941515.160    87220673.867 8      4869.191    20941515.180    87220672.876 8      4869.191
G22  23679169.280   124434872.241 6      3903.248    23679167.680   124434872.249 2      3903.248    23679176.160    96962232.058 2      3041.492
R17  22137461.280   118462028.543 7      1261.315    22137461.280   118462028.555 7      1261.315    22137476.960    92137197.323 7       981.022    22137477.000    92137195.330 7       981.022
G04  23258906.780   122226381.340 7      5705.165    23258905.960   122226381.347 5      5705.165    23258921.160    95241389.080 5      4445.583    23258921.440    95241394.119 7      4445.583
R02  22880719.780   122095899.529 7      -761.135    22880719.600   122095899.514 7      -761.135    22880731.560    94963536.124 7      -591.994    22880732.360    94963534.132 7      -591.994
R16  22776504.640   121667995.345 7      -303.944    22776506.300   121667995.346 7      -303.944    22776524.340    94630744.563 7      -236.401    22776524.520    94630744.556 7      -236.401
> 2025 04 04 17 24 29.0000000  0 13
G02  22630627.100   118924746.163 7      1469.478    22630626.280   118924746.173 6      1469.478    22630631.260    92668650.926 6      1145.048
G03  20010612.560   105156477.300 8      2426.477    20010611.540   105156477.302 8      2426.477    20010618.280    81940136.921 8      1890.761    20010618.660    81940139.921 8      1890.761
G14  22289717.400   117133254.586 7      2745.233    22289716.660   117133254.599 5      2745.233    22289724.320    91272693.676 5      2139.143    22289724.700    91272696.702 8      2139.143
R03  19858815.940   106305797.921 8      2679.805    19858817.200   106305797.947 8      2679.805    19858827.700    82682333.745 8      2084.293    19858827.400    82682332.742 8      2084.293
G01  21218031.600   111501507.885 8      2069.473    21218030.900   111501507.890 6      2069.473    21218035.740    86884308.453 6      1612.577    21218036.300    86884309.462 8      1612.577
R18  20637354.100   110163597.008 7      3146.485    20637353.800   110163597.006 7      3146.485    20637364.160    85682841.889 8      2447.266    20637364.180    85682842.890 8      2447.266
G08  22227107.900   116804237.110 7        87.791    22227106.260   116804237.109 6        87.791    22227118.360    91016327.009 6        68.408    22227119.400    91016333.008 7        68.408
R04  20940329.740   112134515.446 7      6260.974    20940330.180   112134515.471 7      6260.974    20940345.940    87215804.521 8      4869.647    20940346.020    87215803.526 8      4869.647
G22  23678426.320   124430968.722 6      3904.122    23678424.620   124430968.735 2      3904.122    23678433.240    96959190.367 2      3042.173
R17  22137225.460   118460767.032 7      1261.819    22137225.640   118460767.044 7      1261.819    22137241.320    92136216.162 7       981.415    22137241.140    92136214.171 7       981.415
G04  23257821.480   122220675.921 7      5705.913    23257820.320   122220675.929 5      5705.913    23257835.480    95236943.334 5      4446.166    23257835.400    95236948.369 7      4446.166
R02  22880862.320   122096660.622 7      -760.741    22880862.100   122096660.612 7      -760.741    22880874.240    94964128.093 7      -591.688    22880875.080    94964126.096 7      -591.688
R16  22776561.660   121668299.198 7      -303.393    22776563.100   121668299.194 7      -303.393    22776581.260    94630980.881 7      -235.973    22776581.260    94630980.874 7      -235.973
> 2025 04 04 17 24 30.0000000  0 13
G02  22630347.680   118923276.388 7      1470.395    22630346.680   118923276.395 6      1470.395    22630351.560    92667505.653 6      1145.762
G03  20010150.720   105154050.785 8      2426.831    20010149.800   105154050.790 8      2426.831    20010156.460    81938246.146 8      1891.037    20010157.140    81938249.144 8      1891.037
G14  22289195.000   117130509.277 7      2745.673    22289194.160   117130509.287 5      2745.673    22289201.940    91270554.482 5      2139.486    22289202.500    91270557.500 8      2139.486
R03  19858315.820   106303118.286 8      2679.779    19858316.760   106303118.314 8      2679.779    19858327.000    82680249.598 8      2084.273    19858326.680    82680248.593 8      2084.273
G01  21217637.780   111499438.174 7      2070.346    21217636.900   111499438.181 6      2070.346    21217641.980    86882695.701 6      1613.257    21217642.320    86882696.708 8      1613.257
R18  20636764.900   110160450.340 7      3147.253    20636764.060   110160450.335 7      3147.253    20636774.700    85680394.497 8      2447.863    20636774.780    85680395.498 8      2447.863
G08  22227091.080   116804149.266 7        88.276    22227089.420   116804149.263 6        88.276    22227101.660    91016258.566 6        68.786    22227102.580    91016264.575 7        68.786
R04  20939160.340   112128254.516 7      6261.362    20939161.000   112128254.547 7      6261.362    20939177.020    87210934.924 8      4869.948    20939176.760    87210933.928 8      4869.948
G22  23677683.300   124427064.946 6      3904.305    23677681.400   124427064.953 2      3904.305    23677689.940    96956148.473 2      3042.315
R17  22136989.640   118459504.844 7      1262.825    22136990.140   118459504.850 7      1262.825    22137005.720    92135234.458 7       982.198    22137005.480    92135232.469 7       982.198
G04  23256735.780   122214969.728 7      5706.768    23256734.400   122214969.738 5      5706.768    23256749.600    95232496.980 5      4446.832    23256749.660    95232502.021 7      4446.832
R02  22881004.680   122097421.307 7      -760.236    22881004.260   122097421.292 7      -760.236    22881016.900    94964719.743 7      -591.295    22881017.480    94964717.742 7      -591.295
R16  22776618.240   121668602.499 7      -302.907    22776620.060   121668602.502 7      -302.907    22776637.800    94631216.780 7      -235.595    22776637.600    94631216.778 7      -235.595
> 2025 04 04 17 24 31.0000000  0 13
G02  22630067.900   118921805.690 7      1471.149    22630066.820   118921805.697 6      1471.149    22630071.620    92666359.665 6      1146.350
G03  20009688.960   105151623.889 8      2426.947    20009688.040   105151623.891 8      2426.947    20009694.640    81936355.073 8      1891.128    20009695.240    81936358.072 8      1891.128
G14  22288672.720   117127763.618 7      2745.810    22288671.760   117127763.625 6      2745.810    22288679.500    91268415.014 5      2139.592    22288680.160    91268418.036 8      2139.592
R03  19857815.320   106300438.564 8      2679.721    19857816.240   106300438.587 8      2679.721    19857826.540    82678165.375 8      2084.227    19857825.880    82678164.374 8      2084.227
G01  21217243.760   111497367.648 7      2070.876    21217243.060   111497367.652 6      2070.876    21217248.160    86881082.314 6      1613.670    21217248.180    86881083.324 8      1613.670
R18  20636175.240   110157302.855 7      3147.836    20636174.720   110157302.861 7      3147.836    20636185.160    85677946.478 8      2448.317    20636185.500    85677947.477 8      2448.317
G08  22227073.960   116804060.822 6        88.522    22227072.580   116804060.824 6        88.522    22227084.760    91016189.654 6        68.978    22227085.660    91016195.655 7        68.978
R04  20937991.240   112121993.128 7      6261.583    20937991.680   112121993.154 7      6261.583    20938007.440    87206064.991 8      4870.120    20938007.500    87206063.998 8      4870.120
G22  23676939.800   124423160.712 5      3904.303    23676938.360   124423160.711 2      3904.303    23676946.580    96953106.225 2      3042.314
R17  22136753.500   118458241.952 7      1263.187    22136753.640   118458241.953 7      1263.187    22136769.500    92134252.205 7       982.479    22136769.420    92134250.214 7       982.479
G04  23255649.420   122209262.670 7      5707.322    23255648.520   122209262.680 5      5707.322    23255663.660    95228049.955 5      4447.264    23255663.440    95228055.000 7      4447.264
R02  22881147.080   122098181.525 7      -759.999    22881146.760   122098181.509 7      -759.999    22881159.120    94965311.034 7      -591.110    22881160.000    94965309.037 7      -591.110
R16  22776674.760   121668905.094 7      -302.425    22776677.020   121668905.090 7      -302.425    22776694.440    94631452.128 7      -235.220    22776694.660    94631452.124 7      -235.220
> 2025 04 04 17 24 32.0000000  0 13
G02  22629787.860   118920334.054 7      1471.970    22629786.680   118920334.061 6      1471.970    22629791.660    92665212.950 6      1146.990
G03  20009227.160   105149196.548 7      2427.501    20009225.960   105149196.548 8      2427.501    20009232.900    81934463.653 8      1891.559    20009233.420    81934466.651 8      1891.559
G14  22288150.280   117125017.554 7      2746.266    22288149.240   117125017.565 6      2746.266    22288156.980    91266275.243 6      2139.947    22288157.380    91266278.265 8      2139.947
R03  19857314.860   106297758.719 8      2679.914    19857315.500   106297758.742 8      2679.914    19857325.680    82676081.074 8      2084.378    19857325.660    82676080.073 8      2084.378
G01  21216849.500   111495296.205 7      2071.841    21216848.820   111495296.212 6      2071.841    21216853.900    86879468.219 6      1614.421    21216854.160    86879469.223 8      1614.421
R18  20635585.180   110154154.486 7      3148.868    20635585.080   110154154.495 7      3148.868    20635595.360    85675497.753 8      2449.120    20635595.540    85675498.757 8      2449.120
G08  22227057.440   116803971.651 7        89.380    22227055.560   116803971.656 6        89.380    22227067.840    91016120.181 6        69.647    22227069.100    91016126.184 7        69.647
R04  20936821.860   112115731.205 7      6262.263    20936822.340   112115731.228 7      6262.263    20936838.080    87201194.616 8      4870.649    20936838.360    87201193.621 8      4870.649
G22  23676196.760   124419255.923 5      3904.993    23676195.040   124419255.928 2      3904.993    23676203.780    96950063.550 2      3042.852
R17  22136517.280   118456978.233 7      1264.214    22136517.560   118456978.235 7      1264.214    22136532.740    92133269.327 7       983.278    22136533.480    92133267.334 7       983.278
G04  23254563.320   122203554.695 7      5708.444    23254561.980   122203554.700 5      5708.444    23254577.500    95223602.209 5      4448.138    23254577.160    95223607.246 7      4448.138
R02  22881289.260   122098941.209 7      -759.471    22881289.200   122098941.194 7      -759.471    22881301.720    94965901.906 7      -590.700    22881302.400    94965899.913 7      -590.700
R16  22776731.380   121669206.926 7      -301.506    22776732.720   121669206.927 7      -301.506    22776751.120    94631686.894 7      -234.504    22776750.980    94631686.890 7      -234.504
> 2025 04 04 17 24 33.0000000  0 13
G02  22629507.660   118918861.732 7      1472.678    22629506.440   118918861.737 6      1472.678    22629511.460    92664065.694 6      1147.542
G03  20008765.180   105146769.066 7      2427.589    20008764.260   105146769.071 8      2427.589    20008770.820    81932572.121 8      1891.628    20008771.620    81932575.120 8      1891.628
G14  22287627.640   117122271.388 7      2746.304    22287626.560   117122271.396 5      2746.304    22287634.320    91264135.392 6      2139.977    22287634.720    91264138.416 8      2139.977
R03  19856814.320   106295079.075 8      2679.608    19856814.940   106295079.106 8      2679.608    19856825.180    82673996.923 8      2084.140    19856824.880    82673995.924 8      2084.140
G01  21216455.120   111493224.181 7      2072.363    21216454.640   111493224.186 6      2072.363    21216459.540    86877853.667 6      1614.828    21216459.880    86877854.675 8      1614.828
R18  20634995.320   110151005.581 7      3149.075    20634994.820   110151005.585 7      3149.075    20635005.300    85673048.624 8      2449.281    20635005.600    85673049.627 8      2449.281
G08  22227040.480   116803882.177 6        89.650    22227038.440   116803882.176 6        89.650    22227050.720    91016050.467 6        69.857    22227051.820    91016056.462 7        69.857
R04  20935652.420   112109469.059 7      6262.297    20935653.500   112109469.090 7      6262.297    20935668.740    87196324.088 8      4870.676    20935668.680    87196323.095 8      4870.676
G22  23675454.100   124415351.020 5      3904.825    23675451.960   124415351.032 1      3904.825    23675460.560    96947020.780 2      3042.721
R17  22136280.980   118455714.068 7      1264.481    22136281.580   118455714.083 7      1264.481    22136297.120    92132286.102 7       983.485    22136296.920    92132284.115 7       983.485
G04  23253476.920   122197846.114 7      5709.015    23253475.660   122197846.121 5      5709.015    23253491.000    95219153.988 5      4448.583    23253491.020    95219159.027 7      4448.583
R02  22881431.660   122099700.720 7      -759.374    22881431.520   122099700.707 7      -759.374    22881443.800    94966492.632 7      -590.624    22881444.660    94966490.631 7      -590.624
R16  22776787.500   121669508.327 7      -300.989    22776789.180   121669508.315 7      -300.989    22776807.460    94631921.290 7      -234.103    22776807.420    94631921.287 7      -234.103
> 2025 04 04 17 24 34.0000000  0 13
G02  22629227.120   118917388.486 7      1473.640    22629226.300   118917388.490 6      1473.640    22629231.100    92662917.722 6      1148.291
G03  20008303.240   105144341.187 7      2427.981    20008302.120   105144341.192 8      2427.981    20008308.760    81930680.283 8      1891.933    20008309.520    81930683.279 8      1891.933
G14  22287105.060   117119524.860 7      2746.738    22287104.060   117119524.867 6      2746.738    22287111.800    91261995.246 6      2140.316    22287112.260    91261998.262 8      2140.316
R03  19856313.740   106292399.327 8      2679.754    19856314.300   106292399.355 8      2679.754    19856324.620    82671912.687 8      2084.253    19856324.440    82671911.684 8      2084.253
G01  21216060.620   111491151.311 7      2073.255    21216060.240   111491151.316 6      2073.255    21216064.980    86876238.450 6      1615.523    21216065.360    86876239.464 8      1615.523
R18  20634405.380   110147855.774 7      3150.084    20634405.120   110147855.772 7      3150.084    20634415.220    85670598.782 8      2450.065    20634415.600    85670599.781 8      2450.065
G08  22227023.500   116803792.053 7        90.231    22227021.640   116803792.055 6        90.231    22227033.500    91015980.238 6        70.310    22227034.840    91015986.243 7        70.310
R04  20934483.100   112103206.376 7      6262.760    20934483.980   112103206.420 7      6262.760    20934499.140    87191453.160 8      4871.035    20934499.600    87191452.164 8      4871.035
G22  23674710.140   124411445.611 5      3905.498    23674708.640   124411445.627 1      3905.498    23674717.500    96943977.617 2      3043.245
R17  22136044.660   118454449.116 7      1265.243    22136044.720   118454449.120 7      1265.243    22136060.740    92131302.251 7       984.078    22136060.740    92131300.258 7       984.078
G04  23252390.140   122192136.646 7      5709.800    23252389.300   122192136.656 5      5709.800    23252404.600    95214705.085 4      4449.195    23252404.800    95214710.128 7      4449.195
R02  22881573.880   122100459.721 7      -758.871    22881573.960   122100459.719 7      -758.871    22881586.300    94967083.000 7      -590.233    22881586.700    94967081.007 7      -590.233
R16  22776843.780   121669809.045 7      -300.454    22776845.140   121669809.038 7      -300.454    22776863.640    94632155.186 7      -233.686    22776863.720    94632155.185 7      -233.686
> 2025 04 04 17 24 35.0000000  0 13
G02  22628946.960   118915914.677 7      1473.995    22628945.800   118915914.679 6      1473.995    22628950.720    92661769.310 6      1148.567
G03  20007841.180   105141913.266 8      2427.848    20007840.180   105141913.274 8      2427.848    20007846.820    81928788.413 8      1891.830    20007847.660    81928791.411 8      1891.830
G14  22286582.560   117116778.324 7      2746.596    22286581.420   117116778.328 6      2746.596    22286589.340    91259855.100 5      2140.205    22286589.780    91259858.112 8      2140.205
R03  19855813.180   106289719.857 8      2679.281    19855813.720   106289719.880 8      2679.281    19855824.080    82669828.667 8      2083.885    19855823.620    82669827.666 8      2083.885
G01  21215666.260   111489077.932 7      2073.549    21215665.660   111489077.936 6      2073.549    21215670.260    86874622.851 6      1615.752    21215670.780    86874623.860 8      1615.752
R18  20633815.120   110144705.527 7      3150.382    20633814.720   110144705.522 7      3150.382    20633825.220    85668148.604 8      2450.297    20633825.340    85668149.605 8      2450.297
G08  22227005.780   116803701.650 7        90.436    22227004.580   116803701.642 6        90.436    22227016.240    91015909.789 6        70.470    22227017.600    91015915.800 7        70.470
R04  20933313.080   112096943.598 7      6262.735    20933313.640   112096943.637 7      6262.735    20933329.600    87186582.123 8      4871.016    20933329.920    87186581.126 8      4871.016
G22  23673966.740   124407540.082 6      3905.591    23673965.560   124407540.100 1      3905.591    23673974.320    96940934.359 2      3043.317
R17  22135808.600   118453183.779 7      1265.324    22135808.160   118453183.780 7      1265.324    22135824.660    92130318.116 7       984.141    22135824.400    92130316.125 7       984.141
G04  23251303.800   122186426.651 7      5710.070    23251302.860   122186426.661 4      5710.070    23251318.240    95210255.771 4      4449.405    23251318.080    95210260.808 7      4449.405
R02  22881716.040   122101218.546 7      -758.674    22881716.720   122101218.536 7      -758.674    22881728.760    94967673.197 7      -590.080    22881728.900    94967671.200 7      -590.080
R16  22776899.880   121670109.389 7      -300.240    22776901.620   121670109.379 6      -300.240    22776919.760    94632388.789 7      -233.520    22776920.060    94632388.785 7      -233.520
> 2025 04 04 17 24 36.0000000  0 13
G02  22628666.400   118914440.080 7      1475.072    22628665.000   118914440.082 6      1475.072    22628670.080    92660620.290 6      1149.407
G03  20007379.060   105139485.083 7      2428.421    20007377.960   105139485.085 8      2428.421    20007384.700    81926896.328 8      1892.276    20007385.520    81926899.326 8      1892.276
G14  22286059.800   117114031.572 7      2746.984    22286058.720   117114031.579 5      2746.984    22286066.880    91257714.790 5      2140.507    22286067.000    91257717.804 8      2140.507
R03  19855312.460   106287040.425 8      2679.499    19855313.500   106287040.450 8      2679.499    19855323.460    82667744.683 8      2084.055    19855323.200    82667743.684 8      2084.055
G01  21215271.640   111487003.858 7      2074.490    21215270.880   111487003.863 6      2074.490    21215275.680    86873006.702 6      1616.486    21215276.060    86873007.711 8      1616.486
R18  20633224.820   110141554.591 7      3151.356    20633224.220   110141554.584 7      3151.356    20633234.880    85665697.893 8      2451.054    20633234.980    85665698.894 8      2451.054
G08  22226988.420   116803610.778 7        91.167    22226987.300   116803610.780 6        91.167    22226999.020    91015839.005 6        71.039    22226999.620    91015845.013 7        71.039
R04  20932142.880   112090680.459 6      6263.406    20932143.740   112090680.501 7      6263.406    20932160.180    87181710.828 8      4871.538    20932160.060    87181709.831 8      4871.538
G22  23673223.360   124403634.222 6      3906.204    23673222.580   124403634.237 1      3906.204    23673230.980    96937890.846 1      3043.795
R17  22135571.960   118451917.770 7      1266.455    22135571.440   118451917.772 7      1266.455    22135587.780    92129333.451 7       985.020    22135587.860    92129331.460 7       985.020
G04  23250217.040   122180715.904 7      5711.112    23250216.200   122180715.914 4      5711.112    23250231.460    95205805.865 4      4450.217    23250231.200    95205810.902 7      4450.217
R02  22881858.300   122101977.016 7      -758.181    22881859.180   122101977.001 7      -758.181    22881870.640    94968263.141 7      -589.696    22881871.180    94968261.144 7      -589.696
R16  22776956.180   121670409.158 7      -299.240    22776958.020   121670409.149 6      -299.240    22776975.920    94632621.937 7      -232.743    22776976.020    94632621.942 7      -232.743
> 2025 04 04 17 24 37.0000000  0 13
G02  22628385.560   118912964.460 7      1475.889    22628384.180   118912964.465 6      1475.889    22628389.300    92659470.473 6      1150.043
G03  20006917.000   105137056.402 8      2428.738    20006915.840   105137056.405 8      2428.738    20006922.600    81925003.870 8      1892.523    20006923.560    81925006.868 8      1892.523
G14  22285536.900   117111284.365 7      2747.221    22285535.680   117111284.375 5      2747.221    22285544.080    91255574.122 5      2140.692    22285544.320    91255577.138 8      2140.692
R03  19854812.120   106284360.818 8      2679.412    19854812.600   106284360.847 8      2679.412    19854822.780    82665660.561 8      2083.987    19854822.480    82665659.562 8      2083.987
G01  21214876.700   111484928.816 7      2075.333    21214876.060   111484928.823 6      2075.333    21214880.660    86871389.800 6      1617.142    21214881.200    86871390.816 8      1617.142
R18  20632634.480   110138402.713 7      3152.111    20632633.920   110138402.708 7      3152.111    20632644.540    85663246.440 8      2451.642    20632644.820    85663247.444 8      2451.642
G08  22226971.100   116803519.182 7        91.741    22226969.700   116803519.185 6        91.741    22226981.540    91015767.639 6        71.486    22226982.780    91015773.660 7        71.486
R04  20930973.660   112084416.774 6      6263.813    20930974.200   112084416.803 6      6263.813    20930990.240    87176839.075 8      4871.854    20930990.500    87176838.078 7      4871.854
G22  23672480.360   124399727.825 6      3906.555    23672479.320   124399727.841 1      3906.555    23672487.800    96934846.911 1      3044.068
R17  22135335.240   118450650.940 7      1267.123    22135335.220   118450650.944 7      1267.123    22135351.280    92128348.153 7       985.540    22135351.260    92128346.160 7       985.540
G04  23249130.180   122175004.169 7      5712.030    23249128.960   122175004.179 4      5712.030    23249144.660    95201355.189 5      4450.932    23249144.420    95201360.246 7      4450.932
R02  22882000.360   122102734.836 7      -757.724    22882001.320   122102734.823 7      -757.724    22882012.160    94968852.569 7      -589.341    22882012.940    94968850.575 7      -589.341
R16  22777012.240   121670708.156 7      -298.863    22777014.160   121670708.157 6      -298.863    22777032.000    94632854.495 7      -232.449    22777031.960    94632854.495 7      -232.449
> 2025 04 04 17 24 38.0000000  0 13
G02  22628104.740   118911488.237 7      1476.428    22628103.300   118911488.244 6      1476.428    22628108.460    92658320.179 6      1150.464
G03  20006454.640   105134627.651 8      2428.643    20006453.840   105134627.653 8      2428.643    20006460.500    81923111.357 8      1892.449    20006461.300    81923114.359 8      1892.449
G14  22285014.080   117108537.112 7      2747.029    22285012.920   117108537.124 5      2747.029    22285021.320    91253433.421 5      2140.542    22285021.440    91253436.441 8      2140.542
R03  19854311.360   106281681.442 8      2679.171    19854311.980   106281681.470 8      2679.171    19854322.140    82663576.623 8      2083.800    19854322.000    82663575.624 8      2083.800
G01  21214481.740   111482853.268 7      2075.732    21214481.340   111482853.273 6      2075.732    21214485.800    86869772.503 6      1617.453    21214486.420    86869773.510 8      1617.453
R18  20632043.900   110135250.322 7      3152.492    20632043.200   110135250.317 7      3152.492    20632053.800    85660794.597 8      2451.938    20632054.320    85660795.603 8      2451.938
G08  22226953.480   116803427.290 6        91.888    22226952.340   116803427.290 6        91.888    22226964.020    91015696.046 6        71.601    22226965.140    91015702.050 7        71.601
R04  20929804.340   112078152.880 6      6263.830    20929804.140   112078152.890 6      6263.830    20929820.400    87171967.173 8      4871.868    20929820.660    87171966.177 8      4871.868
G22  23671736.620   124395821.329 6      3906.269    23671735.600   124395821.339 1      3906.269    23671744.600    96931802.897 1      3043.846
R17  22135098.860   118449383.682 7      1267.362    22135098.420   118449383.681 7      1267.362    22135114.920    92127362.510 7       985.726    22135114.300    92127360.519 7       985.726
G04  23248043.320   122169291.909 7      5712.427    23248041.860   122169291.916 4      5712.427    23248057.700    95196904.110 5      4451.242    23248057.400    95196909.147 7      4451.242
R02  22882142.740   122103492.476 7      -757.766    22882143.020   122103492.461 7      -757.766    22882154.540    94969441.847 7      -589.373    22882154.940    94969439.856 7      -589.373
R16  22777067.980   121671006.775 7      -298.693    22777070.000   121671006.784 6      -298.693    22777088.100    94633086.766 7      -232.316    22777087.860    94633086.764 7      -232.316
> 2025 04 04 17 24 39.0000000  0 13
G02  22627823.560   118910011.285 7      1477.325    22627822.320   118910011.290 6      1477.325    22627827.120    92657169.328 6      1151.162
G03  20005992.320   105132198.674 8      2429.115    20005991.600   105132198.673 8      2429.115    20005998.240    81921218.664 8      1892.817    20005999.240    81921221.664 8      1892.817
G14  22284491.360   117105789.677 7      2747.535    22284490.040   117105789.689 5      2747.535    22284498.500    91251292.573 5      2140.937    22284498.640    91251295.587 8      2140.937
R03  19853810.800   106279002.199 8      2679.257    19853811.580   106279002.225 8      2679.257    19853821.640    82661492.784 8      2083.866    19853821.320    82661491.785 8      2083.866
G01  21214086.880   111480777.046 7      2076.562    21214086.040   111480777.054 6      2076.562    21214090.700    86868154.681 6      1618.100    21214091.300    86868155.695 8      1618.100
R18  20631453.300   110132097.280 7      3153.426    20631453.100   110132097.278 7      3153.426    20631463.320    85658342.246 8      2452.665    20631463.460    85658343.247 8      2452.665
G08  22226936.020   116803334.933 7        92.599    22226934.440   116803334.922 6        92.599    22226946.620    91015624.078 6        72.155    22226947.840    91015630.089 7        72.155
R04  20928634.240   112071888.649 6      6264.412    20928634.180   112071888.670 6      6264.412    20928650.560    87167095.034 8      4872.320    20928650.840    87167094.037 8      4872.320
G22  23670993.960   124391914.455 6      3907.137    23670992.120   124391914.462 1      3907.137    23671001.580    96928758.589 1      3044.522
R17  22134862.040   118448115.843 7      1268.270    22134861.120   118448115.844 7      1268.270    22134877.700    92126376.415 7       986.432    22134877.340    92126374.426 7       986.432
G04  23246956.280   122163578.947 7      5713.221    23246954.800   122163578.960 4      5713.221    23246970.600    95192452.492 5      4451.860    23246970.780    95192457.533 7      4451.860
R02  22882284.340   122104249.791 7      -757.244    22882285.140   122104249.776 7      -757.244    22882296.260    94970030.901 7      -588.968    22882297.000    94970028.905 7      -588.968
R16  22777124.300   121671304.902 7      -297.866    22777125.880   121671304.911 7      -297.866    22777144.040    94633318.642 7      -231.673    22777143.940    94633318.649 7      -231.673
> 2025 04 04 17 24 40.0000000  0 13
G02  22627542.460   118908533.693 7      1477.998    22627541.260   118908533.700 6      1477.998    22627545.940    92656017.974 6      1151.687
G03  20005530.280   105129769.607 8      2429.200    20005529.420   105129769.607 8      2429.200    20005536.000    81919325.904 8      1892.883    20005536.900    81919328.903 8      1892.883
G14  22283968.400   117103042.165 7      2747.670    22283967.140   117103042.181 5      2747.670    22283975.700    91249151.671 5      2141.042    22283976.020    91249154.690 8      2141.042
R03  19853310.580   106276323.179 8      2678.980    19853311.280   106276323.210 8      2678.980    19853321.120    82659409.122 8      2083.651    19853321.000    82659408.123 8      2083.651
G01  21213691.580   111478700.261 8      2077.238    21213690.940   111478700.266 6      2077.238    21213695.440    86866536.424 6      1618.627    21213696.340    86866537.435 8      1618.627
R18  20630862.420   110128943.699 7      3153.957    20630862.040   110128943.700 7      3153.957    20630872.620    85655889.479 8      2453.078    20630872.760    85655890.483 8      2453.078
G08  22226918.480   116803242.268 6        92.913    22226916.600   116803242.268 6        92.913    22226929.120    91015551.888 6        72.400    22226930.020    91015557.899 7        72.400
R04  20927464.380   112065624.252 7      6264.691    20927464.240   112065624.278 6      6264.691    20927480.800    87162222.755 8      4872.537    20927480.940    87162221.759 8      4872.537
G22  23670250.940   124388007.488 6      3907.321    23670248.580   124388007.498 1      3907.321    23670257.960    96925714.220 1      3044.666
R17  22134624.580   118446847.538 7      1268.662    22134624.040   118446847.537 7      1268.662    22134640.760    92125389.973 7       986.737    22134640.380    92125387.984 7       986.737
G04  23245868.700   122157865.394 7      5713.946    23245867.480   122157865.404 4      5713.946    23245883.540    95188000.401 5      4452.425    23245883.260    95188005.444 7      4452.425
R02  22882426.360   122105006.975 7      -757.014    22882427.020   122105006.965 7      -757.014    22882438.260    94970619.826 7      -588.788    22882438.540    94970617.833 7      -588.788
R16  22777180.020   121671602.671 7      -297.441    22777181.440   121671602.682 7      -297.441    22777200.020    94633550.241 7      -231.343    22777199.860    94633550.248 7      -231.343
> 2025 04 04 17 24 41.0000000  0 13
G02  22627260.960   118907055.131 7      1479.029    22627259.760   118907055.138 6      1479.029    22627264.740    92654865.862 6      1152.490
G03  20005068.000   105127340.086 8      2429.692    20005067.060   105127340.091 8      2429.692    20005073.780    81917432.782 8      1893.267    20005074.660    81917435.780 8      1893.267
G14  22283445.420   117100294.268 7      2748.067    22283444.240   117100294.283 5      2748.067    22283452.900    91247010.463 5      2141.351    22283452.980    91247013.471 8      2141.351
R03  19852809.780   106273644.009 8      2679.206    19852810.680   106273644.037 8      2679.206    19852820.580    82657325.336 8      2083.827    19852820.540    82657324.333 8      2083.827
G01  21213296.100   111476622.599 8      2078.056    21213295.420   111476622.606 6      2078.056    21213300.200    86864917.480 6      1619.265    21213300.820    86864918.490 8      1619.265
R18  20630271.660   110125789.202 7      3154.928    20630271.460   110125789.203 7      3154.928    20630281.720    85653435.988 8      2453.833    20630281.660    85653436.992 8      2453.833
G08  22226900.740   116803148.928 6        93.639    22226898.960   116803148.920 6        93.639    22226911.420    91015479.158 6        72.965    22226912.380    91015485.165 7        72.965
R04  20926294.620   112059359.367 7      6265.119    20926294.280   112059359.391 7      6265.119    20926310.600    87157350.085 8      4872.870    20926311.040    87157349.090 8      4872.870
G22  23669507.300   124384100.036 6      3907.603    23669505.060   124384100.046 1      3907.603    23669514.840    96922669.466 1      3044.885
R17  22134387.160   118445578.410 7      1269.519    22134386.860   118445578.411 7      1269.519    22134403.680    92124402.881 7       987.403    22134403.500    92124400.892 7       987.403
G04  23244781.400   122152150.918 7      5714.901    23244780.060   122152150.931 4      5714.901    23244796.200    95183547.592 5      4453.170    23244796.060    95183552.629 7      4453.170
R02  22882567.960   122105763.605 7      -756.334    22882568.700   122105763.595 7      -756.334    22882580.320    94971208.336 7      -588.260    22882580.420    94971206.337 7      -588.260
R16  22777234.960   121671899.705 7      -296.698    22777237.760   121671899.720 7      -296.698    22777255.660    94633781.270 7      -230.765    22777255.360    94633781.272 7      -230.765
> 2025 04 04 17 24 42.0000000  0 13
G02  22626979.500   118905575.928 7      1479.507    22626978.320   118905575.930 6      1479.507    22626983.380    92653713.246 6      1152.863
G03  20004605.640   105124910.441 8      2429.630    20004604.700   105124910.446 8      2429.630    20004611.300    81915539.575 8      1893.218    20004612.420    81915542.577 8      1893.218
G14  22282922.240   117097546.260 7      2747.950    22282921.280   117097546.275 5      2747.950    22282929.840    91244869.168 5      2141.260    22282930.020    91244872.189 8      2141.260
R03  19852309.280   106270965.077 8      2678.809    19852310.260   106270965.103 8      2678.809    19852320.080    82655241.735 8      2083.518    19852320.140    82655240.738 8      2083.518
G01  21212900.600   111474544.348 7      2078.484    21212900.200   111474544.355 6      2078.484    21212904.760    86863298.076 6      1619.598    21212905.240    86863299.086 8      1619.598
R18  20629680.640   110122634.193 7      3155.256    20629680.140   110122634.192 7      3155.256    20629690.340    85650982.117 8      2454.088    20629690.840    85650983.123 8      2454.088
G08  22226882.460   116803055.228 6        93.799    22226881.020   116803055.223 6        93.799    22226893.560    91015406.159 6        73.090    22226894.880    91015412.166 7        73.090
R04  20925124.900   112053094.309 7      6264.948    20925124.240   112053094.332 7      6264.948    20925140.760    87152477.287 8      4872.738    20925141.280    87152476.292 8      4872.738
G22  23668763.900   124380192.352 6      3908.172    23668761.380   124380192.359 1      3908.172    23668771.240    96919624.532 1      3045.329
R17  22134149.760   118444308.821 7      1269.773    22134149.280   118444308.833 7      1269.773    22134166.160    92123415.438 7       987.601    22134165.980    92123413.447 7       987.601
G04  23243693.780   122146435.855 7      5715.232    23243692.440   122146435.870 4      5715.232    23243708.600    95179094.333 4      4453.428    23243708.820    95179099.371 7      4453.428
R02  22882709.600   122106520.044 7      -756.359    22882710.400   122106520.029 7      -756.359    22882721.940    94971796.682 7      -588.279    22882722.440    94971794.681 7      -588.279
R16  22777290.720   121672196.326 7      -296.593    22777292.920   121672196.335 7      -296.593    22777310.780    94634011.966 7      -230.684    22777311.180    94634011.965 7      -230.684
> 2025 04 04 17 24 43.0000000  0 13
G02  22626698.060   118904095.971 7      1480.338    22626696.740   118904095.975 6      1480.338    22626701.720    92652560.039 6      1153.510
G03  20004143.360   105122480.576 8      2430.004    20004142.340   105122480.576 8      2430.004    20004148.840    81913646.182 8      1893.509    20004149.900    81913649.180 8      1893.509
G14  22282399.460   117094798.068 7      2748.359    22282398.280   117094798.081 5      2748.359    22282407.000    91242727.730 5      2141.579    22282407.160    91242730.747 8      2141.579
R03  19851808.760   106268286.263 8      2678.724    19851809.680   106268286.288 8      2678.724    19851819.660    82653158.229 8      2083.452    19851819.820    82653157.228 8      2083.452
G01  21212505.080   111472465.411 7      2079.305    21212504.400   111472465.419 6      2079.305    21212509.140    86861678.146 6      1620.238    21212509.680    86861679.158 8      1620.238
R18  20629089.380   110119478.539 7      3155.954    20629088.960   110119478.542 7      3155.954    20629099.120    85648527.738 8      2454.631    20629099.520    85648528.743 8      2454.631
G08  22226864.860   116802961.113 6        94.283    22226863.240   116802961.103 6        94.283    22226875.680    91015332.823 6        73.467    22226876.920    91015338.824 7        73.467
R04  20923954.340   112046828.905 7      6265.340    20923954.740   112046828.925 7      6265.340    20923971.060    87147604.218 8      4873.043    20923971.060    87147603.220 8      4873.043
G22  23668020.080   124376284.450 6      3907.850    23668017.660   124376284.455 1      3907.850    23668027.560    96916579.428 1      3045.078
R17  22133912.240   118443038.668 6      1270.399    22133912.500   118443038.677 7      1270.399    22133928.580    92122427.549 7       988.088    22133928.720    92122425.564 7       988.088
G04  23242606.320   122140720.060 7      5716.090    23242604.860   122140720.073 5      5716.090    23242620.920    95174640.495 4      4454.096    23242620.940    95174645.538 7      4454.096
R02  22882851.720   122107276.124 7      -755.970    22882852.040   122107276.109 7      -755.970    22882863.400    94972384.740 7      -587.977    22882863.860    94972382.745 7      -587.977
R16  22777346.160   121672492.362 7      -295.681    22777348.680   121672492.365 7      -295.681    22777366.440    94634242.206 7      -229.974    22777366.660    94634242.202 7      -229.974
> 2025 04 04 17 24 44.0000000  0 13
G02  22626416.200   118902615.335 7      1480.998    22626415.140   118902615.340 6      1480.998    22626419.860    92651406.306 6      1154.024
G03  20003680.800   105120050.545 8      2430.143    20003679.920   105120050.547 8      2430.143    20003686.500    81911752.672 8      1893.618    20003687.360    81911755.672 8      1893.618
G14  22281876.840   117092049.777 7      2748.452    22281875.320   117092049.784 5      2748.452    22281883.980    91240586.217 5      2141.651    22281884.360    91240589.227 8      2141.651
R03  19851308.360   106265607.606 8      2678.628    19851309.220   106265607.632 8      2678.628    19851319.100    82651074.840 8      2083.377    19851319.260    82651073.839 8      2083.377
G01  21212109.520   111470385.891 7      2079.897    21212108.820   111470385.899 6      2079.897    21212113.460    86860057.745 6      1620.699    21212113.820    86860058.757 8      1620.699
R18  20628498.080   110116322.294 7      3156.600    20628498.000   110116322.300 7      3156.600    20628507.920    85646072.885 8      2455.134    20628508.100    85646073.888 8      2455.134
G08  22226847.040   116802866.573 6        94.880    22226845.200   116802866.570 6        94.880    22226857.760    91015259.161 6        73.933    22226858.860    91015265.180 7        73.933
R04  20922784.260   112040563.244 7      6265.798    20922784.600   112040563.270 6      6265.798    20922800.820    87142730.945 8      4873.399    20922800.980    87142729.947 8      4873.399
G22  23667275.940   124372376.262 6      3908.423    23667274.060   124372376.269 1      3908.423    23667283.720    96913534.103 1      3045.525
R17  22133674.840   118441768.001 6      1270.975    22133675.480   118441768.010 7      1270.975    22133691.220    92121439.259 7       988.536    22133691.160    92121437.272 7       988.536
G04  23241518.440   122135003.662 7      5716.618    23241517.100   122135003.674 5      5716.618    23241533.140    95170186.192 4      4454.508    23241533.080    95170191.241 7      4454.508
R02  22882993.820   122108031.916 7      -755.627    22882994.100   122108031.908 7      -755.627    22883005.260    94972972.576 7      -587.710    22883005.600    94972970.580 7      -587.710
R16  22777402.000   121672787.930 7      -295.123    22777403.240   121672787.931 7      -295.123    22777422.000    94634472.084 7      -229.540    22777421.640    94634472.087 7      -229.540
> 2025 04 04 17 24 45.0000000  0 13
G02  22626134.360   118901133.865 7      1481.895    22626132.960   118901133.870 6      1481.895    22626137.860    92650251.925 6      1154.723
G03  20003218.560   105117620.238 8      2430.361    20003217.700   105117620.241 8      2430.361    20003224.100    81909858.941 8      1893.788    20003224.900    81909861.940 8      1893.788
G14  22281353.760   117089301.228 7      2748.519    22281352.460   117089301.238 6      2748.519    22281360.980    91238444.505 5      2141.703    22281361.180    91238447.517 8      2141.703
R03  19850808.060   106262928.982 8      2678.587    19850808.880   106262929.003 8      2678.587    19850819.020    82648991.483 8      2083.345    19850818.820    82648990.479 8      2083.345
G01  21211713.520   111468305.607 7      2080.620    21211713.080   111468305.617 6      2080.620    21211717.480    86858436.765 6      1621.262    21211717.860    86858437.778 8      1621.262
R18  20627906.460   110113165.275 7      3157.357    20627906.960   110113165.276 7      3157.357    20627916.560    85643617.447 8      2455.722    20627916.680    85643618.450 8      2455.722
G08  22226828.780   116802771.533 6        95.265    22226827.320   116802771.527 6        95.265    22226839.620    91015185.122 6        74.232    22226840.480    91015191.137 7        74.232
R04  20921614.240   112034297.157 7      6266.376    20921614.700   112034297.191 6      6266.376    20921630.840    87137857.351 8      4873.848    20921630.800    87137856.356 8      4873.848
G22  23666532.340   124368467.756 6      3908.509    23666530.400   124368467.763 2      3908.509    23666540.080    96910488.530 1      3045.592
R17  22133437.420   118440496.665 7      1271.578    22133438.080   118440496.683 7      1271.578    22133453.900    92120450.448 7       989.005    22133453.860    92120448.459 7       989.005
G04  23240430.480   122129286.435 7      5717.577    23240429.320   122129286.448 5      5717.577    23240445.120    95165731.243 4      4455.255    23240445.080    95165736.304 7      4455.255
R02  22883135.280   122108787.328 7      -755.413    22883135.560   122108787.329 7      -755.413    22883146.760    94973560.163 7      -587.543    22883147.080    94973558.165 7      -587.543
R16  22777457.140   121673082.969 7      -294.990    22777458.480   121673082.970 6      -294.990    22777477.460    94634701.563 7      -229.437    22777477.100    94634701.568 7      -229.437
> 2025 04 04 17 24 46.0000000  0 13
G02  22625852.320   118899651.598 7      1482.578    22625850.980   118899651.600 6      1482.578    22625855.680    92649096.928 6      1155.255
G03  20002756.040   105115189.606 8      2430.816    20002755.120   105115189.603 8      2430.816    20002761.600    81907964.950 8      1894.142    20002762.340    81907967.949 8      1894.142
G14  22280830.720   117086552.387 7      2748.978    22280829.480   117086552.397 5      2748.978    22280837.900    91236302.565 5      2142.061    22280838.100    91236305.573 8      2142.061
R03  19850307.500   106260250.372 8      2678.543    19850308.540   106260250.395 8      2678.543    19850318.480    82646908.131 8      2083.312    19850318.460    82646907.128 8      2083.312
G01  21211317.380   111466224.576 8      2081.407    21211317.020   111466224.583 6      2081.407    21211321.720    86856815.192 6      1621.875    21211322.180    86856816.200 8      1621.875
R18  20627315.180   110110007.509 7      3158.133    20627315.100   110110007.512 7      3158.133    20627324.960    85641161.415 8      2456.326    20627325.300    85641162.418 8      2456.326
G08  22226810.760   116802675.959 7        95.728    22226809.280   116802675.956 6        95.728    22226821.540    91015110.661 6        74.593    22226822.680    91015116.673 7        74.593
R04  20920443.880   112028030.754 7      6266.431    20920444.940   112028030.783 7      6266.431    20920460.680    87132983.503 8      4873.891    20920460.680    87132982.508 8      4873.891
G22  23665788.640   124364558.829 6      3909.156    23665786.700   124364558.834 2      3909.156    23665796.280    96907442.625 1      3046.096
R17  22133200.140   118439224.660 7      1272.346    22133200.400   118439224.675 7      1272.346    22133216.440    92119461.122 7       989.602    22133215.980    92119459.131 8       989.602
G04  23239342.260   122123568.489 7      5718.161    23239341.100   122123568.502 5      5718.161    23239356.960    95161275.737 5      4455.710    23239357.300    95161280.786 7      4455.710
R02  22883276.860   122109542.314 7      -754.745    22883277.220   122109542.301 7      -754.745    22883287.940    94974147.367 7      -587.024    22883288.720    94974145.370 7      -587.024
R16  22777512.360   121673377.384 7      -294.270    22777513.340   121673377.371 6      -294.270    22777532.400    94634930.533 7      -228.877    22777532.360    94634930.545 7      -228.877
> 2025 04 04 17 24 47.0000000  0 13
G02  22625569.940   118898168.769 7      1483.264    22625568.880   118898168.774 6      1483.264    22625573.560    92647941.487 6      1155.790
G03  20002293.420   105112758.963 8      2430.928    20002292.580   105112758.965 8      2430.928    20002299.060    81906070.958 8      1894.230    20002299.700    81906073.960 8      1894.230
G14  22280307.480   117083803.575 7      2749.061    22280306.460   117083803.585 5      2749.061    22280314.700    91234160.648 5      2142.126    22280314.780    91234163.652 8      2142.126
R03  19849807.440   106257572.047 8      2678.420    19849808.100   106257572.070 8      2678.420    19849818.220    82644825.002 8      2083.216    19849818.000    82644823.999 8      2083.216
G01  21210921.260   111464143.069 7      2082.017    21210920.980   111464143.077 6      2082.017    21210925.660    86855193.252 6      1622.351    21210926.020    86855194.261 8      1622.351
R18  20626723.720   110106849.316 7      3158.536    20626723.440   110106849.319 7      3158.536    20626733.200    85638705.061 8      2456.639    20626733.520    85638706.064 8      2456.639
G08  22226792.620   116802580.144 6        96.138    22226791.040   116802580.144 6        96.138    22226803.260    91015036.004 6        74.913    22226804.360    91015042.010 7        74.913
R04  20919273.760   112021764.175 7      6266.905    20919274.260   112021764.204 7      6266.905    20919290.600    87128109.513 8      4874.260    20919290.300    87128108.516 8      4874.260
G22  23665044.960   124360649.871 6      3909.396    23665042.720   124360649.876 2      3909.396    23665052.580    96904396.703 1      3046.283
R17  22132962.320   118437952.305 7      1272.809    22132962.520   118437952.309 7      1272.809    22132978.900    92118471.527 7       989.963    22132978.480    92118469.540 7       989.963
G04  23238254.060   122117849.999 7      5718.974    23238252.800   122117850.009 5      5718.974    23238268.800    95156819.795 5      4456.343    23238269.020    95156824.848 7      4456.343
R02  22883418.120   122110297.214 7      -754.699    22883418.500   122110297.207 7      -754.699    22883429.560    94974734.552 7      -586.988    22883430.220    94974732.554 7      -586.988
R16  22777567.920   121673671.494 7      -293.825    22777568.280   121673671.500 7      -293.825    22777587.560    94635159.294 7      -228.531    22777587.600    94635159.291 7      -228.531
> 2025 04 04 17 24 48.0000000  0 13
G02  22625287.640   118896685.094 7      1483.979    22625286.300   118896685.098 6      1483.979    22625291.300    92646785.389 6      1156.347
G03  20001830.760   105110328.007 8      2430.990    20001830.040   105110328.012 8      2430.990    20001836.460    81904176.726 8      1894.278    20001837.160    81904179.729 8      1894.278
G14  22279784.460   117081054.487 7      2749.111    22279783.320   117081054.500 5      2749.111    22279791.560    91232018.512 5      2142.164    22279791.860    91232021.520 8      2142.164
R03  19849307.140   106254893.731 8      2678.126    19849307.800   106254893.756 8      2678.126    19849317.920    82642741.884 8      2082.987    19849317.580    82642740.885 8      2082.987
G01  21210525.080   111462060.809 7      2082.490    21210524.740   111462060.816 6      2082.490    21210529.280    86853570.721 6      1622.719    21210529.680    86853571.729 8      1622.719
R18  20626131.820   110103690.359 7      3159.148    20626131.500   110103690.360 7      3159.148    20626141.660    85636248.105 8      2457.115    20626141.780    85636249.109 8      2457.115
G08  22226773.880   116802483.804 7        96.261    22226772.640   116802483.803 6        96.261    22226784.760    91014960.942 6        75.009    22226785.940    91014966.949 7        75.009
R04  20918104.060   112015497.226 7      6266.989    20918104.100   112015497.255 7      6266.989    20918120.040    87123235.245 8      4874.325    20918120.200    87123234.247 8      4874.325
G22  23664301.220   124356740.553 6      3909.628    23664298.840   124356740.555 2      3909.628    23664308.600    96901350.489 2      3046.464
R17  22132724.400   118436679.299 7      1273.148    22132724.720   118436679.301 7      1273.148    22132741.040    92117481.413 7       990.226    22132740.540    92117479.422 7       990.226
G04  23237165.520   122112130.731 7      5719.580    23237164.320   122112130.738 5      5719.580    23237180.580    95152363.254 5      4456.816    23237180.360    95152368.294 7      4456.816
R02  22883559.500   122111051.749 7      -754.484    22883559.760   122111051.737 7      -754.484    22883570.460    94975321.391 7      -586.821    22883571.280    94975319.388 7      -586.821
R16  22777622.580   121673964.995 7      -293.375    22777623.540   121673965.001 7      -293.375    22777642.680    94635387.575 7      -228.181    22777642.320    94635387.582 7      -228.181
> 2025 04 04 17 24 49.0000000  0 13
G02  22625005.180   118895200.733 7      1484.669    22625003.900   118895200.735 6      1484.669    22625008.820    92645628.755 6      1156.885
G03  20001368.180   105107896.862 8      2431.207    20001367.340   105107896.870 8      2431.207    20001373.760    81902282.341 8      1894.447    20001374.600    81902285.343 8      1894.447
G14  22279261.000   117078305.260 7      2749.240    22279260.080   117078305.273 5      2749.240    22279268.280    91229876.268 5      2142.265    22279268.560    91229879.275 8      2142.265
R03  19848806.720   106252215.524 8      2678.071    19848807.240   106252215.547 8      2678.071    19848817.480    82640658.849 8      2082.944    19848817.440    82640657.848 8      2082.944
G01  21210128.820   111459977.897 7      2083.223    21210128.440   111459977.904 6      2083.223    21210133.020    86851947.685 6      1623.290    21210133.420    86851948.695 8      1623.290
R18  20625540.300   110100530.810 7      3159.832    20625539.760   110100530.808 7      3159.832    20625549.740    85633790.686 8      2457.647    20625549.800    85633791.688 8      2457.647
G08  22226755.660   116802387.017 7        96.962    22226754.280   116802387.008 6        96.962    22226766.400    91014885.519 6        75.555    22226767.680    91014891.523 7        75.555
R04  20916933.340   112009229.993 7      6267.401    20916933.680   112009230.038 7      6267.401    20916949.480    87118360.762 8      4874.646    20916949.800    87118359.764 8      4874.646
G22  23663557.100   124352830.985 6      3909.802    23663554.860   124352830.985 2      3909.802    23663564.780    96898304.079 2      3046.599
R17  22132486.760   118435405.727 7      1273.842    22132486.480   118435405.736 7      1273.842    22132503.160    92116490.863 7       990.766    22132502.780    92116488.872 7       990.766
G04  23236077.180   122106410.801 7      5720.320    23236075.980   122106410.811 5      5720.320    23236092.220    95147906.196 5      4457.392    23236092.060    95147911.233 7      4457.392
R02  22883701.160   122111805.934 7      -754.094    22883701.040   122111805.933 7      -754.094    22883711.900    94975907.984 7      -586.518    22883712.480    94975905.980 7      -586.518
R16  22777677.160   121674258.025 7      -292.811    22777678.160   121674258.019 7      -292.811    22777697.560    94635615.471 7      -227.742    22777697.340    94635615.472 7      -227.742
> 2025 04 04 17 24 50.0000000  0 13
G02  22624722.460   118893715.696 7      1485.478    22624721.340   118893715.704 6      1485.478    22624726.300    92644471.594 6      1157.515
G03  20000905.580   105105465.588 8      2431.422    20000904.700   105105465.588 8      2431.422    20000911.140    81900387.852 8      1894.615    20000911.980    81900390.854 8      1894.615
G14  22278737.740   117075555.918 7      2749.539    22278736.740   117075555.931 5      2749.539    22278745.100    91227733.933 5      2142.498    22278745.420    91227736.943 8      2142.498
R03  19848306.500   106249537.483 8      2678.086    19848307.180   106249537.512 8      2678.086    19848317.380    82638575.945 8      2082.956    19848317.080    82638574.942 8      2082.956
G01  21209732.520   111457894.414 7      2083.845    21209732.000   111457894.422 6      2083.845    21209736.540    86850324.205 6      1623.775    21209736.960    86850325.216 8      1623.775
R18  20624947.780   110097370.677 7      3160.590    20624947.940   110097370.670 7      3160.590    20624957.800    85631332.815 8      2458.237    20624957.860    85631333.816 8      2458.237
G08  22226737.220   116802289.880 7        97.416    22226735.760   116802289.877 6        97.416    22226747.940    91014809.841 6        75.908    22226749.280    91014815.852 7        75.908
R04  20915762.680   112002962.581 7      6267.593    20915763.400   112002962.629 7      6267.593    20915779.260    87113486.133 8      4874.795    20915779.300    87113485.135 8      4874.795
G22  23662812.740   124348921.215 6      3909.988    23662810.720   124348921.209 2      3909.988    23662820.580    96895257.521 2      3046.744
R17  22132248.580   118434131.694 7      1274.425    22132248.180   118434131.701 7      1274.425    22132265.100    92115499.951 7       991.219    22132264.640    92115497.955 7       991.219
G04  23234988.640   122100690.272 7      5720.921    23234987.280   122100690.282 5      5720.921    23235003.640    95143448.669 5      4457.860    23235003.300    95143453.712 7      4457.860
R02  22883842.320   122112559.898 7      -753.645    22883842.380   122112559.891 7      -753.645    22883853.400    94976494.419 7      -586.168    22883853.600    94976492.413 7      -586.168
R16  22777732.200   121674550.578 7      -292.260    22777733.000   121674550.571 7      -292.260    22777752.520    94635843.006 7      -227.313    22777752.280    94635843.013 7      -227.313
> 2025 04 04 17 24 51.0000000  0 13
G02  22624439.960   118892229.966 7      1486.273    22624438.620   118892229.974 6      1486.273    22624443.640    92643313.894 6      1158.135
G03  20000442.940   105103034.120 8      2431.764    20000442.040   105103034.123 8      2431.764    20000448.480    81898493.218 8      1894.881    20000449.220    81898496.220 8      1894.881
G14  22278214.740   117072806.454 7      2749.729    22278213.820   117072806.467 5      2749.729    22278221.960    91225591.506 5      2142.646    22278222.080    91225594.510 8      2142.646
R03  19847806.280   106246859.622 8      2677.959    19847806.840   106246859.648 8      2677.959    19847817.320    82636493.177 8      2082.857    19847817.080    82636492.173 8      2082.857
G01  21209335.720   111455810.294 8      2084.642    21209335.360   111455810.296 6      2084.642    21209339.940    86848700.225 6      1624.397    21209340.420    86848701.230 8      1624.397
R18  20624355.860   110094209.935 7      3161.245    20624355.440   110094209.930 7      3161.245    20624365.600    85628874.479 8      2458.746    20624365.880    85628875.482 8      2458.746
G08  22226718.360   116802192.339 7        97.970    22226717.240   116802192.341 6        97.970    22226729.300    91014733.845 6        76.341    22226730.320    91014739.858 7        76.341
R04  20914591.960   111996694.896 7      6268.025    20914592.920   111996694.935 7      6268.025    20914608.680    87108611.281 8      4875.131    20914608.860    87108610.286 8      4875.131
G22  23662068.860   124345011.203 6      3910.310    23662066.520   124345011.195 2      3910.310    23662076.460    96892210.775 2      3046.995
R17  22132010.400   118432857.123 7      1275.001    22132010.300   118432857.127 7      1275.001    22132027.020    92114508.620 7       991.667    22132026.220    92114506.627 8       991.667
G04  23233899.880   122094969.062 7      5721.763    23233898.660   122094969.069 5      5721.763    23233914.840    95138990.611 5      4458.517    23233914.880    95138995.660 7      4458.517
R02  22883983.460   122113313.571 7      -753.254    22883983.460   122113313.572 7      -753.254    22883994.940    94977080.615 7      -585.864    22883994.780    94977078.610 7      -585.864
R16  22777787.160   121674842.653 7      -291.719    22777787.680   121674842.657 7      -291.719    22777807.240    94636070.179 7      -226.893    22777806.880    94636070.178 7      -226.893
> 2025 04 04 17 24 52.0000000  0 13
G02  22624157.040   118890743.467 7      1486.801    22624155.620   118890743.472 6      1486.801    22624160.660    92642155.593 6      1158.546
G03  19999980.260   105100602.442 8      2431.625    19999979.260   105100602.447 8      2431.625    19999985.640    81896598.418 8      1894.773    19999986.520    81896601.420 8      1894.773
G14  22277691.300   117070056.778 7      2749.695    22277690.580   117070056.788 5      2749.695    22277698.640    91223448.911 5      2142.619    22277698.940    91223451.913 8      2142.619
R03  19847306.160   106244181.838 8      2677.634    19847306.720   106244181.859 8      2677.634    19847317.000    82634410.468 8      2082.604    19847316.640    82634409.467 8      2082.604
G01  21208939.080   111453725.490 8      2085.021    21208938.640   111453725.495 6      2085.021    21208943.180    86847075.718 6      1624.692    21208943.840    86847076.728 8      1624.692
R18  20623763.520   110091048.533 7      3161.595    20623763.560   110091048.524 7      3161.595    20623773.440    85626415.615 8      2459.019    20623773.420    85626416.617 8      2459.019
G08  22226699.720   116802094.353 7        98.061    22226698.780   116802094.361 6        98.061    22226710.700    91014657.507 6        76.411    22226711.500    91014663.514 7        76.411
R04  20913421.400   111990426.890 7      6268.072    20913423.200   111990426.924 6      6268.072    20913438.280    87103736.186 8      4875.167    20913438.140    87103735.188 8      4875.167
G22  23661324.380   124341100.887 6      3910.481    23661322.500   124341100.881 2      3910.481    23661332.280    96889163.785 2      3047.128
R17  22131772.440   118431581.884 7      1275.388    22131772.160   118431581.882 7      1275.388    22131788.460    92113516.777 7       991.969    22131788.080    92113514.788 7       991.969
G04  23232811.020   122089247.151 7      5722.181    23232809.920   122089247.158 5      5722.181    23232826.000    95134532.009 5      4458.842    23232826.080    95134537.064 7      4458.842
R02  22884124.640   122114066.919 7      -753.336    22884124.940   122114066.928 7      -753.336    22884136.100    94977666.583 7      -585.928    22884136.180    94977664.578 7      -585.928
R16  22777841.760   121675134.188 7      -291.505    22777842.440   121675134.192 7      -291.505    22777861.640    94636296.922 7      -226.726    22777861.340    94636296.927 7      -226.726
> 2025 04 04 17 24 53.0000000  0 13
G02  22623874.000   118889256.276 7      1487.625    22623872.600   118889256.281 6      1487.625    22623877.640    92640996.755 6      1159.188
G03  19999517.380   105098170.553 8      2432.090    19999516.520   105098170.556 8      2432.090    19999522.920    81894703.455 8      1895.135    19999523.580    81894706.454 8      1895.135
G14  22277168.120   117067306.968 7      2749.963    22277167.360   117067306.978 5      2749.963    22277175.280    91221306.212 5      2142.828    22277175.680    91221309.216 8      2142.828
R03  19846806.120   106241504.202 8      2677.717    19846806.640   106241504.225 8      2677.717    19846816.860    82632327.879 8      2082.669    19846816.540    82632326.876 8      2082.669
G01  21208541.960   111451640.053 7      2085.855    21208541.680   111451640.057 6      2085.855    21208546.500    86845450.713 6      1625.342    21208546.900    86845451.722 8      1625.342
R18  20623171.340   110087886.494 8      3162.416    20623170.820   110087886.495 7      3162.416    20623180.920    85623956.276 8      2459.657    20623181.240    85623957.276 8      2459.657
G08  22226681.300   116801995.945 7        98.764    22226679.940   116801995.944 6        98.764    22226692.100    91014580.827 6        76.959    22226693.080    91014586.836 7        76.959
R04  20912251.220   111984158.618 7      6268.597    20912252.440   111984158.649 7      6268.597    20912267.660    87098860.884 8      4875.576    20912267.800    87098859.889 8      4875.576
G22  23660579.680   124337190.347 6      3910.800    23660578.460   124337190.341 2      3910.800    23660588.180    96886116.623 2      3047.377
R17  22131534.040   118430306.087 7      1276.161    22131533.680   118430306.105 7      1276.161    22131549.880    92112524.514 7       992.570    22131549.560    92112522.523 7       992.570
G04  23231722.100   122083524.609 7      5722.843    23231720.980   122083524.616 5      5722.843    23231737.040    95130072.916 5      4459.358    23231737.240    95130077.966 7      4459.358
R02  22884265.620   122114820.016 7      -752.930    22884265.620   122114820.016 7      -752.930    22884277.040    94978252.323 7      -585.612    22884277.760    94978250.318 7      -585.612
R16  22777896.540   121675425.245 7      -290.784    22777897.020   121675425.244 7      -290.784    22777916.260    94636523.300 7      -226.165    22777915.920    94636523.299 7      -226.165
> 2025 04 04 17 24 54.0000000  0 13
G02  22623590.860   118887768.336 7      1488.467    22623589.520   118887768.344 6      1488.467    22623594.400    92639837.334 6      1159.844
G03  19999054.480   105095738.470 8      2432.327    19999053.760   105095738.478 8      2432.327    19999060.100    81892808.339 8      1895.320    19999060.720    81892811.341 8      1895.320
G14  22276644.840   117064556.955 7      2750.345    22276644.120   117064556.965 5      2750.345    22276652.020    91219163.360 5      2143.126    22276652.340    91219166.370 8      2143.126
R03  19846305.640   106238826.688 8      2677.690    19846306.320   106238826.709 8      2677.690    19846316.800    82630245.381 8      2082.648    19846316.460    82630244.380 8      2082.648
G01  21208145.060   111449553.945 8      2086.635    21208144.840   111449553.953 6      2086.635    21208149.520    86843825.191 6      1625.949    21208149.760    86843826.207 8      1625.949
R18  20622578.780   110084723.817 7      3163.250    20622578.620   110084723.815 7      3163.250    20622588.340    85621496.427 8      2460.305    20622588.820    85621497.428 8      2460.305
G08  22226662.500   116801897.111 7        99.188    22226661.180   116801897.110 6        99.188    22226673.120    91014503.815 6        77.289    22226674.040    91014509.825 7        77.289
R04  20911081.080   111977890.044 7      6268.974    20911081.900   111977890.078 7      6268.974    20911097.120    87093985.356 8      4875.869    20911097.120    87093984.361 8      4875.869
G22  23659835.960   124333279.528 6      3911.134    23659834.340   124333279.520 2      3911.134    23659844.320    96883069.247 2      3047.637
R17  22131295.640   118429029.783 7      1276.741    22131295.540   118429029.806 7      1276.741    22131311.560    92111531.854 7       993.021    22131311.160    92111529.863 7       993.021
G04  23230633.300   122077801.302 7      5724.056    23230631.860   122077801.305 5      5724.056    23230647.880    95125613.230 5      4460.303    23230648.120    95125618.281 7      4460.303
R02  22884407.420   122115572.773 7      -752.412    22884406.680   122115572.777 7      -752.412    22884418.840    94978837.816 7      -585.209    22884418.640    94978835.808 7      -585.209
R16  22777950.900   121675715.792 7      -290.101    22777950.980   121675715.796 7      -290.101    22777970.860    94636749.277 7      -225.634    22777970.640    94636749.282 7      -225.634
> 2025 04 04 17 24 55.0000000  0 13
G02  22623307.700   118886279.537 7      1489.116    22623306.140   118886279.542 6      1489.116    22623311.160    92638677.243 6      1160.350
G03  19998591.600   105093306.043 8      2432.459    19998590.900   105093306.048 8      2432.459    19998597.280    81890912.956 8      1895.423    19998597.640    81890915.960 8      1895.423
G14  22276121.440   117061806.669 7      2750.304    22276120.560   117061806.679 5      2750.304    22276128.640    91217020.294 5      2143.094    22276128.820    91217023.302 8      2143.094
R03  19845805.080   106236149.154 8      2677.463    19845806.060   106236149.182 8      2677.463    19845816.620    82628162.877 8      2082.471    19845816.420    82628161.878 8      2082.471
G01  21207748.160   111447467.055 8      2087.205    21207747.960   111447467.063 6      2087.205    21207752.400    86842199.057 6      1626.393    21207752.840    86842200.065 8      1626.393
R18  20621986.240   110081560.360 7      3163.768    20621986.120   110081560.359 7      3163.768    20621995.780    85619035.975 8      2460.709    20621996.340    85619036.977 8      2460.709
G08  22226643.500   116801797.701 7        99.606    22226642.360   116801797.703 6        99.606    22226654.380    91014426.372 6        77.615    22226655.540    91014432.373 7        77.615
R04  20909910.180   111971621.042 7      6269.129    20909910.920   111971621.073 7      6269.129    20909926.540    87089109.484 8      4875.990    20909926.400    87089108.489 8      4875.990
G22  23659091.760   124329368.300 6      3911.469    23659090.180   124329368.289 2      3911.469    23659100.200    96880021.545 2      3047.898
R17  22131056.700   118427752.831 7      1277.234    22131056.400   118427752.851 7      1277.234    22131072.740    92110538.665 7       993.404    22131072.460    92110536.670 7       993.404
G04  23229543.960   122072077.239 7      5724.472    23229542.600   122072077.244 5      5724.472    23229558.620    95121152.954 5      4460.628    23229558.460    95121158.001 7      4460.628
R02  22884547.960   122116325.099 7      -752.134    22884547.700   122116325.100 7      -752.134    22884559.780    94979422.967 7      -584.993    22884559.720    94979420.961 7      -584.993
R16  22778005.320   121676005.746 7      -289.677    22778005.540   121676005.739 7      -289.677    22778025.080    94636974.786 7      -225.304    22778024.880    94636974.785 7      -225.304
> 2025 04 04 17 24 56.0000000  0 13
G02  22623024.200   118884789.979 7      1489.931    22623022.600   118884789.984 6      1489.931    22623027.660    92637516.557 6      1160.985
G03  19998128.640   105090873.382 8      2432.763    19998127.920   105090873.385 8      2432.763    19998134.340    81889017.388 8      1895.659    19998134.900    81889020.388 8      1895.659
G14  22275597.800   117059056.178 7      2750.565    22275597.120   117059056.191 5      2750.565    22275605.180    91214877.069 5      2143.298    22275605.460    91214880.073 8      2143.298
R03  19845305.180   106233471.745 8      2677.351    19845305.980   106233471.765 8      2677.351    19845316.600    82626080.454 8      2082.384    19845316.000    82626079.451 8      2082.384
G01  21207350.760   111445379.495 7      2087.853    21207350.560   111445379.502 6      2087.853    21207355.200    86840572.397 6      1626.898    21207355.620    86840573.409 8      1626.898
R18  20621393.380   110078396.247 7      3164.470    20621393.220   110078396.248 7      3164.470    20621403.180    85616575.011 8      2461.254    20621403.440    85616576.012 8      2461.254
G08  22226624.700   116801697.840 7       100.064    22226623.320   116801697.839 6       100.064    22226635.340    91014348.558 6        77.972    22226636.420    91014354.563 7        77.972
R04  20908739.420   111965351.702 7      6269.450    20908739.780   111965351.744 7      6269.450    20908755.520    87084233.364 8      4876.239    20908755.720    87084232.369 8      4876.239
G22  23658347.340   124325456.796 6      3911.745    23658346.180   124325456.790 2      3911.745    23658356.040    96876973.632 2      3048.113
R17  22130817.940   118426475.282 7      1277.801    22130818.220   118426475.294 7      1277.801    22130834.220    92109545.016 7       993.845    22130833.800    92109543.023 7       993.845
G04  23228454.640   122066352.464 7      5725.108    23228453.280   122066352.472 5      5725.108    23228469.260    95116692.119 5      4461.123    23228468.840    95116697.174 7      4461.123
R02  22884689.180   122117077.137 7      -752.040    22884688.880   122117077.137 7      -752.040    22884700.600    94980007.893 7      -584.920    22884700.660    94980005.885 7      -584.920
R16  22778058.940   121676295.171 7      -289.239    22778059.700   121676295.175 7      -289.239    22778079.160    94637199.891 7      -224.964    22778079.020    94637199.896 7      -224.964
> 2025 04 04 17 24 57.0000000  0 13
G02  22622740.560   118883299.877 7      1490.201    22622739.180   118883299.882 6      1490.201    22622744.120    92636355.453 6      1161.195
G03  19997665.820   105088440.708 8      2432.439    19997664.900   105088440.710 8      2432.439    19997671.420    81887121.812 8      1895.407    19997672.040    81887124.812 8      1895.407
G14  22275074.480   117056305.698 7      2750.390    22275073.640   117056305.706 5      2750.390    22275081.680    91212733.846 5      2143.161    22275082.380    91212736.849 8      2143.161
R03  19844805.140   106230794.611 8      2676.847    19844806.000   106230794.634 8      2676.847    19844816.400    82623998.258 8      2081.992    19844816.240    82623997.254 8      2081.992
G01  21206953.620   111443291.433 8      2088.199    21206953.200   111443291.440 6      2088.199    21206957.860    86838945.348 6      1627.168    21206958.320    86838946.356 8      1627.168
R18  20620800.620   110075231.686 7      3164.692    20620800.540   110075231.687 7      3164.692    20620810.220    85614113.702 8      2461.427    20620810.740    85614114.701 8      2461.427
G08  22226605.620   116801597.726 7       100.199    22226604.240   116801597.720 6       100.199    22226616.120    91014270.553 6        78.077    22226617.380    91014276.554 7        78.077
R04  20907569.120   111959082.268 7      6269.278    20907569.620   111959082.305 7      6269.278    20907584.740    87079357.152 8      4876.105    20907585.160    87079356.155 8      4876.105
G22  23657602.620   124321545.207 6      3911.597    23657601.620   124321545.197 2      3911.597    23657611.560    96873925.653 2      3047.998
R17  22130579.180   118425197.322 7      1277.873    22130579.100   118425197.339 7      1277.873    22130595.160    92108551.059 7       993.902    22130594.840    92108549.062 7       993.902
G04  23227364.880   122060627.179 7      5725.404    23227363.760   122060627.184 4      5725.404    23227379.620    95112230.886 5      4461.354    23227379.500    95112235.929 7      4461.354
R02  22884829.880   122117829.014 7      -752.030    22884829.820   122117829.012 7      -752.030    22884841.920    94980592.699 7      -584.912    22884841.560    94980590.693 7      -584.912
R16  22778113.080   121676584.236 7      -289.039    22778113.960   121676584.245 7      -289.039    22778133.580    94637424.721 7      -224.808    22778133.200    94637424.722 7      -224.808
> 2025 04 04 17 24 58.0000000  0 13
G02  22622457.040   118881809.081 7      1491.347    22622455.460   118881809.089 6      1491.347    22622460.360    92635193.802 6      1162.089
G03  19997202.780   105086007.850 8      2433.121    19997202.000   105086007.855 8      2433.121    19997208.420    81885226.093 8      1895.939    19997209.180    81885229.093 8      1895.939
G14  22274551.060   117053555.107 7      2750.829    22274550.300   117053555.118 5      2750.829    22274558.260    91210590.537 5      2143.503    22274558.940    91210593.540 8      2143.503
R03  19844305.220   106228117.638 8      2677.089    19844305.620   106228117.661 8      2677.089    19844316.280    82621916.180 8      2082.180    19844316.120    82621915.177 8      2082.180
G01  21206556.180   111441202.782 8      2089.168    21206555.660   111441202.787 6      2089.168    21206560.420    86837317.838 6      1627.923    21206560.760    86837318.848 8      1627.923
R18  20620207.640   110072066.516 7      3165.721    20620207.480   110072066.514 7      3165.721    20620217.360    85611651.909 8      2462.227    20620217.700    85611652.906 8      2462.227
G08  22226586.460   116801497.223 7       100.948    22226585.100   116801497.220 6       100.948    22226597.080    91014192.248 6        78.661    22226598.360    91014198.255 7        78.661
R04  20906397.940   111952812.604 7      6270.008    20906398.440   111952812.635 7      6270.008    20906413.720    87074480.764 8      4876.673    20906413.960    87074479.771 8      4876.673
G22  23656858.740   124317633.396 6      3912.256    23656857.580   124317633.390 2      3912.256    23656867.280    96870877.502 2      3048.511
R17  22130339.880   118423918.853 7      1278.861    22130340.600   118423918.873 7      1278.861    22130356.600    92107556.698 7       994.670    22130355.840    92107554.699 7       994.670
G04  23226275.180   122054901.248 7      5726.480    23226274.180   122054901.255 4      5726.480    23226289.900    95107769.150 4      4462.192    23226290.120    95107774.195 7      4462.192
R02  22884970.520   122118580.622 7      -751.150    22884970.320   122118580.615 7      -751.150    22884982.720    94981177.285 7      -584.228    22884982.820    94981175.279 7      -584.228
R16  22778166.860   121676872.863 7      -288.098    22778168.220   121676872.864 7      -288.098    22778187.360    94637649.208 7      -224.076    22778187.200    94637649.207 7      -224.076
> 2025 04 04 17 24 59.0000000  0 13
G02  22622173.200   118880317.629 7      1491.638    22622171.700   118880317.634 6      1491.638    22622176.520    92634031.639 6      1162.316
G03  19996739.880   105083574.871 8      2432.836    19996739.140   105083574.876 8      2432.836    19996745.400    81883330.278 8      1895.717    19996746.240    81883333.277 8      1895.717
G14  22274027.800   117050804.396 7      2750.568    22274026.920   117050804.403 5      2750.568    22274034.820    91208447.139 5      2143.300    22274035.400    91208450.143 8      2143.300
R03  19843805.440   106225440.808 8      2676.573    19843805.840   106225440.831 8      2676.573    19843816.260    82619834.215 8      2081.779    19843816.060    82619833.212 8      2081.779
G01  21206158.440   111439113.527 8      2089.376    21206158.220   111439113.535 6      2089.376    21206162.720    86835689.860 6      1628.085    21206163.160    86835690.871 8      1628.085
R18  20619614.600   110068900.759 8      3165.843    20619614.420   110068900.760 8      3165.843    20619624.300    85609189.672 8      2462.322    20619624.620    85609190.674 8      2462.322
G08  22226567.160   116801396.371 7       100.825    22226565.840   116801396.366 6       100.825    22226578.120    91014113.664 6        78.565    22226579.380    91014119.671 7        78.565
R04  20905227.160   111946542.729 7      6269.777    20905227.240   111946542.763 7      6269.777    20905242.940    87069604.221 8      4876.494    20905243.320    87069603.226 8      4876.494
G22  23656114.140   124313721.403 6      3911.890    23656112.780   124313721.400 2      3911.890    23656122.800    96867829.209 2      3048.226
R17  22130100.660   118422639.899 7      1279.001    22130101.140   118422639.911 7      1279.001    22130117.360    92106561.959 7       994.779    22130116.860    92106559.966 7       994.779
G04  23225185.600   122049174.720 7      5726.611    23225184.480   122049174.728 4      5726.611    23225200.220    95103306.949 4      4462.294    23225200.500    95103311.990 7      4462.294
R02  22885111.180   122119331.942 7      -751.354    22885111.320   122119331.948 7      -751.354    22885123.660    94981761.670 7      -584.386    22885123.400    94981759.660 7      -584.386
R16  22778220.660   121677161.083 7      -288.194    22778221.920   121677161.084 7      -288.194    22778241.060    94637873.371 7      -224.151    22778241.100    94637873.368 7      -224.151
> 2025 04 04 17 25  0.0000000  0 13
G02  22621889.460   118878825.737 8      1492.374    22621887.600   118878825.742 6      1492.374    22621892.520    92632869.137 6      1162.889
G03  19996277.080   105081141.963 8      2433.112    19996276.100   105081141.965 8      2433.112    19996282.520    81881434.517 8      1895.931    19996283.240    81881437.517 8      1895.931
G14  22273504.400   117048053.816 7      2750.806    22273503.500   117048053.826 5      2750.806    22273511.440    91206303.842 5      2143.485    22273512.020    91206306.842 8      2143.485
R03  19843305.360   106222764.402 8      2676.438    19843305.640   106222764.431 8      2676.438    19843316.280    82617752.585 8      2081.674    19843315.840    82617751.582 8      2081.674
G01  21205760.840   111437023.923 8      2090.064    21205760.520   111437023.925 6      2090.064    21205765.020    86834061.603 6      1628.621    21205765.520    86834062.614 8      1628.621
R18  20619021.640   110065734.673 8      3166.580    20619021.340   110065734.677 8      3166.580    20619031.220    85606727.172 8      2462.895    20619031.520    85606728.171 8      2462.895
G08  22226547.920   116801295.359 7       101.355    22226546.720   116801295.356 6       101.355    22226558.700    91014034.961 6        78.978    22226559.800    91014040.964 7        78.978
R04  20904056.320   111940272.848 7      6270.165    20904056.740   111940272.890 7      6270.165    20904072.080    87064727.666 8      4876.795    20904072.220    87064726.671 8      4876.795
G22  23655369.800   124309809.418 6      3912.218    23655368.460   124309809.415 2      3912.218    23655378.420    96864780.923 2      3048.482
R17  22129861.300   118421360.670 7      1279.651    22129862.000   118421360.683 7      1279.651    22129878.140    92105567.012 7       995.284    22129877.900    92105565.016 7       995.284
G04  23224095.680   122043447.769 7      5727.473    23224094.600   122043447.772 4      5727.473    23224110.340    95098844.419 4      4462.966    23224110.780    95098849.462 7      4462.966
R02  22885252.120   122120083.267 7      -751.083    22885252.100   122120083.270 7      -751.083    22885264.400    94982346.040 7      -584.176    22885264.540    94982344.028 7      -584.176
R16  22778274.880   121677449.093 7      -287.797    22778275.920   121677449.094 7      -287.797    22778295.060    94638097.379 7      -223.842    22778295.020    94638097.380 7      -223.842
> 2025 04 04 17 25  1.0000000  0 13
G02  22621605.480   118877333.110 7      1493.047    22621603.640   118877333.118 6      1493.047    22621608.600    92631706.059 6      1163.413
G03  19995813.980   105078708.858 8      2433.215    19995813.160   105078708.860 8      2433.215    19995819.500    81879538.602 8      1896.012    19995820.100    81879541.599 8      1896.012
G14  22272980.920   117045303.062 7      2750.838    22272979.980   117045303.075 5      2750.838    22272987.920    91204160.406 5      2143.510    22272988.360    91204163.414 8      2143.510
R03  19842805.420   106220088.120 8      2676.168    19842805.620   106220088.146 8      2676.168    19842816.360    82615671.041 8      2081.464    19842816.080    82615670.038 8      2081.464
G01  21205363.160   111434933.654 8      2090.563    21205362.840   111434933.656 6      2090.563    21205367.420    86832432.832 6      1629.010    21205367.940    86832433.845 8      1629.010
R18  20618428.460   110062567.969 7      3167.052    20618428.020   110062567.975 8      3167.052    20618437.920    85604264.194 8      2463.263    20618438.020    85604265.195 8      2463.263
G08  22226528.640   116801193.898 7       101.760    22226527.460   116801193.897 6       101.760    22226539.320    91013955.908 6        79.293    22226540.400    91013961.914 7        79.293
R04  20902884.820   111934002.652 7      6270.327    20902886.100   111934002.696 7      6270.327    20902901.200    87059850.873 8      4876.921    20902901.140    87059849.874 8      4876.921
G22  23654625.520   124305897.165 6      3912.497    23654623.980   124305897.164 2      3912.497    23654634.000    96861732.430 2      3048.699
R17  22129622.360   118420080.906 7      1279.976    22129623.660   118420080.918 7      1279.976    22129638.780    92104571.642 7       995.537    22129638.640    92104569.640 7       995.537
G04  23223005.640   122037720.159 7      5727.892    23223004.700   122037720.164 4      5727.892    23223020.340    95094381.375 4      4463.293    23223020.680    95094386.418 7      4463.293
R02  22885392.800   122120834.290 7      -750.843    22885392.640   122120834.286 7      -750.843    22885405.340    94982930.171 7      -583.989    22885405.400    94982928.166 7      -583.989
R16  22778328.540   121677736.560 7      -287.241    22778329.920   121677736.564 7      -287.241    22778349.080    94638320.954 7      -223.410    22778348.680    94638320.951 7      -223.410
> 2025 04 04 17 25  2.0000000  0 13
G02  22621320.940   118875839.871 7      1493.632    22621319.440   118875839.878 6      1493.632    22621324.460    92630542.506 6      1163.869
G03  19995350.860   105076275.658 8      2433.248    19995350.140   105076275.663 8      2433.248    19995356.480    81877642.618 8      1896.038    19995357.080    81877645.618 8      1896.038
G14  22272457.380   117042552.264 7      2750.878    22272456.500   117042552.277 5      2750.878    22272464.480    91202016.939 5      2143.541    22272464.620    91202019.941 8      2143.541
R03  19842305.360   106217412.081 8      2675.951    19842305.820   106217412.104 8      2675.951    19842316.500    82613589.688 8      2081.295    19842316.280    82613588.689 8      2081.295
G01  21204965.260   111432842.846 8      2091.089    21204964.860   111432842.848 6      2091.089    21204969.580    86830803.643 6      1629.420    21204970.140    86830804.655 8      1629.420
R18  20617834.880   110059400.741 7      3167.496    20617834.820   110059400.744 7      3167.496    20617844.760    85601800.807 8      2463.608    20617845.020    85601801.806 8      2463.608
G08  22226509.340   116801092.168 7       101.954    22226508.060   116801092.165 6       101.954    22226519.900    91013876.639 6        79.444    22226521.260    91013882.642 7        79.444
R04  20901713.660   111927732.259 7      6270.671    20901715.060   111927732.291 7      6270.671    20901730.280    87054973.916 8      4877.189    20901730.200    87054972.919 8      4877.189
G22  23653881.520   124301984.765 6      3912.547    23653879.420   124301984.767 2      3912.547    23653889.960    96858683.823 2      3048.738
R17  22129383.340   118418800.677 7      1280.377    22129384.360   118418800.689 7      1280.377    22129399.320    92103575.916 7       995.849    22129399.180    92103573.918 7       995.849
G04  23221915.640   122031991.976 7      5728.482    23221914.620   122031991.986 4      5728.482    23221930.320    95089917.880 4      4463.752    23221930.740    95089922.917 7      4463.752
R02  22885533.640   122121585.178 7      -750.830    22885533.100   122121585.173 7      -750.830    22885545.920    94983514.205 7      -583.979    22885546.060    94983512.202 7      -583.979
R16  22778382.480   121678023.659 7      -286.907    22778383.320   121678023.660 7      -286.907    22778402.680    94638544.255 7      -223.150    22778402.540    94638544.254 7      -223.150
> 2025 04 04 17 25  3.0000000  0 13
G02  22621036.700   118874345.827 7      1494.559    22621035.120   118874345.838 6      1494.559    22621040.060    92629378.329 6      1164.591
G03  19994887.800   105073842.185 8      2433.636    19994887.080   105073842.188 8      2433.636    19994893.400    81875746.416 8      1896.340    19994894.060    81875749.411 8      1896.340
G14  22271933.860   117039801.216 7      2751.263    22271933.020   117039801.226 5      2751.263    22271940.960    91199873.276 5      2143.841    22271941.220    91199876.284 8      2143.841
R03  19841805.400   106214736.096 8      2675.995    19841805.720   106214736.122 8      2675.995    19841816.520    82611508.381 8      2081.329    19841816.460    82611507.380 8      2081.329
G01  21204567.180   111430751.294 8      2091.972    21204566.980   111430751.299 6      2091.972    21204571.640    86829173.873 6      1630.108    21204572.180    86829174.891 8      1630.108
R18  20617241.400   110056232.782 7      3168.328    20617241.340   110056232.785 7      3168.328    20617251.340    85599336.849 8      2464.255    20617251.420    85599337.850 8      2464.255
G08  22226489.920   116800989.910 6       102.535    22226488.760   116800989.907 6       102.535    22226500.560    91013796.961 6        79.897    22226501.420    91013802.967 7        79.897
R04  20900542.940   111921461.562 7      6270.930    20900544.440   111921461.591 7      6270.930    20900559.300    87050096.722 8      4877.390    20900559.220    87050095.722 8      4877.390
G22  23653137.360   124298072.054 6      3912.904    23653134.720   124298072.051 2      3912.904    23653145.540    96855634.968 2      3049.016
R17  22129143.960   118417519.751 7      1281.300    22129144.360   118417519.772 7      1281.300    22129159.980    92102579.657 7       996.566    22129159.840    92102577.662 7       996.566
G04  23220825.460   122026263.026 7      5729.395    23220824.600   122026263.038 4      5729.395    23220840.160    95085453.792 4      4464.464    23220840.200    95085458.843 7      4464.464
R02  22885674.420   122122335.676 7      -750.294    22885673.780   122122335.671 7      -750.294    22885686.540    94984097.937 7      -583.562    22885686.680    94984095.937 7      -583.562
R16  22778436.060   121678310.186 7      -286.153    22778436.920   121678310.177 7      -286.153    22778455.900    94638767.093 7      -222.563    22778456.380    94638767.092 7      -222.563
> 2025 04 04 17 25  4.0000000  0 13
G02  22620752.460   118872850.914 7      1495.415    22620750.720   118872850.922 6      1495.415    22620755.640    92628213.471 6      1165.259
G03  19994424.720   105071408.350 8      2434.018    19994424.040   105071408.352 8      2434.018    19994430.220    81873849.937 8      1896.637    19994431.080    81873852.933 8      1896.637
G14  22271410.200   117037049.850 7      2751.629    22271409.560   117037049.860 5      2751.629    22271417.280    91197729.365 5      2144.126    22271417.720    91197732.373 8      2144.126
R03  19841305.620   106212060.103 8      2676.047    19841306.000   106212060.124 8      2676.047    19841316.600    82609427.065 8      2081.370    19841316.220    82609426.064 8      2081.370
G01  21204169.160   111428658.944 8      2092.792    21204168.780   111428658.952 6      2092.792    21204173.440    86827543.485 6      1630.747    21204174.120    86827544.498 8      1630.747
R18  20616647.680   110053064.035 7      3169.252    20616647.920   110053064.033 7      3169.252    20616657.500    85596872.281 8      2464.974    20616657.600    85596873.282 8      2464.974
G08  22226470.620   116800887.059 6       103.180    22226469.220   116800887.053 6       103.180    22226480.940    91013716.823 6        80.400    22226481.900    91013722.827 7        80.400
R04  20899372.320   111915190.450 7      6271.231    20899373.080   111915190.476 7      6271.231    20899388.300    87045219.211 8      4877.624    20899388.320    87045218.216 8      4877.624
G22  23652392.160   124294158.884 6      3913.599    23652389.960   124294158.887 2      3913.599    23652400.940    96852585.755 2      3049.557
R17  22128904.240   118416238.139 7      1282.003    22128905.200   118416238.153 7      1282.003    22128920.600    92101582.849 7       997.113    22128920.380    92101580.858 7       997.113
G04  23219734.960   122020533.258 7      5730.297    23219734.180   122020533.271 4      5730.297    23219749.980    95080989.066 4      4465.166    23219750.180    95080994.113 7      4465.166
R02  22885814.900   122123085.696 7      -749.699    22885814.520   122123085.686 7      -749.699    22885827.400    94984681.286 7      -583.099    22885827.400    94984679.284 7      -583.099
R16  22778489.840   121678596.081 7      -285.566    22778490.220   121678596.063 6      -285.566    22778509.780    94638989.451 7      -222.107    22778509.900    94638989.446 7      -222.107
> 2025 04 04 17 25  5.0000000  0 13
G02  22620467.720   118871355.358 7      1495.739    22620466.220   118871355.368 6      1495.739    22620471.000    92627048.115 6      1165.511
G03  19993961.520   105068974.404 8      2433.848    19993960.820   105068974.404 8      2433.848    19993967.200    81871953.366 8      1896.505    19993968.020    81871956.362 8      1896.505
G14  22270886.860   117034298.414 7      2751.340    22270885.980   117034298.424 5      2751.340    22270893.500    91195585.402 5      2143.901    22270894.160    91195588.408 8      2143.901
R03  19840805.700   106209384.316 8      2675.537    19840806.040   106209384.336 8      2675.537    19840816.680    82607345.912 8      2080.973    19840816.280    82607344.913 8      2080.973
G01  21203771.120   111426566.029 8      2093.082    21203770.520   111426566.031 6      2093.082    21203775.140    86825912.650 6      1630.973    21203775.620    86825913.661 8      1630.973
R18  20616054.040   110049894.744 7      3169.446    20616054.280   110049894.742 7      3169.446    20616063.800    85594407.285 8      2465.124    20616063.900    85594408.288 8      2465.124
G08  22226450.780   116800783.863 7       103.334    22226449.580   116800783.865 6       103.334    22226461.240    91013636.425 6        80.520    22226462.740    91013642.435 7        80.520
R04  20898201.000   111908919.142 7      6271.204    20898201.560   111908919.165 7      6271.204    20898217.200    87040341.546 8      4877.603    20898217.220    87040340.548 8      4877.603
G22  23651647.900   124290245.596 6      3913.189    23651645.240   124290245.596 2      3913.189    23651656.160    96849536.448 2      3049.238
R17  22128664.640   118414956.095 7      1282.047    22128665.840   118414956.110 7      1282.047    22128681.000    92100585.708 7       997.147    22128680.980    92100583.715 7       997.147
G04  23218644.440   122014802.902 7      5730.512    23218643.600   122014802.912 4      5730.512    23218659.500    95076523.880 4      4465.334    23218659.840    95076528.930 7      4465.334
R02  22885955.140   122123835.487 7      -749.848    22885954.760   122123835.488 7      -749.848    22885967.800    94985264.473 7      -583.215    22885968.240    94985262.474 7      -583.215
R16  22778543.240   121678881.545 7      -285.455    22778543.280   121678881.540 7      -285.455    22778563.120    94639211.481 7      -222.020    22778563.240    94639211.476 7      -222.020
> 2025 04 04 17 25  6.0000000  0 13
G02  22620183.080   118869859.372 7      1496.303    22620181.660   118869859.383 6      1496.303    22620186.380    92625882.422 6      1165.950
G03  19993498.300   105066540.547 8      2433.925    19993497.680   105066540.547 8      2433.925    19993503.960    81870056.865 8      1896.565    19993504.660    81870059.862 8      1896.565
G14  22270363.420   117031547.111 7      2751.266    22270362.420   117031547.124 5      2751.266    22270369.920    91193441.542 5      2143.843    22270370.460    91193444.546 8      2143.843
R03  19840305.680   106206708.949 8      2675.228    19840306.200   106206708.970 8      2675.228    19840316.740    82605265.086 8      2080.733    19840316.680    82605264.085 8      2080.733
G01  21203372.740   111424472.765 8      2093.511    21203372.220   111424472.772 6      2093.511    21203376.760    86824281.553 6      1631.307    21203377.160    86824282.565 8      1631.307
R18  20615460.560   110046725.125 7      3169.842    20615460.500   110046725.120 7      3169.842    20615470.000    85591942.036 8      2465.433    20615470.180    85591943.039 8      2465.433
G08  22226431.120   116800680.588 6       103.333    22226429.900   116800680.583 6       103.333    22226441.620    91013555.956 6        80.519    22226443.080    91013561.961 7        80.519
R04  20897030.100   111902647.856 7      6271.424    20897030.480   111902647.873 7      6271.424    20897046.040    87035463.893 8      4877.774    20897046.280    87035462.898 8      4877.774
G22  23650902.920   124286332.308 6      3913.441    23650900.480   124286332.313 1      3913.441    23650911.780    96846487.151 2      3049.434
R17  22128425.460   118413673.827 7      1282.290    22128426.240   118413673.836 7      1282.290    22128441.660    92099588.391 7       997.337    22128441.120    92099586.399 7       997.337
G04  23217553.900   122009072.168 7      5730.953    23217553.060   122009072.178 4      5730.953    23217568.920    95072058.396 4      4465.678    23217569.420    95072063.451 7      4465.678
R02  22886095.940   122124585.276 7      -749.745    22886095.560   122124585.279 7      -749.745    22886108.520    94985847.654 7      -583.135    22886108.460    94985845.653 7      -583.135
R16  22778596.760   121679166.806 7      -285.051    22778596.580   121679166.799 7      -285.051    22778616.200    94639433.353 7      -221.706    22778616.640    94639433.346 7      -221.706
> 2025 04 04 17 25  7.0000000  0 13
G02  22619898.160   118868362.736 7      1496.947    22619896.820   118868362.746 6      1496.947    22619901.620    92624716.222 6      1166.452
G03  19993035.280   105064106.570 8      2434.005    19993034.600   105064106.567 8      2434.005    19993040.780    81868160.271 8      1896.628    19993041.620    81868163.269 8      1896.628
G14  22269839.960   117028795.695 7      2751.462    22269838.800   117028795.708 5      2751.462    22269846.440    91191297.594 5      2143.996    22269846.860    91191300.600 8      2143.996
R03  19839805.900   106204033.743 8      2675.070    19839806.300   106204033.771 8      2675.070    19839817.040    82603184.389 8      2080.610    19839817.000    82603183.385 8      2080.610
G01  21202974.140   111422378.917 8      2094.086    21202973.720   111422378.919 6      2094.086    21202978.360    86822649.991 6      1631.755    21202978.680    86822651.001 8      1631.755
R18  20614866.580   110043554.950 8      3170.418    20614866.220   110043554.951 7      3170.418    20614876.440    85589476.361 8      2465.881    20614876.500    85589477.361 8      2465.881
G08  22226411.540   116800576.893 7       103.867    22226410.160   116800576.893 6       103.867    22226421.940    91013475.163 6        80.935    22226423.260    91013481.172 7        80.935
R04  20895858.600   111896376.317 7      6271.636    20895859.220   111896376.349 7      6271.636    20895874.840    87030586.062 8      4877.939    20895874.900    87030585.066 8      4877.939
G22  23650158.140   124282418.844 6      3913.620    23650155.780   124282418.846 1      3913.620    23650167.060    96843437.710 2      3049.574
R17  22128185.740   118412391.047 7      1282.903    22128186.560   118412391.067 7      1282.903    22128201.680    92098590.688 7       997.814    22128201.680    92098588.694 7       997.814
G04  23216463.320   122003340.803 7      5731.669    23216462.460   122003340.813 4      5731.669    23216478.240    95067592.430 4      4466.236    23216478.600    95067597.477 7      4466.236
R02  22886236.340   122125334.837 7      -749.421    22886235.820   122125334.830 7      -749.421    22886249.200    94986430.653 7      -582.883    22886248.840    94986428.651 7      -582.883
R16  22778650.120   121679451.667 7      -284.660    22778649.960   121679451.657 6      -284.660    22778669.740    94639654.903 7      -221.402    22778669.660    94639654.898 7      -221.402
> 2025 04 04 17 25  8.0000000  0 13
G02  22619613.360   118866865.597 7      1497.590    22619611.980   118866865.610 6      1497.590    22619616.560    92623549.631 6      1166.953
G03  19992572.060   105061672.616 8      2434.140    19992571.500   105061672.616 8      2434.140    19992577.640    81866263.700 8      1896.733    19992578.380    81866266.698 8      1896.733
G14  22269316.400   117026044.377 7      2751.384    22269315.320   117026044.389 5      2751.384    22269322.880    91189153.720 5      2143.936    22269323.440    91189156.730 8      2143.936
R03  19839306.480   106201358.885 8      2674.820    19839306.600   106201358.910 8      2674.820    19839317.340    82601103.958 8      2080.416    19839317.100    82601102.957 8      2080.416
G01  21202575.640   111420284.635 8      2094.750    21202575.160   111420284.640 6      2094.750    21202579.840    86821018.094 6      1632.272    21202580.220    86821019.104 8      1632.272
R18  20614272.760   110040384.378 7      3170.944    20614272.580   110040384.382 7      3170.944    20614282.580    85587010.377 8      2466.290    20614282.660    85587011.381 8      2466.290
G08  22226391.700   116800473.033 7       104.183    22226390.400   116800473.030 6       104.183    22226402.160    91013394.232 6        81.182    22226403.460    91013400.236 7        81.182
R04  20894687.680   111890104.763 7      6271.696    20894688.060   111890104.794 7      6271.696    20894703.520    87025708.211 8      4877.986    20894703.960    87025707.216 8      4877.986
G22  23649413.540   124278505.329 6      3913.840    23649411.140   124278505.334 1      3913.840    23649422.280    96840388.233 2      3049.745
R17  22127946.100   118411107.936 7      1283.441    22127946.940   118411107.945 7      1283.441    22127962.060    92097592.710 7       998.232    22127961.920    92097590.719 7       998.232
G04  23215372.760   121997609.025 7      5732.129    23215371.780   121997609.035 4      5732.129    23215387.500    95063126.138 4      4466.594    23215387.860    95063131.189 7      4466.594
R02  22886376.600   122126084.329 7      -749.228    22886376.120   122126084.330 7      -749.228    22886389.160    94987013.606 7      -582.733    22886389.520    94987011.606 7      -582.733
R16  22778703.440   121679736.233 7      -284.311    22778703.840   121679736.240 7      -284.311    22778722.900    94639876.237 7      -221.131    22778723.020    94639876.236 7      -221.131
> 2025 04 04 17 25  9.0000000  0 13
G02  22619328.320   118865367.746 7      1498.196    22619326.900   118865367.757 6      1498.196    22619331.520    92622382.487 6      1167.425
G03  19992108.880   105059238.452 8      2434.265    19992108.360   105059238.455 8      2434.265    19992114.440    81864366.963 8      1896.829    19992115.160    81864369.959 8      1896.829
G14  22268792.580   117023292.864 7      2751.597    22268791.780   117023292.874 5      2751.597    22268799.240    91187009.694 5      2144.101    22268800.020    91187012.702 8      2144.101
R03  19838806.840   106198684.155 8      2674.651    19838807.040   106198684.175 8      2674.651    19838817.760    82599023.619 8      2080.284    19838817.540    82599022.620 8      2080.284
G01  21202176.900   111418189.729 7      2095.178    21202176.380   111418189.733 6      2095.178    21202181.220    86819385.712 6      1632.606    21202181.680    86819386.723 8      1632.606
R18  20613678.620   110037213.158 8      3171.522    20613678.460   110037213.161 7      3171.522    20613688.460    85584543.885 8      2466.739    20613688.440    85584544.888 8      2466.739
G08  22226371.940   116800368.760 7       104.373    22226370.480   116800368.757 6       104.373    22226382.280    91013312.989 6        81.330    22226383.700    91013318.998 7        81.330
R04  20893516.480   111883832.939 7      6271.965    20893517.300   111883832.954 7      6271.965    20893532.440    87020830.134 8      4878.195    20893532.680    87020829.138 8      4878.195
G22  23648668.720   124274591.592 6      3913.787    23648666.680   124274591.597 1      3913.787    23648677.740    96837338.586 2      3049.704
R17  22127706.120   118409824.257 7      1283.832    22127706.820   118409824.272 7      1283.832    22127722.040    92096594.304 7       998.536    22127722.440    92096592.315 7       998.536
G04  23214281.820   121991876.535 7      5732.856    23214280.780   121991876.543 4      5732.856    23214296.900    95058659.292 4      4467.161    23214296.860    95058664.345 7      4467.161
R02  22886517.420   122126833.530 7      -749.191    22886516.360   122126833.534 7      -749.191    22886530.040    94987596.332 7      -582.704    22886529.900    94987594.333 7      -582.704
R16  22778756.520   121680020.263 7      -283.777    22778756.740   121680020.267 7      -283.777    22778776.020    94640097.149 7      -220.716    22778776.180    94640097.139 7      -220.716
> 2025 04 04 17 25 10.0000000  0 13
G02  22619043.200   118863869.218 7      1499.022    22619041.700   118863869.225 6      1499.022    22619046.340    92621214.815 6      1168.069
G03  19991645.720   105056804.154 8      2434.542    19991645.080   105056804.159 8      2434.542    19991651.280    81862470.122 8      1897.046    19991652.020    81862473.120 8      1897.046
G14  22268268.840   117020541.261 7      2751.838    22268268.340   117020541.272 5      2751.838    22268275.660    91184865.601 5      2144.289    22268276.580    91184868.613 8      2144.289
R03  19838306.720   106196009.610 8      2674.551    19838307.440   106196009.633 8      2674.551    19838318.080    82596943.436 8      2080.206    19838317.940    82596942.437 8      2080.206
G01  21201778.160   111416094.218 8      2095.933    21201777.660   111416094.222 6      2095.933    21201782.480    86817752.854 6      1633.195    21201782.920    86817753.870 8      1633.195
R18  20613084.340   110034041.355 7      3172.236    20613084.140   110034041.364 7      3172.236    20613094.280    85582076.944 8      2467.295    20613094.240    85582077.949 8      2467.295
G08  22226352.120   116800264.114 7       104.836    22226350.680   116800264.111 6       104.836    22226362.460    91013231.451 6        81.690    22226363.820    91013237.458 7        81.690
R04  20892345.340   111877560.857 7      6272.375    20892345.560   111877560.886 7      6272.375    20892361.200    87015951.883 8      4878.514    20892361.400    87015950.890 8      4878.514
G22  23647923.320   124270677.633 6      3914.133    23647922.020   124270677.636 1      3914.133    23647932.920    96834288.760 1      3049.974
R17  22127466.020   118408540.076 7      1284.661    22127466.700   118408540.091 7      1284.661    22127482.380    92095595.505 7       999.181    22127482.380    92095593.518 7       999.181
G04  23213191.000   121986143.463 7      5733.499    23213189.760   121986143.470 4      5733.499    23213205.920    95054191.995 4      4467.662    23213205.960    95054197.042 7      4467.662
R02  22886657.420   122127582.476 7      -748.694    22886656.680   122127582.474 7      -748.694    22886670.240    94988178.849 7      -582.317    22886670.220    94988176.852 7      -582.317
R16  22778809.520   121680303.858 7      -283.195    22778809.380   121680303.851 6      -283.195    22778829.220    94640317.710 7      -220.263    22778829.440    94640317.707 7      -220.263
> 2025 04 04 17 25 11.0000000  0 13
G02  22618757.800   118862369.954 7      1499.566    22618756.520   118862369.964 6      1499.566    22618761.020    92620046.569 6      1168.493
G03  19991182.340   105054369.651 8      2434.494    19991181.900   105054369.651 8      2434.494    19991188.040    81860573.115 8      1897.008    19991188.840    81860576.115 8      1897.008
G14  22267745.320   117017789.483 7      2751.744    22267744.680   117017789.499 5      2751.744    22267752.020    91182721.372 5      2144.216    22267752.740    91182724.380 8      2144.216
R03  19837807.160   106193335.177 7      2674.267    19837807.880   106193335.203 8      2674.267    19837818.520    82594863.334 8      2079.985    19837818.480    82594862.333 8      2079.985
G01  21201379.340   111413998.042 7      2096.369    21201378.760   111413998.041 6      2096.369    21201383.580    86816119.480 6      1633.534    21201384.180    86816120.490 8      1633.534
R18  20612490.140   110030868.936 7      3172.575    20612489.780   110030868.937 7      3172.575    20612500.040    85579609.515 8      2467.559    20612499.980    85579610.516 8      2467.559
G08  22226332.160   116800159.008 7       105.090    22226330.820   116800159.007 6       105.090    22226342.380    91013149.560 6        81.889    22226343.760    91013155.567 7        81.889
R04  20891174.060   111871288.494 7      6272.439    20891174.920   111871288.520 7      6272.439    20891189.860    87011073.391 8      4878.563    20891190.180    87011072.396 8      4878.563
G22  23647179.360   124266763.386 6      3914.189    23647177.120   124266763.388 1      3914.189    23647187.840    96831238.712 1      3050.017
R17  22127226.220   118407255.367 7      1284.846    22127226.700   118407255.372 7      1284.846    22127242.420    92094596.289 7       999.325    22127242.360    92094594.298 7       999.325
G04  23212099.940   121980409.685 7      5733.984    23212098.680   121980409.690 4      5733.984    23212114.720    95049724.141 4      4468.040    23212114.620    95049729.193 7      4468.040
R02  22886797.640   122128331.106 7      -748.561    22886796.960   122128331.091 7      -748.561    22886810.740    94988761.119 7      -582.214    22886810.740    94988759.120 7      -582.214
R16  22778862.960   121680586.926 7      -282.843    22778862.660   121680586.927 6      -282.843    22778882.320    94640537.872 7      -219.989    22778882.680    94640537.871 7      -219.989
> 2025 04 04 17 25 12.0000000  0 13
G02  22618472.580   118860870.103 7      1500.313    22618471.120   118860870.108 6      1500.313    22618475.680    92618877.859 6      1169.075
G03  19990719.280   105051935.065 8      2434.788    19990718.620   105051935.067 8      2434.788    19990724.720    81858676.049 8      1897.238    19990725.560    81858679.048 8      1897.238
G14  22267221.900   117015037.673 7      2751.943    22267221.000   117015037.689 5      2751.943    22267228.260    91180577.117 5      2144.371    22267228.960    91180580.125 8      2144.371
R03  19837307.660   106190661.047 8      2674.106    19837308.400   106190661.065 8      2674.106    19837318.840    82592783.463 8      2079.861    19837318.980    82592782.462 8      2079.861
G01  21200980.400   111411901.346 8      2097.065    21200979.800   111411901.353 6      2097.065    21200984.660    86814485.706 6      1634.077    21200985.100    86814486.719 8      1634.077
R18  20611895.840   110027696.010 8      3173.305    20611895.340   110027696.011 7      3173.305    20611905.740    85577141.690 8      2468.126    20611905.360    85577142.693 8      2468.126
G08  22226311.820   116800053.592 7       105.716    22226310.620   116800053.591 6       105.716    22226322.380    91013067.422 6        82.376    22226323.700    91013073.425 7        82.376
R04  20890002.500   111865015.976 7      6272.753    20890003.160   111865016.008 7      6272.753    20890018.480    87006194.791 8      4878.808    20890018.500    87006193.796 8      4878.808
G22  23646434.560   124262849.021 6      3914.490    23646432.080   124262849.025 1      3914.490    23646443.020    96828188.571 1      3050.252
R17  22126986.220   118405970.204 7      1285.548    22126986.400   118405970.206 7      1285.548    22127002.480    92093596.713 7       999.870    22127002.240    92093594.724 7       999.870
G04  23211008.560   121974675.346 7      5734.887    23211007.600   121974675.356 4      5734.887    23211023.600    95045255.854 4      4468.743    23211023.720    95045260.903 7      4468.743
R02  22886937.940   122129079.552 7      -748.174    22886937.080   122129079.537 7      -748.174    22886951.220    94989343.252 7      -581.913    22886951.020    94989341.259 7      -581.913
R16  22778915.920   121680869.682 7      -282.403    22778915.280   121680869.683 6      -282.403    22778935.480    94640757.785 7      -219.647    22778935.600    94640757.786 7      -219.647
> 2025 04 04 17 25 13.0000000  0 13
G02  22618186.820   118859369.515 7      1501.026    22618185.620   118859369.520 6      1501.026    22618190.120    92617708.575 6      1169.630
G03  19990255.940   105049500.270 8      2434.952    19990255.300   105049500.270 8      2434.952    19990261.460    81856778.816 8      1897.365    19990262.140    81856781.816 8      1897.365
G14  22266697.980   117012285.685 7      2752.126    22266697.360   117012285.698 5      2752.126    22266704.600    91178432.719 5      2144.513    22266705.340    91178435.727 8      2144.513
R03  19836808.380   106187986.997 8      2674.100    19836808.920   106187987.015 8      2674.100    19836819.420    82590703.657 8      2079.856    19836819.260    82590702.656 8      2079.856
G01  21200581.240   111409803.982 7      2097.750    21200580.660   111409803.984 6      2097.750    21200585.520    86812851.407 6      1634.610    21200585.860    86812852.416 8      1634.610
R18  20611301.040   110024522.424 7      3173.940    20611300.920   110024522.430 8      3173.940    20611311.340    85574673.366 8      2468.620    20611311.120    85574674.370 8      2468.620
G08  22226292.000   116799947.766 7       106.081    22226290.420   116799947.771 6       106.081    22226302.220    91012984.972 6        82.661    22226303.660    91012990.984 7        82.661
R04  20888831.260   111858743.148 7      6273.068    20888832.000   111858743.182 7      6273.068    20888846.840    87001315.950 8      4879.053    20888847.200    87001314.954 8      4879.053
G22  23645689.480   124258934.392 6      3914.792    23645687.280   124258934.394 1      3914.792    23645698.480    96825138.226 1      3050.487
R17  22126745.940   118404684.444 7      1286.071    22126746.080   118404684.453 7      1286.071    22126762.280    92092596.696 7      1000.278    22126761.880    92092594.705 7      1000.278
G04  23209917.040   121968940.350 7      5735.431    23209916.280   121968940.360 4      5735.431    23209932.320    95040787.056 4      4469.167    23209932.320    95040792.103 7      4469.167
R02  22887078.240   122129827.676 7      -747.802    22887077.320   122129827.663 7      -747.802    22887091.240    94989925.137 7      -581.624    22887091.600    94989923.143 7      -581.624
R16  22778968.580   121681151.925 7      -281.904    22778968.440   121681151.910 6      -281.904    22778988.560    94640977.293 7      -219.258    22778988.360    94640977.294 7      -219.258
> 2025 04 04 17 25 14.0000000  0 13
G02  22617901.380   118857868.175 7      1501.778    22617899.860   118857868.185 6      1501.778    22617904.440    92616538.716 6      1170.217
G03  19989792.580   105047065.255 8      2435.139    19989792.000   105047065.254 8      2435.139    19989798.040    81854881.416 8      1897.511    19989798.880    81854884.416 8      1897.511
G14  22266174.600   117009533.515 7      2752.303    22266173.780   117009533.528 5      2752.303    22266180.980    91176288.183 5      2144.651    22266181.520    91176291.191 8      2144.651
R03  19836308.740   106185313.035 8      2673.976    19836309.340   106185313.064 8      2673.976    19836319.840    82588623.932 8      2079.759    19836319.960    82588622.931 8      2079.759
G01  21200182.080   111407705.949 7      2098.457    21200181.360   111407705.953 6      2098.457    21200186.300    86811216.586 6      1635.161    21200186.600    86811217.595 8      1635.161
R18  20610706.500   110021348.198 7      3174.534    20610706.340   110021348.202 7      3174.534    20610716.800    85572204.532 8      2469.082    20610716.660    85572205.538 8      2469.082
G08  22226271.580   116799841.491 7       106.472    22226270.400   116799841.493 6       106.472    22226282.020    91012902.160 6        82.965    22226283.240    91012908.170 7        82.965
R04  20887660.060   111852470.057 7      6273.237    20887660.480   111852470.096 6      6273.237    20887675.380    86996436.900 8      4879.185    20887675.680    86996435.906 8      4879.185
G22  23644944.120   124255019.483 6      3915.133    23644942.360   124255019.482 1      3915.133    23644953.780    96822087.655 1      3050.753
R17  22126505.700   118403398.125 7      1286.602    22126506.020   118403398.129 7      1286.602    22126522.060    92091596.224 7      1000.690    22126521.520    92091594.231 7      1000.690
G04  23208825.460   121963204.655 6      5736.043    23208824.640   121963204.665 4      5736.043    23208840.860    95036317.708 4      4469.644    23208840.880    95036322.759 7      4469.644
R02  22887218.660   122130575.511 7      -747.602    22887217.500   122130575.496 7      -747.602    22887231.540    94990506.801 7      -581.468    22887231.600    94990504.803 7      -581.468
R16  22779021.440   121681433.634 7      -281.390    22779021.200   121681433.630 6      -281.390    22779041.300    94641196.404 7      -218.859    22779041.360    94641196.403 7      -218.859
> 2025 04 04 17 25 15.0000000  0 13
G02  22617615.400   118856366.260 7      1502.192    22617614.040   118856366.264 6      1502.192    22617618.620    92615368.399 6      1170.539
G03  19989329.140   105044630.158 8      2435.133    19989328.700   105044630.160 8      2435.133    19989334.700    81852983.948 8      1897.506    19989335.660    81852986.952 8      1897.506
G14  22265650.700   117006781.314 7      2752.217    22265650.100   117006781.326 5      2752.217    22265657.260    91174143.621 5      2144.584    22265657.860    91174146.625 8      2144.584
R03  19835809.600   106182639.333 8      2673.574    19835809.920   106182639.359 7      2673.574    19835820.360    82586544.396 8      2079.447    19835820.400    82586543.393 8      2079.447
G01  21199782.620   111405607.395 7      2098.842    21199782.180   111405607.400 6      2098.842    21199787.000    86809581.359 6      1635.461    21199787.280    86809582.371 8      1635.461
R18  20610111.720   110018173.449 7      3174.969    20610111.900   110018173.450 7      3174.969    20610122.080    85569735.291 8      2469.420    20610121.920    85569736.295 8      2469.420
G08  22226251.600   116799734.916 7       106.695    22226250.160   116799734.915 6       106.695    22226261.640    91012819.119 6        83.139    22226263.160    91012825.121 7        83.139
R04  20886488.300   111846196.821 7      6273.258    20886489.260   111846196.866 6      6273.258    20886503.800    86991557.743 8      4879.201    20886504.040    86991556.750 8      4879.201
G22  23644198.640   124251104.434 6      3914.978    23644197.460   124251104.434 1      3914.978    23644208.780    96819036.982 1      3050.632
R17  22126265.380   118402111.396 7      1286.898    22126265.740   118402111.398 7      1286.898    22126281.800    92090595.437 7      1000.921    22126281.160    92090593.448 7      1000.921
G04  23207733.980   121957468.416 7      5736.439    23207733.060   121957468.426 4      5736.439    23207749.280    95031847.938 4      4469.952    23207749.280    95031852.985 7      4469.952
R02  22887358.500   122131323.194 7      -747.627    22887357.900   122131323.192 7      -747.627    22887372.020    94991088.349 7      -581.488    22887371.640    94991086.351 7      -581.488
R16  22779074.000   121681714.980 7      -281.158    22779074.140   121681714.973 6      -281.158    22779093.880    94641415.218 7      -218.678    22779093.940    94641415.213 7      -218.678
> 2025 04 04 17 25 16.0000000  0 13
G02  22617329.720   118854863.540 7      1503.094    22617328.020   118854863.545 6      1503.094    22617332.740    92614197.459 6      1171.242
G03  19988865.700   105042194.788 8      2435.523    19988865.200   105042194.795 8      2435.523    19988871.220    81851086.276 8      1897.810    19988872.180    81851089.278 8      1897.810
G14  22265127.200   117004028.879 7      2752.542    22265126.380   117004028.886 5      2752.542    22265133.480    91171998.873 5      2144.838    22265134.260    91172001.878 8      2144.838
R03  19835310.040   106179965.687 8      2673.634    19835310.640   106179965.713 8      2673.634    19835321.000    82584464.904 8      2079.493    19835320.800    82584463.901 8      2079.493
G01  21199383.160   111403508.124 7      2099.625    21199382.760   111403508.131 6      2099.625    21199387.420    86807945.580 6      1636.072    21199387.760    86807946.591 8      1636.072
R18  20609516.660   110014998.027 8      3175.771    20609516.980   110014998.023 7      3175.771    20609527.040    85567265.525 8      2470.044    20609527.160    85567266.532 8      2470.044
G08  22226231.200   116799627.847 7       107.333    22226229.880   116799627.849 6       107.333    22226241.300    91012735.695 6        83.636    22226242.740    91012741.699 7        83.636
R04  20885316.880   111839923.270 7      6273.739    20885317.680   111839923.301 7      6273.739    20885332.160    86986678.323 8      4879.575    20885332.460    86986677.328 8      4879.575
G22  23643453.820   124247189.052 6      3915.516    23643452.220   124247189.056 1      3915.516    23643463.680    96815986.049 1      3051.051
R17  22126024.840   118400824.060 7      1287.636    22126025.000   118400824.067 7      1287.636    22126040.860    92089594.190 7      1001.495    22126040.460    92089592.195 7      1001.495
G04  23206642.300   121951731.409 7      5737.388    23206641.400   121951731.414 4      5737.388    23206657.520    95027377.570 4      4470.692    23206657.280    95027382.621 7      4470.692
R02  22887498.800   122132070.512 7      -747.101    22887498.040   122132070.502 7      -747.101    22887511.980    94991669.602 7      -581.079    22887511.800    94991667.605 7      -581.079
R16  22779126.320   121681995.735 7      -280.408    22779126.680   121681995.726 7      -280.408    22779146.420    94641633.577 7      -218.095    22779146.460    94641633.576 7      -218.095
> 2025 04 04 17 25 17.0000000  0 13
G02  22617043.360   118853360.366 7      1503.316    22617041.960   118853360.371 6      1503.316    22617046.560    92613026.164 6      1171.415
G03  19988402.260   105039759.497 8      2435.335    19988401.840   105039759.496 8      2435.335    19988407.900    81849188.653 8      1897.663    19988408.780    81849191.654 8      1897.663
G14  22264603.500   117001276.538 7      2752.270    22264602.660   117001276.548 5      2752.270    22264609.740    91169854.206 5      2144.626    22264610.680    91169857.214 8      2144.626
R03  19834810.680   106177292.440 8      2673.061    19834811.240   106177292.458 8      2673.061    19834821.640    82582385.720 8      2079.047    19834821.580    82582384.717 8      2079.047
G01  21198983.740   111401408.474 7      2099.785    21198983.140   111401408.479 6      2099.785    21198987.940    86806309.493 6      1636.196    21198988.420    86806310.505 8      1636.196
R18  20608921.940   110011822.235 8      3175.960    20608922.100   110011822.233 7      3175.960    20608932.220    85564795.478 8      2470.191    20608932.140    85564796.484 8      2470.191
G08  22226210.460   116799520.600 7       107.465    22226209.460   116799520.597 6       107.465    22226221.020    91012652.128 6        83.739    22226222.460    91012658.131 7        83.739
R04  20884145.320   111833649.646 7      6273.639    20884146.080   111833649.674 7      6273.639    20884160.760    86981798.856 8      4879.497    20884160.960    86981797.861 8      4879.497
G22  23642709.040   124243273.706 6      3915.308    23642707.120   124243273.711 1      3915.308    23642718.440    96812935.143 1      3050.890
R17  22125784.520   118399536.457 7      1287.711    22125784.140   118399536.463 7      1287.711    22125800.580    92088592.723 7      1001.553    22125800.160    92088590.727 7      1001.553
G04  23205550.440   121945993.996 7      5737.647    23205549.540   121945994.003 4      5737.647    23205565.540    95022906.885 4      4470.894    23205565.420    95022911.938 7      4470.894
R02  22887638.760   122132817.736 7      -747.180    22887638.000   122132817.726 7      -747.180    22887651.920    94992250.785 7      -581.140    22887651.840    94992248.787 7      -581.140
R16  22779179.060   121682276.290 6      -280.590    22779179.280   121682276.289 7      -280.590    22779198.780    94641851.781 7      -218.236    22779198.980    94641851.777 7      -218.236
> 2025 04 04 17 25 18.0000000  0 13
G02  22616757.340   118851856.543 7      1504.200    22616755.800   118851856.553 6      1504.200    22616760.360    92611854.365 6      1172.104
G03  19987938.720   105037324.098 8      2435.531    19987938.380   105037324.103 8      2435.531    19987944.420    81847290.956 8      1897.816    19987945.240    81847293.957 8      1897.816
G14  22264079.500   116998524.140 7      2752.435    22264078.920   116998524.155 5      2752.435    22264086.080    91167709.492 5      2144.755    22264086.780    91167712.504 8      2144.755
R03  19834311.420   106174619.418 8      2672.971    19834311.940   106174619.441 8      2672.971    19834322.340    82580306.720 8      2078.977    19834322.320    82580305.719 8      2078.977
G01  21198584.080   111399308.250 7      2100.588    21198583.400   111399308.254 6      2100.588    21198588.180    86804672.969 6      1636.822    21198588.760    86804673.979 8      1636.822
R18  20608326.980   110008645.895 7      3176.744    20608327.060   110008645.896 7      3176.744    20608337.100    85562325.006 8      2470.801    20608337.060    85562326.016 8      2470.801
G08  22226190.020   116799413.045 7       107.846    22226189.100   116799413.042 6       107.846    22226200.720    91012568.327 6        84.036    22226201.860    91012574.335 7        84.036
R04  20882973.620   111827375.816 7      6273.979    20882974.540   111827375.858 7      6273.979    20882989.080    86976919.242 8      4879.761    20882989.360    86976918.249 8      4879.761
G22  23641964.540   124239358.153 6      3915.675    23641962.080   124239358.163 1      3915.675    23641973.120    96809884.075 1      3051.175
R17  22125543.300   118398248.337 7      1288.428    22125543.400   118398248.341 7      1288.428    22125559.640    92087590.871 7      1002.111    22125559.240    92087588.879 7      1002.111
G04  23204458.580   121940256.007 7      5738.423    23204457.520   121940256.020 4      5738.423    23204473.660    95018435.757 4      4471.499    23204473.600    95018440.810 7      4471.499
R02  22887778.680   122133564.752 7      -746.878    22887778.100   122133564.737 7      -746.878    22887791.820    94992831.806 7      -580.905    22887791.920    94992829.812 7      -580.905
R16  22779231.560   121682556.389 7      -279.750    22779231.820   121682556.387 7      -279.750    22779251.320    94642069.633 7      -217.583    22779251.620    94642069.629 7      -217.583
> 2025 04 04 17 25 19.0000000  0 13
G02  22616470.980   118850352.266 7      1504.683    22616469.680   118850352.276 6      1504.683    22616474.060    92610682.210 6      1172.480
G03  19987475.380   105034888.749 8      2435.514    19987474.960   105034888.749 8      2435.514    19987481.040    81845393.289 8      1897.803    19987481.640    81845396.291 8      1897.803
G14  22263555.840   116995771.815 7      2752.492    22263555.140   116995771.825 5      2752.492    22263562.420    91165564.834 5      2144.799    22263563.140    91165567.837 8      2144.799
R03  19833812.140   106171946.757 8      2672.685    19833812.640   106171946.783 8      2672.685    19833823.020    82578227.996 8      2078.755    19833823.020    82578226.993 8      2078.755
G01  21198184.320   111397207.636 8      2100.964    21198183.700   111397207.641 6      2100.964    21198188.600    86803036.137 6      1637.115    21198189.040    86803037.147 8      1637.115
R18  20607732.120   110005469.173 7      3177.120    20607732.280   110005469.174 7      3177.120    20607742.080    85559854.233 8      2471.093    20607741.920    85559855.243 8      2471.093
G08  22226169.520   116799305.303 7       108.022    22226168.520   116799305.300 6       108.022    22226180.140    91012484.375 6        84.173    22226181.540    91012490.376 7        84.173
R04  20881802.020   111821101.946 7      6274.108    20881803.320   111821101.974 7      6274.108    20881817.460    86972039.580 8      4879.862    20881817.820    86972038.582 8      4879.862
G22  23641219.220   124235442.634 6      3915.756    23641217.320   124235442.644 1      3915.756    23641228.060    96806833.035 1      3051.238
R17  22125302.120   118396959.912 7      1288.745    22125302.380   118396959.921 7      1288.745    22125318.700    92086588.773 7      1002.357    22125318.320    92086586.777 7      1002.357
G04  23203366.120   121934517.603 7      5738.848    23203365.520   121934517.610 4      5738.848    23203381.620    95013964.298 4      4471.829    23203381.840    95013969.343 7      4471.829
R02  22887918.720   122134311.672 7      -746.663    22887918.320   122134311.657 7      -746.663    22887931.820    94993412.748 7      -580.738    22887931.640    94993410.752 7      -580.738
R16  22779283.680   121682836.287 7      -279.638    22779284.360   121682836.285 6      -279.638    22779303.900    94642287.325 7      -217.497    22779304.060    94642287.322 7      -217.497
> 2025 04 04 17 25 20.0000000  0 13
G02  22616184.540   118848847.268 7      1505.296    22616183.380   118848847.276 6      1505.296    22616187.860    92609509.495 6      1172.958
G03  19987011.920   105032453.203 8      2435.570    19987011.520   105032453.205 8      2435.570    19987017.560    81843495.476 8      1897.847    19987018.620    81843498.477 8      1897.847
G14  22263032.020   116993019.351 7      2752.486    22263031.500   116993019.361 5      2752.486    22263038.800    91163420.067 5      2144.794    22263039.180    91163423.070 8      2144.794
R03  19833312.480   106169274.252 8      2672.376    19833313.840   106169274.278 8      2672.376    19833323.980    82576149.397 8      2078.514    19833323.780    82576148.394 8      2078.514
G01  21197784.480   111395106.376 7      2101.476    21197783.800   111395106.386 6      2101.476    21197788.780    86801398.804 6      1637.514    21197789.260    86801399.818 8      1637.514
R18  20607137.000   110002291.827 8      3177.593    20607136.720   110002291.828 7      3177.593    20607146.940    85557382.978 8      2471.461    20607146.480    85557383.986 8      2471.461
G08  22226149.120   116799197.131 7       108.359    22226147.940   116799197.131 6       108.359    22226159.500    91012400.095 6        84.436    22226160.800    91012406.104 7        84.436
R04  20880630.160   111814827.835 7      6274.152    20880631.480   111814827.866 7      6274.152    20880645.860    86967159.736 8      4879.896    20880646.680    86967158.739 8      4879.896
G22  23640474.400   124231526.852 6      3915.862    23640471.940   124231526.862 1      3915.862    23640482.740    96803781.787 1      3051.321
R17  22125061.580   118395670.973 7      1289.192    22125061.420   118395670.982 7      1289.192    22125078.140    92085586.271 7      1002.705    22125077.520    92085584.274 7      1002.705
G04  23202274.020   121928778.531 7      5739.346    23202273.260   121928778.541 4      5739.346    23202289.600    95009492.327 4      4472.217    23202289.680    95009497.376 7      4472.217
R02  22888058.380   122135058.325 7      -746.660    22888058.180   122135058.323 7      -746.660    22888071.720    94993993.501 7      -580.735    22888071.380    94993991.509 7      -580.735
R16  22779336.540   121683115.648 7      -279.152    22779336.520   121683115.652 6      -279.152    22779356.040    94642504.604 7      -217.118    22779356.520    94642504.599 7      -217.118
> 2025 04 04 17 25 21.0000000  0 13
G02  22615898.200   118847341.785 7      1505.942    22615897.000   118847341.797 6      1505.942    22615901.260    92608336.404 6      1173.461
G03  19986548.320   105030017.712 8      2435.607    19986548.020   105030017.712 8      2435.607    19986553.980    81841597.699 8      1897.876    19986555.100    81841600.702 8      1897.876
G14  22262508.380   116990266.952 7      2752.479    22262507.840   116990266.962 5      2752.479    22262515.000    91161275.353 5      2144.789    22262515.320    91161278.365 8      2144.789
R03  19832813.960   106166602.124 8      2672.165    19832814.380   106166602.149 8      2672.165    19832824.880    82574071.086 8      2078.351    19832824.640    82574070.083 8      2078.351
G01  21197384.740   111393004.708 7      2102.061    21197383.840   111393004.716 6      2102.061    21197388.840    86799761.154 6      1637.969    21197389.040    86799762.167 8      1637.969
R18  20606541.680   109999114.123 7      3178.013    20606541.520   109999114.124 7      3178.013    20606551.760    85554911.443 8      2471.788    20606551.440    85554912.451 8      2471.788
G08  22226128.320   116799088.786 7       108.634    22226127.460   116799088.793 6       108.634    22226138.860    91012315.682 6        84.650    22226139.740    91012321.692 7        84.650
R04  20879458.500   111808553.694 7      6274.283    20879459.340   111808553.736 7      6274.283    20879474.260    86962279.879 8      4879.998    20879474.340    86962278.885 8      4879.998
G22  23639728.640   124227611.044 6      3915.978    23639726.400   124227611.049 1      3915.978    23639737.520    96800730.520 1      3051.411
R17  22124820.760   118394381.767 7      1289.505    22124821.000   118394381.776 7      1289.505    22124837.220    92084583.559 7      1002.948    22124836.640    92084581.566 7      1002.948
G04  23201181.720   121923039.021 7      5740.018    23201181.040   121923039.026 4      5740.018    23201197.420    95005020.008 4      4472.742    23201197.540    95005025.053 7      4472.742
R02  22888198.600   122135804.971 7      -746.414    22888198.220   122135804.953 7      -746.414    22888211.900    94994574.223 7      -580.544    22888211.540    94994572.227 7      -580.544
R16  22779388.980   121683394.777 7      -278.834    22779389.260   121683394.786 6      -278.834    22779408.580    94642721.706 7      -216.871    22779408.360    94642721.701 7      -216.871
> 2025 04 04 17 25 22.0000000  0 13
G02  22615611.820   118845835.741 7      1506.161    22615610.320   118845835.751 6      1506.161    22615614.700    92607162.869 6      1173.632
G03  19986085.020   105027582.142 8      2435.413    19986084.620   105027582.145 8      2435.413    19986090.540    81839699.869 8      1897.725    19986091.640    81839702.870 8      1897.725
G14  22261984.560   116987514.541 7      2752.236    22261984.120   116987514.556 5      2752.236    22261991.340    91159130.629 5      2144.600    22261991.680    91159133.639 8      2144.600
R03  19832314.580   106163930.274 8      2671.578    19832315.140   106163930.299 8      2671.578    19832325.800    82571992.995 8      2077.894    19832325.260    82571991.990 8      2077.894
G01  21196984.300   111390902.547 7      2102.220    21196983.860   111390902.557 6      2102.220    21196988.960    86798123.116 6      1638.094    21196989.060    86798124.124 8      1638.094
R18  20605946.000   109995935.926 7      3178.275    20605945.980   109995935.932 7      3178.275    20605956.380    85552439.529 8      2471.991    20605956.240    85552440.538 8      2471.991
G08  22226107.640   116798980.159 7       108.716    22226106.920   116798980.158 6       108.716    22226118.060    91012231.040 6        84.714    22226118.960    91012237.047 7        84.714
R04  20878286.740   111802279.446 7      6274.150    20878288.100   111802279.480 7      6274.150    20878302.580    86957399.921 8      4879.895    20878302.740    86957398.923 8      4879.895
G22  23638983.500   124223695.128 6      3915.806    23638981.080   124223695.136 1      3915.806    23638992.480    96797679.170 1      3051.277
R17  22124579.520   118393092.164 7      1289.552    22124580.320   118393092.179 7      1289.552    22124596.460    92083580.544 7      1002.985    22124595.800    92083578.550 7      1002.985
G04  23200089.600   121917298.972 6      5740.342    23200088.780   121917298.977 4      5740.342    23200105.120    95000547.269 4      4472.993    23200105.240    95000552.320 7      4472.993
R02  22888338.360   122136551.477 7      -746.488    22888338.060   122136551.465 7      -746.488    22888351.700    94995154.851 7      -580.602    22888351.400    94995152.860 7      -580.602
R16  22779441.220   121683673.577 7      -278.854    22779441.440   121683673.583 7      -278.854    22779461.000    94642938.545 7      -216.887    22779460.760    94642938.541 7      -216.887
> 2025 04 04 17 25 23.0000000  0 13
G02  22615325.100   118844329.183 7      1506.809    22615323.640   118844329.191 6      1506.809    22615327.960    92605988.938 6      1174.137
G03  19985621.620   105025146.594 8      2435.535    19985621.140   105025146.593 8      2435.535    19985627.140    81837802.051 8      1897.819    19985628.080    81837805.057 8      1897.819
G14  22261461.020   116984762.192 7      2752.297    22261460.500   116984762.202 5      2752.297    22261467.660    91156985.948 5      2144.647    22261468.160    91156988.958 8      2144.647
R03  19831815.700   106161258.769 8      2671.281    19831816.000   106161258.798 8      2671.281    19831826.740    82569915.179 8      2077.663    19831826.300    82569914.174 8      2077.663
G01  21196584.540   111388799.950 7      2102.744    21196583.820   111388799.957 6      2102.744    21196588.720    86796484.739 6      1638.502    21196588.920    86796485.748 8      1638.502
R18  20605350.540   109992757.325 7      3178.773    20605350.700   109992757.331 7      3178.773    20605360.780    85549967.296 8      2472.379    20605361.040    85549968.304 8      2472.379
G08  22226087.220   116798871.343 7       108.920    22226086.180   116798871.342 6       108.920    22226097.400    91012146.252 6        84.873    22226098.420    91012152.262 7        84.873
R04  20877114.880   111796005.113 7      6274.348    20877116.100   111796005.157 7      6274.348    20877130.940    86952519.913 8      4880.049    20877130.860    86952518.917 8      4880.049
G22  23638238.580   124219779.186 6      3915.935    23638235.880   124219779.191 1      3915.935    23638247.160    96794627.796 1      3051.378
R17  22124338.420   118391802.198 7      1290.057    22124339.320   118391802.213 7      1290.057    22124355.680    92082577.249 7      1003.377    22124354.760    92082575.252 7      1003.377
G04  23198997.480   121911558.505 6      5740.743    23198996.480   121911558.513 4      5740.743    23199012.740    94996074.207 4      4473.306    23199012.520    94996079.256 7      4473.306
R02  22888478.240   122137297.936 7      -746.473    22888477.520   122137297.918 7      -746.473    22888491.680    94995735.445 7      -580.590    22888491.480    94995733.449 7      -580.590
R16  22779493.320   121683952.110 7      -278.416    22779493.480   121683952.098 7      -278.416    22779512.840    94643155.165 7      -216.546    22779513.040    94643155.160 7      -216.546
> 2025 04 04 17 25 24.0000000  0 13
G02  22615038.440   118842821.984 7      1507.632    22615036.840   118842821.991 6      1507.632    22615041.220    92604814.507 6      1174.778
G03  19985158.140   105022710.937 8      2435.784    19985157.560   105022710.934 8      2435.784    19985163.660    81835904.147 8      1898.013    19985164.480    81835907.151 8      1898.013
G14  22260937.200   116982009.760 7      2752.483    22260936.700   116982009.767 5      2752.483    22260943.980    91154841.208 5      2144.792    22260944.480    91154844.213 8      2144.792
R03  19831316.600   106158587.452 8      2671.271    19831317.000   106158587.483 8      2671.271    19831327.640    82567837.498 8      2077.656    19831327.300    82567836.495 8      2077.656
G01  21196184.260   111386696.774 7      2103.541    21196183.580   111386696.776 6      2103.541    21196188.420    86794845.909 6      1639.123    21196188.720    86794846.918 8      1639.123
R18  20604755.180   109989578.151 8      3179.455    20604755.060   109989578.149 7      3179.455    20604765.400    85547494.611 8      2472.910    20604765.220    85547495.619 8      2472.910
G08  22226066.300   116798762.156 7       109.436    22226065.480   116798762.161 6       109.436    22226076.960    91012061.182 6        85.275    22226077.740    91012067.189 7        85.275
R04  20875943.760   111789730.619 7      6274.675    20875944.720   111789730.642 7      6274.675    20875959.240    86947639.757 8      4880.303    20875959.260    86947638.762 8      4880.303
G22  23637493.820   124215863.049 6      3916.482    23637490.700   124215863.054 1      3916.482    23637501.960    96791576.272 1      3051.804
R17  22124097.360   118390511.727 7      1290.710    22124098.260   118390511.741 7      1290.710    22124114.440    92081573.545 7      1003.886    22124113.500    92081571.547 8      1003.886
G04  23197904.700   121905817.400 7      5741.610    23197903.900   121905817.407 4      5741.610    23197920.080    94991600.649 4      4473.982    23197920.360    94991605.700 7      4473.982
R02  22888618.360   122138044.117 7      -746.052    22888617.780   122138044.101 7      -746.052    22888631.180    94996315.814 7      -580.262    22888631.120    94996313.814 7      -580.262
R16  22779545.800   121684230.179 7      -277.717    22779545.500   121684230.177 7      -277.717    22779564.940    94643371.436 7      -216.002    22779565.080    94643371.437 7      -216.002
> 2025 04 04 17 25 25.0000000  0 13
G02  22614751.560   118841314.340 7      1507.942    22614750.100   118841314.345 6      1507.942    22614754.280    92603639.729 6      1175.020
G03  19984694.720   105020275.347 8      2435.569    19984694.180   105020275.349 8      2435.569    19984700.220    81834006.296 8      1897.846    19984701.080    81834009.300 8      1897.846
G14  22260413.380   116979257.435 7      2752.269    22260412.880   116979257.442 5      2752.269    22260420.120    91152696.551 5      2144.625    22260420.720    91152699.557 8      2144.625
R03  19830817.680   106155916.542 8      2670.749    19830817.940   106155916.570 8      2670.749    19830828.760    82565760.132 8      2077.249    19830828.400    82565759.131 8      2077.249
G01  21195783.920   111384593.231 7      2103.748    21195783.220   111384593.235 6      2103.748    21195788.040    86793206.798 6      1639.284    21195788.320    86793207.806 8      1639.284
R18  20604159.300   109986398.629 7      3179.710    20604159.520   109986398.625 7      3179.710    20604169.780    85545021.658 8      2473.108    20604169.740    85545022.666 8      2473.108
G08  22226045.420   116798652.836 7       109.491    22226044.520   116798652.841 6       109.491    22226056.100    91011976.001 6        85.318    22226056.980    91011982.009 7        85.318
R04  20874771.740   111783456.101 7      6274.496    20874772.680   111783456.132 7      6274.496    20874787.620    86942759.599 8      4880.164    20874787.400    86942758.604 8      4880.164
G22  23636748.180   124211946.968 6      3915.983    23636745.560   124211946.973 1      3915.983    23636756.820    96788524.790 1      3051.416
R17  22123855.820   118389220.982 7      1290.840    22123857.040   118389220.999 7      1290.840    22123873.020    92080569.630 7      1003.987    22123872.440    92080567.630 7      1003.987
G04  23196811.900   121900075.969 7      5741.594    23196811.360   121900075.971 4      5741.594    23196827.620    94987126.829 4      4473.969    23196827.580    94987131.872 7      4473.969
R02  22888757.860   122138790.228 7      -746.070    22888757.540   122138790.210 7      -746.070    22888771.300    94996896.129 7      -580.277    22888770.800    94996894.134 7      -580.277
R16  22779597.660   121684508.042 7      -277.668    22779597.360   121684508.037 7      -277.668    22779616.980    94643587.548 7      -215.964    22779617.100    94643587.548 7      -215.964
> 2025 04 04 17 25 26.0000000  0 13
G02  22614464.340   118839806.022 7      1508.615    22614462.980   118839806.029 6      1508.615    22614467.120    92602464.426 6      1175.544
G03  19984231.000   105017839.609 8      2435.822    19984230.680   105017839.608 8      2435.822    19984236.760    81832108.327 8      1898.043    19984237.560    81832111.335 8      1898.043
G14  22259889.520   116976504.992 7      2752.534    22259889.060   116976505.002 5      2752.534    22259896.300    91150551.801 5      2144.832    22259896.940    91150554.804 8      2144.832
R03  19830318.560   106153245.811 8      2670.641    19830319.060   106153245.839 8      2670.641    19830329.940    82563682.913 8      2077.165    19830329.440    82563681.910 8      2077.165
G01  21195383.520   111382489.075 8      2104.491    21195382.820   111382489.080 6      2104.491    21195387.800    86791567.205 6      1639.863    21195387.840    86791568.216 8      1639.863
R18  20603563.660   109983218.537 7      3180.413    20603563.780   109983218.532 7      3180.413    20603574.060    85542548.261 8      2473.654    20603574.120    85542549.267 8      2473.654
G08  22226024.740   116798543.142 7       109.854    22226023.760   116798543.147 6       109.854    22226035.060    91011890.530 6        85.600    22226035.760    91011896.539 7        85.600
R04  20873600.460   111777181.328 7      6274.903    20873600.880   111777181.354 7      6274.903    20873615.760    86937879.237 8      4880.480    20873615.860    86937878.242 8      4880.480
G22  23636003.140   124208030.608 6      3916.528    23636000.420   124208030.608 1      3916.528    23636011.480    96785473.091 1      3051.840
R17  22123614.680   118387929.753 7      1291.436    22123615.740   118387929.773 7      1291.436    22123631.460    92079565.341 7      1004.451    22123630.980    92079563.341 7      1004.451
G04  23195719.140   121894333.849 7      5742.285    23195718.660   121894333.854 4      5742.285    23195734.980    94982652.477 4      4474.508    23195734.940    94982657.536 7      4474.508
R02  22888897.460   122139536.089 7      -745.698    22888897.020   122139536.071 7      -745.698    22888911.100    94997476.249 7      -579.988    22888910.660    94997474.258 7      -579.988
R16  22779649.760   121684785.440 7      -277.109    22779649.300   121684785.433 7      -277.109    22779668.640    94643803.293 7      -215.529    22779669.080    94643803.292 7      -215.529
> 2025 04 04 17 25 27.0000000  0 13
G02  22614177.280   118838297.217 7      1509.192    22614175.780   118838297.224 6      1509.192    22614180.020    92601288.744 6      1175.994
G03  19983767.480   105015403.913 8      2435.793    19983767.160   105015403.915 8      2435.793    19983773.180    81830210.396 8      1898.021    19983773.920    81830213.402 8      1898.021
G14  22259366.040   116973752.641 7      2752.501    22259365.380   116973752.653 5      2752.501    22259372.640    91148407.120 5      2144.806    22259373.100    91148410.130 8      2144.806
R03  19829819.480   106150575.462 8      2670.318    19829820.100   106150575.491 8      2670.318    19829830.780    82561605.994 8      2076.914    19829830.800    82561604.989 8      2076.914
G01  21194983.080   111380384.536 8      2104.864    21194982.360   111380384.543 6      2104.864    21194987.220    86789927.318 6      1640.153    21194987.300    86789928.324 8      1640.153
R18  20602968.040   109980038.076 8      3180.760    20602968.220   109980038.074 7      3180.760    20602978.380    85540074.584 8      2473.924    20602978.060    85540075.590 8      2473.924
G08  22226003.740   116798433.283 7       109.922    22226002.740   116798433.285 6       109.922    22226014.280    91011804.928 6        85.654    22226015.320    91011810.939 7        85.654
R04  20872428.760   111770906.561 7      6274.952    20872429.060   111770906.584 7      6274.952    20872444.000    86932998.881 8      4880.518    20872444.060    86932997.886 8      4880.518
G22  23635257.200   124204114.309 6      3916.373    23635255.000   124204114.306 1      3916.373    23635266.600    96782421.440 1      3051.719
R17  22123373.280   118386638.243 7      1291.786    22123374.560   118386638.266 7      1291.786    22123390.140    92078560.841 7      1004.723    22123389.600    92078558.846 7      1004.723
G04  23194626.800   121888591.315 6      5742.826    23194625.820   121888591.322 4      5742.826    23194642.100    94978177.803 4      4474.929    23194642.160    94978182.852 7      4474.929
R02  22889037.740   122140281.926 7      -745.717    22889036.960   122140281.913 7      -745.717    22889050.980    94998056.366 7      -580.002    22889050.520    94998054.368 7      -580.002
R16  22779701.880   121685062.605 7      -276.926    22779701.340   121685062.601 7      -276.926    22779720.740    94644018.869 7      -215.387    22779721.180    94644018.863 7      -215.387
> 2025 04 04 17 25 28.0000000  0 13
G02  22613889.880   118836787.789 7      1509.800    22613888.500   118836787.799 6      1509.800    22613892.700    92600112.575 6      1176.468
G03  19983303.960   105012968.107 8      2435.943    19983303.700   105012968.106 8      2435.943    19983309.620    81828312.376 8      1898.137    19983310.480    81828315.384 8      1898.137
G14  22258842.360   116971000.216 7      2752.570    22258841.640   116971000.226 5      2752.570    22258848.900    91146262.383 5      2144.860    22258849.480    91146265.395 8      2144.860
R03  19829320.980   106147905.328 8      2670.117    19829321.000   106147905.356 8      2670.117    19829332.100    82559529.232 8      2076.758    19829331.680    82559528.230 8      2076.758
G01  21194582.480   111378279.426 7      2105.456    21194581.820   111378279.429 6      2105.456    21194586.540    86788286.977 6      1640.615    21194586.840    86788287.987 8      1640.615
R18  20602371.740   109976857.057 7      3181.375    20602372.220   109976857.058 7      3181.375    20602382.420    85537600.469 8      2474.403    20602382.280    85537601.472 8      2474.403
G08  22225982.880   116798323.038 7       110.441    22225981.780   116798323.050 6       110.441    22225993.300    91011719.036 6        86.058    22225994.540    91011725.042 7        86.058
R04  20871256.660   111764631.607 7      6275.116    20871257.460   111764631.641 7      6275.116    20871272.240    86928118.388 8      4880.646    20871272.220    86928117.395 8      4880.646
G22  23634511.780   124200197.836 6      3916.412    23634509.300   124200197.833 1      3916.412    23634520.760    96779369.653 1      3051.750
R17  22123131.840   118385346.273 7      1292.212    22123133.140   118385346.290 7      1292.212    22123148.820    92077555.978 7      1005.054    22123148.080    92077553.980 7      1005.054
G04  23193533.640   121882848.210 7      5743.486    23193532.920   121882848.215 4      5743.486    23193549.260    94973702.681 4      4475.444    23193549.480    94973707.730 7      4475.444
R02  22889177.160   122141027.557 7      -745.483    22889176.840   122141027.537 7      -745.483    22889190.640    94998636.307 7      -579.820    22889190.380    94998634.308 7      -579.820
R16  22779753.260   121685339.341 7      -276.445    22779752.880   121685339.350 7      -276.445    22779772.240    94644234.110 7      -215.013    22779772.720    94644234.104 7      -215.013
> 2025 04 04 17 25 29.0000000  0 13
G02  22613602.620   118835277.784 7      1510.187    22613601.140   118835277.794 6      1510.187    22613605.600    92598935.959 6      1176.769
G03  19982840.640   105010532.261 8      2435.692    19982840.140   105010532.261 8      2435.692    19982846.100    81826414.325 8      1897.942    19982846.860    81826417.333 8      1897.942
G14  22258318.540   116968247.789 7      2752.305    22258317.960   116968247.794 5      2752.305    22258325.120    91144117.643 5      2144.653    22258325.760    91144120.655 8      2144.653
R03  19828822.260   106145235.459 8      2669.612    19828822.260   106145235.485 7      2669.612    19828833.380    82557452.677 8      2076.365    19828833.120    82557451.676 8      2076.365
G01  21194181.520   111376173.833 7      2105.665    21194181.060   111376173.838 6      2105.665    21194186.000    86786646.266 6      1640.778    21194186.200    86786647.271 8      1640.778
R18  20601775.700   109973675.566 7      3181.620    20601776.140   109973675.567 7      3181.620    20601786.400    85535125.988 8      2474.594    20601786.220    85535126.990 8      2474.594
G08  22225962.000   116798212.537 7       110.508    22225960.660   116798212.540 6       110.508    22225972.340    91011632.932 6        86.110    22225973.400    91011638.942 7        86.110
R04  20870084.840   111758356.518 7      6275.068    20870085.460   111758356.552 7      6275.068    20870100.360    86923237.785 8      4880.608    20870100.500    86923236.790 8      4880.608
G22  23633766.800   124196281.224 5      3916.403    23633763.560   124196281.226 1      3916.403    23633775.220    96776317.764 1      3051.743
R17  22122890.880   118384053.896 7      1292.397    22122891.580   118384053.906 7      1292.397    22122907.300    92076550.798 7      1005.197    22122906.540    92076548.798 8      1005.197
G04  23192440.480   121877104.553 6      5743.942    23192439.960   121877104.553 4      5743.942    23192456.280    94969227.129 4      4475.799    23192456.540    94969232.174 7      4475.799
R02  22889316.900   122141773.050 7      -745.503    22889316.360   122141773.024 7      -745.503    22889330.040    94999216.133 7      -579.836    22889329.820    94999214.135 7      -579.836
R16  22779805.120   121685615.740 7      -276.289    22779804.780   121685615.749 7      -276.289    22779824.340    94644449.081 7      -214.892    22779824.300    94644449.079 7      -214.892
> 2025 04 04 17 25 30.0000000  0 13
G02  22613315.280   118833767.192 7      1511.188    22613313.740   118833767.202 6      1511.188    22613318.120    92597758.881 6      1177.549
G03  19982377.120   105008096.337 8      2436.206    19982376.540   105008096.334 8      2436.206    19982382.640    81824516.210 8      1898.343    19982383.220    81824519.220 8      1898.343
G14  22257794.660   116965495.327 7      2752.745    22257794.220   116965495.332 5      2752.745    22257801.360    91141972.878 5      2144.996    22257801.980    91141975.884 8      2144.996
R03  19828323.640   106142565.830 8      2669.737    19828323.640   106142565.859 8      2669.737    19828334.780    82555376.314 8      2076.462    19828334.400    82555375.313 8      2076.462
G01  21193780.880   111374067.699 8      2106.685    21193780.420   111374067.702 6      2106.685    21193785.140    86785005.129 6      1641.573    21193785.500    86785006.138 8      1641.573
R18  20601179.760   109970493.578 8      3182.607    20601180.040   109970493.576 7      3182.607    20601190.280    85532651.119 8      2475.361    20601190.300    85532652.121 8      2475.361
G08  22225940.640   116798101.756 7       111.211    22225939.720   116798101.753 6       111.211    22225951.260    91011546.611 6        86.658    22225952.620    91011552.612 7        86.658
R04  20868912.860   111752081.317 7      6275.552    20868913.840   111752081.351 7      6275.552    20868928.560    86918357.083 8      4880.985    20868928.660    86918356.088 8      4880.985
G22  23633021.320   124192364.496 5      3916.987    23633018.180   124192364.506 1      3916.987    23633030.120    96773265.782 1      3052.198
R17  22122649.300   118382761.099 7      1293.296    22122650.000   118382761.101 7      1293.296    22122665.680    92075545.287 7      1005.897    22122665.040    92075543.288 7      1005.897
G04  23191347.480   121871360.395 7      5744.745    23191346.700   121871360.397 4      5744.745    23191363.160    94964751.190 4      4476.425    23191363.500    94964756.242 7      4476.425
R02  22889456.820   122142518.380 7      -745.003    22889456.000   122142518.349 7      -745.003    22889469.700    94999795.840 7      -579.447    22889469.700    94999793.843 7      -579.447
R16  22779856.840   121685891.784 7      -275.520    22779856.200   121685891.785 6      -275.520    22779875.700    94644663.777 7      -214.293    22779876.020    94644663.774 7      -214.293
> 2025 04 04 17 25 31.0000000  0 13
G02  22613027.700   118832255.933 7      1511.424    22613026.180   118832255.946 6      1511.424    22613030.580    92596581.287 6      1177.733
G03  19981913.320   105005660.255 8      2435.997    19981912.960   105005660.257 8      2435.997    19981919.000    81822617.981 8      1898.180    19981919.740    81822620.988 8      1898.180
G14  22257270.480   116962742.755 7      2752.428    22257270.260   116962742.766 5      2752.428    22257277.440    91139828.031 5      2144.749    22257278.040    91139831.037 8      2144.749
R03  19827824.720   106139896.363 8      2669.244    19827824.880   106139896.386 8      2669.244    19827836.060    82553300.074 8      2076.078    19827835.700    82553299.071 8      2076.078
G01  21193379.920   111371960.974 7      2106.848    21193379.520   111371960.982 6      2106.848    21193384.240    86783363.537 6      1641.700    21193384.600    86783364.548 8      1641.700
R18  20600583.360   109967311.033 7      3182.694    20600583.780   109967311.031 7      3182.694    20600594.020    85530175.819 8      2475.429    20600594.000    85530176.820 8      2475.429
G08  22225919.300   116797990.583 7       111.290    22225918.480   116797990.585 6       111.290    22225930.160    91011459.987 6        86.720    22225931.660    91011465.990 7        86.720
R04  20867740.920   111745805.900 7      6275.385    20867741.740   111745805.928 7      6275.385    20867756.820    86913476.222 8      4880.855    20867756.760    86913475.229 8      4880.855
G22  23632275.780   124188447.529 6      3917.120    23632273.300   124188447.537 1      3917.120    23632284.800    96770213.615 1      3052.302
R17  22122407.760   118381467.807 7      1293.309    22122407.680   118381467.814 7      1293.309    22122424.040    92074539.406 7      1005.907    22122423.660    92074537.411 7      1005.907
G04  23190254.480   121865615.577 6      5745.082    23190253.620   121865615.582 4      5745.082    23190270.040    94960274.740 4      4476.688    23190270.440    94960279.795 7      4476.688
R02  22889596.520   122143263.432 7      -745.049    22889595.860   122143263.404 7      -745.049    22889609.400    95000375.327 7      -579.483    22889609.080    95000373.330 7      -579.483
R16  22779908.480   121686167.385 7      -275.590    22779907.660   121686167.383 6      -275.590    22779927.580    94644878.125 7      -214.348    22779927.680    94644878.122 7      -214.348
> 2025 04 04 17 25 32.0000000  0 13
G02  22612739.880   118830744.099 7      1512.270    22612738.580   118830744.107 6      1512.270    22612742.820    92595403.243 6      1178.393
G03  19981449.700   105003224.131 8      2436.336    19981449.480   105003224.130 8      2436.336    19981455.440    81820719.710 8      1898.444    19981456.260    81820722.716 8      1898.444
G14  22256746.900   116959990.157 7      2752.782    22256746.540   116959990.165 5      2752.782    22256753.700    91137683.156 5      2145.025    22256754.220    91137686.164 8      2145.025
R03  19827325.980   106137227.179 8      2669.252    19827326.120   106137227.207 8      2669.252    19827337.340    82551224.056 8      2076.085    19827336.900    82551223.053 8      2076.085
G01  21192979.020   111369853.755 7      2107.642    21192978.560   111369853.760 6      2107.642    21192983.340    86781721.556 6      1642.318    21192983.640    86781722.565 8      1642.318
R18  20599987.300   109964127.978 7      3183.595    20599987.480   109964127.979 7      3183.595    20599997.640    85527700.119 8      2476.129    20599997.580    85527701.119 8      2476.129
G08  22225898.300   116797879.155 7       111.740    22225897.380   116797879.157 6       111.740    22225908.760    91011373.168 6        87.070    22225910.120    91011379.172 7        87.070
R04  20866568.700   111739530.364 7      6275.789    20866570.340   111739530.393 7      6275.789    20866584.680    86908595.270 8      4881.169    20866584.960    86908594.277 8      4881.169
G22  23631530.440   124184530.515 6      3917.238    23631527.440   124184530.525 1      3917.238    23631539.840    96767161.404 1      3052.393
R17  22122165.780   118380174.069 7      1294.160    22122166.060   118380174.075 7      1294.160    22122182.120    92073533.165 8      1006.569    22122181.840    92073531.171 7      1006.569
G04  23189161.100   121859870.289 6      5745.789    23189160.140   121859870.291 4      5745.789    23189176.680    94955797.918 4      4477.238    23189176.980    94955802.969 7      4477.238
R02  22889735.980   122144008.357 7      -744.688    22889735.460   122144008.333 7      -744.688    22889749.120    95000954.736 7      -579.202    22889749.120    95000952.736 7      -579.202
R16  22779959.940   121686442.630 7      -274.952    22779959.060   121686442.623 6      -274.952    22779978.960    94645092.188 7      -213.852    22779978.920    94645092.189 7      -213.852
> 2025 04 04 17 25 33.0000000  0 13
G02  22612452.100   118829231.647 7      1512.437    22612450.700   118829231.655 6      1512.437    22612455.020    92594224.715 6      1178.523
G03  19980986.160   105000787.917 8      2435.890    19980985.840   105000787.914 8      2435.890    19980991.820    81818821.368 8      1898.096    19980992.540    81818824.378 8      1898.096
G14  22256223.120   116957237.499 7      2752.431    22256222.780   116957237.506 5      2752.431    22256229.960    91135538.235 5      2144.751    22256230.480    91135541.241 8      2144.751
R03  19826827.240   106134558.206 8      2668.562    19826827.640   106134558.232 8      2668.562    19826838.780    82549148.199 8      2075.548    19826838.560    82549147.198 8      2075.548
G01  21192577.860   111367745.970 7      2107.820    21192577.400   111367745.975 6      2107.820    21192582.200    86780079.139 6      1642.457    21192582.660    86780080.148 8      1642.457
R18  20599390.760   109960944.423 7      3183.500    20599391.140   109960944.424 7      3183.500    20599401.240    85525224.032 8      2476.056    20599401.220    85525225.031 8      2476.056
G08  22225877.300   116797767.388 7       111.549    22225876.140   116797767.388 6       111.549    22225887.740    91011286.086 6        86.921    22225888.580    91011292.087 7        86.921
R04  20865396.780   111733254.633 7      6275.486    20865398.280   111733254.662 7      6275.486    20865412.760    86903714.169 8      4880.934    20865412.860    86903713.176 8      4880.934
G22  23630785.080   124180613.312 6      3917.042    23630781.700   124180613.317 1      3917.042    23630794.200    96764109.044 1      3052.241
R17  22121923.580   118378879.888 7      1294.103    22121924.020   118378879.898 7      1294.103    22121940.340    92072526.589 7      1006.525    22121940.020    92072524.589 7      1006.525
G04  23188067.400   121854124.402 6      5745.870    23188066.560   121854124.404 4      5745.870    23188083.260    94951320.630 4      4477.301    23188083.540    94951325.679 7      4477.301
R02  22889875.560   122144753.052 7      -744.841    22889875.120   122144753.031 7      -744.841    22889888.500    95001533.951 7      -579.321    22889888.380    95001531.948 7      -579.321
R16  22780011.580   121686717.475 7      -275.058    22780010.780   121686717.465 6      -275.058    22780030.340    94645305.956 7      -213.934    22780030.540    94645305.953 7      -213.934
> 2025 04 04 17 25 34.0000000  0 13
G02  22612164.180   118827718.873 7      1513.019    22612162.920   118827718.880 6      1513.019    22612167.000    92593045.939 6      1178.976
G03  19980522.600   104998351.867 8      2436.137    19980522.300   104998351.869 8      2436.137    19980528.280    81816923.161 8      1898.288    19980529.120    81816926.169 8      1898.288
G14  22255699.000   116954485.087 7      2752.414    22255699.060   116954485.095 5      2752.414    22255706.100    91133393.507 5      2144.738    22255706.680    91133396.519 8      2144.738
R03  19826328.740   106131889.745 8      2668.349    19826329.140   106131889.776 8      2668.349    19826340.220    82547072.746 8      2075.382    19826339.840    82547071.745 8      2075.382
G01  21192176.720   111365637.958 7      2108.258    21192176.260   111365637.963 6      2108.258    21192181.000    86778436.540 6      1642.799    21192181.560    86778437.545 8      1642.799
R18  20598794.560   109957760.634 7      3184.061    20598794.660   109957760.638 7      3184.061    20598804.920    85522747.762 8      2476.492    20598804.640    85522748.763 8      2476.492
G08  22225856.020   116797655.598 7       111.913    22225854.800   116797655.595 6       111.913    22225866.420    91011198.974 6        87.205    22225867.560    91011204.973 7        87.205
R04  20864224.900   111726979.004 7      6275.714    20864226.140   111726979.046 7      6275.714    20864240.780    86898833.149 8      4881.111    20864240.980    86898832.158 8      4881.111
G22  23630039.580   124176696.248 6      3917.218    23630036.380   124176696.253 1      3917.218    23630048.880    96761056.797 1      3052.377
R17  22121681.760   118377585.558 7      1294.517    22121682.800   118377585.571 7      1294.517    22121698.700    92071519.892 8      1006.847    22121698.260    92071517.892 8      1006.847
G04  23186974.000   121848378.215 6      5746.575    23186973.360   121848378.217 4      5746.575    23186989.780    94946843.110 4      4477.851    23186990.100    94946848.166 7      4477.851
R02  22890014.980   122145497.861 7      -744.658    22890014.700   122145497.854 7      -744.658    22890027.940    95002113.264 7      -579.178    22890027.980    95002111.267 7      -579.178
R16  22780062.660   121686992.228 7      -274.680    22780061.900   121686992.216 6      -274.680    22780081.820    94645519.643 7      -213.640    22780082.220    94645519.644 7      -213.640
> 2025 04 04 17 25 35.0000000  0 13
G02  22611876.300   118826205.580 7      1513.637    22611874.880   118826205.590 6      1513.637    22611879.140    92591866.759 6      1179.458
G03  19980059.140   104995915.856 8      2436.072    19980058.640   104995915.858 8      2436.072    19980064.720    81815024.983 8      1898.238    19980065.440    81815027.989 8      1898.238
G14  22255175.280   116951732.720 7      2752.412    22255175.120   116951732.728 5      2752.412    22255182.400    91131248.818 5      2144.736    22255182.700    91131251.830 8      2144.736
R03  19825830.520   106129221.618 8      2668.016    19825830.880   106129221.646 7      2668.016    19825841.700    82544997.547 8      2075.124    19825841.400    82544996.548 8      2075.124
G01  21191775.580   111363529.501 7      2108.694    21191775.040   111363529.506 6      2108.694    21191779.820    86776793.596 6      1643.138    21191780.400    86776794.604 8      1643.138
R18  20598198.200   109954576.431 7      3184.435    20598198.300   109954576.429 7      3184.435    20598208.540    85520271.166 8      2476.783    20598207.960    85520272.167 8      2476.783
G08  22225834.940   116797543.592 7       112.136    22225833.460   116797543.589 6       112.136    22225845.140    91011111.701 6        87.379    22225846.180    91011117.706 7        87.379
R04  20863052.500   111720703.361 7      6275.644    20863054.260   111720703.392 7      6275.644    20863069.040    86893952.104 8      4881.056    20863068.880    86893951.113 8      4881.056
G22  23629294.520   124172779.176 6      3916.932    23629291.540   124172779.189 1      3916.932    23629303.300    96758004.551 1      3052.155
R17  22121439.560   118376290.918 7      1294.765    22121440.900   118376290.928 7      1294.765    22121456.460    92070512.955 7      1007.039    22121456.120    92070510.958 7      1007.039
G04  23185880.600   121842631.605 6      5746.973    23185879.640   121842631.607 4      5746.973    23185896.180    94942365.261 4      4478.161    23185896.520    94942370.306 7      4478.161
R02  22890154.700   122146242.617 7      -744.556    22890154.240   122146242.610 7      -744.556    22890167.600    95002692.513 7      -579.099    22890167.320    95002690.511 7      -579.099
R16  22780114.260   121687266.681 6      -274.351    22780113.400   121687266.663 6      -274.351    22780133.320    94645733.102 7      -213.384    22780133.600    94645733.100 7      -213.384
> 2025 04 04 17 25 36.0000000  0 13
G02  22611588.280   118824691.830 7      1513.992    22611586.720   118824691.838 6      1513.992    22611591.120    92590687.222 6      1179.734
G03  19979595.520   104993479.905 8      2435.836    19979595.100   104993479.907 8      2435.836    19979601.220    81813126.850 8      1898.054    19979602.060    81813129.858 8      1898.054
G14  22254651.600   116948980.453 7      2752.210    22254651.460   116948980.461 5      2752.210    22254658.540    91129104.207 5      2144.579    22254658.820    91129107.215 8      2144.579
R03  19825332.160   106126553.898 8      2667.391    19825332.380   106126553.926 8      2667.391    19825343.320    82542922.666 8      2074.637    19825343.220    82542921.667 8      2074.637
G01  21191374.260   111361420.652 7      2108.977    21191373.800   111361420.655 6      2108.977    21191378.500    86775150.346 6      1643.359    21191378.800    86775151.356 8      1643.359
R18  20597601.640   109951391.844 8      3184.714    20597601.580   109951391.840 7      3184.714    20597612.000    85517794.281 8      2477.000    20597611.660    85517795.283 8      2477.000
G08  22225813.320   116797431.424 7       112.145    22225812.060   116797431.428 6       112.145    22225823.860    91011024.301 6        87.386    22225824.700    91011030.304 7        87.386
R04  20861880.900   111714427.703 7      6275.651    20861881.860   111714427.736 7      6275.651    20861897.080    86889071.066 8      4881.062    20861897.020    86889070.072 8      4881.062
G22  23628548.280   124168862.088 6      3916.774    23628545.860   124168862.106 1      3916.774    23628557.780    96754952.296 1      3052.032
R17  22121197.560   118374995.986 7      1295.001    22121199.400   118374995.995 7      1295.001    22121214.400    92069505.801 7      1007.223    22121214.280    92069503.803 8      1007.223
G04  23184787.240   121836884.575 6      5747.282    23184785.960   121836884.577 4      5747.282    23184802.640    94937887.078 4      4478.401    23184802.940    94937892.117 7      4478.401
R02  22890294.000   122146987.296 7      -744.736    22890293.620   122146987.297 7      -744.736    22890307.080    95003271.732 7      -579.239    22890307.140    95003269.729 7      -579.239
R16  22780165.420   121687540.844 6      -274.091    22780164.140   121687540.835 6      -274.091    22780184.820    94645946.336 7      -213.182    22780184.860    94645946.337 7      -213.182
> 2025 04 04 17 25 37.0000000  0 13
G02  22611300.180   118823177.818 7      1514.462    22611298.680   118823177.825 6      1514.462    22611303.000    92589507.482 6      1180.100
G03  19979132.040   104991044.178 8      2435.919    19979131.700   104991044.177 8      2435.919    19979137.720    81811228.889 8      1898.119    19979138.480    81811231.897 8      1898.119
G14  22254128.000   116946228.457 7      2752.173    22254127.720   116946228.462 5      2752.173    22254135.000    91126959.804 5      2144.551    22254135.200    91126962.808 8      2144.551
R03  19824833.920   106123886.732 8      2667.196    19824834.440   106123886.758 8      2667.196    19824845.040    82540848.212 8      2074.486    19824844.960    82540847.211 8      2074.486
G01  21190972.900   111359311.581 7      2109.484    21190972.440   111359311.586 6      2109.484    21190977.180    86773506.922 6      1643.754    21190977.620    86773507.934 8      1643.754
R18  20597004.840   109948207.081 7      3185.237    20597004.760   109948207.076 7      3185.237    20597015.380    85515317.249 8      2477.407    20597015.180    85515318.251 8      2477.407
G08  22225791.860   116797319.252 7       112.558    22225790.800   116797319.249 6       112.558    22225802.500    91010936.895 6        87.708    22225803.200    91010942.888 7        87.708
R04  20860709.100   111708152.234 7      6275.728    20860709.840   111708152.265 7      6275.728    20860725.000    86884190.160 8      4881.122    20860725.080    86884189.163 8      4881.122
G22  23627802.900   124164945.179 6      3916.937    23627800.700   124164945.200 1      3916.937    23627812.600    96751900.169 1      3052.159
R17  22120955.680   118373700.968 7      1295.345    22120956.900   118373700.981 7      1295.345    22120972.340    92068498.565 7      1007.490    22120972.180    92068496.565 7      1007.490
G04  23183693.580   121831137.308 6      5747.767    23183692.200   121831137.307 4      5747.767    23183708.940    94933408.709 4      4478.779    23183708.980    94933413.752 7      4478.779
R02  22890433.860   122147732.093 7      -744.475    22890433.820   122147732.085 7      -744.475    22890446.940    95003851.025 7      -579.036    22890446.800    95003849.029 7      -579.036
R16  22780216.320   121687814.978 7      -273.797    22780215.620   121687814.961 6      -273.797    22780236.080    94646159.533 7      -212.953    22780236.040    94646159.531 7      -212.953
> 2025 04 04 17 25 38.0000000  0 13
G02  22611011.780   118821663.090 7      1515.045    22611010.640   118821663.095 6      1515.045    22611014.720    92588327.183 6      1180.555
G03  19978668.700   104988608.282 8      2435.939    19978668.180   104988608.284 8      2435.939    19978674.180    81809330.805 8      1898.134    19978674.820    81809333.811 8      1898.134
G14  22253604.400   116943476.334 7      2752.160    22253603.940   116943476.339 5      2752.160    22253611.220    91124815.301 5      2144.540    22253611.620    91124818.309 8      2144.540
R03  19824335.380   106121219.754 8      2666.846    19824335.960   106121219.782 8      2666.846    19824346.760    82538773.914 8      2074.213    19824346.840    82538772.915 8      2074.213
G01  21190571.520   111357201.881 7      2110.016    21190570.880   111357201.889 6      2110.016    21190575.720    86771863.016 6      1644.169    21190576.060    86771864.024 8      1644.169
R18  20596408.020   109945021.749 7      3185.568    20596408.240   109945021.742 7      3185.568    20596418.620    85512839.777 8      2477.664    20596418.420    85512840.783 8      2477.664
G08  22225770.520   116797206.681 6       112.827    22225769.520   116797206.678 6       112.827    22225780.940    91010849.181 6        87.917    22225781.640    91010855.180 7        87.917
R04  20859537.160   111701876.473 7      6275.875    20859538.260   111701876.513 7      6275.875    20859553.020    86879309.038 8      4881.236    20859552.960    86879308.043 8      4881.236
G22  23627057.960   124161027.981 6      3917.462    23627055.580   124161027.997 1      3917.462    23627066.640    96748847.815 1      3052.567
R17  22120713.340   118372405.453 7      1295.709    22120715.080   118372405.460 7      1295.709    22120730.120    92067490.927 7      1007.774    22120730.080    92067488.925 7      1007.774
G04  23182599.780   121825389.389 6      5748.254    23182598.480   121825389.394 4      5748.254    23182615.160    94928929.836 4      4479.159    23182615.140    94928934.883 7      4479.159
R02  22890573.340   122148476.598 7      -744.325    22890573.220   122148476.585 7      -744.325    22890586.500    95004430.089 7      -578.920    22890586.400    95004428.091 7      -578.920
R16  22780268.120   121688088.626 6      -273.425    22780266.740   121688088.603 6      -273.425    22780287.140    94646372.366 7      -212.664    22780287.020    94646372.365 7      -212.664
> 2025 04 04 17 25 39.0000000  0 13
G02  22610723.500   118820148.035 7      1515.165    22610722.360   118820148.042 6      1515.165    22610726.260    92587146.628 6      1180.648
G03  19978205.240   104986172.573 8      2435.568    19978204.680   104986172.578 8      2435.568    19978210.600    81807432.860 8      1897.845    19978211.440    81807435.868 8      1897.845
G14  22253080.500   116940724.441 7      2751.647    22253080.260   116940724.440 5      2751.647    22253087.540    91122670.981 5      2144.140    22253087.980    91122673.986 8      2144.140
R03  19823837.520   106118553.332 8      2666.110    19823838.320   106118553.357 8      2666.110    19823848.820    82536700.039 8      2073.641    19823848.660    82536699.037 8      2073.641
G01  21190170.040   111355091.945 7      2110.022    21190169.260   111355091.950 6      2110.022    21190174.220    86770218.919 6      1644.173    21190174.660    86770219.928 8      1644.173
R18  20595811.240   109941836.161 7      3185.551    20595811.160   109941836.156 7      3185.551    20595821.820    85510362.110 8      2477.651    20595821.440    85510363.114 8      2477.651
G08  22225749.340   116797094.092 7       112.575    22225748.000   116797094.095 6       112.575    22225759.540    91010761.460 6        87.721    22225760.560    91010767.465 7        87.721
R04  20858365.140   111695600.817 7      6275.563    20858366.320   111695600.849 7      6275.563    20858381.220    86874427.987 8      4880.993    20858381.160    86874426.992 8      4880.993
G22  23626312.580   124157110.988 6      3916.889    23626310.200   124157110.998 1      3916.889    23626320.820    96745795.615 1      3052.121
R17  22120471.340   118371109.753 7      1295.625    22120472.620   118371109.773 7      1295.625    22120488.040    92066483.175 7      1007.708    22120487.780    92066481.177 8      1007.708
G04  23181505.740   121819641.198 6      5748.375    23181504.680   121819641.203 4      5748.375    23181521.380    94924450.751 4      4479.254    23181521.200    94924455.798 7      4479.254
R02  22890712.900   122149221.194 7      -744.662    22890712.780   122149221.184 7      -744.662    22890725.880    95005009.225 7      -579.181    22890725.980    95005007.232 7      -579.181
R16  22780319.140   121688362.194 6      -273.595    22780317.760   121688362.171 6      -273.595    22780338.520    94646585.137 7      -212.796    22780338.420    94646585.142 7      -212.796
> 2025 04 04 17 25 40.0000000  0 13
G02  22610435.120   118818632.283 7      1516.230    22610433.900   118818632.290 6      1516.230    22610437.920    92585965.531 6      1181.478
G03  19977741.580   104983736.699 8      2436.062    19977741.140   104983736.704 8      2436.062    19977747.060    81805534.784 8      1898.230    19977747.840    81805537.794 8      1898.230
G14  22252556.900   116937972.394 7      2752.245    22252556.540   116937972.397 5      2752.245    22252563.820    91120526.533 5      2144.606    22252564.140    91120529.541 8      2144.606
R03  19823339.460   106115887.055 8      2666.375    19823340.100   106115887.083 8      2666.375    19823350.700    82534626.278 8      2073.847    19823350.480    82534625.281 8      2073.847
G01  21189768.260   111352981.368 7      2111.050    21189767.740   111352981.378 6      2111.050    21189772.420    86768574.325 6      1644.974    21189773.200    86768575.333 8      1644.974
R18  20595214.540   109938649.940 7      3186.695    20595214.460   109938649.933 7      3186.695    20595225.000    85507883.943 8      2478.540    20595224.800    85507884.946 8      2478.540
G08  22225727.560   116796981.080 7       113.406    22225726.540   116796981.077 6       113.406    22225737.980    91010673.404 6        88.368    22225738.960    91010679.404 7        88.368
R04  20857193.000   111689324.902 7      6276.183    20857193.880   111689324.935 7      6276.183    20857209.060    86869546.740 8      4881.476    20857209.320    86869545.745 8      4881.476
G22  23625566.820   124153193.704 6      3917.647    23625564.820   124153193.714 1      3917.647    23625575.840    96742743.197 1      3052.712
R17  22120229.280   118369813.494 7      1296.662    22120230.980   118369813.506 7      1296.662    22120245.440    92065474.978 7      1008.515    22120245.420    92065472.980 8      1008.515
G04  23180411.660   121813892.365 6      5749.283    23180410.680   121813892.372 4      5749.283    23180427.280    94919971.169 4      4479.961    23180427.380    94919976.212 7      4479.961
R02  22890852.040   122149965.497 7      -744.085    22890852.220   122149965.495 7      -744.085    22890865.360    95005588.138 7      -578.733    22890865.340    95005586.142 7      -578.733
R16  22780370.420   121688635.290 6      -272.713    22780368.960   121688635.277 6      -272.713    22780390.220    94646797.549 7      -212.110    22780389.840    94646797.543 7      -212.110
> 2025 04 04 17 25 41.0000000  0 13
G02  22610146.500   118817115.872 7      1516.574    22610145.260   118817115.876 6      1516.574    22610149.380    92584783.920 6      1181.746
G03  19977278.020   104981300.674 8      2435.879    19977277.600   104981300.679 8      2435.879    19977283.460    81803636.594 8      1898.087    19977284.400    81803639.602 8      1898.087
G14  22252033.060   116935220.256 7      2751.994    22252032.680   116935220.256 5      2751.994    22252040.160    91118382.020 5      2144.411    22252040.520    91118385.028 8      2144.411
R03  19822841.360   106113220.991 7      2665.773    19822842.080   106113221.017 8      2665.773    19822852.580    82532552.683 8      2073.379    19822852.360    82532551.682 8      2073.379
G01  21189366.500   111350870.212 7      2111.266    21189365.920   111350870.220 6      2111.266    21189370.840    86766929.273 6      1645.143    21189371.420    86766930.285 8      1645.143
R18  20594617.480   109935463.175 7      3186.835    20594617.280   109935463.173 7      3186.835    20594628.020    85505405.362 8      2478.650    20594627.720    85505406.368 8      2478.650
G08  22225706.460   116796867.713 7       113.345    22225704.980   116796867.721 6       113.345    22225716.500    91010585.073 6        88.321    22225717.240    91010591.080 7        88.321
R04  20856021.200   111683048.796 7      6275.974    20856021.980   111683048.830 7      6275.974    20856037.220    86864665.345 8      4881.313    20856037.080    86864664.348 8      4881.313
G22  23624821.720   124149276.272 6      3917.446    23624819.220   124149276.277 1      3917.446    23624829.900    96739690.667 1      3052.556
R17  22119987.360   118368516.718 7      1296.795    22119988.600   118368516.728 7      1296.795    22120003.060    92064466.385 7      1008.618    22120003.280    92064464.389 7      1008.618
G04  23179317.600   121808142.933 6      5749.387    23179316.700   121808142.941 4      5749.387    23179333.020    94915491.117 4      4480.041    23179333.260    94915496.170 7      4480.041
R02  22890991.380   122150709.551 7      -744.140    22890991.580   122150709.542 7      -744.140    22891005.080    95006166.855 7      -578.776    22891004.820    95006164.856 7      -578.776
R16  22780421.580   121688907.963 6      -272.651    22780420.060   121688907.956 6      -272.651    22780440.880    94647009.619 7      -212.062    22780440.780    94647009.618 7      -212.062
> 2025 04 04 17 25 42.0000000  0 13
G02  22609857.900   118815599.006 7      1517.279    22609856.580   118815599.016 6      1517.279    22609860.800    92583601.957 6      1182.296
G03  19976814.580   104978864.734 8      2435.984    19976814.120   104978864.737 8      2435.984    19976819.980    81801738.467 8      1898.170    19976820.760    81801741.475 8      1898.170
G14  22251509.420   116932468.233 7      2752.076    22251509.040   116932468.236 5      2752.076    22251516.300    91116237.595 5      2144.475    22251516.980    91116240.605 8      2144.475
R03  19822343.360   106110555.322 8      2665.565    19822344.280   106110555.350 8      2665.565    19822354.680    82530479.397 8      2073.217    19822354.500    82530478.394 8      2073.217
G01  21188964.760   111348758.684 7      2111.812    21188964.160   111348758.694 6      2111.812    21188969.000    86765283.937 6      1645.568    21188969.600    86765284.944 8      1645.568
R18  20594020.540   109932276.060 7      3187.456    20594020.260   109932276.058 7      3187.456    20594031.080    85502926.503 8      2479.133    20594030.620    85502927.509 8      2479.133
G08  22225684.920   116796754.207 7       113.756    22225683.400   116796754.212 6       113.756    22225694.860    91010496.628 6        88.641    22225695.880    91010502.630 7        88.641
R04  20854849.000   111676772.725 7      6276.142    20854849.980   111676772.767 7      6276.142    20854865.140    86859783.979 8      4881.444    20854864.960    86859782.984 8      4881.444
G22  23624076.460   124145358.842 6      3917.612    23624073.780   124145358.847 1      3917.612    23624084.520    96736638.133 1      3052.685
R17  22119745.080   118367219.691 7      1297.187    22119745.600   118367219.714 7      1297.187    22119760.780    92063457.596 8      1008.923    22119761.060    92063455.599 7      1008.923
G04  23178223.720   121802393.065 7      5750.261    23178222.440   121802393.075 4      5750.261    23178238.980    94911010.729 4      4480.723    23178239.440    94911015.768 7      4480.723
R02  22891131.040   122151453.619 7      -743.963    22891131.060   122151453.609 7      -743.963    22891144.180    95006745.577 7      -578.638    22891144.080    95006743.581 7      -578.638
R16  22780472.420   121689180.428 6      -272.278    22780471.300   121689180.421 6      -272.278    22780491.860    94647221.528 7      -211.772    22780492.120    94647221.527 7      -211.772
> 2025 04 04 17 25 43.0000000  0 13
G02  22609568.960   118814081.777 7      1517.378    22609567.760   118814081.784 6      1517.378    22609572.140    92582419.701 6      1182.372
G03  19976351.040   104976428.941 8      2435.631    19976350.620   104976428.938 8      2435.631    19976356.440    81799840.442 8      1897.894    19976357.240    81799843.448 8      1897.894
G14  22250985.700   116929716.392 7      2751.684    22250985.380   116929716.389 5      2751.684    22250992.740    91114093.307 5      2144.170    22250993.320    91114096.309 8      2144.170
R03  19821845.720   106107890.115 8      2664.857    19821846.300   106107890.143 8      2664.857    19821856.820    82528406.459 8      2072.666    19821856.560    82528405.458 8      2072.666
G01  21188563.020   111346646.848 7      2111.920    21188562.240   111346646.856 6      2111.920    21188567.160    86763638.352 6      1645.652    21188567.640    86763639.358 8      1645.652
R18  20593423.260   109929088.686 7      3187.454    20593423.080   109929088.679 7      3187.454    20593433.780    85500447.431 8      2479.131    20593433.640    85500448.436 8      2479.131
G08  22225662.960   116796640.638 7       113.449    22225661.780   116796640.640 6       113.449    22225673.300    91010408.125 6        88.402    22225674.180    91010414.124 7        88.402
R04  20853677.200   111670496.739 7      6275.856    20853678.300   111670496.768 7      6275.856    20853693.300    86854902.653 8      4881.221    20853693.200    86854901.658 8      4881.221
G22  23623331.480   124141441.531 5      3917.158    23623328.160   124141441.536 1      3917.158    23623339.000    96733585.697 1      3052.331
R17  22119502.780   118365922.528 7      1297.084    22119503.200   118365922.546 7      1297.084    22119518.360    92062448.689 7      1008.843    22119518.320    92062446.692 8      1008.843
G04  23177129.540   121796642.919 7      5750.224    23177128.200   121796642.924 4      5750.224    23177144.660    94906530.116 4      4480.694    23177145.100    94906535.147 7      4480.694
R02  22891270.600   122152197.722 7      -744.217    22891270.360   122152197.715 7      -744.217    22891283.440    95007324.327 7      -578.835    22891283.660    95007322.330 7      -578.835
R16  22780523.380   121689452.706 6      -272.304    22780522.020   121689452.691 6      -272.304    22780542.940    94647433.277 7      -211.792    22780543.280    94647433.276 7      -211.792
> 2025 04 04 17 25 44.0000000  0 13
G02  22609280.260   118812563.978 7      1517.865    22609279.000   118812563.988 6      1517.865    22609283.220    92581237.000 6      1182.752
G03  19975887.440   104973993.080 8      2435.738    19975886.960   104973993.080 8      2435.738    19975892.940    81797942.371 8      1897.978    19975893.720    81797945.376 8      1897.978
G14  22250462.020   116926964.548 7      2751.557    22250461.700   116926964.548 5      2751.557    22250469.020    91111949.011 5      2144.071    22250469.400    91111952.019 8      2144.071
R03  19821347.860   106105225.171 8      2664.604    19821348.540   106105225.196 8      2664.604    19821358.900    82526333.722 8      2072.470    19821358.660    82526332.721 8      2072.470
G01  21188161.060   111344534.523 8      2112.360    21188160.320   111344534.531 6      2112.360    21188165.260    86761992.383 6      1645.995    21188165.780    86761993.384 8      1645.995
R18  20592825.880   109925900.808 7      3187.869    20592826.060   109925900.801 7      3187.869    20592836.720    85497967.968 8      2479.454    20592836.560    85497968.974 8      2479.454
G08  22225641.200   116796526.767 7       113.828    22225640.020   116796526.758 6       113.828    22225651.660    91010319.384 6        88.697    22225652.780    91010325.383 7        88.697
R04  20852505.260   111664220.617 7      6275.898    20852506.220   111664220.651 7      6275.898    20852521.060    86850021.244 8      4881.254    20852521.000    86850020.249 8      4881.254
G22  23622585.640   124137524.071 5      3917.425    23622582.680   124137524.076 1      3917.425    23622592.860    96730533.137 1      3052.539
R17  22119259.660   118364624.974 7      1297.575    22119260.920   118364624.978 7      1297.575    22119276.160    92061439.462 7      1009.225    22119275.840    92061437.467 7      1009.225
G04  23176035.020   121790892.218 7      5750.764    23176033.880   121790892.220 4      5750.764    23176050.420    94902049.067 4      4481.114    23176050.860    94902054.095 7      4481.114
R02  22891410.120   122152941.686 7      -744.137    22891410.100   122152941.681 7      -744.137    22891422.740    95007902.957 7      -578.773    22891422.920    95007900.960 7      -578.773
R16  22780574.480   121689724.607 6      -271.921    22780573.000   121689724.603 6      -271.921    22780594.160    94647644.752 7      -211.494    22780594.180    94647644.748 7      -211.494
> 2025 04 04 17 25 45.0000000  0 13
G02  22608991.340   118811045.601 7      1518.685    22608990.240   118811045.614 6      1518.685    22608994.320    92580053.848 6      1183.391
G03  19975423.860   104971557.187 8      2435.965    19975423.480   104971557.189 8      2435.965    19975429.340    81796044.274 8      1898.154    19975430.060    81796047.280 8      1898.154
G14  22249938.440   116924212.654 7      2752.054    22249937.920   116924212.654 5      2752.054    22249945.340    91109804.680 5      2144.458    22249945.720    91109807.688 8      2144.458
R03  19820849.960   106102560.499 8      2664.609    19820850.860   106102560.525 8      2664.609    19820861.080    82524261.204 8      2072.474    19820861.100    82524260.205 8      2072.474
G01  21187758.920   111342421.679 8      2113.164    21187758.220   111342421.686 6      2113.164    21187763.220    86760346.012 6      1646.621    21187763.720    86760347.016 8      1646.621
R18  20592228.460   109922712.450 7      3188.606    20592228.680   109922712.445 7      3188.606    20592239.280    85495488.140 8      2480.027    20592239.200    85495489.143 8      2480.027
G08  22225619.560   116796412.611 7       114.289    22225618.360   116796412.611 6       114.289    22225629.820    91010230.434 6        89.057    22225631.040    91010236.433 7        89.057
R04  20851333.440   111657944.338 7      6276.490    20851334.260   111657944.366 7      6276.490    20851349.200    86845139.697 8      4881.715    20851349.040    86845138.700 8      4881.715
G22  23621839.860   124133606.576 5      3917.358    23621836.700   124133606.586 1      3917.358    23621847.200    96727480.554 1      3052.487
R17  22119017.780   118363327.008 7      1298.304    22119018.420   118363327.017 7      1298.304    22119033.760    92060429.931 7      1009.792    22119033.580    92060427.937 7      1009.792
G04  23174940.660   121785141.010 6      5751.426    23174939.620   121785141.022 4      5751.426    23174956.080    94897567.630 4      4481.631    23174956.440    94897572.667 7      4481.631
R02  22891549.140   122153685.497 7      -743.782    22891549.620   122153685.498 7      -743.782    22891562.040    95008481.486 7      -578.497    22891562.400    95008479.495 7      -578.497
R16  22780625.160   121689996.196 6      -271.451    22780623.780   121689996.197 6      -271.451    22780645.100    94647855.973 7      -211.129    22780644.840    94647855.974 7      -211.129
> 2025 04 04 17 25 46.0000000  0 13
G02  22608702.440   118809526.844 7      1518.996    22608701.180   118809526.856 6      1518.996    22608705.300    92578870.400 6      1183.633
G03  19974960.300   104969121.412 8      2435.906    19974959.920   104969121.412 8      2435.906    19974965.820    81794146.270 8      1898.109    19974966.560    81794149.278 8      1898.109
G14  22249414.940   116921460.981 7      2751.753    22249414.160   116921460.983 5      2751.753    22249421.840    91107660.521 5      2144.223    22249422.240    91107663.527 8      2144.223
R03  19820352.320   106099896.310 8      2664.093    19820353.040   106099896.338 8      2664.093    19820363.520    82522189.063 8      2072.072    19820362.780    82522188.060 8      2072.072
G01  21187356.780   111340308.547 8      2113.382    21187356.160   111340308.552 6      2113.382    21187361.040    86758699.417 6      1646.791    21187361.560    86758700.420 8      1646.791
R18  20591631.600   109919523.811 7      3188.952    20591631.200   109919523.809 7      3188.952    20591642.000    85493008.089 8      2480.296    20591642.060    85493009.095 8      2480.296
G08  22225598.000   116796298.388 7       114.390    22225596.680   116796298.390 6       114.390    22225608.120    91010141.424 6        89.135    22225609.560    91010147.423 7        89.135
R04  20850161.780   111651668.149 7      6276.265    20850161.720   111651668.180 7      6276.265    20850177.180    86840258.233 8      4881.540    20850177.540    86840257.238 8      4881.540
G22  23621093.820   124129689.102 5      3917.479    23621090.800   124129689.107 1      3917.479    23621101.740    96724427.989 1      3052.581
R17  22118774.680   118362028.803 7      1298.480    22118775.740   118362028.818 7      1298.480    22118790.980    92059420.220 7      1009.929    22118790.820    92059418.225 8      1009.929
G04  23173846.300   121779389.481 6      5751.817    23173844.900   121779389.491 4      5751.817    23173861.580    94893085.940 4      4481.935    23173862.080    94893090.969 7      4481.935
R02  22891688.720   122154429.357 7      -743.905    22891688.820   122154429.361 7      -743.905    22891701.180    95009060.050 7      -578.593    22891701.580    95009058.054 7      -578.593
R16  22780675.540   121690267.627 6      -271.166    22780674.560   121690267.623 6      -271.166    22780696.180    94648067.072 7      -210.907    22780695.740    94648067.066 7      -210.907
> 2025 04 04 17 25 47.0000000  0 13
G02  22608413.020   118808007.334 7      1519.685    22608411.940   118808007.342 6      1519.685    22608416.180    92577686.369 6      1184.170
G03  19974496.760   104966685.420 8      2435.892    19974496.360   104966685.422 8      2435.892    19974502.280    81792248.104 8      1898.098    19974503.160    81792251.110 8      1898.098
G14  22248891.220   116918709.105 7      2751.720    22248890.420   116918709.110 5      2751.720    22248898.140    91105516.209 5      2144.197    22248898.460    91105519.219 8      2144.197
R03  19819854.200   106097232.230 7      2663.814    19819855.120   106097232.255 8      2663.814    19819865.800    82520117.005 8      2071.855    19819865.660    82520116.002 8      2071.855
G01  21186954.400   111338194.728 7      2113.979    21186953.900   111338194.733 6      2113.979    21186958.680    86757052.289 6      1647.256    21186959.140    86757053.292 8      1647.256
R18  20591033.820   109916334.542 7      3189.379    20591033.640   109916334.538 7      3189.379    20591044.520    85490527.549 8      2480.628    20591044.440    85490528.553 8      2480.628
G08  22225576.520   116796183.699 7       114.752    22225574.780   116796183.702 6       114.752    22225586.240    91010052.052 6        89.417    22225587.620    91010058.043 7        89.417
R04  20848989.160   111645391.639 7      6276.526    20848990.100   111645391.664 7      6276.526    20849005.060    86835376.516 8      4881.742    20849005.060    86835375.520 8      4881.742
G22  23620347.800   124125771.318 5      3917.797    23620344.760   124125771.325 1      3917.797    23620355.600    96721375.184 1      3052.829
R17  22118532.000   118360730.032 7      1298.821    22118533.120   118360730.041 7      1298.821    22118548.560    92058410.056 7      1010.194    22118548.280    92058408.057 7      1010.194
G04  23172751.180   121773637.238 6      5752.445    23172750.340   121773637.248 4      5752.445    23172766.900    94888603.693 4      4482.424    23172767.120    94888608.716 7      4482.424
R02  22891828.080   122155172.859 7      -743.431    22891828.100   122155172.852 7      -743.431    22891840.500    95009638.317 7      -578.224    22891841.200    95009636.326 7      -578.224
R16  22780726.840   121690538.559 7      -270.937    22780725.140   121690538.552 6      -270.937    22780746.620    94648277.782 7      -210.728    22780746.720    94648277.781 7      -210.728
> 2025 04 04 17 25 48.0000000  0 13
G02  22608123.920   118806487.378 7      1520.074    22608122.660   118806487.383 6      1520.074    22608126.660    92576501.990 6      1184.473
G03  19974033.400   104964249.514 8      2435.733    19974032.880   104964249.516 8      2435.733    19974038.860    81790350.000 8      1897.974    19974039.720    81790353.006 8      1897.974
G14  22248367.740   116915957.345 7      2751.539    22248366.720   116915957.345 5      2751.539    22248374.400    91103371.984 5      2144.056    22248374.900    91103374.996 8      2144.056
R03  19819356.820   106094568.541 8      2663.320    19819357.160   106094568.569 8      2663.320    19819368.220    82518045.259 8      2071.471    19819368.180    82518044.258 8      2071.471
G01  21186552.180   111336080.532 8      2114.302    21186551.500   111336080.540 6      2114.302    21186556.460    86755404.868 6      1647.508    21186557.020    86755405.873 8      1647.508
R18  20590436.900   109913144.926 7      3189.664    20590436.100   109913144.919 7      3189.664    20590446.920    85488046.741 8      2480.850    20590446.680    85488047.749 8      2480.850
G08  22225554.240   116796068.874 7       114.768    22225553.000   116796068.874 6       114.768    22225564.440    91009962.578 6        89.430    22225565.760    91009968.573 7        89.430
R04  20847817.120   111639115.198 7      6276.296    20847817.400   111639115.224 7      6276.296    20847832.660    86830494.850 8      4881.564    20847832.920    86830493.855 8      4881.564
G22  23619602.980   124121853.607 5      3917.735    23619598.880   124121853.602 1      3917.735    23619609.980    96718322.435 1      3052.781
R17  22118289.340   118359430.971 7      1299.070    22118290.640   118359430.986 7      1299.070    22118305.780    92057399.676 8      1010.388    22118305.520    92057397.681 8      1010.388
G04  23171656.740   121767884.603 6      5752.788    23171655.640   121767884.613 4      5752.788    23171672.300    94884121.139 4      4482.692    23171672.240    94884126.170 7      4482.692
R02  22891967.560   122155916.340 7      -743.551    22891967.960   122155916.336 7      -743.551    22891980.040    95010216.592 7      -578.317    22891980.200    95010214.603 7      -578.317
R16  22780777.540   121690809.229 6      -270.732    22780776.360   121690809.233 6      -270.732    22780797.380    94648488.301 7      -210.570    22780797.300    94648488.300 7      -210.570
> 2025 04 04 17 25 49.0000000  0 13
G02  22607834.880   118804967.091 7      1520.691    22607833.400   118804967.101 6      1520.691    22607837.320    92575317.357 6      1184.954
G03  19973569.960   104961813.786 8      2435.811    19973569.320   104961813.791 8      2435.811    19973575.200    81788452.039 8      1898.035    19973576.200    81788455.044 8      1898.035
G14  22247843.980   116913205.817 7      2751.619    22247842.980   116913205.816 5      2751.619    22247850.820    91101227.938 5      2144.119    22247851.280    91101230.942 8      2144.119
R03  19818859.280   106091905.379 8      2663.123    19818859.780   106091905.410 8      2663.123    19818870.880    82515973.924 8      2071.318    19818870.640    82515972.920 8      2071.318
G01  21186149.720   111333966.095 8      2114.771    21186149.180   111333966.100 6      2114.771    21186154.100    86753757.259 6      1647.874    21186154.600    86753758.264 8      1647.874
R18  20589839.540   109909955.079 7      3190.071    20589838.560   109909955.079 7      3190.071    20589849.540    85485565.763 8      2481.167    20589849.340    85485566.768 8      2481.167
G08  22225532.160   116795953.997 7       115.140    22225531.160   116795953.999 6       115.140    22225542.660    91009873.065 6        89.719    22225543.840    91009879.060 7        89.719
R04  20846644.960   111632838.886 7      6276.413    20846645.380   111632838.909 7      6276.413    20846660.760    86825613.293 8      4881.654    20846660.720    86825612.300 8      4881.654
G22  23618857.780   124117936.052 5      3917.628    23618853.280   124117936.039 1      3917.628    23618864.740    96715269.797 1      3052.697
R17  22118046.460   118358131.761 7      1299.565    22118047.860   118358131.765 7      1299.565    22118063.180    92056389.175 8      1010.773    22118062.600    92056387.180 8      1010.773
G04  23170562.160   121762131.713 7      5753.215    23170560.780   121762131.721 4      5753.215    23170577.440    94879638.391 4      4483.025    23170577.740    94879643.423 7      4483.025
R02  22892106.740   122156659.915 7      -743.375    22892106.880   122156659.902 7      -743.375    22892119.560    95010794.915 7      -578.180    22892119.600    95010792.924 7      -578.180
R16  22780827.940   121691079.816 6      -270.473    22780826.560   121691079.820 6      -270.473    22780847.840    94648698.754 7      -210.368    22780847.800    94648698.752 7      -210.368
> 2025 04 04 17 25 50.0000000  0 13
G02  22607545.540   118803446.126 7      1521.112    22607544.080   118803446.134 6      1521.112    22607547.940    92574132.195 6      1185.282
G03  19973106.360   104959377.891 8      2435.815    19973105.700   104959377.891 8      2435.815    19973111.840    81786553.944 8      1898.037    19973112.660    81786556.948 8      1898.037
G14  22247320.480   116910454.154 7      2751.486    22247319.300   116910454.154 5      2751.486    22247327.180    91099083.791 5      2144.015    22247327.720    91099086.805 8      2144.015
R03  19818362.020   106089242.375 8      2662.799    19818362.460   106089242.406 8      2662.799    19818373.220    82513902.703 8      2071.066    19818373.080    82513901.701 8      2071.066
G01  21185747.260   111331851.025 8      2115.200    21185746.600   111331851.033 6      2115.200    21185751.640    86752109.158 6      1648.207    21185751.960    86752110.166 8      1648.207
R18  20589241.740   109906764.627 7      3190.631    20589240.940   109906764.618 7      3190.631    20589251.740    85483084.301 8      2481.602    20589251.580    85483085.304 8      2481.602
G08  22225510.240   116795838.741 7       115.275    22225509.120   116795838.745 6       115.275    22225520.640    91009783.259 6        89.825    22225521.640    91009789.261 7        89.825
R04  20845473.180   111626562.320 7      6276.472    20845473.320   111626562.335 7      6276.472    20845488.560    86820731.525 8      4881.700    20845488.560    86820730.530 8      4881.700
G22  23618112.200   124114018.260 5      3917.742    23618107.820   124114018.244 1      3917.742    23618118.820    96712216.976 1      3052.786
R17  22117804.120   118356832.021 7      1299.840    22117804.280   118356832.041 7      1299.840    22117820.120    92055378.274 8      1010.987    22117819.720    92055376.279 8      1010.987
G04  23169467.080   121756378.164 7      5753.728    23169466.000   121756378.169 4      5753.728    23169482.460    94875155.126 4      4483.425    23169482.760    94875160.165 7      4483.425
R02  22892246.000   122157403.211 7      -743.388    22892246.000   122157403.199 7      -743.388    22892258.560    95011373.039 7      -578.190    22892259.240    95011371.046 7      -578.190
R16  22780878.460   121691349.880 6      -270.020    22780877.240   121691349.884 6      -270.020    22780898.280    94648908.791 7      -210.015    22780898.740    94648908.785 7      -210.015
> 2025 04 04 17 25 51.0000000  0 13
G02  22607256.120   118801924.936 7      1521.411    22607254.560   118801924.943 6      1521.411    22607258.560    92572946.858 6      1185.515
G03  19972642.880   104956942.303 8      2435.514    19972642.300   104956942.302 8      2435.514    19972648.260    81784656.088 8      1897.803    19972649.080    81784659.091 8      1897.803
G14  22246796.940   116907702.841 7      2751.148    22246795.600   116907702.840 5      2751.148    22246803.680    91096939.921 5      2143.752    22246804.100    91096942.931 8      2143.752
R03  19817864.540   106086580.005 8      2662.170    19817865.000   106086580.034 8      2662.170    19817876.000    82511831.983 8      2070.577    19817875.860    82511830.980 8      2070.577
G01  21185344.780   111329735.813 7      2115.402    21185344.240   111329735.826 6      2115.402    21185349.160    86750460.951 6      1648.365    21185349.340    86750461.958 8      1648.365
R18  20588644.000   109903574.059 7      3190.765    20588643.000   109903574.052 7      3190.765    20588654.220    85480602.758 8      2481.706    20588653.740    85480603.761 8      2481.706
G08  22225488.420   116795723.576 7       115.199    22225487.280   116795723.579 6       115.199    22225498.860    91009693.515 6        89.766    22225499.720    91009699.512 7        89.766
R04  20844301.260   111620285.927 7      6276.435    20844301.280   111620285.953 7      6276.435    20844316.540    86815849.914 8      4881.672    20844316.640    86815848.919 8      4881.672
G22  23617366.200   124110100.676 5      3917.630    23617361.540   124110100.665 1      3917.630    23617373.120    96709164.331 1      3052.699
R17  22117560.600   118355532.276 7      1299.856    22117561.480   118355532.291 7      1299.856    22117577.360    92054367.351 7      1010.999    22117577.100    92054365.353 8      1010.999
G04  23168372.140   121750624.460 7      5753.947    23168371.200   121750624.468 4      5753.947    23168387.700    94870671.743 4      4483.595    23168388.040    94870676.771 7      4483.595
R02  22892385.280   122158146.700 7      -743.603    22892385.880   122158146.707 7      -743.603    22892398.260    95011951.335 7      -578.358    22892398.040    95011949.344 7      -578.358
R16  22780929.380   121691619.965 6      -270.047    22780927.980   121691619.961 6      -270.047    22780948.240    94649118.842 7      -210.037    22780949.180    94649118.837 7      -210.037
> 2025 04 04 17 25 52.0000000  0 13
G02  22606966.320   118800403.322 7      1521.900    22606964.860   118800403.329 6      1521.900    22606968.960    92571761.189 6      1185.896
G03  19972179.560   104954506.807 8      2435.442    19972178.800   104954506.812 8      2435.442    19972184.760    81782758.311 8      1897.747    19972185.680    81782761.314 8      1897.747
G14  22246273.280   116904951.659 7      2751.057    22246271.980   116904951.661 5      2751.057    22246280.180    91094796.147 5      2143.681    22246280.640    91094799.159 8      2143.681
R03  19817367.460   106083918.094 8      2661.686    19817367.780   106083918.117 8      2661.686    19817378.800    82509761.614 8      2070.200    19817378.620    82509760.610 8      2070.200
G01  21184942.120   111327620.249 7      2115.799    21184941.660   111327620.261 6      2115.799    21184946.580    86748812.467 6      1648.674    21184946.800    86748813.475 8      1648.674
R18  20588045.980   109900383.162 7      3191.061    20588045.060   109900383.147 7      3191.061    20588056.240    85478120.953 8      2481.936    20588056.020    85478121.957 8      2481.936
G08  22225466.240   116795608.265 7       115.385    22225465.460   116795608.265 6       115.385    22225476.800    91009603.660 6        89.910    22225477.520    91009609.655 7        89.910
R04  20843129.420   111614009.581 7      6276.326    20843129.340   111614009.609 7      6276.326    20843144.440    86810968.325 8      4881.587    20843144.600    86810967.330 8      4881.587
G22  23616621.280   124106183.170 5      3917.418    23616616.820   124106183.165 1      3917.418    23616627.360    96706111.740 1      3052.534
R17  22117317.640   118354232.276 7      1300.208    22117317.840   118354232.291 7      1300.208    22117334.500    92053356.244 7      1011.273    22117334.160    92053354.243 8      1011.273
G04  23167277.080   121744870.370 7      5754.397    23167276.340   121744870.377 4      5754.397    23167292.880    94866188.058 4      4483.946    23167293.160    94866193.093 7      4483.946
R02  22892524.500   122158890.200 7      -743.467    22892525.380   122158890.211 7      -743.467    22892537.180    95012529.619 7      -578.252    22892537.580    95012527.628 7      -578.252
R16  22780979.660   121691889.810 6      -269.699    22780978.840   121691889.808 6      -269.699    22780999.340    94649328.715 7      -209.766    22780999.640    94649328.708 7      -209.766
> 2025 04 04 17 25 53.0000000  0 13
G02  22606676.740   118798881.232 7      1522.280    22606675.180   118798881.242 6      1522.280    22606679.280    92570575.151 6      1186.193
G03  19971716.000   104952071.350 8      2435.346    19971715.320   104952071.355 8      2435.346    19971721.340    81780860.556 8      1897.672    19971722.320    81780863.562 8      1897.672
G14  22245749.440   116902200.538 7      2751.045    22245748.460   116902200.535 5      2751.045    22245756.500    91092652.418 5      2143.671    22245757.020    91092655.432 8      2143.671
R03  19816870.120   106081256.530 8      2661.358    19816870.660   106081256.550 8      2661.358    19816881.600    82507691.512 8      2069.945    19816881.360    82507690.509 8      2069.945
G01  21184539.540   111325504.285 7      2116.067    21184538.920   111325504.295 6      2116.067    21184543.880    86747163.671 6      1648.883    21184544.220    86747164.678 8      1648.883
R18  20587447.880   109897191.854 7      3191.415    20587447.460   109897191.852 7      3191.415    20587458.400    85475638.835 8      2482.212    20587458.360    85475639.837 8      2482.212
G08  22225444.560   116795492.736 7       115.637    22225443.300   116795492.741 6       115.637    22225454.700    91009513.645 6        90.107    22225456.380    91009519.642 7        90.107
R04  20841957.320   111607733.202 7      6276.310    20841957.740   111607733.219 7      6276.310    20841972.340    86806086.710 8      4881.575    20841972.380    86806085.717 8      4881.575
G22  23615875.940   124102265.686 5      3917.124    23615871.560   124102265.675 1      3917.124    23615881.840    96703059.165 1      3052.305
R17  22117074.820   118352931.950 7      1300.546    22117075.700   118352931.965 7      1300.546    22117091.220    92052344.873 7      1011.536    22117091.160    92052342.876 8      1011.536
G04  23166181.800   121739115.877 7      5754.642    23166181.220   121739115.885 4      5754.642    23166197.700    94861704.061 4      4484.137    23166197.820    94861709.096 7      4484.137
R02  22892664.200   122159633.686 7      -743.554    22892664.600   122159633.692 7      -743.554    22892676.820    95013107.884 7      -578.320    22892676.840    95013105.895 7      -578.320
R16  22781029.800   121692159.436 6      -269.580    22781029.100   121692159.429 6      -269.580    22781050.000    94649538.418 7      -209.674    22781050.300    94649538.412 7      -209.674
> 2025 04 04 17 25 54.0000000  0 13
G02  22606386.840   118797358.502 7      1523.261    22606385.500   118797358.509 6      1523.261    22606389.540    92569388.612 6      1186.956
G03  19971252.360   104949635.767 8      2435.787    19971251.800   104949635.769 8      2435.787    19971257.840    81778962.708 8      1898.016    19971259.000    81778965.714 8      1898.016
G14  22245225.900   116899449.345 7      2751.374    22245224.820   116899449.342 5      2751.374    22245233.060    91090508.638 5      2143.928    22245233.600    91090511.658 8      2143.928
R03  19816373.060   106078595.183 8      2661.375    19816373.480   106078595.206 8      2661.375    19816384.520    82505621.588 8      2069.959    19816384.180    82505620.585 8      2069.959
G01  21184136.780   111323387.741 8      2117.012    21184136.040   111323387.745 6      2117.012    21184141.000    86745514.417 6      1649.620    21184141.380    86745515.425 8      1649.620
R18  20586849.980   109894000.037 7      3192.156    20586849.500   109894000.038 7      3192.156    20586860.500    85473156.325 8      2482.788    20586860.420    85473157.325 8      2482.788
G08  22225422.360   116795376.899 7       116.180    22225421.140   116795376.909 6       116.180    22225432.760    91009423.389 6        90.530    22225434.220    91009429.396 7        90.530
R04  20840785.280   111601456.689 7      6276.692    20840785.400   111601456.712 7      6276.692    20840800.340    86801204.999 8      4881.872    20840800.240    86801204.003 8      4881.872
G22  23615129.780   124098347.918 5      3917.853    23615126.420   124098347.902 1      3917.853    23615135.740    96700006.377 1      3052.873
R17  22116831.580   118351631.166 7      1301.172    22116832.900   118351631.176 7      1301.172    22116848.340    92051333.155 7      1012.022    22116847.940    92051331.159 8      1012.022
G04  23165086.940   121733360.780 6      5755.556    23165086.060   121733360.785 4      5755.556    23165102.520    94857219.588 4      4484.848    23165103.240    94857224.627 7      4484.848
R02  22892803.240   122160376.919 7      -742.886    22892803.740   122160376.917 7      -742.886    22892815.960    95013685.956 7      -577.800    22892816.040    95013683.961 7      -577.800
R16  22781080.520   121692428.655 6      -268.807    22781079.720   121692428.646 6      -268.807    22781100.400    94649747.797 7      -209.072    22781100.880    94649747.785 7      -209.072
> 2025 04 04 17 25 55.0000000  0 13
G02  22606096.920   118795835.269 7      1523.326    22606095.660   118795835.277 6      1523.326    22606099.740    92568201.684 6      1187.008
G03  19970788.900   104947200.195 8      2435.368    19970788.360   104947200.197 8      2435.368    19970794.400    81777064.867 8      1897.689    19970795.360    81777067.871 8      1897.689
G14  22244702.340   116896698.205 7      2750.971    22244701.220   116896698.202 5      2750.971    22244709.660    91088364.901 5      2143.614    22244710.060    91088367.915 8      2143.614
R03  19815875.720   106075934.167 8      2660.676    19815876.380   106075934.193 8      2660.676    19815887.400    82503551.924 8      2069.415    19815887.260    82503550.919 8      2069.415
G01  21183734.020   111321270.760 8      2117.024    21183733.300   111321270.770 6      2117.024    21183738.340    86743864.830 6      1649.629    21183738.580    86743865.842 8      1649.629
R18  20586251.900   109890807.787 7      3192.242    20586251.260   109890807.777 7      3192.242    20586262.420    85470673.460 8      2482.855    20586262.240    85470674.463 8      2482.855
G08  22225400.100   116795260.852 7       116.076    22225399.180   116795260.849 6       116.076    22225410.540    91009332.953 6        90.449    22225411.680    91009338.952 7        90.449
R04  20839613.180   111595180.138 7      6276.328    20839613.080   111595180.162 7      6276.328    20839628.200    86796323.256 8      4881.588    20839628.100    86796322.261 8      4881.588
G22  23614384.540   124094430.173 5      3917.823    23614381.500   124094430.165 1      3917.823    23614390.000    96696953.599 1      3052.849
R17  22116588.660   118350330.048 7      1301.100    22116589.660   118350330.061 7      1301.100    22116605.320    92050321.178 7      1011.966    22116604.980    92050319.181 7      1011.966
G04  23163992.020   121727605.224 7      5755.545    23163990.680   121727605.231 4      5755.545    23164007.180    94852734.764 4      4484.840    23164007.600    94852739.809 7      4484.840
R02  22892942.320   122161120.053 7      -743.280    22892943.160   122161120.049 7      -743.280    22892955.080    95014263.953 7      -578.107    22892955.300    95014261.960 7      -578.107
R16  22781130.840   121692697.595 6      -268.974    22781130.180   121692697.582 6      -268.974    22781150.500    94649956.963 7      -209.202    22781151.040    94649956.956 7      -209.202
> 2025 04 04 17 25 56.0000000  0 13
G02  22605807.040   118794311.706 7      1523.792    22605805.820   118794311.713 6      1523.792    22605809.880    92567014.500 6      1187.370
G03  19970325.580   104944764.807 8      2435.360    19970324.920   104944764.809 8      2435.360    19970330.960    81775167.170 8      1897.683    19970331.900    81775170.174 8      1897.683
G14  22244179.060   116893947.299 7      2750.833    22244177.640   116893947.296 5      2750.833    22244186.280    91086221.344 5      2143.507    22244186.860    91086224.358 8      2143.507
R03  19815378.620   106073273.687 8      2660.272    19815379.500   106073273.713 8      2660.272    19815390.240    82501482.671 8      2069.101    19815390.260    82501481.669 8      2069.101
G01  21183331.180   111319153.509 7      2117.538    21183330.420   111319153.519 6      2117.538    21183335.400    86742215.035 6      1650.030    21183335.520    86742216.044 8      1650.030
R18  20585653.840   109887615.283 7      3192.713    20585653.240   109887615.279 7      3192.713    20585664.360    85468190.414 8      2483.222    20585664.220    85468191.415 8      2483.222
G08  22225378.240   116795144.766 7       116.156    22225377.000   116795144.763 6       116.156    22225388.340    91009242.494 6        90.511    22225389.440    91009248.501 7        90.511
R04  20838441.020   111588903.711 7      6276.494    20838441.080   111588903.729 7      6276.494    20838456.180    86791441.597 8      4881.718    20838455.880    86791440.601 8      4881.718
G22  23613639.320   124090512.573 5      3917.510    23613635.580   124090512.565 1      3917.510    23613644.700    96693900.936 1      3052.605
R17  22116345.460   118349028.775 7      1301.445    22116346.380   118349028.793 7      1301.445    22116362.180    92049309.079 7      1012.235    22116361.760    92049307.082 8      1012.235
G04  23162896.360   121721849.391 7      5756.048    23162895.320   121721849.394 4      5756.048    23162911.980    94848249.718 4      4485.232    23162912.440    94848254.755 7      4485.232
R02  22893081.500   122161863.238 7      -743.120    22893082.180   122161863.236 7      -743.120    22893094.420    95014841.988 7      -577.982    22893094.480    95014839.993 7      -577.982
R16  22781181.180   121692966.406 7      -268.614    22781180.520   121692966.404 6      -268.614    22781201.180    94650166.036 7      -208.922    22781201.380    94650166.029 7      -208.922
> 2025 04 04 17 25 57.0000000  0 13
G02  22605517.000   118792787.567 7      1524.280    22605515.740   118792787.569 6      1524.280    22605520.000    92565826.859 6      1187.751
G03  19969861.980   104942329.387 8      2435.269    19969861.420   104942329.386 8      2435.269    19969867.560    81773269.445 8      1897.612    19969868.180    81773272.446 8      1897.612
G14  22243655.560   116891196.367 7      2750.724    22243653.980   116891196.375 5      2750.724    22243662.800    91084077.773 5      2143.422    22243663.400    91084080.789 8      2143.422
R03  19814881.740   106070613.467 8      2659.911    19814882.520   106070613.485 8      2659.911    19814893.580    82499413.617 8      2068.820    19814893.340    82499412.613 8      2068.820
G01  21182928.120   111317035.795 7      2117.785    21182927.500   111317035.808 6      2117.785    21182932.320    86740564.874 6      1650.222    21182932.620    86740565.880 8      1650.222
R18  20585056.020   109884422.347 7      3192.962    20585055.060   109884422.340 7      3192.962    20585066.300    85465707.026 8      2483.415    20585065.900    85465708.025 8      2483.415
G08  22225356.000   116795028.377 7       116.396    22225354.820   116795028.382 6       116.396    22225366.360    91009151.814 6        90.698    22225367.360    91009157.815 7        90.698
R04  20837268.820   111582627.142 7      6276.457    20837268.540   111582627.160 7      6276.457    20837283.920    86786559.844 8      4881.688    20837283.800    86786558.846 8      4881.688
G22  23612892.960   124086594.839 5      3917.720    23612889.800   124086594.826 1      3917.720    23612899.440    96690848.173 1      3052.769
R17  22116102.280   118347727.122 7      1301.596    22116103.020   118347727.126 7      1301.596    22116119.060    92048296.674 7      1012.352    22116118.520    92048294.676 8      1012.352
G04  23161801.300   121716093.039 7      5756.379    23161799.960   121716093.044 4      5756.379    23161816.520    94843764.275 4      4485.490    23161817.040    94843769.316 7      4485.490
R02  22893220.940   122162606.294 7      -743.200    22893221.660   122162606.298 7      -743.200    22893233.660    95015419.933 7      -578.044    22893233.960    95015417.934 7      -578.044
R16  22781231.240   121693234.880 7      -268.475    22781231.280   121693234.873 6      -268.475    22781251.220    94650374.844 7      -208.814    22781251.580    94650374.836 7      -208.814
> 2025 04 04 17 25 58.0000000  0 13
G02  22605227.000   118791263.104 7      1524.702    22605225.660   118791263.109 6      1524.702    22605229.800    92564638.974 6      1188.079
G03  19969398.520   104939894.156 8      2435.232    19969398.060   104939894.156 8      2435.232    19969404.080    81771371.872 8      1897.583    19969404.940    81771374.874 8      1897.583
G14  22243132.220   116888445.690 7      2750.653    22243130.360   116888445.692 5      2750.653    22243139.300    91081934.390 5      2143.366    22243140.040    91081937.406 8      2143.366
R03  19814385.260   106067953.782 8      2659.498    19814385.880   106067953.802 8      2659.498    19814396.720    82497344.983 8      2068.498    19814396.380    82497343.982 8      2068.498
G01  21182525.180   111314917.811 8      2118.182    21182524.420   111314917.818 6      2118.182    21182529.220    86738914.503 6      1650.531    21182529.760    86738915.509 8      1650.531
R18  20584457.700   109881229.200 7      3193.254    20584457.080   109881229.193 7      3193.254    20584467.960    85463223.473 8      2483.642    20584467.760    85463224.473 8      2483.642
G08  22225333.820   116794912.005 7       116.402    22225332.760   116794912.007 6       116.402    22225344.280    91009061.134 6        90.703    22225345.400    91009067.135 7        90.703
R04  20836096.780   111576350.694 7      6276.435    20836097.000   111576350.709 7      6276.435    20836111.940    86781678.174 8      4881.671    20836111.780    86781677.176 8      4881.671
G22  23612147.780   124082677.297 5      3917.404    23612143.920   124082677.281 1      3917.404    23612153.000    96687795.557 1      3052.523
R17  22115859.160   118346425.287 7      1301.938    22115859.540   118346425.297 7      1301.938    22115875.940    92047284.138 7      1012.618    22115875.280    92047282.144 7      1012.618
G04  23160705.780   121710336.421 7      5756.789    23160704.620   121710336.425 4      5756.789    23160721.000    94839278.623 4      4485.810    23160721.560    94839283.664 7      4485.810
R02  22893360.640   122163349.458 7      -743.123    22893360.260   122163349.461 7      -743.123    22893372.860    95015997.947 7      -577.985    22893373.080    95015995.956 7      -577.985
R16  22781281.780   121693503.229 6      -268.309    22781281.160   121693503.230 6      -268.309    22781301.580    94650583.558 7      -208.685    22781301.740    94650583.552 7      -208.685
> 2025 04 04 17 25 59.0000000  0 13
G02  22604936.920   118789738.227 7      1525.347    22604935.460   118789738.232 6      1525.347    22604939.600    92563450.764 6      1188.582
G03  19968935.220   104937459.043 8      2435.159    19968934.620   104937459.048 8      2435.159    19968940.720    81769474.392 8      1897.526    19968941.680    81769477.396 8      1897.526
G14  22242608.920   116885695.149 7      2750.630    22242606.940   116885695.154 5      2750.630    22242615.840    91079791.120 5      2143.348    22242616.840    91079794.138 8      2143.348
R03  19813888.280   106065294.541 8      2659.198    19813889.120   106065294.562 8      2659.198    19813899.820    82495276.691 8      2068.265    19813899.680    82495275.690 8      2068.265
G01  21182122.140   111312799.498 8      2118.614    21182121.200   111312799.508 6      2118.614    21182126.160    86737263.876 6      1650.868    21182126.500    86737264.881 8      1650.868
R18  20583859.400   109878035.701 8      3193.824    20583858.420   109878035.702 8      3193.824    20583869.640    85460739.651 8      2484.085    20583869.420    85460740.654 8      2484.085
G08  22225311.920   116794795.485 7       116.717    22225310.700   116794795.489 6       116.717    22225322.040    91008970.343 6        90.948    22225323.240    91008976.338 7        90.948
R04  20834924.660   111570074.242 7      6276.603    20834924.160   111570074.276 7      6276.603    20834940.000    86776796.523 8      4881.802    20834939.780    86776795.528 8      4881.802
G22  23611401.940   124078759.781 5      3917.639    23611398.320   124078759.760 1      3917.639    23611407.240    96684742.955 1      3052.706
R17  22115615.740   118345123.241 7      1302.297    22115616.320   118345123.258 7      1302.297    22115632.520    92046271.443 8      1012.897    22115631.880    92046269.452 8      1012.897
G04  23159609.860   121704579.443 6      5757.334    23159609.140   121704579.447 4      5757.334    23159625.580    94834792.690 4      4486.235    23159626.080    94834797.731 7      4486.235
R02  22893499.960   122164092.651 7      -743.096    22893499.680   122164092.662 7      -743.096    22893511.900    95016576.001 7      -577.963    22893512.260    95016574.003 7      -577.963
R16  22781332.280   121693771.383 7      -267.847    22781331.360   121693771.374 7      -267.847    22781351.860    94650792.101 7      -208.325    22781352.200    94650792.094 7      -208.325
> 2025 04 04 17 26  0.0000000  0 13
G02  22604646.600   118788212.798 7      1525.705    22604645.240   118788212.803 6      1525.705    22604649.300    92562262.125 6      1188.861
G03  19968472.020   104935023.857 8      2435.195    19968471.200   104935023.860 8      2435.195    19968477.340    81767576.853 8      1897.554    19968478.060    81767579.855 8      1897.554
G14  22242085.620   116882944.619 7      2750.415    22242083.400   116882944.621 5      2750.415    22242092.500    91077647.853 5      2143.181    22242093.180    91077650.867 8      2143.181
R03  19813391.560   106062635.566 8      2658.804    19813392.440   106062635.591 8      2658.804    19813403.080    82493208.615 8      2067.959    19813403.000    82493207.614 8      2067.959
G01  21181718.880   111310680.668 8      2119.041    21181717.980   111310680.675 6      2119.041    21181722.980    86735612.845 6      1651.201    21181723.360    86735613.855 8      1651.201
R18  20583261.180   109874841.730 8      3194.255    20583260.300   109874841.722 8      3194.255    20583271.480    85458255.455 8      2484.420    20583271.140    85458256.456 8      2484.420
G08  22225289.880   116794678.684 7       116.977    22225288.580   116794678.688 6       116.977    22225299.720    91008879.331 6        91.151    22225301.120    91008885.334 7        91.151
R04  20833752.280   111563797.697 7      6276.589    20833752.060   111563797.737 7      6276.589    20833767.780    86771914.787 8      4881.791    20833767.700    86771913.791 8      4881.791
G22  23610656.500   124074842.173 5      3917.596    23610653.060   124074842.162 1      3917.596    23610661.680    96681690.280 1      3052.672
R17  22115372.180   118343820.812 7      1302.628    22115373.300   118343820.832 7      1302.628    22115389.360    92045258.447 8      1013.155    22115388.540    92045256.454 8      1013.155
G04  23158514.420   121698821.949 6      5757.701    23158513.520   121698821.954 4      5757.701    23158530.020    94830306.355 4      4486.520    23158530.140    94830311.396 7      4486.520
R02  22893639.200   122164835.694 7      -742.983    22893639.180   122164835.700 7      -742.983    22893651.260    95017153.921 7      -577.875    22893651.500    95017151.928 7      -577.875
R16  22781382.340   121694039.177 7      -267.601    22781381.460   121694039.167 7      -267.601    22781401.740    94651000.387 7      -208.134    22781402.300    94651000.379 7      -208.134
> 2025 04 04 17 26  1.0000000  0 13
G02  22604356.300   118786686.888 7      1526.214    22604354.860   118786686.893 6      1526.214    22604359.020    92561073.108 6      1189.258
G03  19968008.660   104932588.740 8      2435.195    19968007.840   104932588.742 8      2435.195    19968014.020    81765679.365 8      1897.555    19968014.820    81765682.367 8      1897.555
G14  22241561.940   116880194.146 7      2750.522    22241560.000   116880194.149 5      2750.522    22241569.260    91075504.634 5      2143.264    22241569.680    91075507.644 8      2143.264
R03  19812895.160   106059976.983 8      2658.469    19812895.840   106059977.012 8      2658.469    19812906.540    82491140.842 8      2067.698    19812906.340    82491139.841 8      2067.698
G01  21181315.500   111308561.459 8      2119.539    21181314.760   111308561.464 6      2119.539    21181319.740    86733961.518 6      1651.589    21181320.160    86733962.520 8      1651.589
R18  20582662.820   109871647.406 7      3194.582    20582661.940   109871647.396 7      3194.582    20582672.780    85455770.985 8      2484.675    20582672.500    85455771.986 8      2484.675
G08  22225267.600   116794561.735 7       117.094    22225266.320   116794561.732 6       117.094    22225277.500    91008788.203 6        91.242    22225278.740    91008794.204 7        91.242
R04  20832580.300   111557521.214 7      6276.495    20832580.160   111557521.245 7      6276.495    20832595.800    86767033.086 8      4881.718    20832595.600    86767032.088 8      4881.718
G22  23609910.980   124070924.576 5      3917.481    23609907.460   124070924.573 1      3917.481    23609916.200    96678637.625 1      3052.583
R17  22115129.140   118342518.096 7      1302.917    22115129.580   118342518.108 7      1302.917    22115146.100    92044245.222 7      1013.380    22115145.160    92044243.222 8      1013.380
G04  23157418.620   121693064.041 6      5758.213    23157417.960   121693064.049 4      5758.213    23157434.460    94825819.696 4      4486.919    23157434.460    94825824.732 7      4486.919
R02  22893778.300   122165578.719 7      -743.013    22893778.060   122165578.725 7      -743.013    22893790.420    95017731.833 7      -577.899    22893790.700    95017729.838 7      -577.899
R16  22781432.260   121694306.767 7      -267.527    22781431.220   121694306.763 7      -267.527    22781452.160    94651208.507 7      -208.077    22781452.320    94651208.499 7      -208.077
> 2025 04 04 17 26  2.0000000  0 13
G02  22604065.700   118785160.571 7      1526.305    22604064.360   118785160.579 6      1526.305    22604068.600    92559883.776 6      1189.328
G03  19967545.020   104930153.743 8      2434.716    19967544.460   104930153.742 8      2434.716    19967550.620    81763781.973 8      1897.181    19967551.580    81763784.973 8      1897.181
G14  22241038.580   116877443.855 7      2749.975    22241036.620   116877443.855 5      2749.975    22241046.060    91073361.556 5      2142.838    22241046.440    91073364.568 8      2142.838
R03  19812398.460   106057318.846 8      2657.686    19812399.540   106057318.871 8      2657.686    19812409.820    82489073.405 8      2067.089    19812409.620    82489072.404 8      2067.089
G01  21180912.160   111306441.917 8      2119.477    21180911.400   111306441.922 6      2119.477    21180916.420    86732309.935 6      1651.541    21180916.740    86732310.940 8      1651.541
R18  20582064.480   109868452.762 7      3194.608    20582063.320   109868452.757 7      3194.608    20582074.360    85453286.274 8      2484.695    20582074.240    85453287.276 8      2484.695
G08  22225245.280   116794444.645 7       116.979    22225243.940   116794444.650 6       116.979    22225255.300    91008696.968 6        91.152    22225256.880    91008702.977 7        91.152
R04  20831408.000   111551244.771 7      6276.093    20831407.780   111551244.799 7      6276.093    20831423.680    86762151.426 8      4881.406    20831423.600    86762150.427 8      4881.406
G22  23609165.480   124067006.960 5      3917.483    23609161.960   124067006.952 1      3917.483    23609170.600    96675584.950 1      3052.585
R17  22114885.620   118341215.113 7      1302.878    22114886.420   118341215.123 7      1302.878    22114902.580    92043231.788 8      1013.350    22114901.700    92043229.789 8      1013.350
G04  23156322.720   121687305.784 7      5758.158    23156322.040   121687305.791 4      5758.158    23156338.740    94821332.762 4      4486.876    23156338.960    94821337.803 7      4486.876
R02  22893917.520   122166321.703 7      -743.182    22893917.000   122166321.709 7      -743.182    22893929.660    95018309.712 7      -578.031    22893929.860    95018307.713 7      -578.031
R16  22781483.120   121694574.160 7      -267.440    22781481.220   121694574.148 7      -267.440    22781502.140    94651416.469 7      -208.009    22781502.260    94651416.461 7      -208.009
> 2025 04 04 17 26  3.0000000  0 13
G02  22603775.300   118783633.852 7      1527.160    22603773.880   118783633.859 6      1527.160    22603778.080    92558694.129 6      1189.994
G03  19967081.800   104927718.861 8      2434.970    19967081.120   104927718.864 8      2434.970    19967087.260    81761884.671 8      1897.379    19967088.200    81761887.673 8      1897.379
G14  22240515.340   116874693.706 7      2750.176    22240513.160   116874693.706 5      2750.176    22240522.960    91071218.589 5      2142.995    22240523.200    91071221.609 8      2142.995
R03  19811902.080   106054661.152 8      2657.662    19811902.840   106054661.178 8      2657.662    19811913.300    82487006.321 8      2067.071    19811913.220    82487005.317 8      2067.071
G01  21180508.760   111304322.044 8      2120.184    21180507.900   111304322.051 6      2120.184    21180512.840    86730658.092 6      1652.091    21180513.380    86730659.099 8      1652.091
R18  20581465.900   109865257.843 7      3195.298    20581464.840   109865257.830 7      3195.298    20581475.960    85450801.337 8      2485.232    20581475.820    85450802.339 8      2485.232
G08  22225222.980   116794327.471 7       117.503    22225221.600   116794327.473 6       117.503    22225233.060    91008605.661 6        91.561    22225234.620    91008611.662 7        91.561
R04  20830235.820   111544968.346 7      6276.502    20830235.880   111544968.375 7      6276.502    20830251.520    86757269.779 8      4881.723    20830251.500    86757268.784 8      4881.723
G22  23608420.220   124063089.468 5      3917.736    23608416.820   124063089.467 1      3917.736    23608425.820    96672532.375 1      3052.782
R17  22114642.100   118339911.908 7      1303.551    22114642.560   118339911.915 7      1303.551    22114658.780    92042218.187 8      1013.873    22114658.420    92042216.187 7      1013.873
G04  23155227.260   121681547.169 7      5758.948    23155226.060   121681547.181 4      5758.948    23155242.840    94816845.554 4      4487.492    23155242.480    94816850.601 7      4487.492
R02  22894056.340   122167064.696 7      -742.842    22894056.780   122167064.707 6      -742.842    22894068.740    95018887.608 7      -577.766    22894069.140    95018885.611 7      -577.766
R16  22781533.160   121694841.425 7      -267.043    22781531.160   121694841.412 6      -267.043    22781552.460    94651624.329 7      -207.700    22781552.620    94651624.317 7      -207.700
> 2025 04 04 17 26  4.0000000  0 13
G02  22603484.560   118782106.599 7      1527.753    22603483.300   118782106.607 6      1527.753    22603487.440    92557504.072 6      1190.457
G03  19966618.320   104925283.951 8      2435.122    19966617.760   104925283.954 8      2435.122    19966623.860    81759987.347 8      1897.497    19966624.820    81759990.346 8      1897.497
G14  22239992.140   116871943.573 7      2750.385    22239989.720   116871943.575 5      2750.385    22239999.580    91069075.634 5      2143.157    22240000.100    91069078.646 8      2143.157
R03  19811405.740   106052003.766 8      2657.469    19811406.460   106052003.794 8      2657.469    19811416.960    82484939.473 8      2066.920    19811416.940    82484938.474 8      2066.920
G01  21180105.360   111302201.689 7      2120.829    21180104.400   111302201.694 6      2120.829    21180109.380    86729005.874 6      1652.594    21180109.880    86729006.885 8      1652.594
R18  20580867.020   109862062.446 7      3195.957    20580866.300   109862062.444 7      3195.957    20580877.340    85448316.045 8      2485.744    20580877.060    85448317.047 8      2485.744
G08  22225200.700   116794210.055 7       117.832    22225199.400   116794210.058 6       117.832    22225210.740    91008514.172 6        91.817    22225212.120    91008520.180 7        91.817
R04  20829064.060   111538691.828 7      6276.711    20829062.880   111538691.846 7      6276.711    20829079.540    86752388.053 8      4881.886    20829079.380    86752387.058 8      4881.886
G22  23607675.120   124059171.907 5      3917.971    23607671.960   124059171.909 1      3917.971    23607680.000    96669479.744 1      3052.964
R17  22114398.400   118338608.345 7      1304.045    22114398.740   118338608.352 7      1304.045    22114414.980    92041204.302 7      1014.257    22114414.480    92041202.306 8      1014.257
G04  23154131.260   121675788.073 6      5759.573    23154130.040   121675788.083 4      5759.573    23154146.800    94812357.971 4      4487.979    23154146.960    94812363.014 7      4487.979
R02  22894195.760   122167807.550 7      -742.544    22894195.800   122167807.561 7      -742.544    22894208.200    95019465.377 7      -577.534    22894208.280    95019463.382 7      -577.534
R16  22781582.800   121695108.356 7      -266.725    22781581.460   121695108.354 6      -266.725    22781601.980    94651831.939 7      -207.453    22781602.580    94651831.930 7      -207.453
