     3.05           OBSERVATION DATA    MIXED               RINEX VERSION / TYPE
TPS2RIN 1.0.28.3459 TPS-USER            20250407 105132 UTC PGM / RUN BY / DATE
Win64 build Jun 01, 2022 (c) Topcon Positioning Systems     COMMENT
SRC: 20250404_grav_20250404_212005.tps                      COMMENT
Observer            Agency                                  OBSERVER / AGENCY
O0M3X53SBGM         TPS HIPER_SR        4.8 HSR Jul,08,2022 REC # / TYPE / VERS
FW: 4.8 HSR Jul,08,2022 p3                                  COMMENT
SN: HiPer SR 1212-12575                                     COMMENT
000                 TPSHIPER_SR     NONE                    ANT # / TYPE
        1.8000        0.0000        0.0000                  ANTENNA: DELTA H/E/N
DELTA H stands for **SLANT** height here!                   COMMENT
ORO00                                                       MARKER NAME
  5381859.6207 -1598802.6493  3016694.4524                  APPROX POSITION XYZ
  2025     4     4    19    20   31.0000000     GPS         TIME OF FIRST OBS
  2025     4     4    19    37    4.0000000     GPS         TIME OF LAST OBS
     1.000                                                  INTERVAL
   994 EPOCHS                                               COMMENT
G   12 C1C L1C D1C C1W L1W D1W C2W L2W D2W C2X L2X D2X      SYS / # / OBS TYPES
R   12 C1C L1C D1C C1P L1P D1P C2P L2P D2P C2C L2C D2C      SYS / # / OBS TYPES
    10                                                      # OF SATELLITES
   G01   994   994   994   994   994   994   994   994   994PRN / # OF OBS
         994   994   994                                    PRN / # OF OBS
   G03   994   994   994   994   994   994   994   994   994PRN / # OF OBS
         994   994   994                                    PRN / # OF OBS
   G04   994   994   994   994   994   994   994   994   994PRN / # OF OBS
         994   994   994                                    PRN / # OF OBS
   G06   693   693   693   693   693   693   693   693   693PRN / # OF OBS
         686   686   686                                    PRN / # OF OBS
   G09   994   994   994   994   994   994   994   994   994PRN / # OF OBS
         994   994   994                                    PRN / # OF OBS
   G17   994   994   994   994   994   994   994   994   994PRN / # OF OBS
         994   994   994                                    PRN / # OF OBS
   G19   994   994   994   994   994   994   994   994   994PRN / # OF OBS
           0     0     0                                    PRN / # OF OBS
   R04   994   994   994   994   994   994   994   994   994PRN / # OF OBS
         994   994   994                                    PRN / # OF OBS
   R05   994   994   994   994   994   994   994   994   994PRN / # OF OBS
         994   994   994                                    PRN / # OF OBS
   R18   985   985   985   985   985   985   985   985   985PRN / # OF OBS
         985   985   985                                    PRN / # OF OBS
G L1C                                                       SYS / PHASE SHIFT
G L1W -0.25000                                              SYS / PHASE SHIFT
G L2W  0.00000                                              SYS / PHASE SHIFT
G L2X  0.25000                                              SYS / PHASE SHIFT
R L1C                                                       SYS / PHASE SHIFT
R L1P -0.25000                                              SYS / PHASE SHIFT
R L2P -0.25000                                              SYS / PHASE SHIFT
R L2C                                                       SYS / PHASE SHIFT
  3 R04  6 R05  1 R18 -3                                    GLONASS SLOT / FRQ #
                                                            GLONASS COD/PHS/BIS
    18                  GPS                                 LEAP SECONDS
                                                            END OF HEADER
> 2025 04 04 19 20 31.0000000  0  9
G03  21946353.820   115328863.644 7       216.058    21946353.100   115328863.646 7       216.058    21946360.300    89866674.793 7       168.357    21946359.860    89866674.789 8       168.357
G17  20585960.300   108179950.872 7      2862.217    20585959.260   108179950.871 6      2862.217    20585962.180    84296074.783 6      2230.299    20585962.460    84296075.786 8      2230.299
R04  19434728.860   104072089.989 8       848.372    19434730.580   104072090.031 8       848.372    19434737.600    80944997.614 8       659.845    19434737.840    80945000.613 8       659.845
G04  20515042.860   107807279.963 7      2689.710    20515041.960   107807279.968 6      2689.710    20515047.820    84005691.428 6      2095.878    20515047.720    84005693.431 8      2095.878
G09  20748226.680   109032669.089 7      4780.342    20748225.140   109032669.094 7      4780.342    20748232.860    84960546.601 7      3724.942    20748233.940    84960547.602 8      3724.942
R05  19829583.280   106000484.892 7      4753.067    19829582.420   106000484.890 7      4753.067    19829592.400    82444863.930 8      3696.830    19829592.420    82444862.931 8      3696.830
G19  21112797.680   110948499.921 7      4801.622    21112796.480   110948499.926 6      4801.622    21112799.320    86453384.613 6      3741.524
R18  21177457.160   113046701.657 7       582.150    21177458.160   113046701.655 7       582.150    21177469.860    87925268.585 7       452.783    21177470.180    87925270.581 7       452.783
G01  22384505.620   117631367.354 7       971.497    22384504.720   117631367.351 5       971.497    22384512.360    91660837.780 5       757.011    22384512.600    91660836.788 8       757.011
> 2025 04 04 19 20 32.0000000  0  9
G03  21946312.460   115328647.168 7       216.836    21946311.900   115328647.173 7       216.836    21946319.160    89866506.123 7       168.963    21946318.820    89866506.119 7       168.963
G17  20585415.420   108177088.357 7      2862.585    20585414.420   108177088.361 7      2862.585    20585417.580    84293844.270 7      2230.586    20585418.000    84293845.271 8      2230.586
R04  19434570.440   104071241.395 8       848.702    19434572.040   104071241.434 7       848.702    19434579.040    80944337.607 8       660.102    19434579.580    80944340.604 8       660.102
G04  20514530.980   107804590.026 7      2690.023    20514530.080   107804590.036 6      2690.023    20514535.800    84003595.394 6      2096.122    20514535.980    84003597.400 8      2096.122
G09  20747316.880   109027888.426 7      4780.743    20747315.460   109027888.436 7      4780.743    20747323.120    84956821.433 7      3725.254    20747324.000    84956822.434 7      3725.254
R05  19828694.260   105995731.614 7      4753.312    19828693.620   105995731.610 7      4753.312    19828703.120    82441166.954 8      3697.021    19828703.240    82441165.955 8      3697.021
G19  21111884.060   110943698.112 7      4802.033    21111882.700   110943698.114 6      4802.033    21111885.620    86449642.959 6      3741.844
R18  21177347.860   113046119.159 7       582.616    21177348.960   113046119.159 7       582.616    21177360.980    87924815.544 7       453.146    21177361.280    87924817.540 7       453.146
G01  22384320.520   117630395.477 7       972.120    22384319.760   117630395.471 5       972.120    22384327.520    91660080.486 5       757.496    22384327.520    91660079.495 8       757.496
> 2025 04 04 19 20 33.0000000  0  9
G03  21946271.120   115328429.893 7       217.584    21946270.500   115328429.898 7       217.584    21946277.860    89866336.830 7       169.546    21946277.480    89866336.824 7       169.546
G17  20584870.540   108174225.589 8      2862.798    20584869.760   108174225.589 7      2862.798    20584872.680    84291613.550 6      2230.751    20584873.020    84291614.554 8      2230.751
R04  19434411.760   104070392.602 8       848.766    19434413.880   104070392.639 8       848.766    19434420.500    80943677.448 8       660.151    19434421.100    80943680.447 8       660.151
G04  20514018.840   107801899.881 7      2690.243    20514017.980   107801899.894 6      2690.243    20514023.980    84001499.193 6      2096.293    20514024.160    84001501.198 8      2096.293
G09  20746407.240   109023107.402 7      4781.155    20746405.820   109023107.410 7      4781.155    20746413.320    84953095.977 7      3725.575    20746413.920    84953096.980 7      3725.575
R05  19827804.820   105990978.191 7      4753.373    19827804.040   105990978.190 7      4753.373    19827814.040    82437469.867 8      3697.068    19827813.920    82437468.865 8      3697.068
G19  21110970.400   110938895.997 7      4802.215    21110968.940   110938896.002 6      4802.215    21110971.760    86445901.068 6      3741.986
R18  21177238.520   113045536.306 7       582.927    21177239.760   113045536.312 7       582.927    21177251.820    87924362.226 7       453.388    21177252.040    87924364.224 7       453.388
G01  22384135.340   117629422.954 7       972.756    22384134.680   117629422.945 5       972.756    22384142.480    91659322.686 5       757.992    22384142.680    91659321.697 8       757.992
> 2025 04 04 19 20 34.0000000  0  9
G03  21946229.720   115328211.765 7       218.608    21946229.040   115328211.762 7       218.608    21946236.300    89866166.862 7       170.344    21946236.420    89866166.860 7       170.344
G17  20584325.780   108171362.496 8      2863.190    20584324.960   108171362.496 6      2863.190    20584327.920    84289382.579 6      2231.057    20584328.280    84289383.582 8      2231.057
R04  19434253.420   104069543.523 8       849.188    19434255.080   104069543.557 8       849.188    19434262.140    80943017.068 8       660.479    19434262.700    80943020.069 8       660.479
G04  20513507.040   107799209.463 7      2690.668    20513506.060   107799209.476 6      2690.668    20513512.000    83999402.778 6      2096.625    20513512.220    83999404.785 8      2096.625
G09  20745497.400   109018325.990 7      4781.606    20745495.820   109018325.995 7      4781.606    20745503.460    84949370.221 7      3725.927    20745503.980    84949371.223 8      3725.927
R05  19826915.480   105986224.557 7      4753.700    19826915.020   105986224.564 7      4753.700    19826924.780    82433772.619 8      3697.322    19826924.500    82433771.620 8      3697.322
G19  21110056.640   110934093.491 7      4802.728    21110055.060   110934093.496 6      4802.728    21110057.900    86442158.870 6      3742.385
R18  21177129.580   113044953.063 7       583.411    21177130.360   113044953.069 7       583.411    21177142.300    87923908.595 7       453.764    21177142.800    87923910.593 7       453.764
G01  22383950.160   117628449.753 7       973.497    22383949.560   117628449.742 6       973.497    22383957.200    91658564.364 5       758.569    22383957.400    91658563.377 8       758.569
> 2025 04 04 19 20 35.0000000  0  9
G03  21946188.060   115327992.929 7       219.153    21946187.160   115327992.932 7       219.153    21946194.700    89865996.359 7       170.769    21946194.480    89865996.353 8       170.769
G17  20583781.020   108168499.206 8      2863.349    20583780.040   108168499.203 7      2863.349    20583782.940    84287151.460 7      2231.181    20583783.240    84287152.466 8      2231.181
R04  19434094.880   104068694.329 8       849.230    19434096.840   104068694.363 8       849.230    19434103.400    80942356.592 8       660.512    19434104.180    80942359.591 8       660.512
G04  20512995.360   107796518.945 7      2690.553    20512994.220   107796518.956 6      2690.553    20512999.940    83997306.287 6      2096.535    20513000.200    83997308.294 8      2096.535
G09  20744587.420   109013544.318 8      4781.754    20744585.960   109013544.325 7      4781.754    20744593.540    84945644.263 7      3726.042    20744594.080    84945645.267 7      3726.042
R05  19826026.180   105981470.883 7      4753.685    19826025.620   105981470.882 7      4753.685    19826035.520    82430075.334 8      3697.310    19826035.320    82430074.332 8      3697.310
G19  21109142.660   110929290.762 7      4802.830    21109141.240   110929290.767 6      4802.830    21109143.880    86438416.498 6      3742.465
R18  21177020.240   113044369.529 7       583.608    21177021.360   113044369.533 7       583.608    21177033.300    87923454.744 7       453.917    21177033.300    87923456.746 7       453.917
G01  22383764.900   117627476.005 7       973.931    22383764.120   117627475.999 6       973.931    22383771.840    91657805.612 6       758.908    22383772.100    91657804.619 8       758.908
> 2025 04 04 19 20 36.0000000  0  9
G03  21946146.040   115327773.127 7       220.502    21946145.500   115327773.132 7       220.502    21946153.000    89865825.097 7       171.820    21946152.700    89865825.093 7       171.820
G17  20583236.140   108165635.482 8      2864.081    20583235.060   108165635.487 7      2864.081    20583238.020    84284920.005 6      2231.752    20583238.320    84284921.013 8      2231.752
R04  19433936.200   104067844.774 8       849.933    19433937.960   104067844.813 8       849.933    19433944.800    80941695.849 8       661.059    19433945.400    80941698.848 8       661.059
G04  20512483.240   107793828.018 7      2691.316    20512482.000   107793828.025 6      2691.316    20512487.880    83995209.475 6      2097.129    20512488.140    83995211.484 8      2097.129
G09  20743677.460   109008762.117 7      4782.685    20743675.880   109008762.120 7      4782.685    20743683.320    84941917.890 8      3726.767    20743684.000    84941918.891 8      3726.767
R05  19825136.720   105976716.889 8      4754.269    19825136.220   105976716.895 7      4754.269    19825146.200    82426377.803 8      3697.764    19825146.200    82426376.804 8      3697.764
G19  21108228.840   110924487.552 7      4803.572    21108227.200   110924487.559 6      4803.572    21108229.960    86434673.753 6      3743.043
R18  21176910.960   113043785.422 7       584.649    21176911.780   113043785.431 7       584.649    21176923.760    87923000.455 7       454.727    21176924.060    87923002.455 7       454.727
G01  22383579.440   117626501.438 7       975.159    22383578.700   117626501.432 6       975.159    22383586.420    91657046.221 5       759.864    22383586.580    91657045.230 8       759.864
> 2025 04 04 19 20 37.0000000  0  9
G03  21946104.260   115327552.421 7       221.038    21946103.460   115327552.423 7       221.038    21946110.840    89865653.126 7       172.237    21946110.700    89865653.124 8       172.237
G17  20582691.060   108162771.351 8      2864.285    20582690.060   108162771.354 6      2864.285    20582693.000    84282688.229 6      2231.910    20582693.260    84282689.235 8      2231.910
R04  19433777.540   104066994.929 8       849.972    19433779.360   104066994.968 8       849.972    19433786.100    80941034.869 8       661.089    19433786.840    80941037.870 8       661.089
G04  20511970.860   107791136.759 7      2691.317    20511969.940   107791136.769 6      2691.317    20511975.740    83993112.411 6      2097.130    20511976.120    83993114.413 8      2097.130
G09  20742767.300   109003979.473 7      4782.792    20742765.720   109003979.478 7      4782.792    20742773.320    84938191.170 8      3726.851    20742773.860    84938192.169 7      3726.851
R05  19824247.600   105971962.611 7      4754.296    19824246.920   105971962.615 7      4754.296    19824256.680    82422680.050 8      3697.786    19824256.780    82422679.051 8      3697.786
G19  21107314.680   110919683.892 7      4803.711    21107313.080   110919683.902 6      4803.711    21107315.620    86430930.658 6      3743.152
R18  21176801.440   113043200.847 7       584.804    21176802.160   113043200.843 7       584.804    21176814.180    87922545.786 7       454.847    21176814.620    87922547.786 7       454.847
G01  22383394.000   117625526.129 7       975.563    22383393.080   117625526.124 5       975.563    22383400.840    91656286.255 5       760.179    22383400.920    91656285.264 8       760.179
> 2025 04 04 19 20 38.0000000  0  9
G03  21946062.100   115327330.947 7       221.748    21946061.420   115327330.952 7       221.748    21946068.720    89865480.566 7       172.791    21946068.480    89865480.564 7       172.791
G17  20582146.000   108159907.029 8      2864.310    20582144.940   108159907.028 6      2864.310    20582147.820    84280456.306 6      2231.930    20582148.400    84280457.309 8      2231.930
R04  19433619.040   104066144.975 8       849.973    19433620.520   104066145.009 8       849.973    19433627.360    80940373.804 8       661.090    19433627.920    80940376.805 8       661.090
G04  20511458.840   107788445.359 7      2691.237    20511457.620   107788445.369 6      2691.237    20511463.540    83991015.228 6      2097.068    20511463.900    83991017.238 8      2097.068
G09  20741857.200   108999196.526 7      4782.956    20741855.620   108999196.533 7      4782.956    20741863.080    84934464.219 7      3726.979    20741863.620    84934465.222 7      3726.979
R05  19823358.100   105967208.240 7      4754.292    19823357.480   105967208.241 7      4754.292    19823367.440    82418982.220 8      3697.783    19823367.520    82418981.219 8      3697.783
G19  21106400.360   110914879.965 7      4803.924    21106398.880   110914879.970 6      4803.924    21106401.560    86427187.352 6      3743.317
R18  21176691.500   113042615.969 7       584.844    21176692.500   113042615.970 7       584.844    21176704.600    87922090.893 7       454.878    21176705.000    87922092.893 7       454.878
G01  22383208.260   117624550.246 7       976.070    22383207.360   117624550.237 5       976.070    22383215.320    91655525.838 5       760.574    22383215.580    91655524.852 8       760.574
> 2025 04 04 19 20 39.0000000  0  9
G03  21946019.600   115327108.662 7       222.826    21946019.040   115327108.664 7       222.826    21946026.360    89865307.367 7       173.630    21946026.200    89865307.367 7       173.630
G17  20581600.920   108157042.388 8      2864.924    20581599.920   108157042.390 6      2864.924    20581602.800    84278224.129 6      2232.408    20581603.160    84278225.132 8      2232.408
R04  19433460.040   104065294.798 8       850.378    19433461.640   104065294.832 8       850.378    19433468.680    80939712.570 8       661.405    19433469.440    80939715.569 8       661.405
G04  20510946.540   107785753.679 7      2691.868    20510945.520   107785753.690 6      2691.868    20510951.380    83988917.830 6      2097.559    20510951.700    83988919.838 8      2097.559
G09  20740946.840   108994413.204 7      4783.516    20740945.400   108994413.211 7      4783.516    20740952.960    84930736.975 7      3727.415    20740953.580    84930737.977 8      3727.415
R05  19822468.440   105962453.654 7      4754.819    19822468.040   105962453.661 7      4754.819    19822478.080    82415284.230 8      3698.192    19822478.060    82415283.231 8      3698.192
G19  21105486.260   110910075.696 7      4804.515    21105484.500   110910075.703 6      4804.515    21105487.260    86423443.780 6      3743.778
R18  21176581.840   113042030.682 7       585.603    21176582.900   113042030.682 7       585.603    21176595.400    87921635.680 7       455.469    21176595.340    87921637.680 7       455.469
G01  22383022.480   117623573.689 7       977.030    22383021.420   117623573.684 5       977.030    22383029.580    91654764.898 5       761.322    22383029.860    91654763.913 8       761.322
> 2025 04 04 19 20 40.0000000  0  9
G03  21945977.280   115326885.546 7       223.649    21945976.520   115326885.549 7       223.649    21945984.060    89865133.519 7       174.272    21945983.640    89865133.515 7       174.272
G17  20581055.460   108154177.456 8      2865.146    20581054.760   108154177.458 6      2865.146    20581057.760    84275991.728 6      2232.581    20581058.160    84275992.734 8      2232.581
R04  19433301.040   104064444.386 8       850.563    19433302.880   104064444.428 8       850.563    19433310.060    80939051.157 8       661.549    19433310.420    80939054.158 8       661.549
G04  20510434.360   107783061.766 7      2692.090    20510433.300   107783061.782 6      2692.090    20510439.180    83986820.256 6      2097.732    20510439.320    83986822.264 8      2097.732
G09  20740036.660   108989629.500 7      4783.945    20740035.120   108989629.513 7      4783.945    20740042.620    84927009.434 7      3727.749    20740043.480    84927010.434 7      3727.749
R05  19821579.180   105957698.914 7      4754.932    19821578.720   105957698.913 7      4754.932    19821588.660    82411586.114 8      3698.281    19821588.560    82411585.112 8      3698.281
G19  21104571.940   110905271.064 7      4804.949    21104570.300   110905271.069 6      4804.949    21104572.960    86419699.924 6      3744.116
R18  21176472.300   113041445.040 7       585.957    21176473.580   113041445.043 7       585.957    21176485.400    87921180.186 7       455.745    21176485.900    87921182.191 7       455.745
G01  22382836.620   117622596.479 7       977.645    22382835.460   117622596.476 5       977.645    22382843.720    91654003.449 5       761.802    22382843.920    91654002.460 8       761.802
> 2025 04 04 19 20 41.0000000  0  9
G03  21945934.740   115326661.692 7       224.188    21945934.000   115326661.695 7       224.188    21945941.380    89864959.097 7       174.692    21945941.140    89864959.093 7       174.692
G17  20580510.160   108151312.287 8      2865.240    20580509.500   108151312.289 6      2865.240    20580512.340    84273759.141 6      2232.655    20580512.860    84273760.149 8      2232.655
R04  19433142.220   104063593.818 8       850.620    19433144.160   104063593.857 8       850.620    19433151.040    80938389.621 8       661.593    19433151.480    80938392.620 8       661.593
G04  20509922.440   107780369.693 7      2692.103    20509920.820   107780369.706 6      2692.103    20509926.900    83984722.551 6      2097.743    20509927.140    83984724.555 8      2097.743
G09  20739126.400   108984845.489 7      4784.203    20739124.720   108984845.499 7      4784.203    20739132.160    84923281.650 7      3727.951    20739132.860    84923282.650 8      3727.951
R05  19820689.720   105952944.059 7      4754.897    19820689.100   105952944.060 7      4754.897    19820699.160    82407887.914 8      3698.253    19820698.960    82407886.914 8      3698.253
G19  21103657.520   110900466.175 7      4804.982    21103656.040   110900466.183 6      4804.982    21103658.580    86415955.871 6      3744.142
R18  21176362.680   113040859.064 7       586.125    21176363.640   113040859.059 7       586.125    21176375.880    87920724.436 7       455.875    21176376.180    87920726.436 7       455.875
G01  22382650.520   117621618.690 7       978.023    22382649.520   117621618.684 6       978.023    22382657.460    91653241.548 5       762.096    22382657.740    91653240.561 8       762.096
> 2025 04 04 19 20 42.0000000  0  9
G03  21945891.800   115326437.089 7       225.089    21945891.140   115326437.094 7       225.089    21945898.640    89864784.096 7       175.394    21945898.580    89864784.090 7       175.394
G17  20579965.200   108148446.908 8      2865.622    20579964.300   108148446.907 6      2865.622    20579967.100    84271526.391 6      2232.952    20579967.340    84271527.396 8      2232.952
R04  19432983.340   104062743.135 8       850.829    19432985.420   104062743.177 8       850.829    19432992.020    80937727.993 8       661.756    19432992.480    80937730.992 8       661.756
G04  20509409.940   107777677.444 7      2692.472    20509408.560   107777677.459 6      2692.472    20509414.560    83982624.710 6      2098.030    20509414.720    83982626.721 8      2098.030
G09  20738215.820   108980061.213 7      4784.578    20738214.340   108980061.223 7      4784.578    20738221.780    84919553.661 8      3728.243    20738222.320    84919554.660 7      3728.243
R05  19819800.140   105948189.129 8      4755.150    19819799.580   105948189.130 7      4755.150    19819809.760    82404189.651 8      3698.450    19819809.500    82404188.654 8      3698.450
G19  21102743.160   110895661.010 7      4805.469    21102741.640   110895661.015 6      4805.469    21102744.220    86412211.603 6      3744.521
R18  21176252.860   113040272.746 7       586.717    21176253.800   113040272.742 7       586.717    21176266.040    87920268.424 7       456.336    21176266.320    87920270.426 7       456.336
G01  22382464.280   117620640.305 7       978.852    22382463.280   117620640.299 6       978.852    22382471.200    91652479.184 6       762.742    22382471.420    91652478.192 8       762.742
> 2025 04 04 19 20 43.0000000  0  9
G03  21945848.960   115326211.554 7       226.041    21945848.260   115326211.561 7       226.041    21945855.720    89864608.364 7       176.135    21945855.440    89864608.361 7       176.135
G17  20579419.900   108145581.121 8      2866.149    20579418.840   108145581.121 6      2866.149    20579421.740    84269293.325 6      2233.363    20579422.240    84269294.328 8      2233.363
R04  19432824.520   104061892.129 8       851.318    19432826.440   104061892.171 8       851.318    19432833.140    80937066.108 8       662.136    19432833.400    80937069.107 8       662.136
G04  20508897.620   107774984.864 7      2692.859    20508896.180   107774984.876 6      2692.859    20508902.180    83980526.606 6      2098.332    20508902.240    83980528.615 8      2098.332
G09  20737305.220   108975276.443 8      4785.137    20737303.860   108975276.455 7      4785.137    20737311.280    84915825.289 7      3728.678    20737311.800    84915826.287 8      3728.678
R05  19818910.820   105943433.902 8      4755.505    19818910.080   105943433.901 7      4755.505    19818920.000    82400491.154 8      3698.726    19818920.060    82400490.155 8      3698.726
G19  21101828.820   110890855.396 8      4805.972    21101827.180   110890855.401 6      4805.972    21101829.680    86408466.983 6      3744.913
R18  21176142.840   113039685.954 7       587.215    21176143.760   113039685.950 7       587.215    21176156.080    87919812.036 7       456.723    21176156.500    87919814.040 7       456.723
G01  22382277.920   117619661.184 7       979.481    22382276.960   117619661.184 6       979.481    22382284.800    91651716.245 5       763.232    22382284.860    91651715.259 8       763.232
> 2025 04 04 19 20 44.0000000  0  9
G03  21945805.980   115325985.185 7       226.550    21945805.020   115325985.193 7       226.550    21945812.620    89864431.984 7       176.532    21945812.460    89864431.982 7       176.532
G17  20578874.540   108142715.033 8      2865.994    20578873.380   108142715.038 6      2865.994    20578876.280    84267060.024 6      2233.242    20578876.600    84267061.031 8      2233.242
R04  19432665.520   104061040.905 8       851.157    19432667.340   104061040.944 8       851.157    19432674.240    80936404.060 8       662.011    19432674.940    80936407.056 8       662.011
G04  20508385.080   107772292.015 7      2692.738    20508383.760   107772292.025 6      2692.738    20508389.740    83978428.303 6      2098.237    20508389.940    83978430.312 8      2098.237
G09  20736394.580   108970491.299 8      4785.087    20736393.280   108970491.307 7      4785.087    20736400.660    84912096.620 7      3728.639    20736401.480    84912097.618 8      3728.639
R05  19818021.100   105938678.464 8      4755.300    19818020.640   105938678.465 7      4755.300    19818030.600    82396792.505 8      3698.567    19818030.340    82396791.504 8      3698.567
G19  21100914.300   110886049.427 7      4805.920    21100912.540   110886049.432 6      4805.920    21100915.040    86404722.086 6      3744.873
R18  21176032.600   113039098.766 7       587.145    21176034.000   113039098.762 7       587.145    21176046.220    87919355.343 7       456.669    21176046.560    87919357.349 7       456.669
G01  22382091.360   117618681.359 7       979.880    22382090.580   117618681.359 6       979.880    22382098.420    91650952.760 5       763.543    22382098.720    91650951.767 8       763.543
> 2025 04 04 19 20 45.0000000  0  9
G03  21945762.900   115325758.063 7       227.696    21945761.820   115325758.068 7       227.696    21945769.460    89864255.015 7       177.425    21945769.020    89864255.011 7       177.425
G17  20578329.100   108139848.721 8      2866.594    20578328.100   108139848.718 6      2866.594    20578330.960    84264826.540 6      2233.709    20578331.520    84264827.545 8      2233.709
R04  19432506.580   104060189.548 8       851.488    19432508.480   104060189.595 8       851.488    19432515.140    80935741.916 8       662.268    19432515.780    80935744.912 8       662.268
G04  20507872.600   107769599.017 7      2693.178    20507871.320   107769599.027 6      2693.178    20507877.220    83976329.875 6      2098.580    20507877.340    83976331.882 8      2098.580
G09  20735483.840   108965705.849 8      4785.723    20735482.700   108965705.856 8      4785.723    20735490.020    84908367.716 8      3729.135    20735490.860    84908368.713 7      3729.135
R05  19817131.360   105933922.919 8      4755.770    19817130.860   105933922.923 7      4755.770    19817141.020    82393093.767 8      3698.932    19817140.880    82393092.767 8      3698.932
G19  21099999.720   110881243.184 8      4806.457    21099997.840   110881243.189 6      4806.457    21100000.540    86400976.978 6      3745.291
R18  21175922.700   113038511.264 7       587.815    21175923.820   113038511.265 7       587.815    21175936.160    87918898.413 7       457.190    21175936.320    87918900.415 7       457.190
G01  22381904.860   117617700.959 7       980.835    22381903.980   117617700.956 5       980.835    22381911.860    91650188.824 5       764.287    22381912.260    91650187.831 8       764.287
> 2025 04 04 19 20 46.0000000  0  9
G03  21945719.500   115325530.052 7       228.476    21945718.560   115325530.052 7       228.476    21945725.960    89864077.353 7       178.033    21945725.680    89864077.349 7       178.033
G17  20577783.560   108136982.028 8      2866.889    20577782.400   108136982.031 6      2866.889    20577785.360    84262592.772 6      2233.939    20577785.800    84262593.779 8      2233.939
R04  19432347.380   104059337.856 8       851.844    19432349.420   104059337.900 8       851.844    19432356.100    80935079.499 8       662.545    19432356.940    80935082.498 8       662.545
G04  20507360.000   107766905.680 7      2693.493    20507358.860   107766905.688 6      2693.493    20507364.700    83974231.186 6      2098.825    20507364.940    83974233.192 8      2098.825
G09  20734573.100   108960919.946 8      4786.179    20734571.920   108960919.953 8      4786.179    20734579.300    84904638.460 7      3729.490    20734579.880    84904639.457 7      3729.490
R05  19816241.340   105929167.118 8      4755.962    19816241.200   105929167.119 8      4755.962    19816251.280    82389394.825 8      3699.082    19816251.140    82389393.827 8      3699.082
G19  21099084.840   110876436.503 8      4806.859    21099083.180   110876436.511 6      4806.859    21099085.840    86397231.531 6      3745.605
R18  21175812.140   113037923.281 7       588.224    21175813.760   113037923.279 7       588.224    21175825.960    87918441.101 7       457.507    21175826.120    87918443.105 7       457.507
G01  22381718.160   117616719.822 7       981.530    22381717.340   117616719.817 5       981.530    22381725.120    91649424.310 5       764.829    22381725.540    91649423.321 8       764.829
> 2025 04 04 19 20 47.0000000  0  9
G03  21945676.060   115325301.240 7       229.302    21945674.920   115325301.245 7       229.302    21945682.420    89863899.072 7       178.677    21945682.200    89863899.070 7       178.677
G17  20577238.120   108134115.068 8      2867.182    20577236.860   108134115.075 6      2867.182    20577239.820    84260358.793 6      2234.168    20577240.240    84260359.798 8      2234.168
R04  19432188.240   104058485.995 8       851.998    19432190.480   104058486.039 8       851.998    19432197.060    80934416.955 8       662.665    19432197.580    80934419.954 8       662.665
G04  20506847.620   107764212.130 7      2693.765    20506846.340   107764212.140 6      2693.765    20506852.180    83972132.332 6      2099.038    20506852.560    83972134.339 8      2099.038
G09  20733662.340   108956133.712 8      4786.510    20733661.160   108956133.714 8      4786.510    20733668.360    84900908.941 8      3729.748    20733669.100    84900909.937 7      3729.748
R05  19815351.640   105924411.175 8      4756.115    19815351.580   105924411.179 8      4756.115    19815361.620    82385695.781 8      3699.201    19815361.360    82385694.784 8      3699.201
G19  21098170.160   110871629.512 7      4807.261    21098168.300   110871629.520 6      4807.261    21098171.020    86393485.836 6      3745.917
R18  21175702.280   113037334.927 8       588.544    21175703.400   113037334.934 7       588.544    21175716.120    87917983.505 7       457.756    21175715.960    87917985.507 7       457.756
G01  22381531.300   117615738.053 7       982.230    22381530.540   117615738.050 6       982.230    22381538.160    91648659.307 6       765.374    22381538.800    91648658.317 8       765.374
> 2025 04 04 19 20 48.0000000  0  9
G03  21945632.420   115325071.632 7       230.031    21945631.280   115325071.634 7       230.031    21945638.820    89863720.167 7       179.245    21945638.560    89863720.161 7       179.245
G17  20576692.160   108131247.841 8      2867.348    20576691.360   108131247.844 6      2867.348    20576694.400    84258124.603 6      2234.298    20576694.680    84258125.608 8      2234.298
R04  19432029.300   104057633.941 8       852.182    19432031.460   104057633.980 8       852.182    19432037.960    80933754.253 8       662.808    19432038.520    80933757.256 8       662.808
G04  20506334.920   107761518.373 7      2693.842    20506333.600   107761518.386 6      2693.842    20506339.560    83970033.319 6      2099.098    20506339.900    83970035.325 8      2099.098
G09  20732751.460   108951347.124 7      4786.803    20732750.220   108951347.129 7      4786.803    20732757.600    84897179.155 7      3729.976    20732758.260    84897180.150 8      3729.976
R05  19814462.020   105919655.106 7      4756.146    19814461.760   105919655.108 7      4756.146    19814471.960    82381996.635 8      3699.225    19814471.560    82381995.636 8      3699.225
G19  21097255.460   110866822.219 7      4807.367    21097253.480   110866822.226 6      4807.367    21097256.320    86389739.910 6      3746.000
R18  21175592.120   113036746.195 7       588.899    21175593.220   113036746.203 7       588.899    21175605.580    87917525.618 7       458.033    21175605.860    87917527.623 7       458.033
G01  22381344.380   117614755.656 7       982.673    22381343.660   117614755.650 5       982.673    22381351.220    91647893.817 5       765.719    22381351.660    91647892.833 8       765.719
> 2025 04 04 19 20 49.0000000  0  9
G03  21945588.580   115324841.222 7       230.826    21945587.500   115324841.227 7       230.826    21945594.900    89863540.641 7       179.865    21945594.660    89863540.633 7       179.865
G17  20576146.640   108128380.329 8      2867.715    20576145.700   108128380.334 7      2867.715    20576148.760    84255890.190 6      2234.583    20576149.160    84255891.197 8      2234.583
R04  19431870.240   104056781.676 8       852.454    19431872.180   104056781.715 8       852.454    19431878.800    80933091.397 8       663.019    19431879.400    80933094.398 8       663.019
G04  20505822.240   107758824.366 7      2694.267    20505820.960   107758824.379 6      2694.267    20505826.860    83967934.109 6      2099.429    20505827.120    83967936.115 8      2099.429
G09  20731840.720   108946560.178 7      4787.200    20731839.280   108946560.185 7      4787.200    20731846.700    84893449.087 7      3730.285    20731847.380    84893450.083 7      3730.285
R05  19813572.200   105914898.885 7      4756.350    19813572.260   105914898.884 7      4756.350    19813582.340    82378297.367 8      3699.383    19813581.780    82378296.367 8      3699.383
G19  21096340.520   110862014.568 7      4807.830    21096338.660   110862014.570 6      4807.830    21096341.380    86385993.703 6      3746.361
R18  21175481.720   113036157.131 7       589.321    21175482.660   113036157.137 7       589.321    21175495.540    87917067.468 7       458.361    21175495.700    87917069.472 7       458.361
G01  22381157.180   117613772.604 7       983.472    22381156.600   117613772.596 5       983.472    22381164.140    91647127.815 5       766.342    22381164.800    91647126.822 8       766.342
> 2025 04 04 19 20 50.0000000  0  9
G03  21945544.500   115324610.000 7       231.358    21945543.460   115324610.000 7       231.358    21945550.880    89863360.472 7       180.279    21945550.740    89863360.466 7       180.279
G17  20575601.020   108125512.532 8      2867.693    20575599.940   108125512.537 6      2867.693    20575603.100    84253655.555 6      2234.566    20575603.500    84253656.561 8      2234.566
R04  19431711.120   104055929.186 8       852.290    19431712.740   104055929.225 8       852.290    19431719.480    80932428.363 8       662.892    19431719.880    80932431.362 8       662.892
G04  20505309.580   107756130.167 7      2694.049    20505308.340   107756130.182 6      2694.049    20505314.080    83965834.749 6      2099.259    20505314.420    83965836.756 8      2099.259
G09  20730929.700   108941772.877 7      4787.210    20730928.380   108941772.885 7      4787.210    20730935.640    84889718.742 7      3730.294    20730936.380    84889719.735 8      3730.294
R05  19812682.260   105910142.488 8      4756.229    19812682.440   105910142.481 7      4756.229    19812692.420    82374597.961 8      3699.290    19812692.040    82374596.964 8      3699.290
G19  21095425.560   110857206.597 7      4807.844    21095423.700   110857206.602 6      4807.844    21095426.600    86382247.248 6      3746.372
R18  21175371.560   113035567.688 7       589.465    21175372.420   113035567.694 7       589.465    21175384.880    87916609.019 7       458.473    21175385.280    87916611.023 7       458.473
G01  22380970.000   117612788.906 7       983.791    22380969.380   117612788.900 5       983.791    22380976.920    91646361.310 5       766.591    22380977.520    91646360.323 8       766.591
> 2025 04 04 19 20 51.0000000  0  9
G03  21945500.340   115324377.762 7       232.902    21945499.360   115324377.762 7       232.902    21945506.860    89863179.520 7       181.482    21945506.560    89863179.516 7       181.482
G17  20575055.200   108122644.282 8      2868.546    20575054.000   108122644.284 7      2868.546    20575057.260    84251420.567 6      2235.231    20575057.640    84251421.575 8      2235.231
R04  19431551.860   104055076.294 8       853.162    19431553.560   104055076.328 8       853.162    19431560.260    80931765.011 8       663.570    19431560.940    80931768.012 8       663.570
G04  20504796.500   107753435.542 7      2694.870    20504795.540   107753435.558 6      2694.870    20504801.380    83963735.056 6      2099.899    20504801.600    83963737.065 8      2099.899
G09  20730018.640   108936985.041 7      4788.130    20730017.300   108936985.048 7      4788.130    20730024.520    84885987.977 7      3731.011    20730025.360    84885988.972 7      3731.011
R05  19811792.640   105905385.716 8      4757.037    19811792.400   105905385.715 7      4757.037    19811802.440    82370898.273 8      3699.917    19811802.240    82370897.271 8      3699.917
G19  21094510.580   110852398.108 7      4808.834    21094508.780   110852398.110 6      4808.834    21094511.500    86378500.390 6      3747.143
R18  21175260.920   113034977.685 7       590.343    21175262.080   113034977.688 7       590.343    21175274.320    87916150.134 7       459.156    21175274.820    87916152.140 7       459.156
G01  22380782.820   117611804.391 7       985.063    22380782.020   117611804.385 5       985.063    22380789.640    91645594.169 5       767.582    22380790.180    91645593.179 8       767.582
> 2025 04 04 19 20 52.0000000  0  9
G03  21945455.740   115324144.698 7       233.598    21945454.960   115324144.709 7       233.598    21945462.440    89862997.926 7       182.024    21945462.160    89862997.920 7       182.024
G17  20574509.300   108119775.692 7      2868.848    20574508.160   108119775.694 6      2868.848    20574511.420    84249185.314 6      2235.466    20574511.720    84249186.320 8      2235.466
R04  19431392.360   104054223.138 8       853.481    19431394.140   104054223.174 8       853.481    19431400.840    80931101.462 7       663.819    19431401.520    80931104.463 8       663.819
G04  20504283.600   107750740.634 7      2695.172    20504282.700   107750740.647 6      2695.172    20504288.560    83961635.140 6      2100.134    20504288.620    83961637.149 8      2100.134
G09  20729107.480   108932196.776 7      4788.574    20729106.160   108932196.789 7      4788.574    20729113.420    84882256.879 7      3731.356    20729114.100    84882257.875 7      3731.356
R05  19810902.760   105900628.728 7      4757.202    19810902.500   105900628.730 7      4757.202    19810912.660    82367198.412 8      3700.046    19810912.540    82367197.412 8      3700.046
G19  21093595.620   110847589.244 7      4809.189    21093593.640   110847589.246 6      4809.189    21093596.240    86374753.233 6      3747.420
R18  21175150.260   113034387.182 7       590.971    21175151.560   113034387.186 7       590.971    21175163.700    87915690.860 7       459.644    21175164.100    87915692.866 7       459.644
G01  22380595.400   117610819.190 7       985.616    22380594.580   117610819.184 5       985.616    22380602.060    91644826.490 5       768.013    22380602.620    91644825.498 8       768.013
> 2025 04 04 19 20 53.0000000  0  9
G03  21945411.280   115323910.757 7       234.289    21945410.440   115323910.768 7       234.289    21945417.860    89862815.645 7       182.563    21945417.380    89862815.645 7       182.563
G17  20573963.340   108116906.765 8      2869.055    20573962.300   108116906.768 6      2869.055    20573965.440    84246949.800 6      2235.627    20573965.820    84246950.805 8      2235.627
R04  19431233.040   104053369.756 8       853.435    19431234.780   104053369.798 8       853.435    19431241.540    80930437.739 8       663.783    19431241.940    80930440.738 8       663.783
G04  20503770.960   107748045.460 7      2695.220    20503769.760   107748045.473 6      2695.220    20503775.740    83959535.021 6      2100.171    20503775.780    83959537.026 8      2100.171
G09  20728196.300   108927408.133 7      4788.760    20728194.940   108927408.143 7      4788.760    20728202.140    84878525.484 7      3731.501    20728202.600    84878526.481 8      3731.501
R05  19810012.980   105895871.542 8      4757.153    19810012.560   105895871.544 7      4757.153    19810022.700    82363498.397 8      3700.008    19810022.580    82363497.395 8      3700.008
G19  21092680.420   110842780.009 7      4809.283    21092678.400   110842780.013 6      4809.283    21092681.260    86371005.793 6      3747.493
R18  21175039.480   113033796.301 7       590.977    21175040.800   113033796.312 7       590.977    21175053.200    87915231.304 7       459.649    21175053.560    87915233.311 7       459.649
G01  22380407.880   117609833.277 7       986.157    22380407.020   117609833.274 5       986.157    22380414.560    91644058.257 5       768.434    22380415.060    91644057.270 8       768.434
> 2025 04 04 19 20 54.0000000  0  9
G03  21945366.700   115323675.994 7       235.197    21945365.760   115323675.996 7       235.197    21945373.220    89862632.724 7       183.271    21945372.900    89862632.716 7       183.271
G17  20573417.460   108114037.540 8      2869.349    20573416.340   108114037.539 6      2869.349    20573419.380    84244714.054 6      2235.857    20573419.680    84244715.059 8      2235.857
R04  19431073.640   104052516.147 8       853.726    19431075.560   104052516.183 8       853.726    19431082.200    80929773.829 8       664.009    19431082.500    80929776.830 8       664.009
G04  20503257.960   107745350.016 7      2695.595    20503256.800   107745350.024 6      2695.595    20503262.840    83957434.687 6      2100.463    20503263.300    83957436.700 8      2100.463
G09  20727284.780   108922619.085 7      4789.249    20727283.580   108922619.092 7      4789.249    20727290.800    84874793.783 8      3731.883    20727291.500    84874794.778 7      3731.883
R05  19809122.880   105891114.148 7      4757.485    19809122.660   105891114.152 7      4757.485    19809133.000    82359798.222 8      3700.266    19809132.420    82359797.227 8      3700.266
G19  21091765.080   110837970.398 7      4809.758    21091763.180   110837970.397 6      4809.758    21091765.940    86367258.061 6      3747.863
R18  21174928.860   113033205.027 7       591.461    21174930.040   113033205.033 7       591.461    21174942.580    87914771.429 7       460.026    21174942.640    87914773.435 7       460.026
G01  22380220.040   117608846.694 7       986.878    22380219.320   117608846.694 5       986.878    22380226.660    91643289.505 5       768.996    22380227.220    91643288.517 8       768.996
> 2025 04 04 19 20 55.0000000  0  9
G03  21945321.760   115323440.400 7       236.097    21945320.920   115323440.400 7       236.097    21945328.400    89862449.151 7       183.971    21945328.000    89862449.143 7       183.971
G17  20572871.440   108111167.993 8      2869.822    20572870.260   108111167.993 6      2869.822    20572873.440    84242478.054 6      2236.225    20572873.640    84242479.060 8      2236.225
R04  19430914.200   104051662.331 8       854.033    19430916.080   104051662.368 8       854.033    19430922.700    80929109.763 8       664.248    19430923.320    80929112.760 8       664.248
G04  20502745.000   107742654.322 7      2696.008    20502743.920   107742654.332 6      2696.008    20502749.840    83955334.163 6      2100.785    20502750.240    83955336.173 8      2100.785
G09  20726373.420   108917829.672 7      4789.738    20726372.220   108917829.672 7      4789.738    20726379.380    84871061.781 7      3732.263    20726379.900    84871062.776 8      3732.263
R05  19808232.740   105886356.572 7      4757.761    19808232.560   105886356.573 7      4757.761    19808242.940    82356097.900 8      3700.481    19808242.460    82356096.900 8      3700.481
G19  21090849.840   110833160.427 7      4810.300    21090847.920   110833160.429 6      4810.300    21090850.600    86363510.042 6      3748.285
R18  21174817.880   113032613.366 7       591.942    21174819.240   113032613.365 7       591.942    21174831.480    87914311.253 7       460.400    21174831.700    87914313.257 7       460.400
G01  22380032.220   117607859.449 7       987.700    22380031.320   117607859.441 5       987.700    22380038.780    91642520.236 5       769.636    22380039.380    91642519.241 8       769.636
> 2025 04 04 19 20 56.0000000  0  9
G03  21945276.920   115323203.924 7       236.964    21945275.940   115323203.928 7       236.964    21945283.320    89862264.896 7       184.647    21945283.260    89862264.890 7       184.647
G17  20572325.320   108108298.106 8      2870.116    20572324.200   108108298.110 6      2870.116    20572327.320    84240241.796 6      2236.454    20572327.680    84240242.804 8      2236.454
R04  19430754.780   104050808.235 8       854.286    19430756.660   104050808.271 8       854.286    19430763.100    80928445.483 8       664.445    19430763.900    80928448.481 8       664.445
G04  20502231.980   107739958.355 7      2696.197    20502230.860   107739958.368 6      2696.197    20502236.940    83953233.427 6      2100.933    20502237.140    83953235.436 8      2100.933
G09  20725461.780   108913039.833 7      4790.131    20725460.660   108913039.841 7      4790.131    20725467.920    84867329.461 7      3732.569    20725468.540    84867330.459 7      3732.569
R05  19807342.600   105881598.723 8      4758.039    19807342.280   105881598.727 7      4758.039    19807352.640    82352397.374 8      3700.697    19807352.500    82352396.374 8      3700.697
G19  21089934.440   110828350.073 7      4810.576    21089932.540   110828350.080 6      4810.576    21089935.400    86359761.733 6      3748.501
R18  21174707.220   113032021.238 7       592.379    21174708.280   113032021.239 7       592.379    21174720.540    87913850.721 7       460.739    21174720.820    87913852.727 7       460.739
G01  22379844.200   117606871.494 7       988.343    22379843.360   117606871.497 5       988.343    22379850.720    91641750.411 5       770.138    22379851.480    91641749.422 8       770.138
> 2025 04 04 19 20 57.0000000  0  9
G03  21945231.840   115322966.856 7       237.518    21945230.780   115322966.861 7       237.518    21945238.220    89862080.176 7       185.079    21945238.000    89862080.172 7       185.079
G17  20571779.060   108105428.157 8      2870.156    20571778.020   108105428.157 6      2870.156    20571781.220    84238005.477 6      2236.485    20571781.760    84238006.483 8      2236.485
R04  19430595.580   104049954.138 8       854.216    19430597.140   104049954.172 8       854.216    19430603.600    80927781.200 8       664.391    19430604.440    80927784.199 8       664.391
G04  20501719.040   107737262.372 7      2696.080    20501717.720   107737262.387 6      2696.080    20501723.760    83951132.678 6      2100.842    20501724.140    83951134.687 8      2100.842
G09  20724550.420   108908249.861 7      4790.203    20724549.160   108908249.865 7      4790.203    20724556.320    84863597.031 7      3732.626    20724557.120    84863598.027 8      3732.626
R05  19806452.260   105876840.947 7      4757.770    19806452.300   105876840.953 7      4757.770    19806462.640    82348696.899 8      3700.487    19806462.420    82348695.898 8      3700.487
G19  21089019.120   110823539.611 7      4810.647    21089017.120   110823539.618 6      4810.647    21089019.940    86356013.333 6      3748.556
R18  21174595.880   113031428.934 7       592.459    21174597.280   113031428.949 7       592.459    21174609.700    87913390.057 7       460.801    21174609.720    87913392.067 7       460.801
G01  22379656.260   117605883.122 7       988.666    22379655.360   117605883.124 5       988.666    22379662.680    91640980.263 5       770.389    22379663.420    91640979.268 8       770.389
> 2025 04 04 19 20 58.0000000  0  9
G03  21945186.280   115322728.947 7       238.303    21945185.580   115322728.949 7       238.303    21945192.980    89861894.803 7       185.691    21945192.720    89861894.795 7       185.691
G17  20571232.900   108102557.896 8      2870.389    20571231.820   108102557.896 6      2870.389    20571235.020    84235768.922 6      2236.667    20571235.580    84235769.928 8      2236.667
R04  19430436.080   104049099.787 8       854.413    19430437.560   104049099.821 7       854.413    19430443.860    80927116.715 8       664.543    19430444.520    80927119.716 8       664.543
G04  20501206.060   107734566.121 7      2696.326    20501204.600   107734566.131 6      2696.326    20501210.600    83949031.715 6      2101.033    20501211.040    83949033.722 8      2101.033
G09  20723638.840   108903459.486 8      4790.522    20723637.720   108903459.496 7      4790.522    20723644.820    84859864.292 7      3732.875    20723645.580    84859865.286 7      3732.875
R05  19805562.340   105872082.962 7      4758.035    19805562.260   105872082.966 7      4758.035    19805572.740    82344996.261 8      3700.694    19805572.500    82344995.262 8      3700.694
G19  21088103.620   110818728.773 7      4810.950    21088101.560   110818728.780 6      4810.950    21088104.440    86352264.646 6      3748.792
R18  21174484.700   113030836.238 7       592.861    21174486.240   113030836.247 7       592.861    21174498.580    87912929.077 7       461.114    21174499.000    87912931.081 7       461.114
G01  22379467.960   117604894.053 7       989.412    22379467.120   117604894.053 5       989.412    22379474.480    91640209.571 5       770.970    22379474.800    91640208.576 8       770.970
> 2025 04 04 19 20 59.0000000  0  9
G03  21945140.760   115322490.277 7       239.113    21945140.260   115322490.282 7       239.113    21945147.660    89861708.840 7       186.321    21945147.340    89861708.834 7       186.321
G17  20570686.500   108099687.394 8      2870.676    20570685.480   108099687.393 7      2870.676    20570688.720    84233532.183 6      2236.890    20570689.440    84233533.189 8      2236.890
R04  19430276.440   104048245.268 8       854.723    19430277.880   104048245.302 8       854.723    19430284.580    80926452.101 8       664.784    19430285.160    80926455.102 8       664.784
G04  20500692.620   107731869.683 7      2696.618    20500691.500   107731869.696 6      2696.618    20500697.540    83946930.612 6      2101.260    20500698.000    83946932.622 8      2101.260
G09  20722727.440   108898668.817 7      4790.860    20722726.040   108898668.822 7      4790.860    20722733.120    84856131.318 7      3733.138    20722733.720    84856132.311 7      3733.138
R05  19804672.240   105867324.894 7      4758.193    19804672.260   105867324.900 7      4758.193    19804682.600    82341295.558 8      3700.817    19804682.440    82341294.559 8      3700.817
G19  21087187.800   110813917.667 7      4811.268    21087186.020   110813917.672 6      4811.268    21087188.920    86348515.745 6      3749.040
R18  21174373.840   113030243.235 7       593.168    21174374.960   113030243.249 7       593.168    21174387.560    87912467.865 7       461.353    21174387.780    87912469.873 7       461.353
G01  22379279.720   117603904.391 7       990.102    22379278.720   117603904.385 5       990.102    22379286.200    91639438.417 5       771.508    22379286.580    91639437.420 8       771.508
> 2025 04 04 19 21  0.0000000  0  9
G03  21945095.520   115322250.686 7       240.021    21945094.620   115322250.689 7       240.021    21945101.980    89861522.152 7       187.029    21945101.760    89861522.146 7       187.029
G17  20570140.360   108096816.497 8      2871.063    20570139.200   108096816.499 7      2871.063    20570142.600    84231295.135 6      2237.192    20570142.740    84231296.139 8      2237.192
R04  19430116.700   104047390.470 8       854.926    19430118.280   104047390.504 8       854.926    19430124.960    80925787.275 8       664.942    19430125.700    80925790.278 8       664.942
G04  20500179.600   107729172.923 7      2696.877    20500178.440   107729172.938 6      2696.877    20500184.360    83944829.258 6      2101.462    20500184.760    83944831.261 8      2101.462
G09  20721815.640   108893877.667 8      4791.301    20721814.240   108893877.677 7      4791.301    20721821.360    84852397.979 7      3733.481    20721822.120    84852398.976 7      3733.481
R05  19803782.120   105862566.588 8      4758.374    19803782.000   105862566.584 7      4758.374    19803792.540    82337594.666 8      3700.958    19803792.400    82337593.667 8      3700.958
G19  21086272.360   110809106.104 7      4811.745    21086270.380   110809106.103 6      4811.745    21086273.400    86344766.487 6      3749.412
R18  21174262.880   113029649.743 7       593.736    21174263.860   113029649.749 7       593.736    21174276.440    87912006.262 7       461.795    21174276.680    87912008.266 7       461.795
G01  22379091.140   117602913.990 7       990.762    22379090.240   117602913.985 5       990.762    22379097.720    91638666.687 5       772.022    22379098.180    91638665.694 8       772.022
> 2025 04 04 19 21  1.0000000  0  9
G03  21945049.920   115322010.366 7       240.794    21945048.780   115322010.368 7       240.794    21945056.340    89861334.904 7       187.632    21945056.040    89861334.898 7       187.632
G17  20569594.020   108093945.408 8      2871.291    20569592.860   108093945.410 6      2871.291    20569596.160    84229057.936 6      2237.370    20569596.300    84229058.939 8      2237.370
R04  19429956.840   104046535.578 8       855.007    19429958.700   104046535.609 8       855.007    19429965.100    80925122.372 8       665.005    19429965.980    80925125.371 8       665.005
G04  20499666.480   107726476.018 7      2697.010    20499665.220   107726476.028 6      2697.010    20499671.140    83942727.788 6      2101.566    20499671.580    83942729.788 8      2101.566
G09  20720903.880   108889086.241 8      4791.676    20720902.520   108889086.251 7      4791.676    20720909.580    84848664.421 7      3733.774    20720910.300    84848665.414 7      3733.774
R05  19802892.080   105857808.189 7      4758.489    19802891.880   105857808.177 7      4758.489    19802902.480    82333893.701 8      3701.047    19802902.140    82333892.700 8      3701.047
G19  21085356.780   110804294.294 7      4812.086    21085354.800   110804294.299 6      4812.086    21085357.700    86341017.046 6      3749.678
R18  21174151.460   113029055.963 7       593.949    21174152.660   113029055.969 7       593.949    21174165.020    87911544.444 7       461.960    21174165.240    87911546.450 7       461.960
G01  22378902.720   117601923.014 7       991.328    22378901.700   117601923.011 5       991.328    22378909.140    91637894.516 5       772.464    22378909.640    91637893.523 8       772.464
> 2025 04 04 19 21  2.0000000  0  9
G03  21945003.920   115321769.296 7       241.723    21945003.040   115321769.299 7       241.723    21945010.460    89861147.064 7       188.355    21945010.040    89861147.056 7       188.355
G17  20569047.640   108091074.088 8      2871.660    20569046.520   108091074.093 7      2871.660    20569049.860    84226820.554 6      2237.657    20569050.100    84226821.555 8      2237.657
R04  19429797.440   104045680.539 8       855.376    19429798.980   104045680.570 8       855.376    19429805.600    80924457.350 8       665.292    19429806.240    80924460.353 8       665.292
G04  20499153.200   107723778.928 7      2697.441    20499151.940   107723778.939 6      2697.441    20499157.840    83940626.168 6      2101.902    20499158.320    83940628.175 8      2101.902
G09  20719991.860   108884294.526 7      4792.138    20719990.560   108884294.539 7      4792.138    20719997.660    84844930.629 7      3734.134    20719998.560    84844931.627 8      3734.134
R05  19802002.140   105853049.664 7      4758.765    19802001.460   105853049.654 7      4758.765    19802012.080    82330192.643 8      3701.262    19802011.980    82330191.642 8      3701.262
G19  21084441.060   110799482.221 7      4812.533    21084439.060   110799482.221 6      4812.533    21084442.020    86337267.387 6      3750.026
R18  21174040.300   113028461.820 7       594.641    21174041.240   113028461.821 7       594.641    21174054.060    87911082.337 7       462.498    21174054.140    87911084.343 7       462.498
G01  22378713.940   117600931.455 7       992.098    22378712.920   117600931.449 5       992.098    22378720.420    91637121.876 5       773.063    22378720.880    91637120.885 8       773.063
> 2025 04 04 19 21  3.0000000  0  9
G03  21944957.880   115321527.454 7       242.166    21944956.960   115321527.457 7       242.166    21944964.500    89860958.626 7       188.700    21944964.220    89860958.620 7       188.700
G17  20568501.220   108088202.508 8      2871.719    20568500.040   108088202.513 6      2871.719    20568503.400    84224582.971 6      2237.703    20568503.980    84224583.977 8      2237.703
R04  19429637.760   104044825.302 8       855.322    19429639.380   104044825.339 8       855.322    19429645.740    80923792.184 8       665.251    19429646.560    80923795.183 8       665.251
G04  20498640.120   107721081.647 7      2697.379    20498638.680   107721081.655 6      2697.379    20498644.540    83938524.403 6      2101.853    20498644.960    83938526.410 8      2101.853
G09  20719079.860   108879502.491 7      4792.154    20719078.780   108879502.501 7      4792.154    20719085.880    84841196.592 7      3734.146    20719086.480    84841197.588 7      3734.146
R05  19801111.760   105848290.970 7      4758.724    19801111.480   105848290.972 7      4758.724    19801121.940    82326491.462 8      3701.229    19801121.700    82326490.463 8      3701.229
G19  21083525.380   110794669.849 7      4812.507    21083523.260   110794669.854 6      4812.507    21083526.200    86333517.501 6      3750.006
R18  21173928.940   113027867.351 7       594.592    21173929.880   113027867.358 7       594.592    21173942.700    87910619.980 7       462.461    21173942.800    87910621.987 7       462.461
G01  22378525.060   117599939.278 7       992.430    22378524.340   117599939.272 5       992.430    22378531.620    91636348.764 5       773.322    22378532.100    91636347.771 8       773.322
> 2025 04 04 19 21  4.0000000  0  9
G03  21944911.500   115321284.848 7       243.056    21944910.840   115321284.850 7       243.056    21944918.220    89860769.590 7       189.394    21944918.080    89860769.584 7       189.394
G17  20567954.780   108085330.718 8      2871.933    20567953.580   108085330.726 6      2871.933    20567956.860    84222345.225 6      2237.870    20567957.300    84222346.232 8      2237.870
R04  19429478.000   104043969.907 8       855.506    19429479.700   104043969.941 8       855.506    19429486.160    80923126.887 7       665.394    19429486.960    80923129.890 8       665.394
G04  20498126.740   107718384.198 7      2697.591    20498125.480   107718384.206 6      2697.591    20498131.180    83936422.509 6      2102.019    20498131.620    83936424.514 8      2102.019
G09  20718167.860   108874710.154 7      4792.472    20718166.820   108874710.164 7      4792.472    20718173.880    84837462.318 7      3734.393    20718174.420    84837463.313 7      3734.393
R05  19800221.620   105843532.184 7      4758.874    19800221.220   105843532.188 7      4758.874    19800231.720    82322790.198 8      3701.346    19800231.720    82322789.201 8      3701.346
G19  21082609.500   110789857.208 7      4812.788    21082607.340   110789857.211 6      4812.788    21082610.460    86329767.410 6      3750.224
R18  21173817.740   113027272.560 7       594.974    21173818.300   113027272.564 7       594.974    21173831.040    87910157.373 7       462.757    21173831.380    87910159.377 7       462.757
G01  22378336.040   117598946.504 7       993.135    22378335.340   117598946.501 5       993.135    22378342.660    91635575.184 5       773.871    22378342.920    91635574.189 8       773.871
> 2025 04 04 19 21  5.0000000  0  9
G03  21944865.240   115321041.387 7       244.058    21944864.600   115321041.392 7       244.058    21944872.020    89860579.895 7       190.175    21944872.000    89860579.889 7       190.175
G17  20567408.140   108082458.610 8      2872.340    20567406.920   108082458.612 6      2872.340    20567410.320    84220107.229 6      2238.187    20567410.740    84220108.234 8      2238.187
R04  19429318.080   104043114.228 8       855.955    19429319.680   104043114.270 8       855.955    19429326.440    80922461.378 8       665.743    19429327.320    80922464.381 8       665.743
G04  20497613.220   107715686.476 7      2697.972    20497612.060   107715686.486 6      2697.972    20497617.780    83934320.404 6      2102.316    20497618.140    83934322.411 8      2102.316
G09  20717255.980   108869917.401 8      4793.127    20717254.920   108869917.406 7      4793.127    20717261.900    84833727.724 7      3734.904    20717262.400    84833728.719 7      3734.904
R05  19799331.520   105838773.196 8      4759.249    19799331.000   105838773.195 7      4759.249    19799341.620    82319088.782 8      3701.638    19799341.340    82319087.783 8      3701.638
G19  21081693.700   110785044.177 7      4813.400    21081691.600   110785044.179 6      4813.400    21081694.560    86326017.010 6      3750.701
R18  21173706.360   113026677.381 7       595.454    21173706.900   113026677.385 7       595.454    21173719.680    87909694.471 7       463.131    21173720.160    87909696.473 7       463.131
G01  22378147.140   117597953.053 7       993.923    22378146.280   117597953.050 5       993.923    22378153.740    91634801.076 5       774.486    22378153.880    91634800.092 8       774.486
> 2025 04 04 19 21  6.0000000  0  9
G03  21944818.620   115320797.391 7       244.047    21944818.140   115320797.393 7       244.047    21944825.600    89860389.776 7       190.167    21944825.260    89860389.768 7       190.167
G17  20566861.540   108079586.455 8      2871.930    20566860.320   108079586.457 6      2871.930    20566863.840    84217869.198 6      2237.868    20566864.160    84217870.203 8      2237.868
R04  19429158.300   104042258.638 8       855.320    19429159.760   104042258.677 8       855.320    19429166.520    80921795.929 8       665.249    19429167.380    80921798.930 8       665.249
G04  20497100.140   107712988.785 7      2697.400    20497098.680   107712988.800 6      2697.400    20497104.500    83932218.326 6      2101.870    20497105.060    83932220.330 8      2101.870
G09  20716344.020   108865124.572 7      4792.616    20716342.900   108865124.577 7      4792.616    20716349.700    84829993.066 7      3734.506    20716350.360    84829994.061 7      3734.506
R05  19798441.420   105834014.308 7      4758.615    19798440.580   105834014.304 7      4758.615    19798451.360    82315387.437 8      3701.145    19798451.000    82315386.433 8      3701.145
G19  21080777.780   110780231.103 7      4812.844    21080775.660   110780231.102 6      4812.844    21080778.560    86322266.573 6      3750.268
R18  21173595.060   113026082.091 7       595.082    21173595.080   113026082.097 7       595.082    21173608.220    87909231.471 7       462.842    21173608.380    87909233.477 7       462.842
G01  22377958.140   117596959.207 7       993.845    22377957.120   117596959.207 5       993.845    22377964.700    91634026.666 5       774.424    22377964.560    91634025.681 8       774.424
> 2025 04 04 19 21  7.0000000  0  9
G03  21944772.260   115320552.779 7       245.070    21944771.520   115320552.784 7       245.070    21944778.960    89860199.182 7       190.964    21944778.780    89860199.172 7       190.964
G17  20566314.820   108076714.218 8      2872.534    20566313.740   108076714.220 7      2872.534    20566317.200    84215631.106 6      2238.338    20566317.480    84215632.105 8      2238.338
R04  19428998.520   104041403.044 8       855.813    19429000.060   104041403.078 8       855.813    19429006.920    80921130.480 8       665.632    19429007.820    80921133.481 8       665.632
G04  20496586.500   107710291.068 7      2697.864    20496585.300   107710291.081 6      2697.864    20496591.240    83930116.223 6      2102.232    20496591.720    83930118.229 8      2102.232
G09  20715431.900   108860331.570 7      4793.280    20715430.680   108860331.575 7      4793.280    20715437.780    84826258.278 7      3735.023    20715438.140    84826259.275 7      3735.023
R05  19797551.220   105829255.462 7      4759.007    19797550.400   105829255.461 7      4759.007    19797561.160    82311686.135 8      3701.450    19797560.640    82311685.136 8      3701.450
G19  21079861.940   110775417.850 7      4813.559    21079859.780   110775417.850 6      4813.559    21079862.740    86318516.001 6      3750.825
R18  21173483.360   113025486.611 7       595.784    21173483.700   113025486.611 7       595.784    21173496.740    87908768.328 7       463.387    21173496.760    87908770.335 7       463.387
G01  22377768.820   117595964.921 7       994.800    22377768.000   117595964.918 5       994.800    22377775.560    91633251.907 5       775.169    22377775.480    91633250.920 8       775.169
> 2025 04 04 19 21  8.0000000  0  9
G03  21944725.760   115320307.330 7       245.759    21944724.840   115320307.335 7       245.759    21944732.320    89860007.928 7       191.501    21944732.060    89860007.926 7       191.501
G17  20565768.360   108073841.697 8      2872.584    20565767.180   108073841.697 6      2872.584    20565770.640    84213392.788 6      2238.377    20565770.880    84213393.790 8      2238.377
R04  19428838.640   104040547.242 8       855.822    19428840.260   104040547.281 7       855.822    19428847.120    80920464.871 8       665.639    19428847.800    80920467.872 8       665.639
G04  20496073.180   107707593.112 7      2697.957    20496071.940   107707593.122 6      2697.957    20496077.860    83928013.936 6      2102.304    20496078.280    83928015.934 8      2102.304
G09  20714519.940   108855538.200 7      4793.460    20714518.640   108855538.207 8      4793.460    20714525.640    84822523.203 7      3735.163    20714525.900    84822524.198 7      3735.163
R05  19796660.900   105824496.448 7      4758.990    19796660.140   105824496.449 7      4758.990    19796670.920    82307984.699 8      3701.436    19796670.600    82307983.699 8      3701.436
G19  21078945.600   110770604.280 7      4813.686    21078943.720   110770604.282 6      4813.686    21078946.780    86314765.183 6      3750.924
R18  21173371.700   113024890.727 7       595.924    21173371.920   113024890.731 7       595.924    21173385.140    87908304.876 7       463.496    21173385.360    87908306.882 7       463.496
G01  22377579.580   117594969.998 7       995.105    22377578.800   117594969.995 5       995.105    22377586.160    91632476.655 5       775.407    22377586.140    91632475.664 8       775.407
> 2025 04 04 19 21  9.0000000  0  9
G03  21944678.680   115320061.210 7       246.459    21944677.900   115320061.212 7       246.459    21944685.560    89859816.157 7       192.046    21944685.400    89859816.149 7       192.046
G17  20565221.820   108070969.024 8      2872.722    20565220.520   108070969.021 6      2872.722    20565224.040    84211154.350 6      2238.485    20565224.140    84211155.351 8      2238.485
R04  19428678.840   104039691.371 8       855.861    19428680.380   104039691.407 7       855.861    19428687.180    80919799.201 8       665.670    19428688.040    80919802.204 8       665.670
G04  20495559.800   107704895.058 7      2697.974    20495558.380   107704895.068 6      2697.974    20495564.420    83925911.569 6      2102.318    20495564.900    83925913.573 8      2102.318
G09  20713607.700   108850744.622 7      4793.600    20713606.320   108850744.627 7      4793.600    20713613.360    84818787.962 7      3735.273    20713613.440    84818788.955 7      3735.273
R05  19795770.700   105819737.415 7      4758.990    19795769.800   105819737.414 7      4758.990    19795780.680    82304283.243 8      3701.437    19795780.240    82304282.244 8      3701.437
G19  21078029.680   110765790.507 7      4813.918    21078027.820   110765790.509 6      4813.918    21078030.740    86311014.207 6      3751.105
R18  21173260.140   113024294.583 7       596.227    21173260.180   113024294.584 7       596.227    21173273.440    87907841.212 7       463.732    21173273.360    87907843.216 7       463.732
G01  22377390.240   117593974.526 7       995.739    22377389.260   117593974.523 5       995.739    22377396.700    91631700.971 5       775.901    22377396.780    91631699.984 7       775.901
> 2025 04 04 19 21 10.0000000  0  9
G03  21944631.840   115319814.389 7       247.171    21944631.140   115319814.391 7       247.171    21944638.600    89859623.841 7       192.601    21944638.260    89859623.833 7       192.601
G17  20564674.980   108068096.141 8      2873.063    20564673.860   108068096.143 6      2873.063    20564677.340    84208915.756 6      2238.750    20564677.580    84208916.761 8      2238.750
R04  19428519.260   104038835.376 8       856.162    19428520.500   104038835.409 7       856.162    19428527.480    80919133.440 8       665.904    19428528.140    80919136.443 8       665.904
G04  20495046.440   107702196.842 7      2698.373    20495044.960   107702196.852 6      2698.373    20495050.920    83923809.077 6      2102.628    20495051.460    83923811.083 8      2102.628
G09  20712695.340   108845950.756 7      4794.017    20712694.160   108845950.766 7      4794.017    20712701.080    84815052.501 7      3735.598    20712701.400    84815053.497 7      3735.598
R05  19794880.340   105814978.300 7      4759.172    19794879.720   105814978.298 7      4759.172    19794890.400    82300581.726 8      3701.578    19794889.960    82300580.726 8      3701.578
G19  21077113.740   110760976.490 7      4814.237    21077111.640   110760976.490 6      4814.237    21077114.720    86307263.040 6      3751.354
R18  21173148.480   113023698.168 7       596.621    21173148.480   113023698.172 7       596.621    21173161.820    87907377.345 7       464.039    21173161.900    87907379.349 7       464.039
G01  22377200.560   117592978.515 7       996.375    22377199.760   117592978.515 5       996.375    22377207.160    91630924.871 5       776.396    22377207.080    91630923.882 7       776.396
> 2025 04 04 19 21 11.0000000  0  9
G03  21944584.800   115319566.769 7       247.961    21944583.920   115319566.774 7       247.961    21944591.500    89859430.901 7       193.216    21944591.160    89859430.895 7       193.216
G17  20564128.340   108065223.034 8      2873.190    20564127.020   108065223.037 6      2873.190    20564130.600    84206676.982 6      2238.850    20564130.760    84206677.985 8      2238.850
R04  19428359.320   104037979.236 8       856.167    19428360.780   104037979.267 7       856.167    19428367.520    80918467.564 8       665.908    19428368.440    80918470.567 8       665.908
G04  20494532.900   107699498.460 7      2698.465    20494531.480   107699498.473 6      2698.465    20494537.480    83921706.454 6      2102.700    20494537.980    83921708.460 8      2102.700
G09  20711783.060   108841156.571 7      4794.323    20711781.860   108841156.581 7      4794.323    20711788.740    84811316.790 7      3735.836    20711788.960    84811317.787 7      3735.836
R05  19793990.020   105810219.040 7      4759.327    19793989.020   105810219.028 7      4759.327    19793999.900    82296880.085 8      3701.699    19793999.620    82296879.088 8      3701.699
G19  21076197.440   110756162.186 7      4814.402    21076195.540   110756162.186 6      4814.402    21076198.480    86303511.649 6      3751.482
R18  21173036.500   113023101.418 7       596.925    21173036.520   113023101.424 7       596.925    21173050.140    87906913.216 7       464.275    21173050.300    87906915.220 7       464.275
G01  22377010.860   117591981.901 7       996.914    22377010.040   117591981.903 5       996.914    22377017.460    91630148.300 5       776.816    22377017.620    91630147.309 7       776.816
> 2025 04 04 19 21 12.0000000  0  9
G03  21944537.580   115319318.592 7       248.530    21944536.640   115319318.594 7       248.530    21944544.240    89859237.522 7       193.660    21944543.860    89859237.514 7       193.660
G17  20563581.720   108062349.870 8      2873.281    20563580.240   108062349.875 6      2873.281    20563583.860    84204438.167 6      2238.920    20563583.980    84204439.166 8      2238.920
R04  19428199.600   104037123.137 8       856.080    19428200.860   104037123.171 7       856.080    19428207.540    80917801.724 8       665.840    19428208.400    80917804.727 8       665.840
G04  20494019.500   107696800.081 7      2698.577    20494017.920   107696800.091 6      2698.577    20494023.920    83919603.835 6      2102.787    20494024.440    83919605.839 8      2102.787
G09  20710870.800   108836362.286 7      4794.497    20710869.560   108836362.294 7      4794.497    20710876.360    84807581.000 7      3735.972    20710876.680    84807581.997 7      3735.972
R05  19793099.760   105805459.863 7      4759.157    19793098.980   105805459.856 7      4759.157    19793109.920    82293178.526 8      3701.567    19793109.340    82293177.529 8      3701.567
G19  21075281.240   110751347.794 7      4814.541    21075279.280   110751347.796 6      4814.541    21075282.380    86299760.184 6      3751.590
R18  21172924.680   113022504.531 7       597.089    21172924.940   113022504.543 7       597.089    21172938.080    87906448.981 7       464.402    21172938.400    87906450.983 7       464.402
G01  22376821.220   117590984.881 7       997.285    22376820.340   117590984.883 5       997.285    22376827.620    91629371.414 5       777.105    22376827.780    91629370.427 7       777.105
> 2025 04 04 19 21 13.0000000  0  9
G03  21944490.340   115319069.658 7       249.227    21944489.360   115319069.663 7       249.227    21944496.900    89859043.558 7       194.203    21944496.620    89859043.548 7       194.203
G17  20563034.880   108059476.477 7      2873.484    20563033.640   108059476.482 6      2873.484    20563037.020    84202199.169 6      2239.078    20563037.420    84202200.171 8      2239.078
R04  19428039.560   104036266.864 8       856.297    19428041.000   104036266.897 7       856.297    19428047.820    80917135.744 8       666.008    19428048.660    80917138.747 8       666.008
G04  20493505.980   107694101.541 7      2698.583    20493504.520   107694101.554 6      2698.583    20493510.460    83917501.091 6      2102.792    20493510.960    83917503.094 8      2102.792
G09  20709958.620   108831567.695 7      4794.714    20709957.140   108831567.702 7      4794.714    20709964.140    84803844.969 7      3736.141    20709964.460    84803845.964 7      3736.141
R05  19792209.360   105800700.549 7      4759.335    19792208.680   105800700.545 7      4759.335    19792219.440    82289476.854 8      3701.705    19792219.000    82289475.857 8      3701.705
G19  21074365.240   110746533.109 7      4814.887    21074363.200   110746533.111 6      4814.887    21074366.160    86296008.496 6      3751.860
R18  21172812.620   113021907.348 7       597.271    21172812.780   113021907.354 7       597.271    21172826.580    87905984.511 7       464.544    21172826.520    87905986.513 7       464.544
G01  22376631.500   117589987.268 7       997.874    22376630.480   117589987.267 5       997.874    22376637.680    91628594.061 5       777.564    22376637.980    91628593.069 7       777.564
> 2025 04 04 19 21 14.0000000  0  9
G03  21944442.800   115318820.092 7       249.768    21944441.900   115318820.096 7       249.768    21944449.460    89858849.101 7       194.625    21944448.920    89858849.095 7       194.625
G17  20562488.020   108056602.984 7      2873.474    20562486.860   108056602.989 6      2873.474    20562490.220    84199960.099 6      2239.071    20562490.540    84199961.100 8      2239.071
R04  19427879.440   104035410.545 8       856.258    19427881.080   104035410.584 7       856.258    19427888.060    80916469.737 8       665.978    19427888.700    80916472.738 8       665.978
G04  20492992.300   107691402.949 7      2698.528    20492990.940   107691402.962 6      2698.528    20492996.880    83915398.306 6      2102.749    20492997.540    83915400.309 8      2102.749
G09  20709046.220   108826772.937 7      4794.696    20709044.780   108826772.947 7      4794.696    20709051.700    84800108.814 7      3736.127    20709052.260    84800109.814 7      3736.127
R05  19791318.940   105795941.273 7      4759.222    19791318.160   105795941.272 7      4759.222    19791329.180    82285775.218 8      3701.617    19791328.660    82285774.219 8      3701.617
G19  21073448.940   110741718.304 7      4814.781    21073447.040   110741718.306 6      4814.781    21073450.060    86292256.718 6      3751.777
R18  21172700.580   113021309.954 7       597.499    21172701.000   113021309.960 7       597.499    21172714.740    87905519.880 7       464.721    21172714.560    87905521.882 7       464.721
G01  22376441.480   117588989.189 7       998.211    22376440.520   117588989.189 5       998.211    22376447.820    91627816.348 5       777.827    22376448.400    91627815.361 7       777.827
> 2025 04 04 19 21 15.0000000  0  9
G03  21944394.880   115318569.694 7       250.775    21944394.340   115318569.702 7       250.775    21944401.820    89858653.998 7       195.409    21944401.460    89858653.997 7       195.409
G17  20561941.240   108053729.210 8      2873.898    20561939.980   108053729.213 7      2873.898    20561943.440    84197720.804 6      2239.401    20561943.400    84197721.802 8      2239.401
R04  19427719.500   104034554.004 8       856.642    19427721.220   104034554.040 7       856.642    19427728.160    80915803.549 8       666.277    19427728.760    80915806.552 8       666.277
G04  20492478.720   107688704.123 7      2698.817    20492477.380   107688704.136 6      2698.817    20492483.200    83913295.344 6      2102.974    20492484.000    83913297.348 8      2102.974
G09  20708133.700   108821977.799 7      4795.298    20708132.240   108821977.806 7      4795.298    20708139.220    84796372.359 7      3736.596    20708139.720    84796373.355 7      3736.596
R05  19790428.820   105791181.845 7      4759.492    19790428.020   105791181.846 7      4759.492    19790438.860    82282073.459 8      3701.827    19790438.300    82282072.460 8      3701.827
G19  21072532.580   110736903.144 7      4815.331    21072530.720   110736903.146 6      4815.331    21072533.640    86288504.662 6      3752.206
R18  21172588.520   113020712.181 7       597.955    21172588.800   113020712.177 7       597.955    21172602.660    87905054.943 7       465.076    21172602.680    87905056.946 7       465.076
G01  22376251.360   117587990.462 7       998.983    22376250.540   117587990.462 5       998.983    22376257.760    91627038.131 5       778.428    22376258.040    91627037.141 7       778.428
> 2025 04 04 19 21 16.0000000  0  9
G03  21944347.280   115318318.664 7       251.402    21944346.580   115318318.671 7       251.402    21944354.000    89858458.401 7       195.897    21944353.660    89858458.395 7       195.897
G17  20561394.320   108050855.313 8      2873.959    20561393.080   108050855.315 6      2873.959    20561396.600    84195481.414 6      2239.448    20561396.680    84195482.415 8      2239.448
R04  19427559.560   104033697.425 8       856.675    19427561.200   104033697.464 7       856.675    19427567.960    80915137.338 7       666.303    19427568.840    80915140.336 8       666.303
G04  20491965.080   107686005.211 7      2698.963    20491963.780   107686005.221 6      2698.963    20491969.600    83911192.309 6      2103.088    20491970.280    83911194.312 8      2103.088
G09  20707221.200   108817182.482 7      4795.417    20707219.780   108817182.489 7      4795.417    20707226.640    84792635.763 7      3736.689    20707227.020    84792636.758 7      3736.689
R05  19789538.340   105786422.425 7      4759.416    19789537.700   105786422.426 7      4759.416    19789548.460    82278371.704 8      3701.768    19789548.000    82278370.703 8      3701.768
G19  21071616.340   110732087.828 7      4815.474    21071614.380   110732087.831 6      4815.474    21071617.440    86284752.480 6      3752.317
R18  21172476.700   113020114.176 7       598.110    21172476.760   113020114.177 7       598.110    21172490.340    87904589.841 7       465.197    21172490.800    87904591.845 7       465.197
G01  22376061.060   117586991.241 7       999.488    22376060.280   117586991.240 5       999.488    22376067.640    91626259.525 5       778.822    22376068.040    91626258.539 7       778.822
> 2025 04 04 19 21 17.0000000  0  9
G03  21944299.320   115318066.932 7       251.975    21944298.740   115318066.934 7       251.975    21944306.020    89858262.254 7       196.345    21944305.600    89858262.248 7       196.345
G17  20560847.380   108047981.242 8      2874.035    20560846.080   108047981.244 7      2874.035    20560849.640    84193241.895 6      2239.507    20560849.820    84193242.896 8      2239.507
R04  19427399.640   104032840.793 8       856.539    19427401.160   104032840.827 7       856.539    19427408.040    80914471.079 8       666.197    19427409.020    80914474.079 8       666.197
G04  20491451.440   107683306.190 7      2699.017    20491450.060   107683306.200 6      2699.017    20491456.140    83909089.189 6      2103.130    20491456.800    83909091.193 8      2103.130
G09  20706308.540   108812386.904 8      4795.605    20706307.200   108812386.915 7      4795.605    20706314.000    84788898.972 7      3736.835    20706314.640    84788899.967 7      3736.835
R05  19788647.880   105781662.945 7      4759.363    19788647.160   105781662.949 7      4759.363    19788658.220    82274669.908 8      3701.727    19788657.720    82274668.909 8      3701.727
G19  21070700.100   110727272.306 7      4815.480    21070697.900   110727272.311 6      4815.480    21070701.160    86281000.139 6      3752.322
R18  21172364.520   113019515.896 7       598.368    21172364.880   113019515.897 7       598.368    21172378.560    87904124.522 7       465.397    21172378.500    87904126.527 7       465.397
G01  22375870.720   117585991.494 7       999.867    22375870.140   117585991.493 5       999.867    22375877.400    91625480.512 5       779.117    22375877.660    91625479.530 7       779.117
> 2025 04 04 19 21 18.0000000  0  9
G03  21944251.360   115317814.380 7       253.068    21944250.600   115317814.385 7       253.068    21944258.060    89858065.469 7       197.196    21944257.600    89858065.461 7       197.196
G17  20560300.460   108045106.877 8      2874.635    20560299.200   108045106.879 6      2874.635    20560302.600    84191002.136 6      2239.975    20560303.120    84191003.135 8      2239.975
R04  19427239.700   104031983.923 8       857.122    19427241.060   104031983.959 7       857.122    19427248.140    80913804.634 8       666.651    19427248.900    80913807.635 8       666.651
G04  20490937.520   107680606.946 7      2699.383    20490936.400   107680606.964 6      2699.383    20490942.480    83906985.900 6      2103.415    20490942.920    83906987.905 8      2103.415
G09  20705395.800   108807590.970 7      4796.233    20705394.580   108807590.980 7      4796.233    20705401.420    84785161.892 7      3737.325    20705402.140    84785162.892 7      3737.325
R05  19787757.120   105776903.287 7      4759.870    19787756.860   105776903.294 7      4759.870    19787767.880    82270967.966 8      3702.121    19787767.400    82270966.967 8      3702.121
G19  21069783.780   110722456.436 7      4816.119    21069781.500   110722456.436 6      4816.119    21069784.720    86277247.526 6      3752.820
R18  21172252.240   113018917.240 7       598.964    21172252.700   113018917.249 7       598.964    21172266.500    87903658.909 7       465.861    21172266.580    87903660.913 7       465.861
G01  22375680.720   117584991.101 7      1000.700    22375679.780   117584991.100 5      1000.700    22375686.960    91624700.997 5       779.766    22375687.180    91624700.007 7       779.766
> 2025 04 04 19 21 19.0000000  0  9
G03  21944203.140   115317561.182 7       253.442    21944202.340   115317561.182 7       253.442    21944209.900    89857868.175 7       197.487    21944209.280    89857868.172 7       197.487
G17  20559753.580   108042232.417 8      2874.333    20559752.080   108042232.419 6      2874.333    20559755.660    84188762.309 6      2239.740    20559756.100    84188763.311 8      2239.740
R04  19427079.620   104031127.031 8       856.729    19427081.000   104031127.067 7       856.729    19427088.140    80913138.173 8       666.345    19427088.880    80913141.176 8       666.345
G04  20490423.980   107677907.629 7      2699.192    20490422.900   107677907.645 6      2699.192    20490428.900    83904882.546 6      2103.266    20490429.200    83904884.551 8      2103.266
G09  20704483.360   108802794.859 7      4796.019    20704481.820   108802794.864 7      4796.019    20704488.700    84781424.674 7      3737.158    20704489.280    84781425.671 7      3737.158
R05  19786866.900   105772143.685 7      4759.381    19786866.260   105772143.686 7      4759.381    19786877.400    82267266.066 8      3701.741    19786876.800    82267265.069 8      3701.741
G19  21068867.100   110717640.401 7      4815.951    21068865.000   110717640.403 6      4815.951    21068868.260    86273494.784 6      3752.689
R18  21172140.020   113018318.397 7       598.767    21172140.820   113018318.398 7       598.767    21172154.200    87903193.151 7       465.707    21172154.280    87903195.153 7       465.707
G01  22375490.040   117583990.221 7      1000.902    22375489.220   117583990.221 5      1000.902    22375496.580    91623921.102 5       779.924    22375497.040    91623920.113 7       779.924
> 2025 04 04 19 21 20.0000000  0  9
G03  21944154.720   115317307.403 7       253.961    21944154.120   115317307.411 7       253.961    21944161.720    89857670.448 7       197.892    21944161.080    89857670.436 7       197.892
G17  20559206.480   108039357.887 8      2874.396    20559205.100   108039357.891 6      2874.396    20559208.800    84186522.428 6      2239.789    20559209.000    84186523.427 8      2239.789
R04  19426919.540   104030270.120 8       856.835    19426921.000   104030270.160 7       856.835    19426928.160    80912471.702 8       666.428    19426928.960    80912474.705 8       666.428
G04  20489910.200   107675208.320 7      2699.225    20489909.080   107675208.333 6      2699.225    20489915.120    83902779.201 6      2103.292    20489915.640    83902781.203 8      2103.292
G09  20703570.520   108797998.594 7      4796.219    20703569.200   108797998.604 7      4796.219    20703576.040    84777687.346 7      3737.314    20703576.720    84777688.342 7      3737.314
R05  19785976.580   105767384.115 7      4759.383    19785975.900   105767384.124 7      4759.383    19785987.020    82263564.203 8      3701.742    19785986.440    82263563.202 8      3701.742
G19  21067950.740   110712824.274 7      4816.103    21067948.540   110712824.274 6      4816.103    21067951.860    86269741.970 6      3752.808
R18  21172027.940   113017719.401 7       598.946    21172028.320   113017719.408 7       598.946    21172042.180    87902727.276 7       465.847    21172042.280    87902729.276 7       465.847
G01  22375299.560   117582988.919 7      1001.383    22375298.720   117582988.919 5      1001.383    22375305.880    91623140.876 5       780.299    22375306.200    91623139.892 8       780.299
> 2025 04 04 19 21 21.0000000  0  9
G03  21944106.340   115317053.125 7       254.697    21944105.780   115317053.133 7       254.697    21944113.260    89857472.310 7       198.465    21944113.040    89857472.308 7       198.465
G17  20558659.620   108036483.398 8      2874.603    20558658.160   108036483.403 7      2874.603    20558661.700    84184282.576 6      2239.950    20558661.820    84184283.576 8      2239.950
R04  19426759.460   104029413.368 8       856.773    19426761.320   104029413.402 7       856.773    19426768.140    80911805.349 8       666.379    19426768.840    80911808.350 8       666.379
G04  20489396.840   107672509.089 7      2699.394    20489395.420   107672509.099 6      2699.394    20489401.560    83900675.916 6      2103.424    20489401.960    83900677.919 8      2103.424
G09  20702657.900   108793202.312 7      4796.429    20702656.460   108793202.317 7      4796.429    20702663.400    84773949.997 8      3737.477    20702663.760    84773950.996 7      3737.477
R05  19785086.180   105762624.738 7      4759.426    19785085.800   105762624.742 7      4759.426    19785096.600    82259862.475 8      3701.776    19785096.100    82259861.476 8      3701.776
G19  21067034.180   110708008.150 7      4816.240    21067032.140   110708008.152 6      4816.240    21067035.460    86265989.164 6      3752.914
R18  21171915.960   113017120.345 7       599.209    21171916.200   113017120.354 7       599.209    21171929.920    87902261.353 7       466.052    21171929.900    87902263.355 7       466.052
G01  22375109.000   117581987.314 7      1001.852    22375108.240   117581987.314 5      1001.852    22375115.200    91622360.415 5       780.664    22375115.600    91622359.423 7       780.664
> 2025 04 04 19 21 22.0000000  0  9
G03  21944057.860   115316798.080 7       255.401    21944057.220   115316798.085 7       255.401    21944064.840    89857273.585 7       199.013    21944064.540    89857273.583 7       199.013
G17  20558112.380   108033608.686 8      2874.679    20558111.120   108033608.688 6      2874.679    20558114.680    84182042.551 6      2240.010    20558114.940    84182043.549 8      2240.010
R04  19426599.600   104028556.428 8       856.902    19426601.220   104028556.459 7       856.902    19426608.020    80911138.851 8       666.479    19426608.700    80911141.852 8       666.479
G04  20488883.180   107669809.696 7      2699.378    20488881.780   107669809.703 6      2699.378    20488887.760    83898572.509 6      2103.411    20488888.240    83898574.512 8      2103.411
G09  20701745.100   108788405.708 7      4796.688    20701743.760   108788405.715 7      4796.688    20701750.500    84770212.401 7      3737.679    20701751.220    84770213.400 7      3737.679
R05  19784195.980   105757865.253 7      4759.407    19784195.440   105757865.257 7      4759.407    19784206.180    82256160.673 8      3701.761    19784205.860    82256159.674 8      3701.761
G19  21066117.760   110703191.731 7      4816.437    21066115.580   110703191.731 6      4816.437    21066118.900    86262236.121 6      3753.068
R18  21171803.540   113016520.965 7       599.364    21171804.080   113016520.966 7       599.364    21171817.600    87901795.169 7       466.172    21171817.620    87901797.173 7       466.172
G01  22374918.240   117580985.092 7      1002.328    22374917.420   117580985.092 5      1002.328    22374924.620    91621579.473 5       781.035    22374924.940    91621578.489 7       781.035
> 2025 04 04 19 21 23.0000000  0  9
G03  21944009.280   115316542.328 7       256.103    21944008.520   115316542.338 7       256.103    21944016.140    89857074.310 7       199.561    21944015.820    89857074.306 7       199.561
G17  20557565.360   108030733.758 8      2875.030    20557564.080   108030733.761 6      2875.030    20557567.540    84179802.356 6      2240.283    20557567.920    84179803.358 8      2240.283
R04  19426439.820   104027699.370 8       857.114    19426441.260   104027699.401 7       857.114    19426448.100    80910472.261 8       666.644    19426448.640    80910475.259 8       666.644
G04  20488369.500   107667110.150 7      2699.623    20488368.100   107667110.155 6      2699.623    20488374.140    83896468.977 6      2103.602    20488374.460    83896470.980 8      2103.602
G09  20700832.040   108783608.843 7      4796.979    20700830.880   108783608.853 7      4796.979    20700837.720    84766474.603 7      3737.906    20700838.420    84766475.604 7      3737.906
R05  19783305.640   105753105.689 7      4759.582    19783304.980   105753105.687 7      4759.582    19783316.060    82252458.800 8      3701.897    19783315.560    82252457.802 8      3701.897
G19  21065201.120   110698375.065 7      4816.767    21065199.080   110698375.068 6      4816.767    21065202.320    86258482.893 6      3753.325
R18  21171691.240   113015921.273 7       599.926    21171691.600   113015921.269 7       599.926    21171705.360    87901328.748 7       466.609    21171705.280    87901330.750 7       466.609
G01  22374727.540   117579982.306 7      1003.055    22374726.760   117579982.308 5      1003.055    22374733.840    91620798.093 5       781.601    22374734.260    91620797.105 7       781.601
> 2025 04 04 19 21 24.0000000  0  9
G03  21943960.480   115316285.916 7       256.767    21943959.800   115316285.921 7       256.767    21943967.320    89856874.515 7       200.078    21943966.960    89856874.507 7       200.078
G17  20557018.140   108027858.718 8      2875.088    20557016.980   108027858.723 6      2875.088    20557020.460    84177562.080 6      2240.328    20557020.760    84177563.081 8      2240.328
R04  19426279.260   104026842.288 8       857.087    19426280.980   104026842.314 7       857.087    19426287.960    80909805.650 8       666.623    19426288.680    80909808.651 8       666.623
G04  20487855.920   107664410.523 7      2699.692    20487854.280   107664410.527 6      2699.692    20487860.380    83894365.384 6      2103.656    20487861.040    83894367.388 8      2103.656
G09  20699919.200   108778811.779 7      4797.194    20699918.140   108778811.786 7      4797.194    20699924.940    84762736.643 7      3738.073    20699925.300    84762737.644 7      3738.073
R05  19782415.260   105748346.094 7      4759.563    19782414.580   105748346.093 7      4759.563    19782425.640    82248756.910 8      3701.883    19782425.280    82248755.913 8      3701.883
G19  21064284.440   110693558.234 7      4816.927    21064282.480   110693558.236 6      4816.927    21064285.600    86254729.532 6      3753.449
R18  21171578.540   113015321.392 7       600.072    21171579.120   113015321.393 7       600.072    21171592.940    87900862.186 7       466.723    21171592.820    87900864.188 7       466.723
G01  22374536.700   117578979.043 7      1003.470    22374535.820   117578979.043 5      1003.470    22374542.720    91620016.341 5       781.925    22374543.240    91620015.352 7       781.925
> 2025 04 04 19 21 25.0000000  0  9
G03  21943911.440   115316028.927 7       257.376    21943910.920   115316028.932 7       257.376    21943918.500    89856674.276 7       200.553    21943917.980    89856674.268 7       200.553
G17  20556471.040   108024983.622 8      2875.242    20556469.760   108024983.627 6      2875.242    20556473.360    84175321.758 6      2240.448    20556473.520    84175322.759 8      2240.448
R04  19426119.560   104025985.244 8       857.168    19426120.860   104025985.278 7       857.168    19426128.080    80909139.074 8       666.686    19426128.760    80909142.075 8       666.686
G04  20487342.120   107661710.900 7      2699.785    20487340.560   107661710.908 6      2699.785    20487346.620    83892261.799 6      2103.729    20487347.120    83892263.805 8      2103.729
G09  20699006.220   108774014.601 7      4797.375    20699005.200   108774014.604 7      4797.375    20699012.040    84758998.597 7      3738.214    20699012.460    84758999.596 7      3738.214
R05  19781524.940   105743586.565 7      4759.636    19781524.260   105743586.563 7      4759.636    19781535.080    82245055.070 8      3701.939    19781534.880    82245054.070 8      3701.939
G19  21063367.860   110688741.298 7      4817.180    21063365.840   110688741.303 6      4817.180    21063368.980    86250976.086 6      3753.646
R18  21171466.160   113014721.380 7       600.202    21171466.800   113014721.389 7       600.202    21171480.780    87900395.525 7       466.824    21171480.380    87900397.527 7       466.824
G01  22374345.660   117577975.371 7      1003.958    22374344.800   117577975.368 5      1003.958    22374351.760    91619234.266 5       782.305    22374352.160    91619233.276 7       782.305
> 2025 04 04 19 21 26.0000000  0  9
G03  21943862.600   115315771.511 7       257.668    21943862.000   115315771.516 7       257.668    21943869.480    89856473.699 7       200.780    21943869.080    89856473.686 7       200.780
G17  20555924.000   108022108.642 8      2874.923    20555922.660   108022108.645 6      2874.923    20555926.260    84173081.522 6      2240.200    20555926.300    84173082.519 8      2240.200
R04  19425959.560   104025128.379 8       856.782    19425960.760   104025128.418 7       856.782    19425968.040    80908472.640 8       666.386    19425968.760    80908475.641 8       666.386
G04  20486828.380   107659011.457 7      2699.356    20486826.880   107659011.472 6      2699.356    20486832.920    83890158.353 6      2103.394    20486833.460    83890160.357 8      2103.394
G09  20698093.340   108769217.450 7      4797.130    20698092.380   108769217.458 7      4797.130    20698099.160    84755260.576 7      3738.024    20698099.680    84755261.575 7      3738.024
R05  19780634.620   105738827.281 7      4759.163    19780634.060   105738827.284 7      4759.163    19780644.880    82241353.421 8      3701.571    19780644.560    82241352.422 8      3701.571
G19  21062451.160   110683924.446 7      4816.812    21062449.320   110683924.448 6      4816.812    21062452.360    86247222.709 6      3753.360
R18  21171353.820   113014121.365 7       600.118    21171354.620   113014121.366 7       600.118    21171368.300    87899928.848 7       466.759    21171368.240    87899930.851 7       466.759
G01  22374154.500   117576971.436 7      1004.053    22374153.840   117576971.433 5      1004.053    22374160.740    91618451.990 5       782.379    22374161.260    91618451.001 7       782.379
> 2025 04 04 19 21 27.0000000  0  9
G03  21943813.660   115315513.284 7       258.675    21943812.800   115315513.292 7       258.675    21943820.400    89856272.493 7       201.565    21943820.020    89856272.487 7       201.565
G17  20555377.000   108019233.371 7      2875.424    20555375.520   108019233.373 6      2875.424    20555379.020    84170841.060 6      2240.590    20555379.520    84170842.062 8      2240.590
R04  19425799.620   104024271.294 8       857.260    19425801.200   104024271.323 7       857.260    19425808.000    80907806.021 8       666.758    19425808.380    80907809.024 8       666.758
G04  20486314.620   107656311.775 7      2699.857    20486313.140   107656311.785 6      2699.857    20486319.180    83888054.716 6      2103.785    20486319.620    83888056.723 8      2103.785
G09  20697180.620   108764419.944 7      4797.732    20697179.380   108764419.955 7      4797.732    20697186.180    84751522.280 8      3738.493    20697186.640    84751523.279 7      3738.493
R05  19779744.120   105734067.828 7      4759.527    19779743.700   105734067.827 7      4759.527    19779754.440    82237651.637 8      3701.854    19779754.100    82237650.638 8      3701.854
G19  21061534.420   110679107.254 7      4817.323    21061532.560   110679107.259 6      4817.323    21061535.600    86243469.068 6      3753.758
R18  21171241.320   113013520.966 7       600.680    21171241.800   113013520.975 7       600.680    21171255.880    87899461.886 7       467.195    21171255.560    87899463.888 7       467.195
G01  22373963.300   117575966.854 7      1005.006    22373962.720   117575966.851 5      1005.006    22373969.620    91617669.207 5       783.121    22373969.960    91617668.216 7       783.121
> 2025 04 04 19 21 28.0000000  0  9
G03  21943764.220   115315254.537 7       259.197    21943763.580   115315254.544 7       259.197    21943771.240    89856070.882 7       201.972    21943770.720    89856070.878 7       201.972
G17  20554829.840   108016358.112 7      2875.465    20554828.320   108016358.115 6      2875.465    20554832.040    84168600.612 6      2240.622    20554832.300    84168601.609 8      2240.622
R04  19425639.520   104023414.258 8       857.147    19425640.880   104023414.294 7       857.147    19425647.920    80907139.458 8       666.670    19425648.280    80907142.459 8       666.670
G04  20485800.920   107653612.163 7      2699.818    20485799.300   107653612.176 6      2699.818    20485805.540    83885951.137 6      2103.754    20485805.960    83885953.144 8      2103.754
G09  20696267.860   108759622.378 7      4797.819    20696266.480   108759622.391 7      4797.819    20696273.240    84747783.935 7      3738.560    20696273.660    84747784.936 7      3738.560
R05  19778853.860   105729308.496 7      4759.501    19778853.580   105729308.495 7      4759.501    19778864.100    82233949.951 8      3701.834    19778863.780    82233948.952 8      3701.834
G19  21060617.620   110674290.032 7      4817.450    21060615.880   110674290.037 6      4817.450    21060618.940    86239715.398 6      3753.857
R18  21171128.860   113012920.486 7       600.798    21171129.360   113012920.495 7       600.798    21171143.680    87898994.859 7       467.288    21171143.180    87898996.859 7       467.288
G01  22373772.200   117574961.931 7      1005.348    22373771.520   117574961.928 5      1005.348    22373778.420    91616886.162 5       783.388    22373778.720    91616885.178 7       783.388
> 2025 04 04 19 21 29.0000000  0  9
G03  21943714.760   115314995.004 7       259.855    21943714.200   115314995.014 7       259.855    21943721.760    89855868.658 7       202.485    21943721.460    89855868.654 7       202.485
G17  20554282.660   108013482.591 7      2875.552    20554281.340   108013482.593 6      2875.552    20554284.860    84166359.958 6      2240.690    20554285.320    84166360.959 8      2240.690
R04  19425479.340   104022557.039 8       857.240    19425481.020   104022557.068 7       857.240    19425487.800    80906472.739 8       666.743    19425488.500    80906475.742 8       666.743
G04  20485287.160   107650912.339 7      2699.862    20485285.560   107650912.351 6      2699.862    20485291.980    83883847.390 6      2103.789    20485292.340    83883849.401 8      2103.789
G09  20695354.740   108754824.481 7      4798.000    20695353.460   108754824.486 7      4798.000    20695360.260    84744045.328 7      3738.702    20695360.740    84744046.325 7      3738.702
R05  19777963.360   105724549.025 7      4759.477    19777963.160   105724549.021 7      4759.477    19777973.740    82230248.157 8      3701.815    19777973.560    82230247.158 8      3701.815
G19  21059700.880   110669472.483 7      4817.673    21059699.160   110669472.486 6      4817.673    21059702.280    86235961.478 6      3754.031
R18  21171016.560   113012319.684 7       600.862    21171016.720   113012319.685 7       600.862    21171031.180    87898527.570 7       467.337    21171030.720    87898529.572 7       467.337
G01  22373580.920   117573956.370 7      1005.885    22373580.160   117573956.361 5      1005.885    22373586.980    91616102.616 5       783.807    22373587.280    91616101.631 7       783.807
> 2025 04 04 19 21 30.0000000  0  9
G03  21943665.380   115314734.827 7       260.466    21943664.680   115314734.829 7       260.466    21943672.200    89855665.927 7       202.960    21943672.060    89855665.919 7       202.960
G17  20553735.420   108010606.959 7      2875.551    20553734.020   108010606.964 6      2875.551    20553737.580    84164119.218 6      2240.689    20553738.020    84164120.218 8      2240.689
R04  19425319.400   104021699.807 8       857.182    19425320.900   104021699.839 7       857.182    19425327.820    80905806.015 8       666.697    19425328.360    80905809.018 8       666.697
G04  20484773.340   107648212.441 7      2700.004    20484771.800   107648212.456 6      2700.004    20484778.180    83881743.590 6      2103.899    20484778.520    83881745.592 8      2103.899
G09  20694441.680   108750026.397 7      4798.116    20694440.460   108750026.404 7      4798.116    20694447.160    84740306.578 7      3738.791    20694447.660    84740307.579 7      3738.791
R05  19777073.040   105719789.565 7      4759.358    19777072.900   105719789.566 7      4759.358    19777083.440    82226546.373 8      3701.723    19777082.860    82226545.374 8      3701.723
G19  21058784.380   110664654.796 7      4817.766    21058782.300   110664654.795 6      4817.766    21058785.560    86232207.450 6      3754.104
R18  21170903.840   113011718.663 7       601.116    21170904.300   113011718.653 7       601.116    21170918.380    87898060.107 7       467.535    21170918.020    87898062.109 7       467.535
G01  22373389.500   117572950.356 7      1006.148    22373388.640   117572950.350 5      1006.148    22373395.540    91615318.722 5       784.011    22373396.020    91615317.735 7       784.011
> 2025 04 04 19 21 31.0000000  0  9
G03  21943615.780   115314473.975 7       261.145    21943615.080   115314473.977 7       261.145    21943622.660    89855462.674 7       203.490    21943622.500    89855462.668 7       203.490
G17  20553188.180   108007731.175 7      2875.742    20553186.740   108007731.180 6      2875.742    20553190.520    84161878.358 6      2240.838    20553190.660    84161879.359 8      2240.838
R04  19425159.080   104020842.514 8       857.235    19425160.920   104020842.548 7       857.235    19425167.800    80905139.244 8       666.738    19425168.360    80905142.245 8       666.738
G04  20484259.640   107645512.477 7      2699.970    20484258.200   107645512.490 6      2699.970    20484264.400    83879639.734 6      2103.873    20484264.740    83879641.741 8      2103.873
G09  20693528.460   108745228.095 7      4798.308    20693527.360   108745228.103 7      4798.308    20693534.060    84736567.655 7      3738.942    20693534.600    84736568.653 8      3738.942
R05  19776182.860   105715030.080 7      4759.447    19776182.360   105715030.084 7      4759.447    19776193.040    82222844.571 8      3701.792    19776192.500    82222843.569 8      3701.792
G19  21057867.800   110659836.903 7      4818.007    21057865.480   110659836.902 6      4818.007    21057868.820    86228453.260 6      3754.291
R18  21170791.400   113011117.389 7       601.265    21170791.300   113011117.387 7       601.265    21170805.900    87897592.464 7       467.651    21170805.600    87897594.464 7       467.651
G01  22373197.860   117571943.817 7      1006.703    22373197.040   117571943.811 5      1006.703    22373203.840    91614534.414 5       784.444    22373204.580    91614533.429 7       784.444
> 2025 04 04 19 21 32.0000000  0  9
G03  21943566.080   115314212.645 7       261.476    21943565.340   115314212.647 7       261.476    21943572.880    89855259.048 7       203.748    21943572.640    89855259.040 7       203.748
G17  20552640.800   108004855.447 7      2875.610    20552639.580   108004855.452 6      2875.610    20552643.260    84159637.543 6      2240.735    20552643.420    84159638.540 8      2240.735
R04  19424999.380   104019985.333 8       857.055    19425000.540   104019985.367 7       857.055    19425007.660    80904472.562 8       666.598    19425008.580    80904475.565 8       666.598
G04  20483745.980   107642812.613 7      2699.707    20483744.380   107642812.626 6      2699.707    20483750.460    83877535.961 6      2103.668    20483750.980    83877537.967 8      2103.668
G09  20692615.420   108740429.759 7      4798.309    20692614.240   108740429.766 7      4798.309    20692620.920    84732828.711 8      3738.942    20692621.620    84732829.712 7      3738.942
R05  19775292.320   105710270.796 7      4759.153    19775292.020   105710270.805 7      4759.153    19775302.680    82219142.924 8      3701.563    19775302.260    82219141.925 8      3701.563
G19  21056950.880   110655019.021 7      4817.868    21056948.700   110655019.023 6      4817.868    21056951.760    86224699.083 6      3754.183
R18  21170678.420   113010516.042 7       601.352    21170678.820   113010516.043 7       601.352    21170693.140    87897124.758 7       467.718    21170693.320    87897126.760 7       467.718
G01  22373006.220   117570936.965 7      1006.930    22373005.260   117570936.960 5      1006.930    22373012.100    91613749.864 5       784.621    22373012.720    91613748.882 7       784.621
> 2025 04 04 19 21 33.0000000  0  9
G03  21943516.260   115313950.626 7       262.258    21943515.480   115313950.628 7       262.258    21943523.060    89855054.886 7       204.357    21943522.700    89855054.880 7       204.357
G17  20552093.500   108001979.563 8      2875.839    20552092.340   108001979.568 6      2875.839    20552096.100    84157396.604 6      2240.913    20552096.240    84157397.602 8      2240.913
R04  19424839.240   104019128.080 8       857.229    19424840.520   104019128.119 7       857.229    19424847.680    80903805.822 8       666.734    19424848.260    80903808.823 8       666.734
G04  20483232.040   107640112.634 7      2699.992    20483230.540   107640112.644 6      2699.992    20483236.600    83875432.089 6      2103.890    20483237.020    83875434.096 8      2103.890
G09  20691702.160   108735631.215 7      4798.533    20691701.220   108735631.217 7      4798.533    20691707.820    84729089.598 7      3739.116    20691708.440    84729090.595 7      3739.116
R05  19774401.920   105705511.504 7      4759.121    19774401.900   105705511.513 7      4759.121    19774412.220    82215441.265 8      3701.539    19774411.820    82215440.265 8      3701.539
G19  21056034.120   110650200.957 7      4818.019    21056031.860   110650200.965 6      4818.019    21056034.960    86220944.762 6      3754.301
R18  21170566.000   113009914.498 7       601.529    21170566.100   113009914.496 7       601.529    21170580.560    87896656.895 7       467.856    21170580.540    87896658.892 7       467.856
G01  22372814.560   117569929.594 7      1007.579    22372813.700   117569929.591 5      1007.579    22372820.560    91612964.912 5       785.127    22372821.080    91612963.925 7       785.127
> 2025 04 04 19 21 34.0000000  0  9
G03  21943466.040   115313688.003 7       263.048    21943465.580   115313688.000 7       263.048    21943473.060    89854850.251 7       204.972    21943472.940    89854850.241 7       204.972
G17  20551546.300   107999103.605 8      2876.108    20551545.120   107999103.610 6      2876.108    20551548.660    84155155.607 6      2241.123    20551548.940    84155156.606 8      2241.123
R04  19424678.620   104018270.813 8       857.425    19424680.600   104018270.855 7       857.425    19424687.580    80903139.076 8       666.886    19424688.220    80903142.077 8       666.886
G04  20482718.240   107637412.631 7      2700.206    20482716.720   107637412.641 6      2700.206    20482722.780    83873328.203 6      2104.057    20482723.220    83873330.211 8      2104.057
G09  20690789.020   108730832.501 7      4798.910    20690787.980   108730832.508 7      4798.910    20690794.680    84725350.360 7      3739.410    20690795.120    84725351.364 7      3739.410
R05  19773511.740   105700752.225 7      4759.299    19773511.660   105700752.227 7      4759.299    19773521.860    82211739.616 8      3701.677    19773521.340    82211738.617 8      3701.677
G19  21055117.160   110645382.760 7      4818.347    21055115.100   110645382.762 6      4818.347    21055118.320    86217190.333 6      3754.556
R18  21170453.700   113009312.772 7       601.885    21170453.280   113009312.770 7       601.885    21170467.660    87896188.894 7       468.133    21170467.660    87896190.894 7       468.133
G01  22372623.040   117568921.799 7      1008.056    22372621.860   117568921.798 5      1008.056    22372628.680    91612179.629 5       785.498    22372629.400    91612178.642 7       785.498
> 2025 04 04 19 21 35.0000000  0  9
G03  21943416.080   115313424.642 7       263.682    21943415.420   115313424.644 7       263.682    21943423.060    89854645.042 7       205.466    21943422.680    89854645.039 7       205.466
G17  20550998.940   107996227.440 8      2876.298    20550997.700   107996227.443 7      2876.298    20551001.400    84152914.447 7      2241.271    20551001.920    84152915.447 8      2241.271
R04  19424518.600   104017413.407 8       857.430    19424520.320   104017413.446 7       857.430    19424527.580    80902472.211 8       666.890    19424528.200    80902475.210 8       666.890
G04  20482204.720   107634712.483 7      2700.211    20482202.900   107634712.498 6      2700.211    20482209.040    83871224.206 6      2104.061    20482209.360    83871226.213 8      2104.061
G09  20689875.660   108726033.524 7      4799.032    20689874.660   108726033.534 7      4799.032    20689881.400    84721610.912 7      3739.506    20689881.900    84721611.909 7      3739.506
R05  19772621.420   105695992.842 7      4759.302    19772621.320   105695992.846 7      4759.302    19772631.660    82208037.891 8      3701.679    19772630.980    82208036.887 8      3701.679
G19  21054200.160   110640564.294 7      4818.587    21054198.060   110640564.296 6      4818.587    21054201.260    86213435.694 6      3754.743
R18  21170341.060   113008710.737 7       602.163    21170340.660   113008710.735 7       602.163    21170355.040    87895720.648 7       468.349    21170354.880    87895722.648 7       468.349
G01  22372430.660   117567913.423 7      1008.610    22372430.020   117567913.417 5      1008.610    22372436.880    91611393.892 5       785.930    22372437.400    91611392.895 7       785.930
> 2025 04 04 19 21 36.0000000  0  9
G03  21943365.880   115313160.912 7       263.837    21943365.300   115313160.917 7       263.837    21943373.000    89854439.549 7       205.588    21943372.740    89854439.543 7       205.588
G17  20550451.740   107993351.451 8      2875.900    20550450.420   107993351.454 6      2875.900    20550454.040    84150673.425 6      2240.961    20550454.320    84150674.423 8      2240.961
R04  19424358.380   104016556.256 8       856.948    19424360.140   104016556.292 7       856.948    19424367.440    80901805.548 8       666.515    19424367.840    80901808.549 8       666.515
G04  20481690.800   107632012.533 7      2699.898    20481689.120   107632012.548 6      2699.898    20481695.260    83869120.365 6      2103.817    20481695.520    83869122.371 8      2103.817
G09  20688962.600   108721234.612 7      4798.835    20688961.620   108721234.620 7      4798.835    20688968.160    84717871.513 7      3739.352    20688968.660    84717872.512 7      3739.352
R05  19771731.260   105691233.740 7      4758.926    19771731.040   105691233.736 7      4758.926    19771741.480    82204336.373 8      3701.387    19771741.020    82204335.373 8      3701.387
G19  21053283.260   110635745.949 7      4818.285    21053281.180   110635745.952 6      4818.285    21053284.260    86209681.150 6      3754.508
R18  21170228.300   113008108.779 7       601.908    21170227.720   113008108.772 7       601.908    21170242.260    87895252.465 7       468.150    21170242.100    87895254.467 7       468.150
G01  22372238.680   117566904.829 7      1008.701    22372238.160   117566904.824 5      1008.701    22372244.760    91610607.981 5       786.000    22372245.180    91610606.990 7       786.000
> 2025 04 04 19 21 37.0000000  0  9
G03  21943315.680   115312896.587 7       264.667    21943315.080   115312896.592 7       264.667    21943322.560    89854233.592 7       206.234    21943322.460    89854233.584 7       206.234
G17  20549904.400   107990475.399 8      2876.164    20549903.080   107990475.404 6      2876.164    20549906.720    84148432.360 6      2241.167    20549907.100    84148433.361 8      2241.167
R04  19424198.380   104015699.118 8       857.150    19424200.200   104015699.159 7       857.150    19424207.380    80901138.900 8       666.672    19424207.880    80901141.898 8       666.672
G04  20481176.860   107629312.606 7      2699.971    20481175.360   107629312.624 6      2699.971    20481181.600    83867016.540 6      2103.873    20481181.720    83867018.547 8      2103.873
G09  20688049.460   108716435.577 7      4799.199    20688048.340   108716435.585 7      4799.199    20688054.960    84714132.021 7      3739.636    20688055.540    84714133.023 7      3739.636
R05  19770840.940   105686474.732 7      4758.972    19770840.780   105686474.730 7      4758.972    19770851.080    82200634.940 8      3701.422    19770850.780    82200633.941 8      3701.422
G19  21052366.200   110630927.502 7      4818.607    21052364.080   110630927.502 6      4818.607    21052367.340    86205926.527 6      3754.759
R18  21170115.140   113007506.658 7       602.231    21170114.700   113007506.656 7       602.231    21170129.480    87894784.162 7       468.402    21170129.400    87894786.164 7       468.402
G01  22372046.940   117565895.831 7      1009.250    22372046.080   117565895.825 5      1009.250    22372052.800    91609821.759 5       786.429    22372053.340    91609820.770 7       786.429
> 2025 04 04 19 21 38.0000000  0  9
G03  21943265.240   115312631.483 7       265.462    21943264.660   115312631.488 7       265.462    21943272.120    89854027.024 7       206.854    21943271.980    89854027.018 7       206.854
G17  20549356.960   107987599.095 7      2876.435    20549355.800   107987599.100 6      2876.435    20549359.320    84146191.094 6      2241.378    20549359.860    84146192.092 8      2241.378
R04  19424038.140   104014841.803 8       857.325    19424040.160   104014841.839 7       857.325    19424047.080    80900472.105 8       666.809    19424047.960    80900475.106 8       666.809
G04  20480663.120   107626612.474 7      2700.154    20480661.560   107626612.487 6      2700.154    20480667.740    83864912.547 6      2104.016    20480668.060    83864914.554 8      2104.016
G09  20687136.080   108711636.235 7      4799.488    20687135.080   108711636.239 7      4799.488    20687141.720    84710392.288 7      3739.861    20687142.120    84710393.288 7      3739.861
R05  19769950.780   105681715.597 7      4759.177    19769950.580   105681715.596 7      4759.177    19769960.820    82196933.406 8      3701.582    19769960.620    82196932.404 8      3701.582
G19  21051449.340   110626108.774 7      4818.781    21051447.300   110626108.768 6      4818.781    21051450.260    86202171.684 6      3754.894
R18  21170002.580   113006904.209 7       602.591    21170002.000   113006904.202 7       602.591    21170016.780    87894315.590 7       468.682    21170016.600    87894317.592 8       468.682
G01  22371855.080   117564886.226 7      1009.833    22371854.000   117564886.223 5      1009.833    22371860.560    91609035.066 5       786.883    22371861.380    91609034.069 7       786.883
> 2025 04 04 19 21 39.0000000  0  9
G03  21943214.680   115312366.007 7       265.868    21943214.120   115312366.012 7       265.868    21943221.700    89853820.165 7       207.170    21943221.400    89853820.159 7       207.170
G17  20548809.680   107984722.954 8      2876.222    20548808.480   107984722.956 6      2876.222    20548812.220    84143949.949 6      2241.212    20548812.540    84143950.953 8      2241.212
R04  19423878.280   104013984.729 8       857.130    19423879.980   104013984.771 7       857.130    19423887.100    80899805.509 8       666.656    19423887.620    80899808.508 8       666.656
G04  20480149.220   107623912.534 7      2700.036    20480147.660   107623912.549 6      2700.036    20480153.760    83862808.712 6      2103.924    20480154.180    83862810.721 8      2103.924
G09  20686222.860   108706836.968 7      4799.336    20686221.840   108706836.978 7      4799.336    20686228.400    84706652.621 8      3739.743    20686229.080    84706653.620 7      3739.743
R05  19769060.560   105676956.776 7      4758.813    19769060.380   105676956.777 7      4758.813    19769070.420    82193232.117 8      3701.299    19769070.280    82193231.117 8      3701.299
G19  21050532.100   110621290.138 7      4818.734    21050530.360   110621290.137 6      4818.734    21050533.460    86198416.916 6      3754.857
R18  21169889.800   113006301.840 7       602.414    21169889.140   113006301.841 7       602.414    21169903.960    87893847.095 7       468.544    21169903.700    87893849.098 7       468.544
G01  22371662.780   117563876.402 7      1010.062    22371662.000   117563876.399 5      1010.062    22371668.380    91608248.196 5       787.061    22371669.360    91608247.206 7       787.061
> 2025 04 04 19 21 40.0000000  0  9
G03  21943163.880   115312099.847 7       266.442    21943163.440   115312099.849 7       266.442    21943170.980    89853612.776 7       207.617    21943170.740    89853612.770 7       207.617
G17  20548262.420   107981846.642 8      2876.359    20548261.240   107981846.641 6      2876.359    20548264.760    84141708.677 6      2241.319    20548265.240    84141709.675 8      2241.319
R04  19423718.080   104013127.599 8       857.073    19423720.100   104013127.635 7       857.073    19423727.100    80899138.859 8       666.612    19423727.660    80899141.859 8       666.612
G04  20479635.540   107621212.507 7      2699.994    20479633.900   107621212.523 6      2699.994    20479639.840    83860704.808 6      2103.892    20479640.520    83860706.816 8      2103.892
G09  20685309.520   108702037.468 7      4799.515    20685308.560   108702037.476 8      4799.515    20685315.020    84702912.759 8      3739.882    20685315.560    84702913.760 7      3739.882
R05  19768170.080   105672197.898 7      4758.753    19768169.940   105672197.904 7      4758.753    19768180.260    82189530.784 8      3701.252    19768180.180    82189529.783 8      3701.252
G19  21049615.240   110616471.310 7      4818.797    21049613.300   110616471.309 6      4818.797    21049616.520    86194661.998 6      3754.907
R18  21169776.540   113005699.196 7       602.669    21169776.500   113005699.194 7       602.669    21169791.120    87893378.377 7       468.743    21169790.700    87893380.379 7       468.743
G01  22371470.500   117562866.077 7      1010.381    22371469.680   117562866.074 5      1010.381    22371476.200    91607460.936 5       787.310    22371476.820    91607459.945 7       787.310
> 2025 04 04 19 21 41.0000000  0  9
G03  21943112.980   115311832.897 7       267.318    21943112.560   115311832.896 7       267.318    21943120.160    89853404.769 7       208.300    21943120.460    89853404.767 7       208.300
G17  20547715.220   107978970.083 8      2876.673    20547713.760   107978970.082 6      2876.673    20547717.480    84139467.215 6      2241.563    20547717.740    84139468.214 8      2241.563
R04  19423558.040   104012270.284 8       857.392    19423559.820   104012270.315 7       857.392    19423566.980    80898472.062 8       666.861    19423567.760    80898475.065 8       666.861
G04  20479121.780   107618512.268 7      2700.290    20479120.120   107618512.280 6      2700.290    20479126.340    83858600.739 6      2104.122    20479126.400    83858602.748 8      2104.122
G09  20684396.120   108697237.648 7      4799.931    20684395.080   108697237.655 7      4799.931    20684401.720    84699172.655 7      3740.206    20684402.120    84699173.657 7      3740.206
R05  19767280.140   105667438.884 7      4759.040    19767279.700   105667438.882 7      4759.040    19767290.000    82185829.341 8      3701.475    19767289.880    82185828.340 8      3701.475
G19  21048698.240   110611652.171 7      4819.217    21048696.320   110611652.176 6      4819.217    21048699.500    86190906.843 6      3755.234
R18  21169663.600   113005096.213 7       603.089    21169663.300   113005096.209 7       603.089    21169678.140    87892909.396 7       469.069    21169678.020    87892911.394 7       469.069
G01  22371278.040   117561855.100 7      1011.234    22371277.260   117561855.100 5      1011.234    22371283.740    91606673.174 5       787.974    22371284.340    91606672.186 7       787.974
> 2025 04 04 19 21 42.0000000  0  9
G03  21943062.380   115311565.520 7       267.710    21943061.860   115311565.523 7       267.710    21943069.380    89853196.436 7       208.605    21943069.300    89853196.428 7       208.605
G17  20547167.800   107976093.618 7      2876.519    20547166.420   107976093.623 6      2876.519    20547170.040    84137225.826 6      2241.443    20547170.420    84137226.824 8      2241.443
R04  19423398.160   104011413.111 8       857.255    19423399.580   104011413.150 7       857.255    19423406.980    80897805.391 8       666.754    19423407.380    80897808.394 8       666.754
G04  20478608.060   107615812.194 7      2700.114    20478606.320   107615812.206 6      2700.114    20478612.440    83856496.796 6      2103.985    20478612.920    83856498.800 8      2103.985
G09  20683482.700   108692437.848 7      4799.952    20683481.760   108692437.855 7      4799.952    20683488.380    84695432.570 7      3740.222    20683488.920    84695433.569 8      3740.222
R05  19766389.700   105662680.081 7      4758.754    19766389.420   105662680.085 7      4758.754    19766399.960    82182128.065 8      3701.253    19766399.580    82182127.065 8      3701.253
G19  21047781.040   110606833.099 7      4819.157    21047779.300   110606833.099 6      4819.157    21047782.460    86187151.730 6      3755.187
R18  21169550.520   113004493.247 7       602.997    21169550.760   113004493.245 7       602.997    21169565.160    87892440.428 7       468.998    21169564.960    87892442.432 7       468.998
G01  22371085.620   117560843.874 7      1011.485    22371084.720   117560843.873 5      1011.485    22371091.120    91605885.216 5       788.170    22371091.480    91605884.221 7       788.170
> 2025 04 04 19 21 43.0000000  0  9
G03  21943011.380   115311297.608 7       268.044    21943010.760   115311297.613 7       268.044    21943018.400    89852987.683 7       208.865    21943018.100    89852987.673 7       208.865
G17  20546620.440   107973217.154 8      2876.320    20546618.880   107973217.153 6      2876.320    20546622.760    84134984.432 6      2241.288    20546623.040    84134985.429 8      2241.288
R04  19423238.100   104010556.029 8       856.869    19423239.740   104010556.058 7       856.869    19423246.960    80897138.776 8       666.454    19423247.460    80897141.777 8       666.454
G04  20478094.200   107613112.151 7      2699.907    20478092.440   107613112.161 6      2699.907    20478098.580    83854392.879 6      2103.824    20478098.900    83854394.883 8      2103.824
G09  20682569.560   108687637.970 8      4799.789    20682568.400   108687637.974 7      4799.789    20682574.960    84691692.419 7      3740.096    20682575.680    84691693.419 7      3740.096
R05  19765499.300   105657921.371 7      4758.437    19765499.140   105657921.375 7      4758.437    19765509.640    82178426.865 8      3701.006    19765509.200    82178425.863 8      3701.006
G19  21046864.140   110602013.969 7      4819.013    21046862.160   110602013.968 6      4819.013    21046865.440    86183396.576 6      3755.075
R18  21169437.420   113003890.173 7       602.890    21169437.300   113003890.171 7       602.890    21169452.340    87891971.379 7       468.914    21169451.780    87891973.379 7       468.914
G01  22370893.120   117559832.285 7      1011.618    22370892.340   117559832.289 5      1011.618    22370898.620    91605096.979 5       788.274    22370899.120    91605095.990 7       788.274
> 2025 04 04 19 21 44.0000000  0  9
G03  21942960.220   115311029.071 7       268.866    21942959.740   115311029.073 7       268.866    21942967.220    89852778.437 7       209.506    21942967.160    89852778.432 7       209.506
G17  20546073.000   107970340.587 7      2876.576    20546071.720   107970340.589 6      2876.576    20546075.420    84132742.963 6      2241.488    20546075.740    84132743.958 8      2241.488
R04  19423077.920   104009698.920 8       856.950    19423079.300   104009698.952 7       856.950    19423086.860    80896472.148 8       666.517    19423087.620    80896475.149 8       666.517
G04  20477580.400   107610412.093 7      2700.005    20477578.540   107610412.106 6      2700.005    20477584.780    83852288.952 6      2103.900    20477585.000    83852290.956 8      2103.900
G09  20681655.860   108682837.944 7      4800.117    20681654.960   108682837.949 7      4800.117    20681661.540    84687952.152 7      3740.351    20681662.300    84687953.151 7      3740.351
R05  19764609.180   105653162.697 7      4758.581    19764608.860   105653162.698 7      4758.581    19764619.360    82174725.686 8      3701.118    19764619.120    82174724.687 8      3701.118
G19  21045947.000   110597194.723 7      4819.219    21045945.180   110597194.722 6      4819.219    21045948.300    86179641.334 6      3755.236
R18  21169324.640   113003286.942 7       603.205    21169324.400   113003286.940 7       603.205    21169339.420    87891502.204 7       469.159    21169339.160    87891504.208 7       469.159
G01  22370700.660   117558820.254 7      1012.199    22370699.800   117558820.259 5      1012.199    22370706.020    91604308.390 5       788.726    22370706.660    91604307.401 7       788.726
> 2025 04 04 19 21 45.0000000  0  9
G03  21942908.940   115310759.850 7       269.470    21942908.460   115310759.857 7       269.470    21942916.020    89852568.663 7       209.977    21942915.960    89852568.657 7       209.977
G17  20545525.400   107967463.867 8      2876.688    20545524.220   107967463.867 7      2876.688    20545527.900    84130501.372 6      2241.575    20545528.220    84130502.367 8      2241.575
R04  19422918.080   104008841.707 8       857.165    19422919.260   104008841.739 7       857.165    19422926.880    80895805.437 8       666.684    19422927.320    80895808.440 8       666.684
G04  20477066.440   107607711.914 7      2700.137    20477064.740   107607711.921 6      2700.137    20477070.960    83850184.926 6      2104.003    20477071.300    83850186.933 8      2104.003
G09  20680742.420   108678037.666 7      4800.395    20680741.420   108678037.671 7      4800.395    20680748.000    84684211.690 7      3740.568    20680748.880    84684212.689 7      3740.568
R05  19763718.860   105648403.977 8      4758.671    19763718.520   105648403.973 7      4758.671    19763729.220    82171024.470 8      3701.189    19763728.760    82171023.470 8      3701.189
G19  21045029.900   110592375.251 7      4819.489    21045028.020   110592375.251 6      4819.489    21045031.260    86175885.912 6      3755.446
R18  21169211.520   113002683.433 7       603.561    21169211.380   113002683.434 7       603.561    21169226.120    87891032.819 7       469.436    21169226.000    87891034.819 7       469.436
G01  22370507.920   117557807.680 7      1012.770    22370507.080   117557807.685 5      1012.770    22370513.260    91603519.379 5       789.172    22370514.080    91603518.388 7       789.172
> 2025 04 04 19 21 46.0000000  0  9
G03  21942857.480   115310490.198 7       270.003    21942857.100   115310490.200 7       270.003    21942864.780    89852358.551 7       210.392    21942864.540    89852358.549 7       210.392
G17  20544977.900   107964587.245 8      2876.703    20544976.820   107964587.245 6      2876.703    20544980.480    84128259.854 6      2241.587    20544980.900    84128260.855 8      2241.587
R04  19422758.120   104007984.695 8       857.006    19422759.180   104007984.732 7       857.006    19422766.700    80895138.887 8       666.560    19422767.200    80895141.888 8       666.560
G04  20476552.620   107605011.887 7      2700.084    20476551.060   107605011.900 6      2700.084    20476557.120    83848081.030 6      2103.961    20476557.640    83848083.032 8      2103.961
G09  20679829.100   108673237.438 7      4800.308    20679828.060   108673237.446 8      4800.308    20679834.640    84680471.273 8      3740.500    20679835.340    84680472.268 7      3740.500
R05  19762828.820   105643645.521 8      4758.460    19762828.660   105643645.520 8      4758.460    19762838.940    82167323.465 8      3701.025    19762838.640    82167322.464 8      3701.025
G19  21044112.780   110587555.845 8      4819.510    21044110.940   110587555.842 6      4819.510    21044114.180    86172130.542 6      3755.462
R18  21169098.840   113002079.938 7       603.613    21169098.440   113002079.942 7       603.613    21169113.120    87890563.444 7       469.477    21169113.020    87890565.444 7       469.477
G01  22370315.220   117556794.866 7      1013.014    22370314.200   117556794.871 5      1013.014    22370320.660    91602730.184 5       789.361    22370321.540    91602729.195 7       789.361
> 2025 04 04 19 21 47.0000000  0  9
G03  21942805.860   115310219.966 7       270.391    21942805.780   115310219.966 7       270.391    21942813.260    89852147.987 7       210.694    21942813.140    89852147.977 7       210.694
G17  20544430.760   107961710.565 8      2876.544    20544429.460   107961710.567 6      2876.544    20544433.040    84126018.300 6      2241.463    20544433.460    84126019.299 8      2241.463
R04  19422598.040   104007127.683 8       856.844    19422599.020   104007127.709 7       856.844    19422606.620    80894472.326 8       666.434    19422607.040    80894475.327 8       666.434
G04  20476039.160   107602311.879 7      2699.827    20476037.300   107602311.886 6      2699.827    20476043.400    83845977.133 6      2103.761    20476043.760    83845979.136 8      2103.761
G09  20678915.580   108668437.079 8      4800.215    20678914.540   108668437.084 8      4800.215    20678921.120    84676730.746 7      3740.427    20678921.800    84676731.747 8      3740.427
R05  19761938.540   105638887.122 8      4758.297    19761938.160   105638887.123 8      4758.297    19761948.880    82163622.505 8      3700.898    19761948.340    82163621.505 8      3700.898
G19  21043195.660   110582736.344 8      4819.422    21043193.800   110582736.338 6      4819.422    21043197.100    86168375.100 6      3755.394
R18  21168985.720   113001476.280 7       603.615    21168985.600   113001476.278 7       603.615    21168999.940    87890093.934 7       469.479    21169000.080    87890095.936 7       469.479
G01  22370122.320   117555781.617 7      1013.347    22370121.560   117555781.621 5      1013.347    22370127.840    91601940.649 5       789.621    22370128.700    91601939.656 7       789.621
> 2025 04 04 19 21 48.0000000  0  9
G03  21942754.660   115309949.308 7       270.672    21942754.260   115309949.313 7       270.672    21942761.920    89851937.097 7       210.913    21942761.560    89851937.093 7       210.913
G17  20543883.500   107958833.993 8      2876.426    20543881.920   107958833.995 6      2876.426    20543885.680    84123776.823 6      2241.371    20543886.000    84123777.822 8      2241.371
R04  19422437.860   104006270.853 8       856.617    19422438.880   104006270.878 7       856.617    19422446.760    80893805.917 8       666.257    19422447.340    80893808.918 8       666.257
G04  20475525.140   107599611.997 7      2699.655    20475523.500   107599612.007 6      2699.655    20475529.580    83843873.343 6      2103.627    20475530.220    83843875.356 8      2103.627
G09  20678002.140   108663636.735 7      4800.214    20678001.100   108663636.743 7      4800.214    20678007.680    84672990.235 7      3740.426    20678008.420    84672991.232 7      3740.426
R05  19761048.480   105634128.995 7      4757.891    19761048.220   105634128.994 7      4757.891    19761058.780    82159921.752 8      3700.582    19761058.300    82159920.751 8      3700.582
G19  21042278.360   110577916.896 7      4819.309    21042276.720   110577916.895 6      4819.309    21042280.080    86164619.696 6      3755.306
R18  21168872.240   113000872.673 7       603.316    21168872.540   113000872.676 7       603.316    21168886.920    87889624.472 7       469.246    21168887.060    87889626.476 7       469.246
G01  22369929.280   117554768.123 7      1013.500    22369928.820   117554768.125 5      1013.500    22369934.980    91601150.922 5       789.740    22369935.640    91601149.929 7       789.740
> 2025 04 04 19 21 49.0000000  0  9
G03  21942703.200   115309678.075 7       271.621    21942702.680   115309678.074 7       271.621    21942710.280    89851725.748 7       211.653    21942710.100    89851725.746 7       211.653
G17  20543335.940   107955957.389 7      2876.737    20543334.520   107955957.389 6      2876.737    20543338.260    84121535.324 6      2241.614    20543338.740    84121536.321 8      2241.614
R04  19422277.780   104005414.097 8       856.731    19422278.880   104005414.128 7       856.731    19422286.700    80893139.566 8       666.346    19422287.280    80893142.567 8       666.346
G04  20475011.380   107596912.170 7      2699.899    20475009.660   107596912.177 6      2699.899    20475015.700    83841769.594 6      2103.818    20475016.200    83841771.597 8      2103.818
G09  20677088.360   108658836.303 7      4800.573    20677087.580   108658836.310 7      4800.573    20677094.180    84669249.652 7      3740.706    20677094.900    84669250.651 7      3740.706
R05  19760158.700   105629370.927 7      4758.171    19760157.960   105629370.926 7      4758.171    19760168.660    82156221.049 8      3700.800    19760168.360    82156220.050 8      3700.800
G19  21041361.400   110573097.385 7      4819.609    21041359.700   110573097.384 6      4819.609    21041362.940    86160864.242 6      3755.540
R18  21168759.220   113000268.919 7       603.902    21168759.420   113000268.917 7       603.902    21168773.980    87889154.890 7       469.702    21168773.900    87889156.892 7       469.702
G01  22369736.280   117553754.232 7      1014.192    22369735.960   117553754.229 5      1014.192    22369742.220    91600360.881 5       790.279    22369742.420    91600359.888 7       790.279
> 2025 04 04 19 21 50.0000000  0  9
G03  21942651.660   115309406.134 7       272.285    21942650.880   115309406.137 7       272.285    21942658.560    89851513.855 7       212.170    21942658.300    89851513.849 7       212.170
G17  20542788.420   107953080.599 7      2876.894    20542787.180   107953080.598 6      2876.894    20542790.760    84119293.677 7      2241.735    20542791.140    84119294.672 8      2241.735
R04  19422117.680   104004557.219 8       856.939    19422118.780   104004557.245 7       856.939    19422126.580    80892473.109 8       666.508    19422127.340    80892476.110 8       666.508
G04  20474497.540   107594212.185 7      2700.106    20474495.920   107594212.195 6      2700.106    20474501.920    83839665.720 6      2103.979    20474502.400    83839667.725 8      2103.979
G09  20676174.860   108654035.610 7      4800.841    20676174.040   108654035.614 7      4800.841    20676180.540    84665508.865 7      3740.915    20676181.340    84665509.864 7      3740.915
R05  19759268.600   105624612.782 7      4758.270    19759267.860   105624612.781 7      4758.270    19759278.800    82152520.282 8      3700.877    19759278.320    82152519.281 8      3700.877
G19  21040444.280   110568277.624 7      4819.869    21040442.440   110568277.626 6      4819.869    21040445.840    86157108.599 6      3755.742
R18  21168646.340   112999664.900 7       604.198    21168646.120   112999664.901 7       604.198    21168660.920    87888685.100 7       469.931    21168660.480    87888687.110 7       469.931
G01  22369543.320   117552739.773 7      1014.809    22369542.940   117552739.776 5      1014.809    22369549.000    91599570.406 5       790.761    22369549.580    91599569.413 7       790.761
> 2025 04 04 19 21 51.0000000  0  9
G03  21942599.800   115309133.732 7       272.682    21942599.100   115309133.737 7       272.682    21942606.660    89851301.603 7       212.480    21942606.540    89851301.595 7       212.480
G17  20542241.060   107950203.890 8      2876.644    20542239.840   107950203.892 6      2876.644    20542243.380    84117052.098 6      2241.541    20542243.840    84117053.097 8      2241.541
R04  19421957.720   104003700.504 8       856.616    19421958.700   104003700.530 7       856.616    19421966.760    80891806.786 8       666.257    19421967.360    80891809.787 8       666.257
G04  20473983.860   107591512.332 7      2699.896    20473982.120   107591512.344 6      2699.896    20473988.300    83837561.951 6      2103.815    20473988.700    83837563.960 8      2103.815
G09  20675261.320   108649234.938 7      4800.665    20675260.520   108649234.942 7      4800.665    20675267.080    84661768.093 7      3740.778    20675267.820    84661769.091 8      3740.778
R05  19758378.440   105619854.848 7      4757.813    19758377.960   105619854.852 7      4757.813    19758388.700    82148819.681 8      3700.521    19758388.220    82148818.682 8      3700.521
G19  21039527.000   110563457.907 7      4819.762    21039525.380   110563457.904 6      4819.762    21039528.540    86153352.988 6      3755.658
R18  21168533.260   112999060.852 7       604.076    21168533.180   112999060.851 7       604.076    21168547.760    87888215.287 7       469.837    21168547.600    87888217.291 7       469.837
G01  22369350.300   117551725.052 7      1014.933    22369349.780   117551725.055 5      1014.933    22369355.720    91598779.725 5       790.857    22369356.460    91598778.730 7       790.857
> 2025 04 04 19 21 52.0000000  0  9
G03  21942547.960   115308860.830 7       273.255    21942547.180   115308860.827 7       273.255    21942554.760    89851088.946 7       212.926    21942554.660    89851088.938 7       212.926
G17  20541693.580   107947327.181 8      2876.799    20541692.360   107947327.183 6      2876.799    20541695.920    84114810.505 6      2241.662    20541696.600    84114811.502 8      2241.662
R04  19421797.780   104002843.840 8       856.748    19421798.660   104002843.865 7       856.748    19421806.880    80891140.492 8       666.360    19421807.420    80891143.495 8       666.360
G04  20473470.220   107588812.568 7      2699.810    20473468.300   107588812.578 6      2699.810    20473474.580    83835458.247 6      2103.748    20473474.940    83835460.249 8      2103.748
G09  20674347.920   108644434.182 7      4800.878    20674347.000   108644434.186 7      4800.878    20674353.580    84658027.251 7      3740.944    20674354.120    84658028.246 7      3740.944
R05  19757488.240   105615097.020 7      4757.820    19757487.800   105615097.027 7      4757.820    19757498.400    82145119.157 8      3700.527    19757498.080    82145118.158 8      3700.527
G19  21038610.120   110558638.162 7      4819.823    21038608.240   110558638.167 6      4819.823    21038611.500    86149597.351 6      3755.706
R18  21168420.200   112998456.687 7       604.338    21168420.240   112998456.685 7       604.338    21168434.460    87887745.380 7       470.041    21168434.460    87887747.385 7       470.041
G01  22369157.280   117550709.992 7      1015.232    22369156.560   117550709.992 5      1015.232    22369162.500    91597988.773 5       791.090    22369163.460    91597987.770 7       791.090
> 2025 04 04 19 21 53.0000000  0  9
G03  21942495.720   115308587.289 7       273.679    21942495.160   115308587.297 7       273.679    21942502.740    89850875.800 7       213.257    21942502.300    89850875.794 7       213.257
G17  20541146.240   107944450.380 7      2876.719    20541145.000   107944450.380 6      2876.719    20541148.360    84112568.842 6      2241.599    20541148.960    84112569.839 8      2241.599
R04  19421637.820   104001987.151 8       856.561    19421638.760   104001987.174 7       856.561    19421646.720    80890474.176 8       666.214    19421647.540    80890477.177 8       666.214
G04  20472956.340   107586112.746 7      2699.711    20472954.720   107586112.759 6      2699.711    20472960.740    83833354.492 6      2103.671    20472961.140    83833356.496 8      2103.671
G09  20673434.300   108639633.281 7      4800.783    20673433.380   108639633.286 7      4800.783    20673439.920    84654286.295 7      3740.870    20673440.800    84654287.293 7      3740.870
R05  19756598.220   105610339.252 7      4757.566    19756597.580   105610339.253 7      4757.566    19756608.380    82141418.672 8      3700.329    19756608.080    82141417.669 8      3700.329
G19  21037692.860   110553818.275 7      4819.843    21037690.980   110553818.280 6      4819.843    21037694.340    86145841.595 6      3755.722
R18  21168306.660   112997852.394 7       604.181    21168307.140   112997852.400 7       604.181    21168321.440    87887275.375 7       469.919    21168321.060    87887277.379 7       469.919
G01  22368964.060   117549694.454 7      1015.580    22368963.200   117549694.454 5      1015.580    22368969.340    91597197.444 5       791.361    22368970.200    91597196.441 7       791.361
> 2025 04 04 19 21 54.0000000  0  9
G03  21942443.520   115308313.410 7       274.024    21942442.960   115308313.415 7       274.024    21942450.720    89850662.388 7       213.525    21942450.040    89850662.380 7       213.525
G17  20540598.880   107941573.784 8      2876.475    20540597.620   107941573.784 6      2876.475    20540600.940    84110327.340 6      2241.409    20540601.360    84110328.336 8      2241.409
R04  19421477.600   104001130.733 8       856.246    19421478.860   104001130.759 7       856.246    19421486.860    80889808.080 8       665.969    19421487.440    80889811.081 8       665.969
G04  20472442.400   107583413.182 7      2699.407    20472440.840   107583413.194 6      2699.407    20472446.980    83831250.939 6      2103.434    20472447.600    83831252.940 8      2103.434
G09  20672521.040   108634832.491 7      4800.735    20672519.820   108634832.498 7      4800.735    20672526.300    84650545.428 7      3740.832    20672526.960    84650546.421 7      3740.832
R05  19755708.380   105605581.820 7      4757.235    19755707.580   105605581.819 7      4757.235    19755718.480    82137718.450 8      3700.072    19755718.000    82137717.448 8      3700.072
G19  21036775.800   110548998.557 7      4819.628    21036773.780   110548998.553 6      4819.628    21036777.160    86142085.970 6      3755.554
R18  21168193.740   112997248.194 7       604.233    21168193.760   112997248.192 7       604.233    21168208.120    87886805.433 7       469.959    21168207.940    87886807.437 7       469.959
G01  22368770.760   117548678.727 7      1015.898    22368769.980   117548678.732 5      1015.898    22368776.060    91596405.971 5       791.609    22368776.880    91596404.970 7       791.609
> 2025 04 04 19 21 55.0000000  0  9
G03  21942391.260   115308038.953 7       274.735    21942390.720   115308038.955 7       274.735    21942398.300    89850448.525 7       214.080    21942398.240    89850448.517 7       214.080
G17  20540051.360   107938697.122 8      2876.700    20540050.080   107938697.125 6      2876.700    20540053.640    84108085.788 6      2241.584    20540054.100    84108086.785 8      2241.584
R04  19421317.820   104000274.350 8       856.336    19421318.700   104000274.373 7       856.336    19421327.060    80889142.006 8       666.039    19421327.360    80889145.009 8       666.039
G04  20471928.620   107580713.602 7      2699.620    20471927.240   107580713.612 6      2699.620    20471933.340    83829147.374 6      2103.600    20471933.780    83829149.379 8      2103.600
G09  20671607.180   108630031.585 7      4800.900    20671606.180   108630031.590 7      4800.900    20671612.780    84646804.469 7      3740.961    20671613.440    84646805.464 7      3740.961
R05  19754818.260   105600824.458 7      4757.400    19754817.680   105600824.451 7      4757.400    19754828.500    82134018.283 8      3700.200    19754828.040    82134017.286 8      3700.200
G19  21035858.660   110544178.706 7      4819.954    21035856.640   110544178.709 6      4819.954    21035859.900    86138330.246 6      3755.808
R18  21168080.280   112996643.887 7       604.265    21168080.820   112996643.888 7       604.265    21168094.820    87886335.421 7       469.984    21168094.620    87886337.425 7       469.984
G01  22368577.480   117547662.631 7      1016.301    22368576.500   117547662.634 5      1016.301    22368582.680    91595614.206 5       791.923    22368583.400    91595613.209 7       791.923
> 2025 04 04 19 21 56.0000000  0  9
G03  21942338.720   115307763.857 7       275.448    21942338.340   115307763.862 7       275.448    21942346.000    89850234.168 7       214.635    21942345.880    89850234.164 7       214.635
G17  20539503.880   107935820.358 8      2876.947    20539502.680   107935820.355 7      2876.947    20539506.300    84105844.156 7      2241.777    20539506.420    84105845.155 8      2241.777
R04  19421158.000   103999417.938 8       856.474    19421158.640   103999417.961 7       856.474    19421166.900    80888475.912 8       666.146    19421167.320    80888478.917 8       666.146
G04  20471415.180   107578014.003 7      2699.602    20471413.420   107578014.013 6      2699.602    20471419.760    83827043.795 6      2103.586    20471420.240    83827045.800 8      2103.586
G09  20670693.500   108625230.498 7      4801.279    20670692.620   108625230.497 7      4801.279    20670699.220    84643063.370 7      3741.256    20670699.920    84643064.369 7      3741.256
R05  19753928.340   105596067.136 7      4757.324    19753927.640   105596067.134 7      4757.324    19753938.420    82130318.160 8      3700.141    19753938.180    82130317.159 8      3700.141
G19  21034941.400   110539358.748 7      4820.053    21034939.320   110539358.751 6      4820.053    21034942.880    86134574.441 6      3755.886
R18  21167967.120   112996039.338 7       604.716    21167967.640   112996039.333 7       604.716    21167981.560    87885865.211 7       470.335    21167981.560    87885867.216 7       470.335
G01  22368383.760   117546646.053 7      1016.837    22368383.240   117546646.052 5      1016.837    22368389.200    91594822.069 5       792.340    22368390.080    91594821.070 7       792.340
> 2025 04 04 19 21 57.0000000  0  9
G03  21942286.220   115307488.249 7       275.891    21942285.960   115307488.248 7       275.891    21942293.580    89850019.409 7       214.980    21942293.340    89850019.401 7       214.980
G17  20538956.540   107932943.623 8      2876.664    20538955.360   107932943.628 6      2876.664    20538958.760    84103602.552 6      2241.556    20538959.240    84103603.553 8      2241.556
R04  19420998.080   103998561.616 8       856.248    19420998.760   103998561.645 7       856.248    19421007.000    80887809.896 8       665.971    19421007.560    80887812.904 8       665.971
G04  20470901.580   107575314.452 7      2699.449    20470899.640   107575314.465 6      2699.449    20470905.980    83824940.261 6      2103.467    20470906.460    83824942.266 8      2103.467
G09  20669780.080   108620429.363 7      4801.147    20669779.000   108620429.368 7      4801.147    20669785.560    84639322.239 7      3741.154    20669785.960    84639323.238 8      3741.154
R05  19753038.460   105591309.928 7      4757.112    19753037.900   105591309.922 7      4757.112    19753048.420    82126618.117 8      3699.976    19753048.200    82126617.115 8      3699.976
G19  21034024.120   110534538.751 7      4819.979    21034022.080   110534538.751 6      4819.979    21034025.620    86130818.605 6      3755.828
R18  21167854.040   112995434.719 7       604.642    21167854.120   112995434.714 7       604.642    21167868.360    87885394.954 7       470.277    21167868.180    87885396.959 7       470.277
G01  22368190.500   117545629.125 7      1017.051    22368189.680   117545629.129 5      1017.051    22368195.740    91594029.661 5       792.508    22368196.340    91594028.664 7       792.508
> 2025 04 04 19 21 58.0000000  0  9
G03  21942233.700   115307212.157 7       276.272    21942233.460   115307212.159 7       276.272    21942241.100    89849804.281 7       215.277    21942240.700    89849804.277 7       215.277
G17  20538408.880   107930066.927 8      2876.571    20538407.940   107930066.930 6      2876.571    20538411.400    84101360.977 6      2241.484    20538411.920    84101361.974 8      2241.484
R04  19420837.780   103997705.402 7       856.115    19420838.880   103997705.436 7       856.115    19420847.120    80887143.962 8       665.867    19420847.660    80887146.965 8       665.867
G04  20470387.780   107572615.001 7      2699.321    20470386.080   107572615.008 6      2699.321    20470392.280    83822836.795 6      2103.367    20470392.780    83822838.799 8      2103.367
G09  20668866.540   108615628.197 7      4801.073    20668865.280   108615628.208 7      4801.073    20668871.860    84635581.083 7      3741.096    20668872.540    84635582.084 8      3741.096
R05  19752148.420   105586552.871 7      4756.910    19752147.880   105586552.872 7      4756.910    19752158.620    82122918.195 8      3699.819    19752158.200    82122917.196 8      3699.819
G19  21033106.920   110529718.751 7      4819.915    21033105.040   110529718.751 6      4819.915    21033108.260    86127062.769 6      3755.778
R18  21167740.580   112994830.052 7       604.624    21167741.100   112994830.037 7       604.624    21167754.940    87884924.650 7       470.263    21167754.740    87884926.654 7       470.263
G01  22367996.760   117544611.876 7      1017.352    22367996.000   117544611.878 5      1017.352    22368002.060    91593237.004 5       792.742    22368002.940    91593236.009 7       792.742
> 2025 04 04 19 21 59.0000000  0  9
G03  21942181.120   115306935.529 7       277.010    21942180.780   115306935.532 7       277.010    21942188.480    89849588.729 7       215.852    21942188.120    89849588.723 7       215.852
G17  20537861.600   107927190.221 8      2876.786    20537860.340   107927190.223 6      2876.786    20537864.000    84099119.394 6      2241.651    20537864.340    84099120.395 8      2241.651
R04  19420678.100   103996849.265 7       856.158    19420679.080   103996849.299 7       856.158    19420687.320    80886478.084 8       665.900    19420687.780    80886481.087 8       665.900
G04  20469873.980   107569915.591 7      2699.442    20469872.400   107569915.604 6      2699.442    20469878.620    83820733.371 6      2103.461    20469879.100    83820735.374 8      2103.461
G09  20667952.780   108610826.947 7      4801.365    20667951.680   108610826.960 7      4801.365    20667958.240    84631839.865 7      3741.323    20667958.780    84631840.863 7      3741.323
R05  19751258.580   105581795.942 7      4756.885    19751258.020   105581795.943 7      4756.885    19751268.760    82119218.376 8      3699.800    19751268.420    82119217.372 8      3699.800
G19  21032189.720   110524898.704 7      4820.175    21032187.740   110524898.701 6      4820.175    21032191.220    86123306.896 6      3755.980
R18  21167627.520   112994225.281 7       604.902    21167627.920   112994225.274 7       604.902    21167641.740    87884454.282 7       470.479    21167641.400    87884456.289 7       470.479
G01  22367802.920   117543594.264 7      1017.893    22367802.540   117543594.272 5      1017.893    22367808.540    91592444.066 5       793.163    22367809.000    91592443.069 7       793.163
> 2025 04 04 19 22  0.0000000  0  9
G03  21942128.320   115306658.347 7       277.430    21942127.980   115306658.349 7       277.430    21942135.680    89849372.751 7       216.179    21942135.460    89849372.745 7       216.179
G17  20537314.260   107924313.518 8      2876.668    20537312.940   107924313.517 6      2876.668    20537316.520    84096877.811 6      2241.559    20537316.880    84096878.806 8      2241.559
R04  19420518.200   103995993.177 8       855.935    19420519.420   103995993.205 7       855.935    19420527.320    80885812.242 8       665.727    19420528.040    80885815.247 8       665.727
G04  20469360.600   107567216.219 7      2699.327    20469358.680   107567216.237 6      2699.327    20469364.880    83818629.976 6      2103.372    20469365.560    83818631.983 8      2103.372
G09  20667038.960   108606025.632 7      4801.306    20667037.940   108606025.639 7      4801.306    20667044.660    84628098.586 7      3741.277    20667045.100    84628099.586 7      3741.277
R05  19750368.460   105577039.109 7      4756.727    19750368.040   105577039.107 7      4756.727    19750378.860    82115518.625 8      3699.677    19750378.680    82115517.622 8      3699.677
G19  21031272.580   110520078.599 7      4820.084    21031270.480   110520078.598 6      4820.084    21031274.100    86119550.981 6      3755.910
R18  21167514.560   112993620.435 7       604.876    21167514.460   112993620.423 7       604.876    21167528.160    87883983.847 7       470.459    21167528.360    87883985.855 7       470.459
G01  22367609.380   117542576.277 7      1018.159    22367608.860   117542576.277 5      1018.159    22367614.700    91591650.832 5       793.370    22367615.220    91591649.837 7       793.370
> 2025 04 04 19 22  1.0000000  0  9
G03  21942075.320   115306380.653 7       278.055    21942075.240   115306380.652 7       278.055    21942082.880    89849156.367 7       216.666    21942082.520    89849156.361 7       216.666
G17  20536766.660   107921436.811 8      2876.755    20536765.560   107921436.816 6      2876.755    20536769.240    84094636.230 6      2241.627    20536769.720    84094637.229 8      2241.627
R04  19420358.300   103995137.182 7       855.903    19420359.340   103995137.213 7       855.903    19420367.500    80885146.481 8       665.702    19420368.060    80885149.482 8       665.702
G04  20468846.920   107564516.928 7      2699.283    20468845.020   107564516.946 6      2699.283    20468851.180    83816526.643 6      2103.337    20468851.620    83816528.650 8      2103.337
G09  20666125.120   108601224.242 7      4801.454    20666124.300   108601224.247 7      4801.454    20666130.940    84624357.258 7      3741.393    20666131.520    84624358.260 7      3741.393
R05  19749478.680   105572282.436 7      4756.680    19749478.340   105572282.432 7      4756.680    19749488.940    82111819.001 8      3699.640    19749488.640    82111818.000 8      3699.640
G19  21030355.100   110515258.465 7      4820.185    21030353.300   110515258.467 6      4820.185    21030356.760    86115795.042 6      3755.989
R18  21167401.000   112993015.490 6       605.050    21167401.040   112993015.486 7       605.050    21167414.620    87883513.349 7       470.595    21167414.940    87883515.357 7       470.595
G01  22367415.700   117541557.933 7      1018.596    22367415.160   117541557.935 5      1018.596    22367420.940    91590857.323 5       793.711    22367421.760    91590856.330 7       793.711
> 2025 04 04 19 22  2.0000000  0  9
G03  21942022.360   115306102.509 7       278.368    21942022.280   115306102.511 7       278.368    21942029.960    89848939.638 7       216.910    21942029.940    89848939.632 7       216.910
G17  20536219.560   107918560.181 7      2876.599    20536218.220   107918560.183 6      2876.599    20536221.840    84092394.708 6      2241.506    20536222.060    84092395.703 8      2241.506
R04  19420198.500   103994281.345 7       855.771    19420199.420   103994281.376 7       855.771    19420207.780    80884480.836 8       665.600    19420208.580    80884483.843 8       665.600
G04  20468333.280   107561817.755 7      2699.071    20468331.340   107561817.776 6      2699.071    20468337.620    83814423.404 6      2103.173    20468338.060    83814425.408 8      2103.173
G09  20665211.620   108596422.858 7      4801.401    20665210.720   108596422.863 7      4801.401    20665217.340    84620615.933 7      3741.352    20665217.600    84620616.926 8      3741.352
R05  19748588.980   105567525.988 7      4756.332    19748588.540   105567525.994 7      4756.332    19748599.020    82108119.562 8      3699.369    19748598.820    82108118.559 8      3699.369
G19  21029438.080   110510438.339 7      4820.219    21029436.040   110510438.338 6      4820.219    21029439.540    86112039.108 6      3756.014
R18  21167287.640   112992410.501 7       605.095    21167287.560   112992410.496 7       605.095    21167301.500    87883042.805 7       470.629    21167301.640    87883044.812 7       470.629
G01  22367221.620   117540539.294 7      1018.881    22367221.300   117540539.296 5      1018.881    22367226.940    91590063.588 5       793.933    22367227.700    91590062.594 7       793.933
> 2025 04 04 19 22  3.0000000  0  9
G03  21941969.400   115305823.834 7       278.959    21941969.260   115305823.837 7       278.959    21941977.000    89848722.493 7       217.371    21941976.920    89848722.487 7       217.371
G17  20535672.280   107915683.556 8      2876.711    20535671.040   107915683.559 6      2876.711    20535674.340    84090153.188 6      2241.593    20535675.020    84090154.188 8      2241.593
R04  19420038.960   103993425.618 7       855.699    19420039.500   103993425.649 7       855.699    19420047.820    80883815.279 8       665.544    19420048.500    80883818.282 8       665.544
G04  20467819.660   107559118.640 7      2699.186    20467817.840   107559118.656 6      2699.186    20467824.000    83812320.203 6      2103.262    20467824.260    83812322.208 8      2103.262
G09  20664297.860   108591621.398 7      4801.662    20664296.880   108591621.403 7      4801.662    20664303.680    84616874.547 7      3741.555    20664304.240    84616875.545 7      3741.555
R05  19747699.240   105562769.676 7      4756.356    19747698.660   105562769.682 7      4756.356    19747709.440    82104420.217 8      3699.388    19747709.140    82104419.216 8      3699.388
G19  21028520.820   110505618.223 7      4820.157    21028518.760   110505618.225 6      4820.157    21028522.240    86108283.180 6      3755.967
R18  21167174.040   112991805.471 7       605.120    21167174.320   112991805.474 7       605.120    21167188.220    87882572.233 7       470.649    21167188.260    87882574.239 7       470.649
G01  22367027.780   117539520.319 7      1019.251    22367027.240   117539520.321 5      1019.251    22367033.040    91589269.584 5       794.222    22367033.780    91589268.593 7       794.222
> 2025 04 04 19 22  4.0000000  0  9
G03  21941916.460   115305544.561 7       279.510    21941916.100   115305544.558 7       279.510    21941923.920    89848504.882 7       217.800    21941923.600    89848504.872 7       217.800
G17  20535124.820   107912806.866 8      2876.740    20535123.500   107912806.868 6      2876.740    20535126.880    84087911.615 6      2241.615    20535127.320    84087912.609 8      2241.615
R04  19419878.880   103992569.872 8       855.781    19419879.940   103992569.895 7       855.781    19419888.220    80883149.699 8       665.607    19419888.860    80883152.704 8       665.607
G04  20467306.200   107556419.525 7      2699.071    20467304.160   107556419.543 6      2699.071    20467310.440    83810217.009 6      2103.173    20467310.800    83810219.012 8      2103.173
G09  20663384.280   108586819.807 7      4801.765    20663383.220   108586819.817 7      4801.765    20663389.940    84613133.066 7      3741.635    20663390.500    84613134.063 7      3741.635
R05  19746809.680   105558013.428 7      4756.227    19746808.760   105558013.432 7      4756.227    19746819.640    82100720.926 8      3699.287    19746819.260    82100719.922 8      3699.287
G19  21027603.500   110500797.960 7      4820.290    21027601.520   110500797.960 6      4820.290    21027605.100    86104527.139 6      3756.070
R18  21167060.260   112991200.291 7       605.207    21167060.800   112991200.281 7       605.207    21167074.880    87882101.529 7       470.716    21167074.860    87882103.538 7       470.716
G01  22366833.940   117538500.908 7      1019.614    22366833.280   117538500.908 5      1019.614    22366839.080    91588475.244 5       794.504    22366839.680    91588474.251 7       794.504
> 2025 04 04 19 22  5.0000000  0  9
G03  21941863.260   115305264.751 7       279.815    21941862.720   115305264.751 7       279.815    21941870.540    89848286.854 7       218.038    21941870.320    89848286.846 7       218.038
G17  20534577.200   107909930.170 7      2876.524    20534576.100   107909930.172 6      2876.524    20534579.360    84085670.040 6      2241.447    20534579.920    84085671.038 8      2241.447
R04  19419719.320   103991714.185 7       855.405    19419720.200   103991714.211 7       855.405    19419728.420    80882484.175 8       665.315    19419729.180    80882487.176 8       665.315
G04  20466792.700   107553720.431 7      2698.940    20466790.580   107553720.444 6      2698.940    20466796.700    83808113.825 6      2103.070    20466797.340    83808115.828 8      2103.070
G09  20662470.400   108582018.173 7      4801.388    20662469.500   108582018.183 7      4801.388    20662476.160    84609391.541 7      3741.341    20662476.480    84609392.541 8      3741.341
R05  19745919.940   105553257.285 7      4755.864    19745919.180   105553257.286 7      4755.864    19745929.800    82097021.713 8      3699.005    19745929.520    82097020.710 8      3699.005
G19  21026686.280   110495977.661 7      4820.112    21026684.260   110495977.660 6      4820.112    21026687.800    86100771.072 6      3755.932
R18  21166947.140   112990594.984 7       605.062    21166947.420   112990594.974 7       605.062    21166961.380    87881630.741 7       470.604    21166961.480    87881632.749 7       470.604
G01  22366639.880   117537481.132 7      1019.746    22366639.180   117537481.129 5      1019.746    22366644.900    91587680.617 5       794.607    22366645.760    91587679.620 7       794.607
> 2025 04 04 19 22  6.0000000  0  9
G03  21941809.800   115304984.542 7       280.425    21941809.580   115304984.547 7       280.425    21941817.280    89848068.520 7       218.513    21941817.160    89848068.512 7       218.513
G17  20534029.920   107907053.616 8      2876.574    20534028.700   107907053.621 6      2876.574    20534032.120    84083428.578 6      2241.486    20534032.460    84083429.575 8      2241.486
R04  19419559.920   103990858.685 7       855.472    19419560.360   103990858.711 7       855.472    19419568.720    80881818.795 8       665.367    19419569.420    80881821.798 8       665.367
G04  20466278.820   107551021.555 7      2698.840    20466276.920   107551021.571 6      2698.840    20466283.060    83806010.820 6      2102.992    20466283.460    83806012.820 8      2102.992
G09  20661556.660   108577216.571 7      4801.568    20661555.800   108577216.578 7      4801.568    20661562.560    84605650.043 7      3741.481    20661562.820    84605651.043 7      3741.481
R05  19745030.120   105548501.395 7      4755.745    19745029.760   105548501.391 7      4755.745    19745040.040    82093322.694 8      3698.912    19745040.060    82093321.693 8      3698.912
G19  21025768.980   110491157.464 7      4820.168    21025767.060   110491157.463 6      4820.168    21025770.460    86097015.087 6      3755.975
R18  21166833.980   112989989.727 7       605.250    21166834.040   112989989.720 7       605.250    21166847.980    87881159.990 7       470.750    21166848.020    87881161.994 7       470.750
G01  22366445.740   117536461.129 7      1020.111    22366445.100   117536461.131 5      1020.111    22366450.780    91586885.820 5       794.892    22366451.960    91586884.823 7       794.892
> 2025 04 04 19 22  7.0000000  0  9
G03  21941756.280   115304703.792 7       280.933    21941756.100   115304703.792 7       280.933    21941763.860    89847849.753 7       218.909    21941763.580    89847849.747 7       218.909
G17  20533482.580   107904177.039 7      2876.585    20533481.260   107904177.044 6      2876.585    20533484.760    84081187.097 6      2241.495    20533484.980    84081188.095 8      2241.495
R04  19419400.340   103990003.248 7       855.342    19419400.820   103990003.281 7       855.342    19419408.860    80881153.466 8       665.266    19419409.480    80881156.472 8       665.266
G04  20465765.480   107548322.719 7      2698.718    20465763.360   107548322.734 6      2698.718    20465769.540    83803907.838 6      2102.897    20465769.980    83803909.841 8      2102.897
G09  20660643.020   108572414.893 7      4801.661    20660641.960   108572414.903 7      4801.661    20660648.840    84601908.490 7      3741.554    20660649.200    84601909.494 7      3741.554
R05  19744140.800   105543745.572 7      4755.706    19744139.780   105543745.574 7      4755.706    19744150.420    82089623.738 8      3698.882    19744150.240    82089622.732 8      3698.882
G19  21024851.720   110486337.185 7      4820.281    21024849.800   110486337.190 6      4820.281    21024853.120    86093259.038 6      3756.063
R18  21166720.240   112989384.342 7       605.329    21166720.360   112989384.343 7       605.329    21166734.560    87880689.143 7       470.812    21166734.480    87880691.149 7       470.812
G01  22366251.500   117535440.746 7      1020.522    22366251.060   117535440.745 5      1020.522    22366256.480    91586090.722 5       795.212    22366257.740    91586089.721 7       795.212
> 2025 04 04 19 22  8.0000000  0  9
G03  21941702.880   115304422.542 7       281.396    21941702.500   115304422.547 7       281.396    21941710.320    89847630.608 7       219.270    21941709.980    89847630.602 7       219.270
G17  20532935.160   107901300.511 8      2876.400    20532933.920   107901300.513 6      2876.400    20532937.220    84078945.655 6      2241.351    20532937.720    84078946.655 8      2241.351
R04  19419240.520   103989147.935 7       855.196    19419241.040   103989147.964 7       855.196    19419249.200    80880488.230 8       665.152    19419249.720    80880491.233 8       665.152
G04  20465251.760   107545623.961 7      2698.627    20465249.760   107545623.974 6      2698.627    20465256.040    83801804.921 6      2102.826    20465256.120    83801806.923 8      2102.826
G09  20659729.340   108567613.183 7      4801.701    20659728.300   108567613.193 7      4801.701    20659734.980    84598166.910 7      3741.585    20659735.460    84598167.908 8      3741.585
R05  19743250.780   105538989.915 7      4755.554    19743250.200   105538989.916 7      4755.554    19743260.840    82085924.906 8      3698.764    19743260.520    82085923.904 8      3698.764
G19  21023934.440   110481516.928 7      4820.194    21023932.540   110481516.933 6      4820.194    21023936.020    86089503.001 6      3755.995
R18  21166607.100   112988778.936 7       605.250    21166607.200   112988778.928 7       605.250    21166621.020    87880218.276 7       470.750    21166621.020    87880220.282 7       470.750
G01  22366057.320   117534420.045 7      1020.744    22366056.640   117534420.042 5      1020.744    22366062.280    91585295.371 5       795.385    22366063.300    91585294.380 7       795.385
> 2025 04 04 19 22  9.0000000  0  9
G03  21941649.140   115304140.644 7       281.982    21941648.900   115304140.646 7       281.982    21941656.680    89847410.949 7       219.726    21941656.220    89847410.943 7       219.726
G17  20532387.880   107898423.842 7      2876.552    20532386.320   107898423.844 6      2876.552    20532389.920    84076704.103 6      2241.469    20532390.500    84076705.102 8      2241.469
R04  19419080.420   103988292.567 8       855.217    19419081.180   103988292.590 7       855.217    19419089.460    80879822.946 8       665.169    19419090.080    80879825.949 8       665.169
G04  20464738.060   107542925.138 7      2698.670    20464736.120   107542925.153 6      2698.670    20464742.520    83799701.949 6      2102.859    20464742.860    83799703.954 8      2102.859
G09  20658815.640   108562811.284 7      4801.832    20658814.500   108562811.291 7      4801.832    20658821.300    84594425.183 7      3741.688    20658821.440    84594426.182 7      3741.688
R05  19742360.960   105534234.288 7      4755.416    19742360.580   105534234.289 7      4755.416    19742371.160    82082226.097 8      3698.657    19742371.020    82082225.091 8      3698.657
G19  21023017.220   110476696.505 7      4820.253    21023015.040   110476696.507 6      4820.253    21023018.760    86085746.833 6      3756.041
R18  21166493.780   112988173.289 7       605.590    21166493.480   112988173.274 7       605.590    21166507.660    87879747.217 7       471.015    21166507.620    87879749.221 7       471.015
G01  22365862.900   117533398.836 7      1021.306    22365862.380   117533398.836 5      1021.306    22365868.000    91584499.632 5       795.823    22365868.500    91584498.641 7       795.823
> 2025 04 04 19 22 10.0000000  0  9
G03  21941595.540   115303858.454 7       282.674    21941595.180   115303858.459 7       282.674    21941603.120    89847191.067 7       220.265    21941602.780    89847191.063 7       220.265
G17  20531840.480   107895547.425 8      2876.682    20531839.040   107895547.427 6      2876.682    20531842.760    84074462.745 6      2241.571    20531843.080    84074463.744 8      2241.571
R04  19418920.960   103987437.517 8       855.189    19418921.500   103987437.543 7       855.189    19418929.820    80879157.915 8       665.147    19418930.420    80879160.918 8       665.147
G04  20464224.640   107540226.609 7      2698.726    20464222.640   107540226.622 6      2698.726    20464228.980    83797599.206 6      2102.904    20464229.200    83797601.212 8      2102.904
G09  20657901.780   108558009.556 7      4802.030    20657900.700   108558009.568 7      4802.030    20657907.460    84590683.591 7      3741.841    20657908.200    84590684.588 7      3741.841
R05  19741471.360   105529479.050 7      4755.330    19741471.140   105529479.049 7      4755.330    19741481.480    82078527.589 8      3698.590    19741481.200    82078526.582 8      3698.590
G19  21022099.980   110471876.266 7      4820.458    21022097.840   110471876.268 6      4820.458    21022101.540    86081990.813 6      3756.201
R18  21166380.620   112987567.835 7       605.776    21166380.280   112987567.833 7       605.776    21166393.880    87879276.321 7       471.159    21166394.220    87879278.325 7       471.159
G01  22365668.780   117532377.530 7      1021.715    22365667.980   117532377.530 5      1021.715    22365673.640    91583703.813 5       796.141    22365674.180    91583702.823 7       796.141
> 2025 04 04 19 22 11.0000000  0  9
G03  21941541.800   115303575.715 7       282.764    21941541.440   115303575.714 7       282.764    21941549.300    89846970.754 7       220.335    21941549.020    89846970.746 7       220.335
G17  20531293.080   107892671.007 8      2876.123    20531291.740   107892671.007 6      2876.123    20531295.180    84072221.389 6      2241.135    20531295.800    84072222.388 8      2241.135
R04  19418761.340   103986582.503 7       854.708    19418761.880   103986582.528 7       854.708    19418770.080    80878492.914 8       664.773    19418770.740    80878495.917 8       664.773
G04  20463711.020   107537528.119 7      2698.223    20463709.240   107537528.130 6      2698.223    20463715.260    83795496.497 6      2102.511    20463715.660    83795498.499 8      2102.511
G09  20656987.880   108553207.733 7      4801.649    20656987.060   108553207.743 7      4801.649    20656993.720    84586941.923 7      3741.545    20656994.460    84586942.923 8      3741.545
R05  19740581.880   105524723.909 7      4754.875    19740581.500   105524723.905 7      4754.875    19740591.780    82074829.157 8      3698.236    19740591.760    82074828.151 8      3698.236
G19  21021182.860   110467055.974 7      4820.076    21021180.540   110467055.979 6      4820.076    21021184.260    86078234.752 6      3755.903
R18  21166266.720   112986962.247 7       605.415    21166266.680   112986962.245 7       605.415    21166280.480    87878805.312 7       470.878    21166280.560    87878807.318 7       470.878
G01  22365474.380   117531355.831 7      1021.636    22365473.600   117531355.833 5      1021.636    22365479.220    91582907.692 5       796.080    22365479.740    91582906.697 7       796.080
> 2025 04 04 19 22 12.0000000  0  9
G03  21941488.080   115303292.728 7       282.980    21941487.560   115303292.725 7       282.980    21941495.420    89846750.252 7       220.504    21941494.860    89846750.246 7       220.504
G17  20530745.600   107889794.842 8      2875.941    20530744.440   107889794.845 6      2875.941    20530747.800    84069980.228 6      2240.993    20530748.380    84069981.225 8      2240.993
R04  19418601.800   103985727.860 8       854.336    19418602.280   103985727.894 7       854.336    19418610.600    80877828.204 8       664.483    19418611.260    80877831.207 8       664.483
G04  20463197.680   107534829.961 7      2697.841    20463195.700   107534829.974 6      2697.841    20463202.000    83793394.046 6      2102.214    20463202.320    83793396.048 8      2102.214
G09  20656074.380   108548406.131 7      4801.416    20656073.240   108548406.138 7      4801.416    20656080.000    84583200.425 7      3741.363    20656080.560    84583201.425 7      3741.363
R05  19739692.540   105519969.203 7      4754.326    19739691.780   105519969.213 7      4754.326    19739702.420    82071131.071 8      3697.809    19739702.280    82071130.070 8      3697.809
G19  21020265.680   110462235.935 7      4819.780    21020263.440   110462235.937 6      4819.780    21020267.080    86074478.883 6      3755.673
R18  21166153.320   112986356.835 7       605.281    21166153.100   112986356.828 7       605.281    21166167.080    87878334.434 7       470.774    21166167.160    87878336.443 7       470.774
G01  22365279.900   117530334.060 7      1021.719    22365279.160   117530334.060 5      1021.719    22365284.860    91582111.515 5       796.145    22365285.280    91582110.518 7       796.145
> 2025 04 04 19 22 13.0000000  0  9
G03  21941434.080   115303009.390 7       283.457    21941433.640   115303009.389 7       283.457    21941441.480    89846529.473 7       220.875    21941441.480    89846529.465 7       220.875
G17  20530198.420   107886918.882 7      2875.845    20530197.200   107886918.882 6      2875.845    20530200.660    84067739.226 6      2240.918    20530201.000    84067740.225 8      2240.918
R04  19418442.440   103984873.512 8       854.182    19418442.960   103984873.540 7       854.182    19418451.000    80877163.716 8       664.364    19418451.440    80877166.717 8       664.364
G04  20462684.160   107532132.031 7      2697.848    20462682.340   107532132.038 6      2697.848    20462688.420    83791291.769 6      2102.219    20462689.080    83791293.774 8      2102.219
G09  20655160.680   108543604.649 7      4801.317    20655159.600   108543604.654 7      4801.317    20655166.420    84579459.022 7      3741.286    20655166.780    84579460.019 7      3741.286
R05  19738803.060   105515214.805 7      4754.180    19738802.540   105515214.809 7      4754.180    19738812.940    82067433.214 8      3697.696    19738812.700    82067432.211 8      3697.696
G19  21019348.180   110457416.013 7      4819.876    21019346.260   110457416.013 6      4819.876    21019349.880    86070723.107 6      3755.748
R18  21166040.020   112985751.530 7       605.248    21166040.080   112985751.523 7       605.248    21166053.500    87877863.646 7       470.748    21166053.740    87877865.650 7       470.748
G01  22365085.260   117529312.113 7      1021.979    22365084.680   117529312.113 5      1021.979    22365090.300    91581315.199 5       796.347    22365091.120    91581314.204 7       796.347
> 2025 04 04 19 22 14.0000000  0  9
G03  21941380.080   115302725.689 7       283.974    21941379.720   115302725.691 7       283.974    21941387.580    89846308.415 7       221.278    21941387.600    89846308.411 7       221.278
G17  20529651.060   107884043.088 8      2875.789    20529649.860   107884043.087 6      2875.789    20529653.240    84065498.357 6      2240.875    20529653.760    84065499.355 8      2240.875
R04  19418282.820   103984019.399 8       854.066    19418283.240   103984019.428 7       854.066    19418291.440    80876499.414 8       664.274    19418292.120    80876502.415 8       664.274
G04  20462170.860   107529434.348 7      2697.658    20462168.960   107529434.358 6      2697.658    20462175.100    83789189.688 6      2102.071    20462175.520    83789191.693 8      2102.071
G09  20654246.920   108538803.250 7      4801.427    20654245.820   108538803.254 7      4801.427    20654252.680    84575717.683 7      3741.371    20654252.860    84575718.683 7      3741.371
R05  19737913.820   105510460.704 8      4754.101    19737913.000   105510460.708 7      4754.101    19737923.420    82063735.594 8      3697.634    19737923.520    82063734.593 8      3697.634
G19  21018431.180   110452596.234 7      4819.843    21018429.040   110452596.234 6      4819.843    21018432.700    86066967.447 6      3755.722
R18  21165926.480   112985146.308 7       605.286    21165926.300   112985146.306 7       605.286    21165940.280    87877392.924 7       470.778    21165940.260    87877394.930 7       470.778
G01  22364890.720   117528289.972 7      1022.283    22364890.160   117528289.972 5      1022.283    22364895.780    91580518.730 5       796.584    22364896.520    91580517.737 7       796.584
> 2025 04 04 19 22 15.0000000  0  9
G03  21941325.960   115302441.533 7       284.228    21941325.560   115302441.533 7       284.228    21941333.460    89846086.997 7       221.476    21941333.180    89846086.994 7       221.476
G17  20529103.840   107881167.348 8      2875.669    20529102.580   107881167.351 6      2875.669    20529106.100    84063257.526 6      2240.781    20529106.460    84063258.523 8      2240.781
R04  19418123.160   103983165.383 8       853.895    19418123.980   103983165.414 7       853.895    19418132.160    80875835.188 8       664.140    19418132.460    80875838.191 8       664.140
G04  20461657.400   107526736.760 7      2697.399    20461655.600   107526736.772 6      2697.399    20461661.820    83787087.684 6      2101.869    20461662.280    83787089.693 8      2101.869
G09  20653333.360   108534001.852 7      4801.288    20653332.160   108534001.855 7      4801.288    20653339.000    84571976.345 7      3741.263    20653339.320    84571977.347 8      3741.263
R05  19737024.440   105505706.808 7      4753.730    19737023.860   105505706.809 7      4753.730    19737034.280    82060038.130 8      3697.346    19737033.960    82060037.129 8      3697.346
G19  21017513.980   110447776.481 7      4819.634    21017511.920   110447776.481 6      4819.634    21017515.540    86063211.805 6      3755.559
R18  21165813.140   112984541.089 7       605.105    21165812.840   112984541.074 7       605.105    21165827.100    87876922.193 7       470.637    21165827.040    87876924.197 7       470.637
G01  22364696.140   117527267.523 7      1022.539    22364695.440   117527267.523 5      1022.539    22364701.140    91579722.018 5       796.784    22364701.940    91579721.022 7       796.784
> 2025 04 04 19 22 16.0000000  0  9
G03  21941271.820   115302157.007 7       284.689    21941271.400   115302157.010 7       284.689    21941279.500    89845865.295 7       221.836    21941278.840    89845865.291 7       221.836
G17  20528556.660   107878291.817 7      2875.438    20528555.440   107878291.819 6      2875.438    20528558.960    84061016.862 6      2240.601    20528559.420    84061017.857 8      2240.601
R04  19417963.760   103982311.659 7       853.634    19417964.600   103982311.690 7       853.634    19417972.580    80875171.186 8       663.938    19417973.340    80875174.189 8       663.938
G04  20461144.200   107524039.418 7      2697.243    20461142.300   107524039.431 6      2697.243    20461148.660    83784985.868 6      2101.748    20461148.880    83784987.874 8      2101.748
G09  20652419.860   108529200.566 7      4801.250    20652418.460   108529200.568 7      4801.250    20652425.300    84568235.093 7      3741.234    20652425.540    84568236.098 8      3741.234
R05  19736135.120   105500953.209 7      4753.500    19736134.680   105500953.213 7      4753.500    19736144.900    82056340.901 8      3697.167    19736144.760    82056339.897 8      3697.167
G19  21016596.920   110442956.865 7      4819.559    21016594.660   110442956.864 6      4819.559    21016598.400    86059456.268 6      3755.501
R18  21165699.780   112983935.931 7       605.180    21165699.580   112983935.910 7       605.180    21165713.640    87876451.511 7       470.695    21165713.640    87876453.519 7       470.695
G01  22364501.620   117526244.912 7      1022.676    22364500.800   117526244.914 5      1022.676    22364506.640    91578925.187 5       796.891    22364507.320    91578924.192 7       796.891
> 2025 04 04 19 22 17.0000000  0  9
G03  21941217.660   115301871.932 7       285.282    21941217.140   115301871.932 7       285.282    21941225.100    89845643.165 7       222.297    21941224.900    89845643.159 7       222.297
G17  20528009.340   107875416.245 8      2875.528    20528008.180   107875416.245 6      2875.528    20528011.700    84058776.161 6      2240.671    20528012.100    84058777.158 8      2240.671
R04  19417804.240   103981457.964 7       853.636    19417805.200   103981457.992 7       853.636    19417813.040    80874507.207 8       663.939    19417813.900    80874510.213 8       663.939
G04  20460631.020   107521342.111 7      2697.129    20460629.100   107521342.124 6      2697.129    20460635.500    83782884.084 6      2101.659    20460635.800    83782886.091 8      2101.659
G09  20651506.060   108524399.176 7      4801.423    20651504.840   108524399.181 7      4801.423    20651511.680    84564493.767 7      3741.369    20651511.920    84564494.771 7      3741.369
R05  19735246.020   105496199.733 7      4753.297    19735245.320   105496199.740 7      4753.297    19735255.640    82052643.768 8      3697.009    19735255.560    82052642.764 8      3697.009
G19  21015679.920   110438137.172 7      4819.656    21015677.540   110438137.177 6      4819.656    21015681.160    86055700.676 6      3755.576
R18  21165586.380   112983330.658 7       605.282    21165586.000   112983330.653 7       605.282    21165600.220    87875980.762 7       470.775    21165600.300    87875982.768 7       470.775
G01  22364306.600   117525221.896 7      1023.181    22364306.240   117525221.898 5      1023.181    22364311.980    91578128.037 5       797.284    22364312.560    91578127.040 7       797.284
> 2025 04 04 19 22 18.0000000  0  9
G03  21941163.480   115301586.479 7       285.846    21941162.880   115301586.476 7       285.846    21941170.880    89845420.737 7       222.737    21941170.320    89845420.731 7       222.737
G17  20527462.140   107872540.819 8      2875.584    20527461.080   107872540.821 6      2875.584    20527464.560    84056535.579 6      2240.714    20527464.980    84056536.578 8      2240.714
R04  19417644.700   103980604.504 8       853.606    19417646.080   103980604.535 7       853.606    19417653.720    80873843.414 8       663.916    19417654.260    80873846.419 8       663.916
G04  20460117.600   107518644.996 7      2697.212    20460115.760   107518645.008 6      2697.212    20460122.160    83780782.440 6      2101.723    20460122.460    83780784.449 8      2101.723
G09  20650592.520   108519597.882 7      4801.493    20650591.120   108519597.889 7      4801.493    20650598.060    84560752.509 8      3741.423    20650598.120    84560753.512 7      3741.423
R05  19734356.960   105491446.532 7      4753.303    19734356.080   105491446.539 7      4753.303    19734366.480    82048946.844 8      3697.014    19734366.420    82048945.843 8      3697.014
G19  21014762.700   110433317.593 7      4819.842    21014760.400   110433317.592 6      4819.842    21014763.980    86051945.168 6      3755.721
R18  21165473.140   112982725.468 6       605.458    21165472.920   112982725.455 7       605.458    21165487.000    87875510.052 7       470.912    21165486.960    87875512.060 7       470.912
G01  22364112.080   117524198.677 7      1023.554    22364111.520   117524198.680 5      1023.554    22364117.380    91577330.734 5       797.575    22364117.720    91577329.731 7       797.575
> 2025 04 04 19 22 19.0000000  0  9
G03  21941109.060   115301300.589 7       286.028    21941108.500   115301300.591 7       286.028    21941116.500    89845197.976 7       222.879    21941116.120    89845197.971 7       222.879
G17  20526915.140   107869665.508 8      2875.184    20526914.040   107869665.513 6      2875.184    20526917.400    84054295.089 6      2240.403    20526917.840    84054296.087 8      2240.403
R04  19417485.360   103979751.216 8       853.141    19417486.880   103979751.250 7       853.141    19417494.520    80873179.756 8       663.554    19417495.020    80873182.759 8       663.554
G04  20459604.540   107515948.059 7      2696.644    20459602.520   107515948.072 6      2696.644    20459608.760    83778680.945 6      2101.281    20459609.080    83778682.950 8      2101.281
G09  20649678.580   108514796.632 7      4801.083    20649677.560   108514796.636 7      4801.083    20649684.400    84557011.285 7      3741.104    20649684.740    84557012.289 8      3741.104
R05  19733467.840   105486693.586 7      4752.721    19733466.860   105486693.589 7      4752.721    19733477.340    82045250.118 8      3696.561    19733477.240    82045249.117 8      3696.561
G19  21013845.480   110428498.087 7      4819.425    21013843.180   110428498.089 6      4819.425    21013846.940    86048189.719 6      3755.396
R18  21165359.540   112982120.291 7       605.091    21165359.460   112982120.276 7       605.091    21165373.420    87875039.363 7       470.627    21165373.500    87875041.371 7       470.627
G01  22363917.280   117523175.207 7      1023.458    22363916.720   117523175.214 5      1023.458    22363922.540    91576533.231 5       797.500    22363923.240    91576532.234 7       797.500
> 2025 04 04 19 22 20.0000000  0  9
G03  21941054.460   115301014.171 7       286.576    21941053.980   115301014.176 7       286.576    21941061.980    89844974.798 7       223.306    21941061.560    89844974.794 7       223.306
G17  20526368.040   107866790.199 7      2875.223    20526366.900   107866790.202 6      2875.223    20526370.240    84052054.591 6      2240.434    20526370.700    84052055.591 8      2240.434
R04  19417325.920   103978897.987 8       853.035    19417327.420   103978898.024 7       853.035    19417335.060    80872516.142 8       663.472    19417335.540    80872519.147 8       663.472
G04  20459091.420   107513251.135 7      2696.781    20459089.280   107513251.148 6      2696.781    20459095.480    83776579.454 6      2101.387    20459095.940    83776581.457 8      2101.387
G09  20648765.100   108509995.287 7      4801.268    20648763.860   108509995.292 7      4801.268    20648770.600    84553269.994 7      3741.248    20648771.080    84553270.998 7      3741.248
R05  19732578.480   105481940.767 7      4752.533    19732578.120   105481940.771 7      4752.533    19732588.480    82041553.492 8      3696.414    19732588.080    82041552.488 8      3696.414
G19  21012928.300   110423678.539 7      4819.369    21012926.100   110423678.536 6      4819.369    21012929.820    86044434.233 6      3755.353
R18  21165246.060   112981514.994 6       605.164    21165246.320   112981514.987 7       605.164    21165260.140    87874568.587 7       470.683    21165260.100    87874570.595 7       470.683
G01  22363722.320   117522151.371 7      1023.846    22363721.980   117522151.376 5      1023.846    22363727.800    91575735.437 5       797.802    22363728.280    91575734.440 7       797.802
> 2025 04 04 19 22 21.0000000  0  9
G03  21940999.860   115300727.333 7       287.145    21940999.300   115300727.333 7       287.145    21941007.400    89844751.290 7       223.749    21941006.940    89844751.284 7       223.749
G17  20525821.020   107863914.993 8      2875.200    20525819.760   107863914.998 6      2875.200    20525823.020    84049814.179 6      2240.415    20525823.500    84049815.181 8      2240.415
R04  19417166.860   103978044.954 7       853.031    19417168.460   103978044.988 7       853.031    19417175.860    80871852.678 7       663.469    19417176.500    80871855.681 8       663.469
G04  20458578.240   107510554.395 7      2696.772    20458576.100   107510554.406 6      2696.772    20458582.400    83774478.109 6      2101.380    20458582.780    83774480.111 8      2101.380
G09  20647851.380   108505193.995 7      4801.355    20647850.160   108505194.002 7      4801.355    20647856.980    84549528.740 7      3741.315    20647857.400    84549529.741 7      3741.315
R05  19731689.180   105477188.160 7      4752.566    19731688.920   105477188.166 7      4752.566    19731699.160    82037857.034 8      3696.441    19731699.160    82037856.030 8      3696.441
G19  21012011.360   110418859.046 7      4819.479    21012008.960   110418859.048 6      4819.479    21012012.720    86040678.794 6      3755.438
R18  21165132.640   112980909.737 7       605.287    21165132.840   112980909.722 7       605.287    21165146.740    87874097.827 7       470.779    21165146.820    87874099.836 7       470.779
G01  22363527.580   117521127.280 7      1024.267    22363527.160   117521127.282 5      1024.267    22363532.880    91574937.450 5       798.130    22363533.300    91574936.455 7       798.130
> 2025 04 04 19 22 22.0000000  0  9
G03  21940945.040   115300440.153 7       287.373    21940944.680   115300440.155 7       287.373    21940952.840    89844527.515 7       223.927    21940952.440    89844527.515 7       223.927
G17  20525273.900   107861039.966 8      2875.010    20525272.580   107861039.974 6      2875.010    20525276.000    84047573.902 6      2240.268    20525276.400    84047574.906 8      2240.268
R04  19417007.240   103977192.226 8       852.590    19417009.220   103977192.267 7       852.590    19417016.600    80871189.457 7       663.126    19417017.020    80871192.460 7       663.126
G04  20458065.160   107507857.905 7      2696.413    20458063.100   107507857.918 6      2696.413    20458069.300    83772376.954 6      2101.101    20458069.740    83772378.957 8      2101.101
G09  20646937.560   108500392.832 7      4801.119    20646936.560   108500392.834 7      4801.119    20646943.440    84545787.582 7      3741.131    20646943.900    84545788.587 7      3741.131
R05  19730800.180   105472435.881 7      4752.095    19730799.780   105472435.896 7      4752.095    19730810.120    82034160.836 8      3696.074    19730809.900    82034159.834 8      3696.074
G19  21011094.100   110414039.700 7      4819.260    21011091.940   110414039.702 6      4819.260    21011095.660    86036923.468 6      3755.267
R18  21165019.080   112980304.577 7       605.130    21165019.660   112980304.569 7       605.130    21165033.200    87873627.155 7       470.656    21165033.140    87873629.161 7       470.656
G01  22363332.580   117520103.018 7      1024.292    22363332.300   117520103.023 5      1024.292    22363337.960    91574139.332 5       798.150    22363338.320    91574138.329 7       798.150
> 2025 04 04 19 22 23.0000000  0  9
G03  21940890.400   115300152.424 7       287.798    21940889.840   115300152.426 7       287.798    21940898.000    89844303.321 7       224.258    21940898.000    89844303.317 7       224.258
G17  20524726.760   107858164.947 8      2874.864    20524725.500   107858164.949 6      2874.864    20524728.800    84045333.636 6      2240.154    20524729.160    84045334.635 8      2240.154
R04  19416848.200   103976339.561 8       852.412    19416850.060   103976339.603 7       852.412    19416857.440    80870526.282 7       662.987    19416857.920    80870529.285 8       662.987
G04  20457551.920   107505161.449 7      2696.222    20457549.820   107505161.462 6      2696.222    20457556.120    83770275.830 6      2100.952    20457556.700    83770277.834 8      2100.952
G09  20646023.800   108495591.582 7      4801.088    20646022.900   108495591.584 7      4801.088    20646029.700    84542046.356 7      3741.108    20646030.480    84542047.358 7      3741.108
R05  19729911.340   105467683.723 7      4751.871    19729910.680   105467683.724 7      4751.871    19729921.200    82030464.715 8      3695.900    19729921.020    82030463.711 8      3695.900
G19  21010176.920   110409220.310 7      4819.173    21010174.820   110409220.312 6      4819.173    21010178.620    86033168.107 6      3755.200
R18  21164905.740   112979699.344 7       605.002    21164905.920   112979699.334 7       605.002    21164919.660    87873156.421 7       470.557    21164919.680    87873158.425 7       470.557
G01  22363137.820   117519078.363 7      1024.682    22363137.220   117519078.365 5      1024.682    22363142.920    91573340.903 5       798.453    22363143.540    91573339.904 7       798.453
> 2025 04 04 19 22 24.0000000  0  9
G03  21940835.640   115299864.464 7       288.191    21940835.100   115299864.464 7       288.191    21940843.260    89844078.938 7       224.565    21940843.100    89844078.937 7       224.565
G17  20524179.640   107855290.224 7      2874.684    20524178.400   107855290.229 6      2874.684    20524181.800    84043093.598 6      2240.013    20524182.200    84043094.600 8      2240.013
R04  19416689.000   103975487.270 8       852.152    19416691.000   103975487.306 7       852.152    19416698.160    80869863.390 8       662.785    19416698.940    80869866.394 8       662.785
G04  20457038.820   107502465.356 7      2695.939    20457036.800   107502465.366 6      2695.939    20457043.140    83768174.986 6      2100.732    20457043.620    83768176.997 8      2100.732
G09  20645110.320   108490790.568 7      4800.916    20645109.300   108490790.568 7      4800.916    20645116.100    84538305.319 7      3740.974    20645116.620    84538306.322 8      3740.974
R05  19729022.680   105462931.976 7      4751.555    19729021.880   105462931.972 7      4751.555    19729032.080    82026768.920 8      3695.654    19729032.120    82026767.919 8      3695.654
G19  21009259.740   110404401.177 7      4819.061    21009257.740   110404401.176 6      4819.061    21009261.460    86029412.949 6      3755.113
R18  21164792.280   112979094.287 7       605.054    21164792.960   112979094.269 7       605.054    21164806.420    87872685.823 7       470.598    21164806.560    87872687.827 7       470.598
G01  22362942.840   117518053.667 7      1024.830    22362942.260   117518053.670 5      1024.830    22362947.960    91572542.446 5       798.569    22362948.380    91572541.449 7       798.569
> 2025 04 04 19 22 25.0000000  0  9
G03  21940780.700   115299576.012 7       288.763    21940780.280   115299576.015 7       288.763    21940788.420    89843854.179 7       225.010    21940788.220    89843854.173 7       225.010
G17  20523632.400   107852415.531 8      2874.793    20523631.400   107852415.530 6      2874.793    20523634.880    84040853.581 6      2240.099    20523635.320    84040854.581 8      2240.099
R04  19416529.960   103974635.015 8       852.404    19416531.600   103974635.057 7       852.404    19416538.980    80869200.536 7       662.981    19416539.620    80869203.541 8       662.981
G04  20456526.040   107499769.321 7      2696.196    20456523.700   107499769.333 6      2696.196    20456530.060    83766074.187 6      2100.932    20456530.580    83766076.196 8      2100.932
G09  20644196.920   108485989.505 7      4801.138    20644195.660   108485989.509 7      4801.138    20644202.540    84534564.247 7      3741.146    20644202.920    84534565.248 8      3741.146
R05  19728133.580   105458180.363 7      4751.614    19728133.000   105458180.361 7      4751.614    19728143.260    82023073.236 8      3695.700    19728143.200    82023072.234 8      3695.700
G19  21008342.700   110399582.017 7      4819.344    21008340.800   110399582.017 6      4819.344    21008344.260    86025657.766 6      3755.333
R18  21164679.220   112978489.180 7       605.256    21164679.480   112978489.167 7       605.256    21164693.160    87872215.188 7       470.755    21164693.020    87872217.197 7       470.755
G01  22362747.780   117517028.631 7      1025.389    22362747.260   117517028.636 5      1025.389    22362753.000    91571743.724 5       799.005    22362753.220    91571742.719 7       799.005
> 2025 04 04 19 22 26.0000000  0  9
G03  21940726.040   115299287.230 7       289.025    21940725.300   115299287.229 7       289.025    21940733.380    89843629.156 7       225.214    21940732.960    89843629.154 7       225.214
G17  20523085.440   107849541.045 8      2874.445    20523084.360   107849541.047 6      2874.445    20523087.800    84038613.732 6      2239.827    20523088.020    84038614.732 8      2239.827
R04  19416370.760   103973783.095 8       851.826    19416372.760   103973783.135 7       851.826    19416380.020    80868537.938 7       662.532    19416380.440    80868540.941 8       662.532
G04  20456012.820   107497073.606 7      2695.582    20456010.800   107497073.618 6      2695.582    20456017.200    83763973.640 6      2100.453    20456017.500    83763975.647 8      2100.453
G09  20643283.300   108481188.596 7      4800.860    20643281.960   108481188.593 7      4800.860    20643288.920    84530823.288 7      3740.930    20643289.200    84530824.295 7      3740.930
R05  19727244.760   105453429.113 7      4751.081    19727244.200   105453429.109 7      4751.081    19727254.460    82019377.827 8      3695.285    19727254.260    82019376.826 8      3695.285
G19  21007425.780   110394763.055 7      4818.956    21007423.760   110394763.055 6      4818.956    21007427.420    86021902.739 6      3755.031
R18  21164565.800   112977884.200 7       604.979    21164566.360   112977884.193 7       604.979    21164579.700    87871744.655 7       470.539    21164579.880    87871746.657 7       470.539
G01  22362552.920   117516003.478 7      1025.211    22362552.060   117516003.483 5      1025.211    22362557.900    91570944.908 5       798.865    22362558.040    91570943.909 7       798.865
> 2025 04 04 19 22 27.0000000  0  9
G03  21940670.740   115298998.156 7       289.055    21940670.300   115298998.158 7       289.055    21940678.340    89843403.911 7       225.238    21940678.080    89843403.906 8       225.238
G17  20522538.440   107846666.782 8      2873.986    20522537.420   107846666.784 6      2873.986    20522540.900    84036374.051 6      2239.470    20522541.160    84036375.049 8      2239.470
R04  19416211.340   103972931.460 8       851.260    19416213.760   103972931.499 7       851.260    19416220.900    80867875.559 7       662.091    19416221.520    80867878.566 8       662.091
G04  20455499.840   107494378.111 7      2695.198    20455497.960   107494378.124 6      2695.198    20455504.160    83761873.268 6      2100.154    20455504.620    83761875.268 8      2100.154
G09  20642369.540   108476387.814 7      4800.593    20642368.480   108476387.819 7      4800.593    20642375.360    84527082.430 7      3740.722    20642375.620    84527083.436 7      3740.722
R05  19726355.780   105448678.184 7      4750.639    19726355.300   105448678.180 7      4750.639    19726365.640    82015682.671 8      3694.941    19726365.800    82015681.670 8      3694.941
G19  21006508.620   110389944.256 7      4818.592    21006506.600   110389944.256 6      4818.592    21006510.440    86018147.840 6      3754.747
R18  21164452.920   112977279.365 7       604.592    21164453.220   112977279.353 7       604.592    21164466.420    87871274.226 7       470.239    21164466.540    87871276.232 7       470.239
G01  22362357.920   117514978.153 7      1025.166    22362357.000   117514978.155 5      1025.166    22362362.760    91570145.955 5       798.831    22362363.320    91570144.954 7       798.831
> 2025 04 04 19 22 28.0000000  0  9
G03  21940615.760   115298708.687 7       289.668    21940615.240   115298708.689 7       289.668    21940623.340    89843178.354 7       225.715    21940623.060    89843178.348 7       225.715
G17  20521991.560   107843792.677 8      2874.094    20521990.520   107843792.677 6      2874.094    20521993.940    84034134.495 6      2239.553    20521994.260    84034135.492 8      2239.553
R04  19416052.580   103972080.059 8       851.323    19416054.620   103972080.096 7       851.323    19416061.860    80867213.365 8       662.140    19416062.160    80867216.370 8       662.140
G04  20454987.140   107491682.841 7      2695.278    20454985.000   107491682.853 6      2695.278    20454991.360    83759773.067 6      2100.217    20454991.780    83759775.069 8      2100.217
G09  20641456.040   108471587.147 7      4800.631    20641454.940   108471587.155 7      4800.631    20641461.800    84523341.668 7      3740.751    20641461.960    84523342.671 7      3740.751
R05  19725467.320   105443927.576 7      4750.497    19725466.680   105443927.577 7      4750.497    19725476.940    82011987.772 8      3694.831    19725476.780    82011986.771 8      3694.831
G19  21005591.760   110385125.575 7      4818.788    21005589.600   110385125.577 6      4818.788    21005593.460    86014393.032 6      3754.900
R18  21164339.620   112976674.602 7       604.735    21164340.140   112976674.595 7       604.735    21164353.300    87870803.859 7       470.350    21164353.180    87870805.863 7       470.350
G01  22362162.620   117513952.614 7      1025.719    22362161.880   117513952.616 5      1025.719    22362167.620    91569346.838 5       799.262    22362168.120    91569345.839 7       799.262
> 2025 04 04 19 22 29.0000000  0  9
G03  21940560.580   115298418.817 7       290.027    21940560.100   115298418.811 7       290.027    21940568.180    89842952.481 7       225.995    21940567.820    89842952.477 7       225.995
G17  20521444.600   107840918.690 8      2873.894    20521443.680   107840918.690 6      2873.894    20521447.020    84031895.033 6      2239.398    20521447.580    84031896.030 8      2239.398
R04  19415893.480   103971228.841 8       851.087    19415895.720   103971228.877 7       851.087    19415903.060    80866551.313 8       661.956    19415903.540    80866554.320 8       661.956
G04  20454474.300   107488987.756 7      2694.989    20454472.220   107488987.769 6      2694.989    20454478.500    83757673.007 6      2099.992    20454478.920    83757675.010 8      2099.992
G09  20640542.620   108466786.530 7      4800.519    20640541.440   108466786.538 7      4800.519    20640548.180    84519600.937 7      3740.664    20640548.780    84519601.943 7      3740.664
R05  19724578.740   105439177.227 7      4750.152    19724578.080   105439177.228 7      4750.152    19724588.280    82008293.065 8      3694.563    19724588.180    82008292.067 8      3694.563
G19  21004674.820   110380306.997 7      4818.561    21004672.760   110380306.999 6      4818.561    21004676.500    86010638.306 6      3754.723
R18  21164226.140   112976069.845 7       604.763    21164226.700   112976069.824 7       604.763    21164240.020    87870333.483 7       470.372    21164239.860    87870335.487 7       470.372
G01  22361967.460   117512926.852 7      1025.926    22361966.540   117512926.852 5      1025.926    22361972.300    91568547.547 5       799.423    22361973.240    91568546.544 7       799.423
> 2025 04 04 19 22 30.0000000  0  9
G03  21940505.260   115298128.410 7       290.534    21940504.880   115298128.413 7       290.534    21940512.900    89842726.202 7       226.390    21940512.460    89842726.200 7       226.390
G17  20520897.900   107838044.722 8      2873.832    20520896.800   107838044.721 6      2873.832    20520900.060    84029655.581 6      2239.349    20520900.660    84029656.585 8      2239.349
R04  19415734.940   103970377.722 8       850.884    19415736.740   103970377.758 7       850.884    19415744.060    80865889.339 8       661.799    19415744.480    80865892.345 8       661.799
G04  20453961.420   107486292.740 7      2694.846    20453959.380   107486292.750 6      2694.846    20453965.820    83755573.003 6      2099.880    20453966.060    83755575.007 8      2099.880
G09  20639629.180   108461985.843 7      4800.601    20639627.920   108461985.848 7      4800.601    20639634.760    84515860.154 7      3740.728    20639635.280    84515861.158 8      3740.728
R05  19723690.060   105434427.025 7      4750.003    19723689.620   105434427.027 7      4750.003    19723699.780    82004598.474 8      3694.447    19723699.560    82004597.474 8      3694.447
G19  21003757.940   110375488.394 7      4818.439    21003755.800   110375488.397 6      4818.439    21003759.520    86006883.557 6      3754.628
R18  21164112.780   112975465.031 7       604.595    21164113.340   112975465.016 7       604.595    21164126.600    87869863.083 7       470.241    21164126.760    87869865.087 7       470.241
G01  22361772.240   117511900.749 7      1026.107    22361771.340   117511900.751 5      1026.107    22361777.040    91567747.992 5       799.564    22361777.800    91567746.991 7       799.564
> 2025 04 04 19 22 31.0000000  0  9
G03  21940450.200   115297837.796 7       290.806    21940449.580   115297837.799 7       290.806    21940457.640    89842499.752 7       226.602    21940457.220    89842499.750 7       226.602
G17  20520351.040   107835171.069 8      2873.591    20520349.880   107835171.074 7      2873.591    20520353.300    84027416.383 6      2239.162    20520353.760    84027417.385 8      2239.162
R04  19415576.020   103969526.986 8       850.609    19415577.840   103969527.025 7       850.609    19415585.280    80865227.662 7       661.585    19415585.580    80865230.667 8       661.585
G04  20453448.600   107483598.095 7      2694.529    20453446.560   107483598.105 6      2694.529    20453452.940    83753473.287 6      2099.633    20453453.300    83753475.292 8      2099.633
G09  20638715.500   108457185.412 7      4800.416    20638714.220   108457185.417 7      4800.416    20638721.240    84512119.571 7      3740.584    20638721.460    84512120.577 8      3740.584
R05  19722801.400   105429677.264 7      4749.678    19722800.960   105429677.260 7      4749.678    19722811.280    82000904.226 8      3694.194    19722811.000    82000903.224 8      3694.194
G19  21002840.880   110370670.026 7      4818.437    21002838.820   110370670.028 6      4818.437    21002842.460    86003128.993 6      3754.627
R18  21163999.460   112974860.396 7       604.631    21164000.200   112974860.389 7       604.631    21164013.240    87869392.817 7       470.268    21164013.460    87869394.819 7       470.268
G01  22361576.920   117510874.590 7      1026.228    22361576.200   117510874.592 5      1026.228    22361581.880    91566948.398 5       799.658    22361582.220    91566947.389 7       799.658
> 2025 04 04 19 22 32.0000000  0  9
G03  21940394.620   115297546.896 7       290.975    21940394.260   115297546.896 7       290.975    21940402.260    89842273.082 7       226.734    21940402.040    89842273.081 7       226.734
G17  20519804.240   107832297.655 8      2873.303    20519803.160   107832297.654 6      2873.303    20519806.340    84025177.359 6      2238.937    20519807.020    84025178.359 8      2238.937
R04  19415417.260   103968676.584 8       850.268    19415419.200   103968676.612 7       850.268    19415426.260    80864566.241 8       661.320    19415427.020    80864569.244 8       661.320
G04  20452936.020   107480903.722 7      2694.248    20452933.800   107480903.735 6      2694.248    20452940.300    83751373.784 6      2099.414    20452940.580    83751375.793 8      2099.414
G09  20637802.120   108452385.158 7      4800.135    20637800.880   108452385.160 7      4800.135    20637807.740    84508379.126 7      3740.365    20637808.400    84508380.129 8      3740.365
R05  19721912.640   105424927.859 7      4749.240    19721912.280   105424927.858 7      4749.240    19721922.680    81997210.256 8      3693.854    19721922.640    81997209.257 8      3693.854
G19  21001924.120   110365851.897 7      4818.026    21001922.020   110365851.899 6      4818.026    21001925.700    85999374.617 6      3754.306
R18  21163885.740   112974255.932 7       604.404    21163886.840   112974255.930 7       604.404    21163900.100    87868922.685 7       470.092    21163899.880    87868924.691 7       470.092
G01  22361381.700   117509848.303 7      1026.342    22361380.900   117509848.308 5      1026.342    22361386.460    91566148.698 5       799.747    22361387.160    91566147.695 7       799.747
> 2025 04 04 19 22 33.0000000  0  9
G03  21940339.320   115297255.581 7       291.459    21940338.800   115297255.578 7       291.459    21940346.960    89842046.087 7       227.111    21940346.580    89842046.086 7       227.111
G17  20519257.760   107829424.383 8      2873.118    20519256.440   107829424.385 6      2873.118    20519259.600    84022938.456 6      2238.793    20519260.120    84022939.462 8      2238.793
R04  19415258.240   103967826.378 8       850.073    19415260.240   103967826.412 7       850.073    19415267.640    80863904.979 7       661.168    19415268.220    80863907.980 8       661.168
G04  20452423.060   107478209.558 7      2693.992    20452421.100   107478209.570 6      2693.992    20452427.620    83749274.446 6      2099.214    20452427.880    83749276.450 8      2099.214
G09  20636888.580   108447584.957 7      4800.097    20636887.420   108447584.964 7      4800.097    20636894.360    84504638.723 7      3740.335    20636894.820    84504639.725 7      3740.335
R05  19721024.220   105420178.726 8      4748.935    19721023.900   105420178.728 7      4748.935    19721034.420    81993516.503 8      3693.616    19721034.240    81993515.503 8      3693.616
G19  21001007.560   110361033.857 7      4817.895    21001005.260   110361033.857 6      4817.895    21001008.880    85995620.306 6      3754.204
R18  21163772.780   112973651.572 7       604.197    21163773.740   112973651.554 7       604.197    21163786.620    87868452.621 7       469.931    21163786.780    87868454.623 7       469.931
G01  22361186.580   117508821.787 7      1026.592    22361185.620   117508821.792 5      1026.592    22361191.260    91565348.819 5       799.942    22361191.940    91565347.821 7       799.942
> 2025 04 04 19 22 34.0000000  0  9
G03  21940283.840   115296963.997 7       291.764    21940283.340   115296963.997 7       291.764    21940291.380    89841818.888 7       227.349    21940291.060    89841818.884 8       227.349
G17  20518710.840   107826551.376 8      2872.836    20518709.580   107826551.378 6      2872.836    20518712.920    84020699.758 6      2238.574    20518713.420    84020700.759 8      2238.574
R04  19415099.720   103966976.488 8       849.764    19415101.200   103966976.519 7       849.764    19415109.040    80863243.960 7       660.927    19415109.360    80863246.967 8       660.927
G04  20451910.640   107475515.700 7      2693.723    20451908.580   107475515.710 6      2693.723    20451914.960    83747175.346 6      2099.005    20451915.240    83747177.353 8      2099.005
G09  20635975.160   108442784.955 7      4799.969    20635973.960   108442784.960 7      4799.969    20635980.920    84500898.472 7      3740.235    20635981.300    84500899.476 8      3740.235
R05  19720135.920   105415429.994 7      4748.542    19720135.660   105415429.996 7      4748.542    19720146.000    81989823.057 8      3693.311    19720145.660    81989822.058 8      3693.311
G19  21000090.560   110356216.022 7      4817.787    21000088.380   110356216.017 6      4817.787    21000092.180    85991866.157 6      3754.120
R18  21163659.480   112973047.316 7       604.239    21163660.520   112973047.314 7       604.239    21163673.640    87867982.656 7       469.964    21163673.660    87867984.661 7       469.964
G01  22360991.080   117507795.195 7      1026.632    22360990.240   117507795.199 5      1026.632    22360995.880    91564548.882 5       799.973    22360996.600    91564547.877 7       799.973
> 2025 04 04 19 22 35.0000000  0  9
G03  21940228.200   115296672.033 7       292.043    21940227.760   115296672.030 7       292.043    21940235.860    89841591.385 7       227.566    21940235.540    89841591.383 8       227.566
G17  20518164.200   107823678.490 8      2872.686    20518163.080   107823678.495 6      2872.686    20518166.340    84018461.152 6      2238.457    20518166.620    84018462.155 8      2238.457
R04  19414941.300   103966126.755 8       849.567    19414942.620   103966126.792 7       849.567    19414950.360    80862583.068 8       660.775    19414950.880    80862586.073 8       660.775
G04  20451398.140   107472822.030 7      2693.421    20451396.000   107472822.040 6      2693.421    20451402.400    83745076.392 6      2098.770    20451402.700    83745078.395 8      2098.770
G09  20635061.800   108437985.018 7      4799.792    20635060.760   108437985.028 7      4799.792    20635067.560    84497158.277 7      3740.098    20635068.140    84497159.284 7      3740.098
R05  19719247.540   105410681.525 7      4748.285    19719247.100   105410681.523 7      4748.285    19719257.640    81986129.811 8      3693.110    19719257.600    81986128.814 8      3693.110
G19  20999173.960   110351398.287 7      4817.531    20999171.580   110351398.287 6      4817.531    20999175.180    85988112.088 6      3753.920
R18  21163546.620   112972443.143 7       604.078    21163547.460   112972443.127 7       604.078    21163560.240    87867512.742 7       469.838    21163560.540    87867514.744 7       469.838
G01  22360795.620   117506768.340 7      1026.877    22360794.900   117506768.344 5      1026.877    22360800.560    91563748.741 5       800.164    22360800.960    91563747.738 7       800.164
> 2025 04 04 19 22 36.0000000  0  9
G03  21940172.700   115296379.742 7       292.686    21940172.240   115296379.737 7       292.686    21940180.280    89841363.628 7       228.067    21940179.700    89841363.624 7       228.067
G17  20517617.500   107820805.862 8      2872.604    20517616.580   107820805.864 6      2872.604    20517619.720    84016222.748 6      2238.392    20517619.920    84016223.748 8      2238.392
R04  19414782.580   103965277.358 8       849.375    19414784.160   103965277.397 7       849.375    19414791.640    80861922.433 7       660.625    19414792.280    80861925.436 8       660.625
G04  20450885.480   107470128.645 7      2693.362    20450883.580   107470128.658 6      2693.362    20450889.840    83742977.661 6      2098.724    20450889.980    83742979.664 8      2098.724
G09  20634148.620   108433185.261 7      4799.789    20634147.200   108433185.268 7      4799.789    20634154.120    84493418.216 7      3740.096    20634154.960    84493419.224 7      3740.096
R05  19718359.780   105405933.432 7      4748.063    19718359.020   105405933.430 7      4748.063    19718369.480    81982436.862 8      3692.938    19718369.380    81982435.863 8      3692.938
G19  20998257.200   110346580.757 7      4817.535    20998254.960   110346580.757 6      4817.535    20998258.340    85984358.177 6      3753.923
R18  21163433.800   112971839.095 7       604.012    21163434.020   112971839.090 7       604.012    21163447.240    87867042.935 7       469.787    21163447.360    87867044.937 7       469.787
G01  22360600.000   117505741.401 7      1027.055    22360599.600   117505741.403 5      1027.055    22360605.140    91562948.535 5       800.303    22360605.760    91562947.528 7       800.303
> 2025 04 04 19 22 37.0000000  0  9
G03  21940116.920   115296087.123 7       292.828    21940116.620   115296087.123 7       292.828    21940124.680    89841135.622 7       228.177    21940124.240    89841135.620 7       228.177
G17  20517070.820   107817933.396 8      2872.391    20517069.900   107817933.396 6      2872.391    20517072.980    84013984.468 6      2238.227    20517073.560    84013985.465 8      2238.227
R04  19414624.200   103964428.225 7       848.990    19414625.560   103964428.259 7       848.990    19414633.220    80861262.001 8       660.325    19414633.540    80861265.004 8       660.325
G04  20450372.820   107467435.492 7      2693.040    20450371.000   107467435.505 6      2693.040    20450377.300    83740879.105 6      2098.473    20450377.780    83740881.115 8      2098.473
G09  20633235.320   108428385.595 7      4799.645    20633233.920   108428385.608 7      4799.645    20633240.800    84489678.231 7      3739.983    20633241.280    84489679.239 8      3739.983
R05  19717471.440   105401185.627 7      4747.680    19717471.000   105401185.620 7      4747.680    19717481.160    81978744.134 8      3692.640    19717481.100    81978743.137 8      3692.640
G19  20997340.400   110341763.340 7      4817.405    20997338.240   110341763.340 6      4817.405    20997341.700    85980604.355 6      3753.822
R18  21163320.160   112971235.138 6       603.941    21163321.020   112971235.117 7       603.941    21163333.860    87866573.187 7       469.732    21163334.100    87866575.189 7       469.732
G01  22360404.620   117504714.228 7      1027.319    22360404.160   117504714.230 5      1027.319    22360409.580    91562148.143 5       800.509    22360410.460    91562147.137 7       800.509
> 2025 04 04 19 22 38.0000000  0  9
G03  21940061.380   115295794.189 7       293.095    21940060.760   115295794.197 7       293.095    21940068.780    89840907.374 7       228.386    21940068.500    89840907.368 7       228.386
G17  20516524.360   107815061.152 8      2872.240    20516523.260   107815061.154 6      2872.240    20516526.440    84011746.361 6      2238.109    20516526.700    84011747.360 8      2238.109
R04  19414465.420   103963579.417 7       848.684    19414466.960   103963579.456 7       848.684    19414474.860    80860601.823 8       660.088    19414475.260    80860604.822 8       660.088
G04  20449860.180   107464742.617 7      2692.817    20449858.500   107464742.628 6      2692.817    20449864.960    83738780.769 6      2098.299    20449865.320    83738782.774 8      2098.299
G09  20632321.880   108423586.100 7      4799.526    20632320.660   108423586.103 7      4799.526    20632327.520    84485938.371 7      3739.890    20632327.900    84485939.377 8      3739.890
R05  19716583.340   105396438.162 7      4747.375    19716582.900   105396438.150 7      4747.375    19716593.180    81975051.669 8      3692.403    19716592.940    81975050.668 8      3692.403
G19  20996423.640   110336946.133 7      4817.145    20996421.360   110336946.135 6      4817.145    20996425.020    85976850.696 6      3753.619
R18  21163206.920   112970631.338 7       603.858    21163207.620   112970631.331 7       603.858    21163220.740    87866103.567 7       469.668    21163220.780    87866105.569 7       469.668
G01  22360209.080   117503686.950 7      1027.444    22360208.560   117503686.949 5      1027.444    22360214.100    91561347.672 5       800.606    22360214.940    91561346.661 7       800.606
> 2025 04 04 19 22 39.0000000  0  9
G03  21940005.220   115295500.740 7       293.490    21940004.960   115295500.740 7       293.490    21940012.980    89840678.712 7       228.694    21940012.740    89840678.712 7       228.694
G17  20515977.880   107812188.936 8      2872.034    20515976.740   107812188.941 6      2872.034    20515979.880    84009508.281 6      2237.949    20515980.240    84009509.280 8      2237.949
R04  19414306.580   103962730.702 8       848.449    19414308.540   103962730.739 7       848.449    19414316.280    80859941.716 7       659.905    19414316.720    80859944.719 8       659.905
G04  20449347.740   107462049.816 7      2692.588    20449345.960   107462049.824 6      2692.588    20449352.600    83736682.491 6      2098.120    20449352.920    83736684.501 8      2098.120
G09  20631408.500   108418786.542 7      4799.455    20631407.320   108418786.550 7      4799.455    20631414.140    84482198.470 7      3739.835    20631414.800    84482199.474 7      3739.835
R05  19715695.340   105391690.842 7      4747.001    19715694.700   105391690.837 7      4747.001    19715705.120    81971359.328 8      3692.112    19715705.000    81971358.324 8      3692.112
G19  20995506.940   110332128.889 7      4817.085    20995504.880   110332128.892 6      4817.085    20995508.320    85973097.010 6      3753.573
R18  21163093.900   112970027.461 6       603.751    21163094.440   112970027.449 7       603.751    21163107.720    87865633.885 7       469.584    21163107.740    87865635.889 7       469.584
G01  22360013.380   117502659.325 7      1027.603    22360012.880   117502659.327 5      1027.603    22360018.540    91560546.930 5       800.730    22360019.060    91560545.923 7       800.730
> 2025 04 04 19 22 40.0000000  0  9
G03  21939949.340   115295206.992 7       294.010    21939949.140   115295206.994 7       294.010    21939957.140    89840449.821 7       229.099    21939956.640    89840449.823 7       229.099
G17  20515431.300   107809316.972 8      2871.984    20515430.180   107809316.977 6      2871.984    20515433.280    84007270.391 6      2237.910    20515433.700    84007271.391 8      2237.910
R04  19414148.360   103961882.276 8       848.439    19414149.880   103961882.313 7       848.439    19414157.540    80859281.840 8       659.897    19414157.900    80859284.843 8       659.897
G04  20448835.240   107459357.315 7      2692.482    20448833.560   107459357.325 6      2692.482    20448840.140    83734584.450 6      2098.038    20448840.460    83734586.452 8      2098.038
G09  20630495.340   108413987.155 7      4799.566    20630494.020   108413987.158 7      4799.566    20630500.920    84478458.696 7      3739.921    20630501.320    84478459.702 7      3739.921
R05  19714807.080   105386943.908 7      4746.840    19714806.720   105386943.904 7      4746.840    19714817.140    81967667.277 8      3691.987    19714817.040    81967666.280 8      3691.987
G19  20994590.220   110327311.853 7      4817.125    20994588.320   110327311.855 6      4817.125    20994591.680    85969343.483 6      3753.604
R18  21162980.940   112969423.726 6       603.829    21162981.620   112969423.703 7       603.829    21162994.580    87865164.313 7       469.645    21162994.580    87865166.317 7       469.645
G01  22359817.900   117501631.566 7      1028.008    22359817.320   117501631.568 5      1028.008    22359823.000    91559746.081 5       801.045    22359823.380    91559745.080 7       801.045
> 2025 04 04 19 22 41.0000000  0  9
G03  21939893.460   115294912.870 7       294.284    21939893.080   115294912.872 7       294.284    21939901.080    89840220.642 7       229.312    21939900.660    89840220.638 7       229.312
G17  20514884.980   107806445.161 8      2871.636    20514883.860   107806445.163 6      2871.636    20514886.780    84005032.623 6      2237.639    20514887.140    84005033.626 8      2237.639
R04  19413990.020   103961034.068 8       848.101    19413991.460   103961034.099 7       848.101    19413999.420    80858622.124 7       659.634    19413999.860    80858625.123 8       659.634
G04  20448323.120   107456665.021 7      2692.103    20448321.300   107456665.028 6      2692.103    20448327.800    83732486.565 6      2097.743    20448328.360    83732488.569 8      2097.743
G09  20629581.860   108409187.876 7      4799.217    20629580.740   108409187.883 7      4799.217    20629587.620    84474719.010 7      3739.649    20629587.920    84474720.014 8      3739.649
R05  19713919.020   105382197.275 8      4746.495    19713919.020   105382197.265 7      4746.495    19713929.060    81963975.461 8      3691.718    19713928.860    81963974.462 8      3691.718
G19  20993673.660   110322494.935 7      4816.830    20993671.580   110322494.940 6      4816.830    20993675.080    85965590.053 6      3753.374
R18  21162868.080   112968820.041 6       603.776    21162868.000   112968820.015 6       603.776    21162881.480    87864694.778 7       469.603    21162881.400    87864696.782 7       469.603
G01  22359622.320   117500603.623 7      1028.008    22359621.820   117500603.626 5      1028.008    22359627.440    91558945.093 5       801.045    22359627.780    91558944.086 7       801.045
> 2025 04 04 19 22 42.0000000  0  9
G03  21939837.200   115294618.386 7       294.806    21939836.980   115294618.396 7       294.806    21939845.120    89839991.182 7       229.719    21939845.140    89839991.178 7       229.719
G17  20514338.340   107803573.518 8      2871.664    20514337.360   107803573.520 6      2871.664    20514340.380    84002794.983 6      2237.661    20514340.640    84002795.982 8      2237.661
R04  19413831.840   103960186.092 7       848.004    19413833.160   103960186.123 7       848.004    19413841.260    80857962.587 7       659.558    19413841.360    80857965.592 8       659.558
G04  20447811.060   107453972.950 7      2692.001    20447809.060   107453972.963 6      2692.001    20447815.460    83730388.857 6      2097.663    20447816.060    83730390.862 8      2097.663
G09  20628668.600   108404388.699 7      4799.262    20628667.460   108404388.707 7      4799.262    20628674.420    84470979.402 7      3739.685    20628674.640    84470980.410 7      3739.685
R05  19713031.480   105377450.964 7      4746.337    19713031.000   105377450.958 7      4746.337    19713041.220    81960283.897 8      3691.596    19713041.140    81960282.898 8      3691.596
G19  20992757.040   110317678.149 7      4816.871    20992754.880   110317678.154 6      4816.871    20992758.520    85961836.719 6      3753.406
R18  21162755.200   112968216.498 7       603.627    21162754.900   112968216.477 6       603.627    21162768.600    87864225.364 7       469.488    21162768.500    87864227.368 7       469.488
G01  22359426.600   117499575.478 7      1028.364    22359426.240   117499575.483 5      1028.364    22359431.840    91558143.943 5       801.323    22359432.340    91558142.946 7       801.323
> 2025 04 04 19 22 43.0000000  0  9
G03  21939781.100   115294323.360 7       295.174    21939780.940   115294323.360 7       295.174    21939789.000    89839761.291 7       230.006    21939788.820    89839761.292 8       230.006
G17  20513791.700   107800701.859 8      2871.510    20513790.900   107800701.861 6      2871.510    20513794.000    84000557.335 6      2237.540    20513794.460    84000558.336 8      2237.540
R04  19413673.660   103959338.178 8       847.693    19413674.740   103959338.206 7       847.693    19413682.780    80857303.106 8       659.317    19413683.000    80857306.105 8       659.317
G04  20447298.600   107451280.917 7      2691.809    20447296.760   107451280.929 6      2691.809    20447303.280    83728291.175 6      2097.513    20447303.640    83728293.186 8      2097.513
G09  20627755.380   108399589.430 7      4799.208    20627754.280   108399589.430 7      4799.208    20627761.080    84467239.720 7      3739.643    20627761.620    84467240.726 8      3739.643
R05  19712143.300   105372704.766 8      4746.017    19712143.160   105372704.762 7      4746.017    19712153.300    81956592.422 8      3691.347    19712153.080    81956591.423 8      3691.347
G19  20991840.380   110312861.296 7      4816.780    20991838.240   110312861.301 6      4816.780    20991841.840    85958083.336 6      3753.335
R18  21162642.060   112967612.829 7       603.472    21162641.500   112967612.811 6       603.472    21162655.660    87863755.848 7       469.367    21162655.360    87863757.850 7       469.367
G01  22359231.020   117498546.965 7      1028.542    22359230.600   117498546.968 5      1028.542    22359236.060    91557342.508 5       801.461    22359236.820    91557341.507 7       801.461
> 2025 04 04 19 22 44.0000000  0  9
G03  21939724.900   115294028.085 7       295.660    21939724.800   115294028.087 7       295.660    21939732.820    89839531.213 7       230.384    21939732.680    89839531.213 7       230.384
G17  20513245.400   107797830.508 8      2871.361    20513244.460   107797830.507 6      2871.361    20513247.520    83998319.924 6      2237.424    20513248.140    83998320.924 8      2237.424
R04  19413515.100   103958490.654 8       847.528    19413516.460   103958490.686 7       847.528    19413524.520    80856643.928 8       659.188    19413524.840    80856646.929 8       659.188
G04  20446786.420   107448589.243 7      2691.609    20446784.640   107448589.253 6      2691.609    20446791.080    83726193.777 6      2097.357    20446791.560    83726195.780 8      2097.357
G09  20626842.100   108394790.395 7      4799.171    20626840.960   108394790.397 7      4799.171    20626847.940    84463500.227 7      3739.614    20626848.520    84463501.230 8      3739.614
R05  19711255.500   105367958.999 7      4745.704    19711255.340   105367958.992 7      4745.704    19711265.520    81952901.280 8      3691.103    19711265.280    81952900.278 8      3691.103
G19  20990923.920   110308044.720 7      4816.699    20990921.640   110308044.722 6      4816.699    20990925.140    85954330.164 6      3753.272
R18  21162529.120   112967009.355 7       603.551    21162528.740   112967009.335 6       603.551    21162542.220    87863286.475 7       469.429    21162542.320    87863288.481 7       469.429
G01  22359035.160   117497518.384 7      1028.750    22359034.980   117497518.389 5      1028.750    22359040.180    91556541.024 5       801.624    22359041.040    91556540.021 7       801.624
> 2025 04 04 19 22 45.0000000  0  9
G03  21939668.700   115293732.387 7       295.899    21939668.560   115293732.389 7       295.899    21939676.600    89839300.803 7       230.571    21939676.280    89839300.799 8       230.571
G17  20512698.940   107794959.251 8      2871.083    20512698.180   107794959.253 6      2871.083    20512701.180    83996082.585 6      2237.207    20512701.820    83996083.587 8      2237.207
R04  19413356.780   103957643.319 8       847.204    19413358.120   103957643.352 7       847.204    19413366.260    80855984.897 7       658.937    19413366.580    80855987.896 8       658.937
G04  20446274.180   107445897.698 7      2691.348    20446272.320   107445897.710 6      2691.348    20446278.860    83724096.479 6      2097.154    20446279.260    83724098.482 8      2097.154
G09  20625928.920   108389991.379 7      4799.043    20625927.620   108389991.378 7      4799.043    20625934.620    84459760.740 7      3739.514    20625934.980    84459761.747 7      3739.514
R05  19710367.900   105363213.415 8      4745.375    19710367.380   105363213.414 8      4745.375    19710377.800    81949210.285 8      3690.847    19710377.580    81949209.284 8      3690.847
G19  20990007.280   110303228.204 7      4816.347    20990005.300   110303228.209 6      4816.347    20990008.580    85950577.044 6      3752.998
R18  21162415.960   112966405.865 6       603.457    21162415.180   112966405.847 6       603.457    21162429.220    87862817.102 7       469.355    21162429.200    87862819.104 7       469.355
G01  22358839.360   117496489.522 7      1028.965    22358839.000   117496489.527 5      1028.965    22358844.420    91555739.320 5       801.791    22358845.300    91555738.311 7       801.791
> 2025 04 04 19 22 46.0000000  0  9
G03  21939612.480   115293436.392 7       296.086    21939612.160   115293436.396 7       296.086    21939620.280    89839070.161 7       230.716    21939619.780    89839070.160 7       230.716
G17  20512152.480   107792088.217 8      2870.898    20512151.920   107792088.220 6      2870.898    20512154.860    83993845.421 6      2237.063    20512155.480    83993846.426 8      2237.063
R04  19413198.880   103956796.283 8       846.847    19413199.800   103956796.322 7       846.847    19413208.340    80855326.100 8       658.659    19413208.300    80855329.103 8       658.659
G04  20445762.160   107443206.449 7      2691.108    20445760.140   107443206.457 6      2691.108    20445766.840    83721999.407 6      2096.967    20445767.100    83722001.410 8      2096.967
G09  20625015.760   108385192.551 7      4798.722    20625014.560   108385192.556 7      4798.722    20625021.500    84456021.406 7      3739.264    20625021.700    84456022.413 7      3739.264
R05  19709480.320   105358468.225 8      4745.030    19709479.940   105358468.213 8      4745.030    19709490.060    81945519.583 8      3690.579    19709489.700    81945518.584 8      3690.579
G19  20989090.820   110298411.849 7      4816.328    20989088.660   110298411.851 6      4816.328    20989092.060    85946824.046 6      3752.983
R18  21162302.740   112965802.538 7       603.245    21162302.480   112965802.512 6       603.245    21162316.380    87862347.844 7       469.191    21162316.280    87862349.848 7       469.191
G01  22358643.680   117495460.536 7      1029.121    22358643.140   117495460.541 5      1029.121    22358648.600    91554937.515 5       801.912    22358649.640    91554936.512 7       801.912
> 2025 04 04 19 22 47.0000000  0  9
G03  21939556.200   115293139.968 7       296.564    21939555.740   115293139.970 7       296.564    21939563.860    89838839.186 7       231.089    21939563.520    89838839.182 8       231.089
G17  20511606.200   107789217.310 8      2870.846    20511605.580   107789217.312 7      2870.846    20511608.600    83991608.356 6      2237.023    20511609.200    83991609.355 8      2237.023
R04  19413040.500   103955949.407 8       846.728    19413041.800   103955949.444 7       846.728    19413049.940    80854667.423 8       658.566    19413050.280    80854670.424 8       658.566
G04  20445250.200   107440515.372 7      2690.969    20445248.100   107440515.380 6      2690.969    20445254.740    83719902.468 6      2096.859    20445254.980    83719904.472 8      2096.859
G09  20624102.360   108380393.747 7      4798.783    20624101.280   108380393.750 7      4798.783    20624108.260    84452282.090 7      3739.311    20624108.520    84452283.096 8      3739.311
R05  19708592.700   105353723.267 8      4744.750    19708592.220   105353723.252 8      4744.750    19708602.460    81941829.069 8      3690.361    19708602.260    81941828.070 8      3690.361
G19  20988174.380   110293595.619 7      4816.057    20988172.300   110293595.621 6      4816.057    20988175.600    85943071.152 6      3752.772
R18  21162189.300   112965199.251 7       603.211    21162189.100   112965199.225 7       603.211    21162203.180    87861878.621 7       469.164    21162203.240    87861880.625 7       469.164
G01  22358447.820   117494431.329 7      1029.251    22358447.300   117494431.334 5      1029.251    22358452.820    91554135.542 5       802.014    22358453.840    91554134.536 7       802.014
> 2025 04 04 19 22 48.0000000  0  9
G03  21939499.700   115292843.408 7       296.565    21939499.260   115292843.408 7       296.565    21939507.340    89838608.103 7       231.090    21939507.120    89838608.101 7       231.090
G17  20511060.000   107786346.821 8      2870.219    20511059.300   107786346.823 6      2870.219    20511062.240    83989371.617 6      2236.534    20511063.000    83989372.621 8      2236.534
R04  19412882.580   103955102.995 8       846.115    19412883.760   103955103.023 7       846.115    19412891.780    80854009.107 8       658.089    19412892.040    80854012.108 8       658.089
G04  20444738.220   107437824.739 7      2690.400    20444736.000   107437824.751 6      2690.400    20444742.860    83717805.882 6      2096.416    20444742.960    83717807.889 8      2096.416
G09  20623189.520   108375595.288 7      4798.192    20623188.240   108375595.293 7      4798.192    20623195.200    84448543.043 7      3738.851    20623195.580    84448544.047 8      3738.851
R05  19707705.000   105348978.820 8      4744.121    19707704.660   105348978.816 8      4744.121    19707714.800    81938138.962 8      3689.872    19707714.720    81938137.963 8      3689.872
G19  20987257.900   110288779.721 7      4815.626    20987255.840   110288779.726 6      4815.626    20987259.140    85939318.510 6      3752.436
R18  21162076.660   112964596.287 7       602.755    21162076.040   112964596.256 7       602.755    21162090.400    87861409.644 7       468.809    21162090.400    87861411.651 7       468.809
G01  22358252.120   117493402.133 7      1029.166    22358251.460   117493402.138 5      1029.166    22358256.900    91553333.573 5       801.948    22358258.180    91553332.570 7       801.948
> 2025 04 04 19 22 49.0000000  0  9
G03  21939443.100   115292546.396 7       297.357    21939442.800   115292546.398 7       297.357    21939450.840    89838376.669 7       231.707    21939450.520    89838376.669 8       231.707
G17  20510513.860   107783476.394 8      2870.515    20510513.120   107783476.396 6      2870.515    20510515.980    83987134.929 6      2236.765    20510516.840    83987135.931 8      2236.765
R04  19412724.540   103954256.741 8       846.278    19412725.460   103954256.769 7       846.278    19412733.960    80853350.909 8       658.216    19412733.960    80853353.912 8       658.216
G04  20444226.060   107435134.239 7      2690.698    20444224.120   107435134.250 6      2690.698    20444230.800    83715709.396 6      2096.648    20444231.080    83715711.402 8      2096.648
G09  20622276.100   108370796.828 7      4798.627    20622275.140   108370796.830 7      4798.627    20622282.120    84444803.990 7      3739.190    20622282.620    84444804.998 8      3739.190
R05  19706817.460   105344234.589 8      4744.289    19706817.260   105344234.585 8      4744.289    19706827.160    81934449.015 8      3690.002    19706827.020    81934448.014 8      3690.002
G19  20986341.500   110283963.872 7      4815.911    20986339.340   110283963.877 6      4815.911    20986342.580    85935565.907 6      3752.658
R18  21161963.580   112963993.296 7       603.064    21161963.180   112963993.284 7       603.064    21161977.460    87860940.664 7       469.050    21161977.460    87860942.668 7       469.050
G01  22358056.060   117492372.666 7      1029.797    22358055.600   117492372.669 5      1029.797    22358061.040    91552531.393 5       802.439    22358062.240    91552530.394 7       802.439
> 2025 04 04 19 22 50.0000000  0  9
G03  21939386.400   115292248.916 7       297.588    21939386.240   115292248.927 7       297.588    21939394.280    89838144.879 7       231.887    21939393.840    89838144.877 8       231.887
G17  20509967.620   107780606.054 8      2870.219    20509966.960   107780606.057 6      2870.219    20509969.820    83984898.307 6      2236.534    20509970.200    83984899.308 8      2236.534
R04  19412566.560   103953410.626 8       845.936    19412567.380   103953410.660 7       845.936    19412575.900    80852692.832 8       657.950    19412575.960    80852695.831 8       657.950
G04  20443714.160   107432443.890 7      2690.267    20443712.140   107432443.897 6      2690.267    20443718.840    83713613.030 6      2096.312    20443719.240    83713615.034 8      2096.312
G09  20621363.200   108365998.392 7      4798.312    20621361.920   108365998.397 7      4798.312    20621369.040    84441064.963 7      3738.945    20621369.720    84441065.969 8      3738.945
R05  19705929.940   105339490.575 8      4743.853    19705929.720   105339490.570 8      4743.853    19705939.880    81930759.241 8      3689.663    19705939.680    81930758.237 8      3689.663
G19  20985425.000   110279148.047 7      4815.845    20985422.960   110279148.050 6      4815.845    20985426.200    85931813.319 6      3752.606
R18  21161850.540   112963390.270 7       602.953    21161850.300   112963390.253 7       602.953    21161864.500    87860471.644 7       468.963    21161864.760    87860473.646 7       468.963
G01  22357860.160   117491342.924 7      1029.790    22357859.500   117491342.929 5      1029.790    22357865.180    91551729.004 5       802.433    22357866.140    91551727.997 7       802.433
> 2025 04 04 19 22 51.0000000  0  9
G03  21939329.720   115291951.353 7       297.775    21939329.640   115291951.363 7       297.775    21939337.760    89837913.015 7       232.033    21939337.080    89837913.013 8       232.033
G17  20509421.600   107777736.161 8      2869.899    20509420.820   107777736.166 6      2869.899    20509423.760    83982662.033 6      2236.285    20509423.960    83982663.030 8      2236.285
R04  19412408.400   103952565.049 8       845.541    19412409.300   103952565.078 7       845.541    19412417.980    80852035.165 8       657.643    19412418.440    80852038.166 8       657.643
G04  20443202.080   107429754.029 7      2689.859    20443200.440   107429754.036 6      2689.859    20443206.940    83711517.036 6      2095.994    20443207.300    83711519.045 8      2095.994
G09  20620450.120   108361200.329 7      4798.006    20620448.860   108361200.337 7      4798.006    20620456.020    84437326.223 7      3738.706    20620456.520    84437327.227 8      3738.706
R05  19705042.540   105334747.143 8      4743.326    19705042.260   105334747.141 7      4743.326    19705052.500    81927069.913 8      3689.254    19705052.480    81927068.912 8      3689.254
G19  20984508.700   110274332.648 7      4815.412    20984506.720   110274332.650 6      4815.412    20984509.880    85928061.070 6      3752.269
R18  21161738.280   112962787.611 7       602.642    21161737.300   112962787.590 7       602.642    21161751.640    87860002.909 7       468.722    21161751.560    87860004.911 7       468.722
G01  22357664.340   117490313.252 7      1029.837    22357663.400   117490313.260 5      1029.837    22357669.340    91550926.667 5       802.470    22357670.040    91550925.658 7       802.470
> 2025 04 04 19 22 52.0000000  0  9
G03  21939273.060   115291653.316 7       298.179    21939272.920   115291653.321 7       298.179    21939280.920    89837680.781 7       232.348    21939280.460    89837680.775 8       232.348
G17  20508875.460   107774866.321 8      2869.719    20508874.740   107774866.323 7      2869.719    20508877.580    83980425.800 7      2236.145    20508878.040    83980426.803 8      2236.145
R04  19412250.580   103951719.598 8       845.265    19412251.260   103951719.627 7       845.265    19412260.040    80851377.592 7       657.428    19412260.340    80851380.596 8       657.428
G04  20442690.420   107427064.268 7      2689.600    20442688.700   107427064.278 6      2689.600    20442695.140    83709421.127 6      2095.793    20442695.380    83709423.133 8      2095.793
G09  20619537.060   108356402.235 7      4798.067    20619535.860   108356402.237 7      4798.067    20619542.960    84433587.457 7      3738.754    20619543.240    84433588.462 8      3738.754
R05  19704154.960   105330003.882 8      4743.073    19704155.040   105330003.883 8      4743.073    19704165.080    81923380.725 8      3689.057    19704164.960    81923379.723 8      3689.057
G19  20983592.320   110269517.270 7      4815.182    20983590.420   110269517.272 6      4815.182    20983593.600    85924308.835 6      3752.090
R18  21161625.380   112962184.908 7       602.641    21161624.400   112962184.888 7       602.641    21161638.560    87859534.140 7       468.721    21161638.560    87859536.146 7       468.721
G01  22357468.240   117489283.265 7      1030.077    22357467.300   117489283.275 5      1030.077    22357473.540    91550124.082 5       802.658    22357474.180    91550123.076 7       802.658
> 2025 04 04 19 22 53.0000000  0  9
G03  21939216.300   115291355.003 7       298.459    21939216.160   115291355.006 7       298.459    21939224.220    89837448.329 7       232.566    21939223.820    89837448.327 8       232.566
G17  20508329.540   107771996.753 8      2869.355    20508328.680   107771996.758 6      2869.355    20508331.600    83978189.779 6      2235.861    20508332.140    83978190.779 8      2235.861
R04  19412093.000   103950874.455 8       844.992    19412093.840   103950874.481 7       844.992    19412102.120    80850720.261 8       657.216    19412102.400    80850723.264 8       657.216
G04  20442178.580   107424374.843 7      2689.114    20442176.940   107424374.853 6      2689.114    20442183.280    83707325.479 6      2095.414    20442183.600    83707327.486 8      2095.414
G09  20618623.940   108351604.372 7      4797.671    20618622.860   108351604.377 7      4797.671    20618629.900    84429848.872 7      3738.445    20618630.460    84429849.878 8      3738.445
R05  19703267.900   105325261.046 8      4742.513    19703267.820   105325261.045 8      4742.513    19703277.840    81919691.857 8      3688.621    19703277.720    81919690.855 8      3688.621
G19  20982676.140   110264702.094 7      4815.013    20982674.180   110264702.094 6      4815.013    20982677.260    85920556.754 6      3751.958
R18  21161512.620   112961582.392 7       602.353    21161511.400   112961582.383 7       602.353    21161525.860    87859065.529 7       468.497    21161525.640    87859067.531 7       468.497
G01  22357272.280   117488253.197 7      1030.138    22357271.300   117488253.202 5      1030.138    22357277.440    91549321.429 5       802.705    22357278.240    91549320.422 7       802.705
> 2025 04 04 19 22 54.0000000  0  9
G03  21939159.540   115291056.349 7       298.633    21939159.300   115291056.354 7       298.633    21939167.300    89837215.618 7       232.701    21939167.020    89837215.618 8       232.701
G17  20507783.640   107769127.365 8      2869.112    20507782.740   107769127.367 7      2869.112    20507785.640    83975953.892 6      2235.672    20507786.060    83975954.895 8      2235.672
R04  19411935.180   103950029.569 8       844.617    19411936.060   103950029.587 7       844.617    19411944.520    80850063.130 7       656.924    19411944.580    80850066.133 8       656.924
G04  20441667.000   107421685.618 7      2688.899    20441665.100   107421685.631 6      2688.899    20441671.640    83705229.988 6      2095.246    20441671.940    83705231.998 8      2095.246
G09  20617710.980   108346806.614 7      4797.387    20617709.880   108346806.619 7      4797.387    20617716.920    84426110.374 7      3738.223    20617717.480    84426111.379 8      3738.223
R05  19702380.900   105320518.499 8      4742.198    19702380.520   105320518.498 8      4742.198    19702390.580    81916003.224 8      3688.376    19702390.520    81916002.222 8      3688.376
G19  20981759.800   110259887.076 7      4814.748    20981757.900   110259887.075 6      4814.748    20981760.840    85916804.800 6      3751.752
R18  21161399.500   112960979.986 7       602.115    21161398.140   112960979.976 7       602.115    21161413.080    87858596.993 7       468.312    21161412.720    87858598.993 7       468.312
G01  22357076.140   117487222.960 7      1030.090    22357075.260   117487222.963 5      1030.090    22357081.460    91548518.653 5       802.667    22357082.000    91548517.650 7       802.667
> 2025 04 04 19 22 55.0000000  0  9
G03  21939102.760   115290757.466 7       299.018    21939102.440   115290757.471 7       299.018    21939110.460    89836982.730 7       233.001    21939110.000    89836982.729 8       233.001
G17  20507237.520   107766258.278 8      2869.034    20507236.760   107766258.280 7      2869.034    20507239.560    83973718.248 7      2235.611    20507240.020    83973719.250 8      2235.611
R04  19411777.380   103949185.066 8       844.370    19411777.800   103949185.100 7       844.370    19411786.680    80849406.311 7       656.732    19411786.620    80849409.311 8       656.732
G04  20441155.320   107418996.772 7      2688.765    20441153.340   107418996.782 6      2688.765    20441159.840    83703134.791 6      2095.141    20441160.060    83703136.793 8      2095.141
G09  20616798.200   108342009.074 7      4797.477    20616796.900   108342009.081 7      4797.477    20616803.980    84422372.039 7      3738.294    20616804.500    84422373.041 8      3738.294
R05  19701493.640   105315776.425 8      4741.872    19701493.340   105315776.429 8      4741.872    19701503.480    81912314.957 8      3688.123    19701503.420    81912313.955 8      3688.123
G19  20980843.880   110255072.310 7      4814.785    20980841.560   110255072.312 6      4814.785    20980844.700    85913053.041 6      3751.780
R18  21161286.840   112960377.793 7       602.025    21161285.420   112960377.783 7       602.025    21161300.180    87858128.619 7       468.242    21161299.880    87858130.623 7       468.242
G01  22356880.280   117486192.645 7      1030.372    22356879.240   117486192.650 5      1030.372    22356885.340    91547715.816 5       802.887    22356885.960    91547714.815 7       802.887
> 2025 04 04 19 22 56.0000000  0  9
G03  21939045.560   115290458.337 7       299.194    21939045.480   115290458.336 7       299.194    21939053.560    89836749.642 7       233.138    21939053.040    89836749.638 8       233.138
G17  20506691.600   107763389.476 8      2868.674    20506690.800   107763389.478 6      2868.674    20506693.680    83971482.820 6      2235.330    20506694.000    83971483.823 8      2235.330
R04  19411619.620   103948340.938 8       844.007    19411620.460   103948340.969 7       844.007    19411629.300    80848749.770 8       656.450    19411629.380    80848752.771 8       656.450
G04  20440643.660   107416308.269 7      2688.303    20440641.760   107416308.274 6      2688.303    20440648.360    83701039.860 6      2094.781    20440648.420    83701041.864 8      2094.781
G09  20615885.020   108337211.762 7      4797.239    20615883.980   108337211.762 7      4797.239    20615891.180    84418633.883 7      3738.108    20615891.840    84418634.886 8      3738.108
R05  19700606.860   105311034.742 8      4741.613    19700606.420   105311034.738 8      4741.613    19700616.640    81908626.984 8      3687.921    19700616.520    81908625.985 8      3687.921
G19  20979927.440   110250257.809 7      4814.374    20979925.440   110250257.812 6      4814.374    20979928.500    85909301.490 6      3751.461
R18  21161173.980   112959775.771 7       601.986    21161172.620   112959775.745 7       601.986    21161187.420    87857660.369 7       468.212    21161187.080    87857662.369 7       468.212
G01  22356684.200   117485162.248 7      1030.486    22356683.300   117485162.253 5      1030.486    22356689.460    91546912.916 5       802.976    22356689.900    91546911.907 7       802.976
> 2025 04 04 19 22 57.0000000  0  9
G03  21938988.600   115290159.039 7       299.381    21938988.600   115290159.041 7       299.381    21938996.500    89836516.429 7       233.284    21938996.040    89836516.429 7       233.284
G17  20506145.780   107760521.049 8      2868.348    20506144.940   107760521.048 7      2868.348    20506147.940    83969247.692 6      2235.076    20506148.400    83969248.694 8      2235.076
R04  19411461.980   103947497.257 7       843.644    19411462.860   103947497.293 7       843.644    19411471.720    80848093.580 8       656.168    19411471.920    80848096.585 8       656.168
G04  20440132.280   107413620.174 7      2688.054    20440130.260   107413620.179 6      2688.054    20440137.000    83698945.246 6      2094.587    20440136.960    83698947.249 8      2094.587
G09  20614972.300   108332414.748 7      4797.093    20614971.120   108332414.753 7      4797.093    20614978.320    84414895.962 7      3737.995    20614978.960    84414896.969 8      3737.995
R05  19699720.180   105306293.582 8      4741.094    19699719.640   105306293.581 8      4741.094    19699729.480    81904939.424 8      3687.518    19699729.580    81904938.425 8      3687.518
G19  20979011.260   110245443.642 7      4814.070    20979009.200   110245443.639 6      4814.070    20979012.540    85905550.197 6      3751.224
R18  21161061.060   112959174.040 7       601.800    21161059.880   112959174.014 7       601.800    21161074.480    87857192.356 7       468.066    21161074.340    87857194.360 7       468.066
G01  22356488.140   117484131.875 7      1030.463    22356487.280   117484131.882 5      1030.463    22356493.180    91546110.027 5       802.958    22356493.820    91546109.027 7       802.958
> 2025 04 04 19 22 58.0000000  0  9
G03  21938931.580   115289859.202 7       299.896    21938931.520   115289859.207 7       299.896    21938939.520    89836282.794 7       233.685    21938939.200    89836282.795 7       233.685
G17  20505599.840   107757652.632 8      2868.253    20505599.160   107757652.634 7      2868.253    20505601.980    83967012.567 7      2235.002    20505602.580    83967013.570 8      2235.002
R04  19411304.460   103946653.640 7       843.430    19411305.280   103946653.682 7       843.430    19411313.980    80847437.444 8       656.001    19411314.060    80847440.447 8       656.001
G04  20439620.540   107410932.163 7      2687.841    20439618.840   107410932.165 6      2687.841    20439625.360    83696850.698 6      2094.421    20439625.420    83696852.703 8      2094.421
G09  20614059.420   108327617.710 7      4796.844    20614058.240   108327617.712 7      4796.844    20614065.380    84411158.020 7      3737.801    20614065.920    84411159.024 8      3737.801
R05  19698832.960   105301552.534 8      4740.861    19698832.600   105301552.528 8      4740.861    19698842.540    81901251.951 8      3687.337    19698842.660    81901250.949 8      3687.337
G19  20978095.000   110240629.420 7      4814.082    20978093.080   110240629.428 6      4814.082    20978096.420    85901798.868 6      3751.233
R18  21160948.100   112958572.226 7       601.743    21160946.840   112958572.214 6       601.743    21160962.020    87856724.291 7       468.022    21160962.000    87856726.293 7       468.022
G01  22356292.000   117483101.160 7      1030.665    22356291.300   117483101.168 5      1030.665    22356297.020    91545306.879 5       803.116    22356297.820    91545305.874 7       803.116
> 2025 04 04 19 22 59.0000000  0  9
G03  21938874.740   115289559.134 7       300.020    21938874.440   115289559.142 7       300.020    21938882.360    89836048.982 7       233.782    21938882.100    89836048.978 8       233.782
G17  20505054.020   107754784.520 8      2867.795    20505053.440   107754784.517 7      2867.795    20505056.140    83964777.676 6      2234.645    20505056.740    83964778.678 8      2234.645
R04  19411146.760   103945810.392 8       842.782    19411147.940   103945810.426 7       842.782    19411156.880    80846781.587 7       655.497    19411156.840    80846784.588 8       655.497
G04  20439109.200   107408244.488 7      2687.325    20439107.300   107408244.496 6      2687.325    20439113.860    83694756.417 6      2094.020    20439114.100    83694758.421 8      2094.020
G09  20613146.580   108322820.887 7      4796.487    20613145.460   108322820.884 7      4796.487    20613152.680    84407420.244 7      3737.522    20613153.280    84407421.246 8      3737.522
R05  19697946.440   105296811.904 8      4740.241    19697945.920   105296811.894 8      4740.241    19697955.820    81897564.802 8      3686.854    19697955.760    81897563.801 8      3686.854
G19  20977178.900   110235815.487 7      4813.698    20977177.040   110235815.490 6      4813.698    20977180.280    85898047.755 6      3750.933
R18  21160835.440   112957970.650 7       601.333    21160834.500   112957970.638 6       601.333    21160849.600    87856256.398 7       467.704    21160849.220    87856258.400 7       467.704
G01  22356095.920   117482070.361 7      1030.694    22356095.020   117482070.366 5      1030.694    22356100.800    91544503.663 5       803.138    22356101.680    91544502.656 7       803.138
> 2025 04 04 19 23  0.0000000  0  9
G03  21938817.680   115289258.877 7       300.392    21938817.280   115289258.885 7       300.392    21938825.360    89835815.019 7       234.072    21938825.020    89835815.021 8       234.072
G17  20504508.380   107751916.748 8      2867.575    20504507.560   107751916.750 6      2867.575    20504510.520    83962543.057 6      2234.474    20504510.840    83962544.060 8      2234.474
R04  19410989.380   103944967.525 7       842.630    19410990.500   103944967.559 7       842.630    19410999.220    80846126.030 8       655.379    19410999.380    80846129.029 8       655.379
G04  20438597.840   107405557.223 7      2687.074    20438595.880   107405557.228 6      2687.074    20438602.500    83692662.450 6      2093.824    20438602.600    83692664.455 8      2093.824
G09  20612233.900   108318024.343 7      4796.348    20612232.720   108318024.343 7      4796.348    20612239.880    84403682.690 7      3737.414    20612240.380    84403683.693 8      3737.414
R05  19697059.520   105292071.738 8      4739.916    19697059.020   105292071.737 8      4739.916    19697069.020    81893878.023 8      3686.602    19697068.900    81893877.026 8      3686.602
G19  20976263.120   110231001.849 7      4813.594    20976261.120   110231001.851 6      4813.594    20976264.320    85894296.876 6      3750.852
R18  21160722.920   112957369.333 7       601.255    21160721.560   112957369.310 7       601.255    21160736.880    87855788.703 7       467.643    21160736.560    87855790.707 7       467.643
G01  22355899.680   117481039.562 7      1030.771    22355898.860   117481039.567 5      1030.771    22355904.660    91543700.450 5       803.198    22355905.480    91543699.445 7       803.198
> 2025 04 04 19 23  1.0000000  0  9
G03  21938760.560   115288958.342 7       300.801    21938760.140   115288958.347 7       300.801    21938768.180    89835580.838 7       234.390    21938767.940    89835580.836 7       234.390
G17  20503962.680   107749049.219 8      2867.409    20503961.960   107749049.219 6      2867.409    20503964.780    83960308.625 6      2234.344    20503965.300    83960309.630 8      2234.344
R04  19410831.980   103944125.017 7       842.376    19410833.400   103944125.056 7       842.376    19410841.960    80845470.754 8       655.181    19410841.960    80845473.755 8       655.181
G04  20438086.660   107402870.253 7      2686.818    20438084.860   107402870.263 6      2686.818    20438091.280    83690568.717 6      2093.625    20438091.460    83690570.722 8      2093.625
G09  20611321.120   108313227.959 7      4796.277    20611320.020   108313227.969 7      4796.277    20611327.140    84399945.266 7      3737.358    20611327.720    84399946.272 7      3737.358
R05  19696172.900   105287331.987 8      4739.528    19696172.520   105287331.985 8      4739.528    19696182.480    81890191.560 8      3686.299    19696182.240    81890190.561 8      3686.299
G19  20975346.900   110226188.430 7      4813.424    20975345.020   110226188.435 6      4813.424    20975348.320    85890546.171 6      3750.720
R18  21160610.460   112956768.184 7       601.041    21160609.000   112956768.169 7       601.041    21160624.280    87855321.149 7       467.476    21160623.960    87855323.149 7       467.476
G01  22355703.360   117480008.643 7      1030.984    22355702.760   117480008.648 5      1030.984    22355708.600    91542897.140 5       803.364    22355709.240    91542896.133 7       803.364
> 2025 04 04 19 23  2.0000000  0  9
G03  21938703.120   115288657.426 7       301.039    21938702.780   115288657.428 7       301.039    21938710.840    89835346.359 7       234.576    21938710.400    89835346.358 8       234.576
G17  20503417.000   107746181.843 8      2867.121    20503416.240   107746181.846 7      2867.121    20503419.120    83958074.312 6      2234.120    20503419.540    83958075.316 8      2234.120
R04  19410674.440   103943282.773 7       841.990    19410676.020   103943282.807 7       841.990    19410684.900    80844815.676 8       654.881    19410684.840    80844818.679 8       654.881
G04  20437575.060   107400183.479 7      2686.580    20437573.480   107400183.484 6      2686.580    20437579.920    83688475.133 6      2093.439    20437580.020    83688477.138 8      2093.439
G09  20610408.540   108308431.686 7      4796.048    20610407.320   108308431.693 7      4796.048    20610414.520    84396207.918 7      3737.180    20610415.080    84396208.922 8      3737.180
R05  19695286.100   105282592.532 8      4739.135    19695286.020   105282592.531 8      4739.135    19695295.840    81886505.324 8      3685.994    19695295.660    81886504.325 8      3685.994
G19  20974431.060   110221375.125 7      4813.124    20974429.200   110221375.133 6      4813.124    20974432.280    85886795.554 6      3750.486
R18  21160497.960   112956167.064 7       600.922    21160496.080   112956167.054 6       600.922    21160511.440    87854853.611 7       467.383    21160511.460    87854855.615 7       467.383
G01  22355507.060   117478977.523 7      1031.046    22355506.600   117478977.531 5      1031.046    22355512.400    91542093.672 5       803.413    22355513.040    91542092.661 7       803.413
> 2025 04 04 19 23  3.0000000  0  9
G03  21938645.840   115288356.275 7       301.169    21938645.500   115288356.277 7       301.169    21938653.540    89835111.703 7       234.677    21938653.200    89835111.701 7       234.677
G17  20502871.360   107743314.749 8      2866.894    20502870.680   107743314.751 7      2866.894    20502873.600    83955840.216 6      2233.943    20502874.280    83955841.220 8      2233.943
R04  19410517.520   103942440.881 8       841.645    19410518.600   103942440.907 7       841.645    19410527.360    80844160.873 8       654.613    19410527.600    80844163.876 8       654.613
G04  20437064.000   107397497.061 7      2686.221    20437062.260   107397497.071 6      2686.221    20437068.760    83686381.830 6      2093.159    20437069.000    83686383.833 8      2093.159
G09  20609495.980   108303635.633 7      4795.818    20609494.600   108303635.635 7      4795.818    20609501.740    84392470.743 7      3737.001    20609502.320    84392471.746 8      3737.001
R05  19694399.560   105277853.495 8      4738.767    19694399.480   105277853.496 8      4738.767    19694409.320    81882819.421 8      3685.707    19694409.040    81882818.417 8      3685.707
G19  20973515.160   110216562.070 7      4812.910    20973513.280   110216562.075 6      4812.910    20973516.480    85883045.125 6      3750.319
R18  21160385.460   112955566.158 7       600.708    21160383.600   112955566.148 6       600.708    21160398.940    87854386.244 7       467.217    21160398.500    87854388.248 7       467.217
G01  22355310.780   117477946.309 7      1031.116    22355310.320   117477946.317 5      1031.116    22355316.220    91541290.135 5       803.467    22355316.580    91541289.134 7       803.467
> 2025 04 04 19 23  4.0000000  0  9
G03  21938588.520   115288055.017 7       301.309    21938588.240   115288055.019 7       301.309    21938596.240    89834876.958 7       234.786    21938595.920    89834876.961 7       234.786
G17  20502326.000   107740448.116 8      2866.456    20502325.220   107740448.119 7      2866.456    20502328.100    83953606.481 6      2233.602    20502328.740    83953607.487 8      2233.602
R04  19410360.520   103941599.481 8       841.174    19410361.320   103941599.504 7       841.174    19410370.420    80843506.455 8       654.246    19410370.460    80843509.456 8       654.246
G04  20436552.980   107394811.146 7      2685.657    20436551.120   107394811.156 6      2685.657    20436557.700    83684288.914 6      2092.720    20436557.960    83684290.921 8      2092.720
G09  20608583.460   108298839.956 7      4795.467    20608582.020   108298839.953 7      4795.467    20608589.180    84388733.858 7      3736.727    20608589.780    84388734.859 8      3736.727
R05  19693513.180   105273115.042 8      4738.243    19693513.060   105273115.044 8      4738.243    19693522.820    81879133.970 8      3685.300    19693522.800    81879132.969 8      3685.300
G19  20972599.580   110211749.430 7      4812.481    20972597.540   110211749.435 6      4812.481    20972600.620    85879295.022 6      3749.985
R18  21160272.880   112954965.620 6       600.380    21160271.060   112954965.612 6       600.380    21160286.660    87853919.163 7       466.962    21160286.200    87853921.165 7       466.962
G01  22355114.620   117476915.192 7      1031.123    22355114.140   117476915.205 5      1031.123    22355120.040    91540486.669 5       803.473    22355120.580    91540485.664 7       803.473
> 2025 04 04 19 23  5.0000000  0  9
G03  21938531.120   115287753.452 7       301.545    21938530.820   115287753.454 7       301.545    21938538.820    89834641.979 7       234.970    21938538.400    89834641.977 7       234.970
G17  20501780.520   107737581.692 8      2866.258    20501779.840   107737581.691 7      2866.258    20501782.680    83951372.914 6      2233.448    20501783.180    83951373.915 8      2233.448
R04  19410203.760   103940758.317 7       840.972    19410204.320   103940758.348 7       840.972    19410213.220    80842852.228 7       654.089    19410213.560    80842855.227 8       654.089
G04  20436041.660   107392125.474 7      2685.544    20436040.060   107392125.481 6      2685.544    20436046.700    83682196.190 6      2092.632    20436046.740    83682198.195 8      2092.632
G09  20607670.860   108294044.421 7      4795.354    20607669.400   108294044.423 7      4795.354    20607676.640    84384997.091 7      3736.639    20607677.340    84384998.095 8      3736.639
R05  19692626.800   105268376.943 8      4737.882    19692626.820   105268376.944 8      4737.882    19692636.520    81875448.790 8      3685.020    19692636.420    81875447.788 8      3685.020
G19  20971683.700   110206936.939 7      4812.516    20971681.720   110206936.941 6      4812.516    20971684.960    85875545.035 6      3750.012
R18  21160160.280   112954365.215 6       600.278    21160158.520   112954365.208 6       600.278    21160173.840    87853452.181 7       466.883    21160173.660    87853454.183 7       466.883
G01  22354918.480   117475883.915 7      1031.327    22354917.780   117475883.928 5      1031.327    22354923.740    91539683.079 5       803.632    22354924.260    91539682.076 7       803.632
> 2025 04 04 19 23  6.0000000  0  9
G03  21938473.940   115287451.482 7       302.036    21938473.300   115287451.489 7       302.036    21938481.400    89834406.683 7       235.353    21938480.900    89834406.686 8       235.353
G17  20501235.040   107734715.432 8      2866.080    20501234.320   107734715.429 7      2866.080    20501237.200    83949139.465 6      2233.309    20501237.660    83949140.464 8      2233.309
R04  19410046.720   103939917.364 7       840.723    19410047.400   103939917.398 7       840.723    19410056.440    80842198.158 8       653.896    19410056.600    80842201.159 8       653.896
G04  20435530.720   107389440.043 7      2685.168    20435529.160   107389440.053 6      2685.168    20435535.580    83680103.653 6      2092.339    20435535.580    83680105.658 8      2092.339
G09  20606758.560   108289248.985 7      4795.138    20606756.880   108289248.988 7      4795.138    20606764.100    84381260.399 7      3736.471    20606765.020    84381261.402 8      3736.471
R05  19691740.380   105263639.105 8      4737.557    19691740.460   105263639.112 8      4737.557    19691749.980    81871763.818 8      3684.767    19691750.140    81871762.818 8      3684.767
G19  20970767.980   110202124.601 7      4812.208    20970765.880   110202124.606 6      4812.208    20970769.160    85871795.170 6      3749.772
R18  21160047.640   112953764.853 6       600.161    21160045.620   112953764.849 6       600.161    21160061.700    87852985.237 7       466.792    21160061.480    87852987.242 7       466.792
G01  22354722.340   117474852.449 7      1031.501    22354721.640   117474852.459 5      1031.501    22354727.400    91538879.341 5       803.767    22354728.120    91538878.336 7       803.767
> 2025 04 04 19 23  7.0000000  0  9
G03  21938416.180   115287149.446 7       302.041    21938415.980   115287149.448 7       302.041    21938423.900    89834171.331 7       235.357    21938423.460    89834171.331 8       235.357
G17  20500689.720   107731849.599 8      2865.681    20500688.920   107731849.596 6      2865.681    20500691.860    83946906.354 6      2232.999    20500692.280    83946907.355 8      2232.999
R04  19409890.060   103939076.941 7       840.096    19409890.280   103939076.970 7       840.096    19409899.460    80841544.498 7       653.408    19409899.400    80841547.499 8       653.408
G04  20435020.120   107386755.093 7      2684.662    20435018.180   107386755.098 6      2684.662    20435024.540    83678011.490 6      2091.945    20435024.700    83678013.489 8      2091.945
G09  20605845.860   108284453.907 7      4794.810    20605844.420   108284453.912 7      4794.810    20605851.620    84377523.985 7      3736.216    20605852.400    84377524.984 8      3736.216
R05  19690854.200   105258901.850 8      4736.954    19690854.400   105258901.849 8      4736.954    19690863.860    81868079.288 8      3684.298    19690863.900    81868078.285 8      3684.298
G19  20969852.440   110197312.644 7      4811.807    20969850.200   110197312.649 6      4811.807    20969853.580    85868045.601 6      3749.460
R18  21159935.740   112953164.846 6       599.766    21159933.080   112953164.831 6       599.766    21159949.120    87852518.557 7       466.485    21159948.920    87852520.559 7       466.485
G01  22354525.900   117473821.064 7      1031.371    22354525.440   117473821.075 5      1031.371    22354531.040    91538075.671 5       803.666    22354531.760    91538074.657 7       803.666
> 2025 04 04 19 23  8.0000000  0  9
G03  21938358.680   115286847.095 7       302.714    21938358.420   115286847.097 7       302.714    21938366.260    89833935.739 7       235.881    21938366.180    89833935.737 8       235.881
G17  20500144.600   107728984.017 8      2865.706    20500143.660   107728984.017 6      2865.706    20500146.400    83944673.439 6      2233.018    20500146.800    83944674.441 8      2233.018
R04  19409733.020   103938236.853 7       840.123    19409733.460   103938236.890 7       840.123    19409742.740    80840891.107 8       653.429    19409742.340    80840894.106 8       653.429
G04  20434509.360   107384070.411 7      2684.810    20434507.280   107384070.416 6      2684.810    20434513.720    83675919.536 6      2092.059    20434513.920    83675921.539 8      2092.059
G09  20604933.360   108279658.998 7      4795.073    20604931.980   108279659.002 7      4795.073    20604939.320    84373787.703 7      3736.420    20604939.640    84373788.703 8      3736.420
R05  19689968.280   105254164.954 8      4736.884    19689968.240   105254164.955 8      4736.884    19689977.740    81864395.048 8      3684.243    19689977.680    81864394.048 8      3684.243
G19  20968936.660   110192500.907 7      4811.771    20968934.660   110192500.915 6      4811.771    20968937.820    85864296.204 6      3749.432
R18  21159823.760   112952564.965 6       600.033    21159821.080   112952564.958 6       600.033    21159836.860    87852051.989 7       466.692    21159836.420    87852053.989 7       466.692
G01  22354329.480   117472789.569 7      1031.701    22354329.180   117472789.571 5      1031.701    22354334.940    91537271.906 5       803.923    22354335.660    91537270.897 7       803.923
> 2025 04 04 19 23  9.0000000  0  9
G03  21938301.260   115286544.279 7       302.841    21938300.820   115286544.283 7       302.841    21938308.620    89833699.782 7       235.980    21938308.280    89833699.784 7       235.980
G17  20499599.240   107726118.494 8      2865.329    20499598.340   107726118.493 6      2865.329    20499601.300    83942440.568 6      2232.724    20499601.500    83942441.571 8      2232.724
R04  19409576.220   103937396.953 7       839.633    19409576.660   103937396.989 7       839.633    19409585.760    80840237.855 7       653.048    19409585.440    80840240.854 8       653.048
G04  20433998.400   107381385.871 7      2684.251    20433996.280   107381385.881 6      2684.251    20434002.900    83673827.699 6      2091.624    20434003.060    83673829.704 8      2091.624
G09  20604020.860   108274864.104 7      4794.723    20604019.520   108274864.106 7      4794.723    20604026.800    84370051.431 7      3736.148    20604027.240    84370052.432 8      3736.148
R05  19689082.280   105249428.252 8      4736.444    19689082.080   105249428.256 8      4736.444    19689091.560    81860710.959 8      3683.901    19689091.580    81860709.957 8      3683.901
G19  20968021.020   110187689.181 7      4811.515    20968018.960   110187689.186 6      4811.515    20968022.180    85860546.811 6      3749.232
R18  21159711.260   112951965.092 6       599.710    21159708.460   112951965.090 6       599.710    21159724.460    87851585.423 7       466.441    21159724.120    87851587.427 7       466.441
G01  22354133.340   117471757.748 7      1031.736    22354132.820   117471757.748 5      1031.736    22354138.640    91536467.892 5       803.950    22354139.480    91536466.887 7       803.950
> 2025 04 04 19 23 10.0000000  0  9
G03  21938243.520   115286241.339 7       303.161    21938243.220   115286241.344 7       303.161    21938251.080    89833463.729 7       236.230    21938250.640    89833463.730 8       236.230
G17  20499053.880   107723253.383 8      2865.084    20499053.120   107723253.385 7      2865.084    20499055.980    83940208.022 6      2232.533    20499056.400    83940209.028 8      2232.533
R04  19409419.520   103936557.529 7       839.315    19409419.960   103936557.565 7       839.315    19409429.100    80839584.976 7       652.801    19409429.060    80839587.977 8       652.801
G04  20433487.440   107378701.788 7      2684.017    20433485.780   107378701.798 6      2684.017    20433492.100    83671736.214 6      2091.442    20433492.320    83671738.215 8      2091.442
G09  20603108.500   108270069.554 7      4794.431    20603107.180   108270069.556 7      4794.431    20603114.400    84366315.426 7      3735.921    20603115.080    84366316.433 8      3735.921
R05  19688196.260   105244692.128 8      4736.007    19688196.260   105244692.126 8      4736.007    19688205.740    81857027.311 8      3683.561    19688205.560    81857026.309 8      3683.561
G19  20967105.160   110182877.826 7      4811.385    20967103.300   110182877.828 6      4811.385    20967106.740    85856797.709 6      3749.131
R18  21159598.680   112951365.552 6       599.610    21159596.520   112951365.534 6       599.610    21159612.600    87851119.104 7       466.363    21159611.540    87851121.104 7       466.363
G01  22353936.820   117470725.982 7      1031.850    22353936.460   117470725.987 5      1031.850    22353942.260    91535663.923 5       804.039    22353942.980    91535662.922 7       804.039
> 2025 04 04 19 23 11.0000000  0  9
G03  21938185.840   115285938.205 7       303.070    21938185.460   115285938.210 7       303.070    21938193.440    89833227.527 7       236.159    21938193.060    89833227.529 7       236.159
G17  20498508.720   107720388.611 8      2864.535    20498508.060   107720388.610 6      2864.535    20498510.800    83937975.736 6      2232.106    20498511.100    83937976.738 8      2232.106
R04  19409262.700   103935718.469 8       838.770    19409262.800   103935718.503 7       838.770    19409272.320    80838932.378 8       652.376    19409272.340    80838935.379 8       652.376
G04  20432976.900   107376018.086 7      2683.414    20432975.020   107376018.098 6      2683.414    20432981.420    83669645.024 6      2090.972    20432981.740    83669647.029 8      2090.972
G09  20602196.040   108265275.259 7      4794.027    20602194.820   108265275.261 7      4794.027    20602202.000    84362579.624 7      3735.605    20602202.780    84362580.623 8      3735.605
R05  19687309.980   105239956.463 8      4735.262    19687310.060   105239956.470 8      4735.262    19687319.780    81853344.035 8      3682.982    19687319.580    81853343.035 8      3682.982
G19  20966189.620   110178066.778 7      4810.832    20966187.840   110178066.783 6      4810.832    20966191.240    85853048.851 6      3748.700
R18  21159486.600   112950766.244 6       599.065    21159483.540   112950766.232 6       599.065    21159499.840    87850652.982 7       465.940    21159499.340    87850654.984 7       465.940
G01  22353740.720   117469694.201 7      1031.637    22353740.100   117469694.206 5      1031.637    22353746.060    91534859.943 5       803.873    22353746.560    91534858.938 7       803.873
> 2025 04 04 19 23 12.0000000  0  9
G03  21938128.160   115285635.052 7       303.234    21938127.840   115285635.057 7       303.234    21938135.600    89832991.308 7       236.286    21938135.220    89832991.309 8       236.286
G17  20497963.720   107717524.380 8      2864.028    20497962.960   107717524.380 7      2864.028    20497965.800    83935743.872 6      2231.710    20497966.340    83935744.876 8      2231.710
R04  19409106.280   103934880.006 7       838.240    19409106.180   103934880.035 7       838.240    19409115.760    80838280.238 8       651.964    19409115.820    80838283.239 8       651.964
G04  20432466.240   107373334.986 7      2682.911    20432464.560   107373334.993 6      2682.911    20432470.840    83667554.303 6      2090.580    20432471.240    83667556.299 8      2090.580
G09  20601283.780   108260481.426 7      4793.729    20601282.540   108260481.426 7      4793.729    20601289.720    84358844.178 7      3735.374    20601290.240    84358845.178 8      3735.374
R05  19686424.060   105235221.475 8      4734.713    19686424.580   105235221.484 8      4734.713    19686434.060    81849661.272 8      3682.555    19686433.860    81849660.273 8      3682.555
G19  20965274.220   110173256.229 7      4810.335    20965272.220   110173256.234 6      4810.335    20965275.740    85849300.377 6      3748.313
R18  21159374.040   112950167.374 6       598.686    21159371.660   112950167.373 6       598.686    21159387.960    87850187.203 7       465.645    21159387.160    87850189.203 7       465.645
G01  22353544.600   117468662.574 7      1031.614    22353543.820   117468662.582 5      1031.614    22353549.780    91534056.080 5       803.855    22353550.040    91534055.077 7       803.855
> 2025 04 04 19 23 13.0000000  0  9
G03  21938070.280   115285331.603 7       303.760    21938070.100   115285331.610 7       303.760    21938077.960    89832754.856 7       236.696    21938077.720    89832754.863 8       236.696
G17  20497418.980   107714660.365 8      2864.112    20497417.940   107714660.364 6      2864.112    20497420.860    83933512.176 6      2231.775    20497421.280    83933513.182 8      2231.775
R04  19408949.720   103934041.803 7       838.285    19408949.760   103934041.832 7       838.285    19408959.540    80837628.309 8       652.000    19408959.280    80837631.312 8       652.000
G04  20431955.760   107370652.161 7      2682.837    20431954.040   107370652.171 6      2682.837    20431960.340    83665463.796 6      2090.523    20431960.920    83665465.797 8      2090.523
G09  20600371.700   108255687.793 7      4793.738    20600370.360   108255687.790 7      4793.738    20600377.620    84355108.886 7      3735.380    20600378.260    84355109.885 8      3735.380
R05  19685538.340   105230486.852 8      4734.576    19685538.680   105230486.856 8      4734.576    19685548.320    81845978.799 8      3682.448    19685548.080    81845977.799 8      3682.448
G19  20964358.740   110168445.867 7      4810.401    20964356.840   110168445.872 6      4810.401    20964360.420    85845552.051 6      3748.364
R18  21159261.720   112949568.641 6       599.005    21159258.920   112949568.634 6       599.005    21159275.580    87849721.515 7       465.893    21159275.000    87849723.515 7       465.893
G01  22353348.200   117467630.835 7      1031.962    22353347.480   117467630.842 5      1031.962    22353353.640    91533252.132 5       804.126    22353354.000    91533251.129 7       804.126
> 2025 04 04 19 23 14.0000000  0  9
G03  21938012.500   115285027.709 7       303.923    21938012.200   115285027.717 7       303.923    21938020.100    89832518.065 7       236.823    21938019.560    89832518.065 7       236.823
G17  20496873.940   107711796.444 8      2863.729    20496872.980   107711796.443 7      2863.729    20496875.920    83931280.556 6      2231.477    20496876.400    83931281.561 8      2231.477
R04  19408793.260   103933203.790 7       837.708    19408793.300   103933203.813 7       837.708    19408802.980    80836976.525 8       651.550    19408802.820    80836979.526 8       651.550
G04  20431445.240   107367969.476 7      2682.463    20431443.480   107367969.484 6      2682.463    20431449.860    83663373.397 6      2090.231    20431450.380    83663375.397 8      2090.231
G09  20599459.300   108250894.166 7      4793.368    20599458.140   108250894.171 7      4793.368    20599465.440    84351373.606 7      3735.092    20599465.940    84351374.612 8      3735.092
R05  19684652.660   105225752.431 8      4734.131    19684653.000   105225752.437 8      4734.131    19684662.640    81842296.479 8      3682.102    19684662.660    81842295.477 8      3682.102
G19  20963443.460   110163635.555 7      4810.128    20963441.480   110163635.557 6      4810.128    20963445.020    85841803.760 6      3748.152
R18  21159149.000   112948969.955 6       598.617    21159146.640   112948969.929 6       598.617    21159163.460    87849255.860 7       465.591    21159162.920    87849257.860 7       465.591
G01  22353151.880   117466598.796 7      1032.079    22353151.180   117466598.803 5      1032.079    22353157.160    91532447.951 5       804.217    22353157.560    91532446.950 7       804.217
> 2025 04 04 19 23 15.0000000  0  9
G03  21937954.800   115284723.564 7       304.365    21937954.380   115284723.569 7       304.365    21937962.220    89832281.068 7       237.167    21937961.880    89832281.074 7       237.167
G17  20496328.800   107708932.812 8      2863.598    20496328.020   107708932.812 6      2863.598    20496330.940    83929049.160 7      2231.375    20496331.320    83929050.162 8      2231.375
R04  19408637.040   103932366.123 7       837.632    19408636.800   103932366.149 7       837.632    19408646.640    80836325.008 8       651.491    19408646.300    80836328.009 8       651.491
G04  20430934.760   107365287.122 7      2682.244    20430933.160   107365287.132 6      2682.244    20430939.440    83661283.261 6      2090.060    20430939.880    83661285.265 8      2090.060
G09  20598547.220   108246100.730 7      4793.472    20598545.960   108246100.737 7      4793.472    20598553.220    84347638.472 7      3735.173    20598553.800    84347639.473 8      3735.173
R05  19683767.280   105221018.439 8      4733.948    19683767.380   105221018.438 8      4733.948    19683777.040    81838614.490 8      3681.959    19683776.920    81838613.488 8      3681.959
G19  20962528.280   110158825.479 7      4810.098    20962526.180   110158825.486 6      4810.098    20962529.760    85838055.657 6      3748.129
R18  21159037.320   112948371.430 6       598.540    21159034.900   112948371.422 6       598.540    21159051.160    87848790.352 7       465.531    21159050.980    87848792.354 7       465.531
G01  22352955.380   117465566.691 7      1032.394    22352954.860   117465566.699 5      1032.394    22352960.780    91531643.716 5       804.462    22352961.080    91531642.713 7       804.462
> 2025 04 04 19 23 16.0000000  0  9
G03  21937896.640   115284419.224 7       304.510    21937896.460   115284419.231 7       304.510    21937904.260    89832043.926 7       237.280    21937904.160    89832043.928 8       237.280
G17  20495784.080   107706069.532 8      2863.125    20495783.060   107706069.532 7      2863.125    20495786.000    83926818.036 7      2231.007    20495786.380    83926819.041 8      2231.007
R04  19408480.400   103931528.876 8       837.224    19408480.300   103931528.902 7       837.224    19408490.300    80835673.818 8       651.174    19408489.940    80835676.821 8       651.174
G04  20430424.280   107362605.159 7      2681.892    20430422.640   107362605.167 6      2681.892    20430429.080    83659193.424 6      2089.786    20430429.420    83659195.425 8      2089.786
G09  20597634.880   108241307.628 7      4792.909    20597634.000   108241307.630 7      4792.909    20597641.160    84343903.595 7      3734.734    20597641.540    84343904.596 8      3734.734
R05  19682881.900   105216284.948 8      4733.293    19682882.040   105216284.952 8      4733.293    19682891.680    81834932.900 8      3681.450    19682891.460    81834931.900 8      3681.450
G19  20961612.920   110154015.702 7      4809.848    20961611.020   110154015.707 6      4809.848    20961614.480    85834307.786 6      3747.934
R18  21158925.180   112947773.160 6       598.184    21158922.680   112947773.148 6       598.184    21158939.180    87848325.028 7       465.254    21158938.680    87848327.030 7       465.254
G01  22352758.980   117464534.581 7      1032.291    22352758.360   117464534.589 5      1032.291    22352764.260    91530839.475 5       804.382    22352764.500    91530838.474 7       804.382
> 2025 04 04 19 23 17.0000000  0  9
G03  21937838.920   115284114.521 7       304.638    21937838.560   115284114.523 7       304.638    21937846.340    89831806.497 7       237.380    21937846.180    89831806.499 7       237.380
G17  20495239.400   107703206.400 8      2862.850    20495238.440   107703206.400 6      2862.850    20495241.220    83924587.031 6      2230.793    20495241.460    83924588.033 8      2230.793
R04  19408323.980   103930691.864 7       836.754    19408324.060   103930691.885 7       836.754    19408333.900    80835022.815 8       650.808    19408333.660    80835025.816 8       650.808
G04  20429913.740   107359923.418 7      2681.467    20429912.340   107359923.430 6      2681.467    20429918.920    83657103.765 6      2089.455    20429919.060    83657105.772 8      2089.455
G09  20596723.020   108236514.578 7      4792.726    20596721.860   108236514.578 7      4792.726    20596729.040    84340168.761 7      3734.592    20596729.320    84340169.761 8      3734.592
R05  19681996.460   105211551.769 8      4732.793    19681996.540   105211551.767 8      4732.793    19682006.260    81831251.540 8      3681.062    19682005.960    81831250.543 8      3681.062
G19  20960697.620   110149206.076 7      4809.499    20960695.700   110149206.086 6      4809.499    20960699.220    85830560.035 6      3747.662
R18  21158813.320   112947174.920 6       598.106    21158810.320   112947174.903 6       598.106    21158826.980    87847859.728 7       465.193    21158826.920    87847861.732 7       465.193
G01  22352562.620   117463502.274 7      1032.198    22352562.060   117463502.279 5      1032.198    22352567.860    91530035.081 5       804.310    22352568.060    91530034.085 7       804.310
> 2025 04 04 19 23 18.0000000  0  9
G03  21937780.920   115283809.647 7       305.002    21937780.540   115283809.650 7       305.002    21937788.320    89831568.938 7       237.664    21937787.760    89831568.940 7       237.664
G17  20494694.600   107700343.683 8      2862.480    20494693.600   107700343.680 6      2862.480    20494696.480    83922356.345 6      2230.504    20494696.660    83922357.348 8      2230.504
R04  19408168.300   103929855.302 7       836.384    19408167.560   103929855.315 7       836.384    19408177.780    80834372.156 7       650.521    19408177.480    80834375.161 8       650.521
G04  20429403.800   107357242.151 7      2680.969    20429402.200   107357242.159 6      2680.969    20429408.580    83655014.469 6      2089.067    20429408.880    83655016.467 8      2089.067
G09  20595810.840   108231721.847 7      4792.617    20595809.780   108231721.846 7      4792.617    20595817.060    84336434.174 7      3734.507    20595817.320    84336435.175 8      3734.507
R05  19681110.980   105206819.111 8      4732.396    19681111.140   105206819.115 8      4732.396    19681120.800    81827570.599 8      3680.753    19681120.520    81827569.604 8      3680.753
G19  20959782.540   110144396.833 7      4809.066    20959780.580   110144396.835 6      4809.066    20959784.040    85826812.573 6      3747.324
R18  21158701.660   112946577.025 6       597.686    21158698.740   112946577.015 6       597.686    21158715.220    87847394.708 7       464.867    21158715.020    87847396.710 7       464.867
G01  22352366.040   117462469.988 7      1032.203    22352365.500   117462469.998 5      1032.203    22352371.380    91529230.709 5       804.314    22352371.740    91529229.710 7       804.314
> 2025 04 04 19 23 19.0000000  0  9
G03  21937722.660   115283504.606 7       305.035    21937722.480   115283504.611 7       305.035    21937730.260    89831331.249 7       237.690    21937729.800    89831331.253 7       237.690
G17  20494150.020   107697481.283 8      2862.126    20494148.980   107697481.285 6      2862.126    20494151.780    83920125.914 6      2230.228    20494152.260    83920126.915 8      2230.228
R04  19408012.280   103929019.161 7       835.884    19408011.680   103929019.176 7       835.884    19408021.760    80833721.830 8       650.132    19408021.280    80833724.831 8       650.132
G04  20428893.660   107354561.232 7      2680.636    20428892.160   107354561.237 6      2680.636    20428898.320    83652925.447 6      2088.807    20428898.680    83652927.450 8      2088.807
G09  20594899.120   108226929.412 7      4792.213    20594897.760   108226929.412 7      4792.213    20594905.080    84332699.819 7      3734.192    20594905.300    84332700.823 8      3734.192
R05  19680225.760   105202086.913 8      4731.893    19680225.920   105202086.920 8      4731.893    19680235.660    81823890.011 8      3680.361    19680235.280    81823889.014 8      3680.361
G19  20958867.360   110139587.842 7      4808.791    20958865.460   110139587.844 6      4808.791    20958869.000    85823065.318 6      3747.110
R18  21158590.040   112945979.380 6       597.479    21158586.780   112945979.376 6       597.479    21158603.240    87846929.880 7       464.706    21158602.820    87846931.888 7       464.706
G01  22352169.300   117461437.676 7      1032.203    22352169.060   117461437.681 5      1032.203    22352174.960    91528426.310 5       804.314    22352175.300    91528425.313 7       804.314
