     3.05           OBSERVATION DATA    MIXED               RINEX VERSION / TYPE
TPS2RIN 1.0.28.3459 TPS-USER            20250407 105626 UTC PGM / RUN BY / DATE
Win64 build Jun 01, 2022 (c) Topcon Positioning Systems     COMMENT
SRC: 20250404_grav_20250404_185908.tps                      COMMENT
Observer            Agency                                  OBSERVER / AGENCY
O0M3X53SBGM         TPS HIPER_SR        4.8 HSR Jul,08,2022 REC # / TYPE / VERS
FW: 4.8 HSR Jul,08,2022 p3                                  COMMENT
SN: HiPer SR 1212-12575                                     COMMENT
000                 TPSHIPER_SR     NONE                    ANT # / TYPE
        1.8000        0.0000        0.0000                  ANTENNA: DELTA H/E/N
DELTA H stands for **SLANT** height here!                   COMMENT
ORO08                                                       MARKER NAME
  5382093.8484 -1597178.6950  3017129.7732                  APPROX POSITION XYZ
  2025     4     4    16    59   31.0000000     GPS         TIME OF FIRST OBS
  2025     4     4    17    14   32.0000000     GPS         TIME OF LAST OBS
     1.000                                                  INTERVAL
   902 EPOCHS                                               COMMENT
G   12 C1C L1C D1C C1W L1W D1W C2W L2W D2W C2X L2X D2X      SYS / # / OBS TYPES
R   12 C1C L1C D1C C1P L1P D1P C2P L2P D2P C2C L2C D2C      SYS / # / OBS TYPES
    18                                                      # OF SATELLITES
   G01   902   902   902   902   902   902   902   902   902PRN / # OF OBS
         902   902   902                                    PRN / # OF OBS
   G02   902   902   902   902   902   902   902   902   902PRN / # OF OBS
           0     0     0                                    PRN / # OF OBS
   G03   902   902   902   902   902   902   902   902   902PRN / # OF OBS
         902   902   902                                    PRN / # OF OBS
   G04   902   902   902   901   901   901   900   900   900PRN / # OF OBS
         902   902   902                                    PRN / # OF OBS
   G08   902   902   902   902   902   902   902   902   902PRN / # OF OBS
         902   902   902                                    PRN / # OF OBS
   G14   902   902   902   902   902   902   902   902   902PRN / # OF OBS
         902   902   902                                    PRN / # OF OBS
   G17   902   902   902   902   902   902   902   902   902PRN / # OF OBS
         902   902   902                                    PRN / # OF OBS
   G22   902   902   902   902   902   902   902   902   902PRN / # OF OBS
           0     0     0                                    PRN / # OF OBS
   G27   111   111   111   111   111   111   111   111   111PRN / # OF OBS
         111   111   111                                    PRN / # OF OBS
   G32   859   859   859   855   855   855   856   856   856PRN / # OF OBS
         652   652   652                                    PRN / # OF OBS
   R02   902   902   902   902   902   902   902   902   902PRN / # OF OBS
         902   902   902                                    PRN / # OF OBS
   R03   902   902   902   902   902   902   902   902   902PRN / # OF OBS
         902   902   902                                    PRN / # OF OBS
   R04   902   902   902   902   902   902   902   902   902PRN / # OF OBS
         902   902   902                                    PRN / # OF OBS
   R09   859   859   859   854   854   854   854   854   854PRN / # OF OBS
         853   853   853                                    PRN / # OF OBS
   R15   121   121   121   121   121   121   121   121   121PRN / # OF OBS
         121   121   121                                    PRN / # OF OBS
   R16   902   902   902   902   902   902   902   902   902PRN / # OF OBS
         902   902   902                                    PRN / # OF OBS
   R17   902   902   902   902   902   902   902   902   902PRN / # OF OBS
         902   902   902                                    PRN / # OF OBS
   R18   902   902   902   902   902   902   902   902   902PRN / # OF OBS
         902   902   902                                    PRN / # OF OBS
G L1C                                                       SYS / PHASE SHIFT
G L1W -0.25000                                              SYS / PHASE SHIFT
G L2W  0.00000                                              SYS / PHASE SHIFT
G L2X  0.25000                                              SYS / PHASE SHIFT
R L1C                                                       SYS / PHASE SHIFT
R L1P -0.25000                                              SYS / PHASE SHIFT
R L2P -0.25000                                              SYS / PHASE SHIFT
R L2C                                                       SYS / PHASE SHIFT
  8 R02 -4 R03  5 R04  6 R09 -2 R15  0 R16 -1 R17  4 R18 -3 GLONASS SLOT / FRQ #
                                                            GLONASS COD/PHS/BIS
    18                  GPS                                 LEAP SECONDS
                                                            END OF HEADER
> 2025 04 04 16 59 31.0000000  0 18
G27  24607625.080   129313937.637 5      -386.433    24607623.080   129313937.650 4      -386.433    24607651.260   100764144.554 4      -301.116    24607652.560   100764212.516 6      -301.116
G02  22148648.980   116391935.569 7      1578.246    22148647.420   116391935.576 4      1578.246    22148651.020    90695023.340 4      1229.802
G03  19918702.560   104673487.800 7      3379.445    19918701.440   104673487.804 8      3379.445    19918709.160    81563784.324 8      2633.334    19918709.360    81563784.320 8      2633.334
G14  22292546.620   117148124.826 7      3718.711    22292545.420   117148124.838 5      3718.711    22292554.140    91284252.845 5      2897.697    22292554.820    91284280.847 8      2897.697
R03  19887790.580   106460902.688 8      4065.981    19887790.180   106460902.722 7      4065.981    19887802.280    82802974.089 8      3162.430    19887801.960    82802970.088 8      3162.430
G01  20925062.480   109961944.222 7      2318.318    20925061.800   109961944.221 6      2318.318    20925066.720    85684650.402 6      1806.481    20925066.820    85684649.410 8      1806.481
G08  21420882.100   112567493.490 7       701.412    21420880.700   112567493.493 7       701.412    21420891.440    87714959.664 7       546.555    21420892.320    87714968.673 8       546.555
R18  20636127.760   110157046.595 7      3365.579    20636127.340   110157046.591 7      3365.579    20636137.300    85677746.654 7      2617.672    20636137.980    85677749.663 7      2617.672
R09  23042675.700   123046594.337 6      3527.848    23042675.680   123046594.324 5      3527.848    23042685.560    95702964.374 6      2743.882    23042686.680    95702965.373 6      2743.882
R02  21875202.820   116730272.200 7       180.009    21875202.100   116730272.203 7       180.009    21875215.240    90790252.085 6       140.007    21875215.200    90790257.089 6       140.007
R16  21859281.280   116768361.479 6       375.109    21859282.140   116768361.483 6       375.109    21859297.980    90819901.154 7       291.751    21859297.940    90819897.149 7       291.751
R15  23603367.380   126129233.076 6     -1047.981    23603368.000   126129233.077 6     -1047.981    23603401.100    98100653.813 7      -815.097    23603400.520    98100650.822 7      -815.097
R17  21624658.780   115717906.665 6      1607.723    21624659.780   115717906.694 6      1607.723    21624674.020    90002884.165 5      1250.451    21624673.220    90002885.160 5      1250.451
R04  21869623.880   117110839.037 7      6881.868    21869626.480   117110839.068 6      6881.868    21869645.520    91086300.450 8      5352.564    21869645.460    91086301.458 8      5352.564
G17  23861269.340   125391817.419 6      5545.628    23861267.940   125391817.416 3      5545.628    23861276.280    97707938.349 3      4321.269    23861274.540    97707932.387 6      4321.269
G04  23982764.560   126030290.878 6      5777.590    23982762.780   126030290.883 4      5777.590    23982788.660    98205513.859 4      4502.018    23982789.140    98205511.933 8      4502.018
G22  23985438.140   126044326.631 6      4677.011    23985436.440   126044326.633 3      4677.011    23985444.340    98216382.176 3      3644.424
G32  25116181.420   131986438.018 6      1062.772    25116181.000   131986438.028 3      1062.772    25116194.660   102846600.534 3       828.134    25116193.560   102846617.551 5       828.134
> 2025 04 04 16 59 32.0000000  0 18
G27  24607698.540   129314323.806 6      -386.241    24607696.560   129314323.816 4      -386.241    24607724.700   100764445.446 4      -300.967    24607726.120   100764513.412 6      -300.967
G02  22148348.460   116390357.124 7      1578.493    22148346.940   116390357.127 4      1578.493    22148350.800    90693793.388 4      1229.994
G03  19918059.560   104670108.344 8      3379.190    19918058.520   104670108.349 8      3379.190    19918066.080    81561150.992 8      2633.135    19918066.180    81561150.988 8      2633.135
G14  22291838.960   117144406.021 7      3718.521    22291837.900   117144406.028 5      3718.521    22291846.560    91281355.079 5      2897.549    22291847.100    91281383.084 8      2897.549
R03  19887031.120   106456836.674 8      4065.678    19887030.920   106456836.700 7      4065.678    19887042.700    82799811.647 8      3162.194    19887042.360    82799807.644 8      3162.194
G01  20924621.260   109959625.655 7      2318.564    20924620.780   109959625.658 6      2318.564    20924625.600    85682843.734 6      1806.673    20924625.480    85682842.739 8      1806.673
G08  21420748.440   112566791.933 7       701.448    21420747.200   112566791.932 7       701.448    21420758.000    87714412.995 7       546.583    21420758.560    87714422.004 8       546.583
R18  20635497.200   110153680.775 7      3365.893    20635496.320   110153680.763 7      3365.893    20635506.680    85675128.794 7      2617.917    20635507.380    85675131.793 7      2617.917
R09  23042014.980   123043066.169 6      3527.861    23042014.340   123043066.164 5      3527.861    23042025.780    95700220.258 6      2743.892    23042025.780    95700221.260 6      2743.892
R02  21875168.620   116730092.221 7       179.657    21875168.200   116730092.221 7       179.657    21875181.740    90790112.101 6       139.733    21875181.240    90790117.114 6       139.733
R16  21859210.760   116767986.339 6       374.990    21859212.120   116767986.351 6       374.990    21859227.340    90819609.389 7       291.659    21859227.540    90819605.380 7       291.659
R15  23603563.560   126130280.582 6     -1047.502    23603563.860   126130280.594 6     -1047.502    23603597.120    98101468.572 7      -814.724    23603596.340    98101465.586 7      -814.724
R17  21624358.860   115716298.816 6      1607.842    21624360.000   115716298.823 6      1607.842    21624372.320    90001633.577 5      1250.544    21624373.260    90001634.574 5      1250.544
R04  21868338.840   117103956.972 7      6881.920    21868341.360   117103956.998 6      6881.920    21868360.400    91080947.756 8      5352.604    21868360.200    91080948.762 8      5352.604
G17  23860213.720   125386271.441 6      5545.992    23860212.640   125386271.438 3      5545.992    23860221.040    97703616.818 3      4321.552    23860219.320    97703610.844 6      4321.552
G04  23981665.320   126024513.014 6      5777.817    23981663.400   126024513.019 4      5777.817    23981689.280    98201011.658 4      4502.195    23981689.520    98201009.738 8      4502.195
G22  23984548.220   126039649.565 6      4677.027    23984546.440   126039649.568 3      4677.027    23984554.180    98212737.715 3      3644.437
G32  25115980.140   131985375.216 6      1062.682    25115978.780   131985375.226 3      1062.682    25115992.480   102845772.385 3       828.064    25115991.820   102845789.387 5       828.064
> 2025 04 04 16 59 33.0000000  0 18
G27  24607772.000   129314709.760 6      -385.776    24607769.940   129314709.770 5      -385.776    24607798.260   100764746.169 5      -300.605    24607798.940   100764814.112 6      -300.605
G02  22148047.900   116388778.262 7      1579.195    22148046.560   116388778.264 4      1579.195    22148050.320    90692563.114 4      1230.541
G03  19917416.540   104666729.083 7      3379.320    19917415.040   104666729.088 8      3379.320    19917423.040    81558517.820 8      2633.236    19917423.440    81558517.821 8      2633.236
G14  22291131.400   117140687.424 7      3718.494    22291130.420   117140687.434 5      3718.494    22291138.960    91278457.479 5      2897.528    22291139.200    91278485.478 8      2897.528
R03  19886271.420   106452771.113 8      4065.495    19886271.140   106452771.141 8      4065.495    19886283.180    82796649.560 8      3162.052    19886282.780    82796645.559 8      3162.052
G01  20924180.100   109957306.811 7      2319.109    20924179.480   109957306.815 6      2319.109    20924184.260    85681036.854 6      1807.098    20924184.080    85681035.865 8      1807.098
G08  21420614.920   112566090.357 7       701.638    21420613.800   112566090.356 7       701.638    21420624.340    87713866.319 7       546.731    21420624.980    87713875.326 8       546.731
R18  20634866.360   110150314.595 7      3366.506    20634865.820   110150314.588 7      3366.506    20634875.960    85672510.667 7      2618.394    20634876.360    85672513.674 7      2618.394
R09  23041354.200   123039538.423 6      3527.487    23041352.300   123039538.392 5      3527.487    23041364.600    95697476.455 6      2743.601    23041365.040    95697477.465 6      2743.601
R02  21875135.280   116729912.508 7       179.745    21875134.220   116729912.504 6       179.745    21875148.400    90789972.331 6       139.802    21875147.600    90789977.329 6       139.802
R16  21859140.300   116767611.338 6       375.269    21859141.880   116767611.342 6       375.269    21859157.380    90819317.706 7       291.876    21859157.400    90819313.700 7       291.876
R15  23603759.100   126131327.543 6     -1046.447    23603760.100   126131327.560 6     -1046.447    23603792.780    98102282.889 7      -813.903    23603792.100    98102279.900 7      -813.903
R17  21624058.660   115714690.713 6      1608.417    21624059.040   115714690.701 6      1608.417    21624072.440    90000382.801 5      1250.991    21624071.960    90000383.798 5      1250.991
R04  21867053.240   117097074.678 7      6882.676    21867055.460   117097074.709 6      6882.676    21867075.340    91075594.879 8      5353.193    21867075.060    91075595.885 8      5353.193
G17  23859158.320   125380725.022 6      5546.631    23859157.180   125380725.021 3      5546.631    23859165.620    97699294.943 3      4322.050    23859163.520    97699288.975 6      4322.050
G04  23980565.660   126018734.653 5      5778.577    23980563.500   126018734.663 4      5778.577    23980589.560    98196509.070 4      4502.787    23980589.900    98196507.141 8      4502.787
G22  23983658.180   126034972.531 6      4677.148    23983656.260   126034972.533 3      4677.148    23983664.260    98209093.277 3      3644.531
G32  25115778.520   131984312.461 6      1062.651    25115776.640   131984312.477 3      1062.651    25115790.380   102844944.273 3       828.040    25115788.220   102844961.301 5       828.040
> 2025 04 04 16 59 34.0000000  0 18
G27  24607845.460   129315095.350 6      -385.520    24607843.360   129315095.366 5      -385.520    24607871.520   100765046.611 5      -300.405    24607871.860   100765114.581 6      -300.405
G02  22147747.320   116387198.953 7      1579.656    22147745.920   116387198.961 4      1579.656    22147749.900    90691332.489 4      1230.901
G03  19916773.660   104663349.953 7      3379.213    19916772.080   104663349.958 8      3379.213    19916780.080    81555884.751 8      2633.153    19916780.220    81555884.747 8      2633.153
G14  22290423.560   117136968.916 7      3718.617    22290422.800   117136968.918 5      3718.617    22290431.400    91275559.932 5      2897.624    22290431.720    91275587.931 8      2897.624
R03  19885511.680   106448705.894 8      4065.160    19885511.660   106448705.923 7      4065.160    19885523.680    82793487.738 8      3161.791    19885523.260    82793483.737 8      3161.791
G01  20923739.000   109954987.635 7      2319.437    20923737.980   109954987.637 6      2319.437    20923743.060    85679229.710 6      1807.354    20923742.860    85679228.713 8      1807.354
G08  21420481.440   112565388.667 7       701.896    21420480.280   112565388.670 7       701.896    21420491.020    87713319.554 7       546.932    21420491.540    87713328.563 8       546.932
R18  20634235.680   110146948.009 7      3366.950    20634235.480   110146947.999 7      3366.950    20634245.700    85669892.225 7      2618.739    20634245.920    85669895.232 7      2618.739
R09  23040693.540   123036010.847 5      3527.689    23040692.920   123036010.824 5      3527.689    23040704.340    95694732.767 6      2743.758    23040705.020    95694733.775 6      2743.758
R02  21875101.680   116729732.996 7       179.558    21875101.820   116729733.002 6       179.558    21875114.720    90789832.721 6       139.656    21875114.040    90789837.731 6       139.656
R16  21859070.380   116767236.401 6       375.096    21859071.600   116767236.407 6       375.096    21859086.460    90819026.091 7       291.741    21859086.960    90819022.084 7       291.741
R15  23603954.740   126132373.962 6     -1046.018    23603955.260   126132373.968 6     -1046.018    23603988.960    98103096.787 7      -813.569    23603988.120    98103093.793 7      -813.569
R17  21623758.360   115713082.193 6      1608.812    21623758.060   115713082.197 6      1608.812    21623772.400    89999131.783 5      1251.298    21623771.360    89999132.772 5      1251.298
R04  21865768.460   117090192.142 7      6882.788    21865769.860   117090192.173 6      6882.788    21865789.900    91070241.833 8      5353.279    21865789.840    91070242.841 8      5353.279
G17  23858102.780   125375178.114 6      5547.382    23858101.680   125375178.108 3      5547.382    23858110.180    97694972.687 3      4322.635    23858107.600    97694966.691 6      4322.635
G04  23979465.660   126012955.753 5      5779.399    23979463.540   126012955.761 4      5779.399    23979489.840    98192006.056 4      4503.428    23979490.000    98192004.113 8      4503.428
G22  23982768.120   126030295.431 6      4677.226    23982766.320   126030295.439 3      4677.226    23982774.160    98205448.792 3      3644.592
G32  25115576.600   131983249.670 6      1062.955    25115574.340   131983249.682 3      1062.955    25115588.020   102844116.132 3       828.277    25115584.060   102844133.166 5       828.277
> 2025 04 04 16 59 35.0000000  0 18
G27  24607918.800   129315480.671 6      -385.188    24607916.800   129315480.686 5      -385.188    24607944.680   100765346.844 5      -300.146    24607945.400   100765414.814 6      -300.146
G02  22147446.660   116385619.200 6      1580.062    22147445.280   116385619.208 4      1580.062    22147449.380    90690101.519 4      1231.217
G03  19916130.620   104659970.989 7      3378.834    19916129.180   104659970.994 8      3378.834    19916136.980    81553251.804 8      2632.858    19916137.220    81553251.800 8      2632.858
G14  22289715.920   117133250.569 7      3718.249    22289715.340   117133250.571 5      3718.249    22289723.720    91272662.527 5      2897.337    22289724.020    91272690.525 8      2897.337
R03  19884752.400   106444641.050 8      4064.604    19884752.540   106444641.073 8      4064.604    19884764.500    82790326.197 8      3161.359    19884763.800    82790322.196 8      3161.359
G01  20923297.560   109952668.117 7      2319.647    20923296.560   109952668.125 6      2319.647    20923301.640    85677422.306 6      1807.517    20923301.880    85677421.315 8      1807.517
G08  21420347.780   112564686.944 7       701.592    21420346.920   112564686.946 7       701.592    21420357.580    87712772.761 7       546.695    21420357.940    87712781.766 8       546.695
R18  20633604.820   110143581.055 7      3367.110    20633604.780   110143581.040 7      3367.110    20633614.800    85667273.485 7      2618.863    20633615.020    85667276.486 7      2618.863
R09  23040033.940   123032483.630 5      3526.905    23040031.380   123032483.599 5      3526.905    23040043.400    95691989.397 6      2743.148    23040044.480    95691990.421 6      2743.148
R02  21875068.320   116729553.714 7       179.075    21875068.280   116729553.720 6       179.075    21875081.240    90789693.291 6       139.280    21875080.760    90789698.293 6       139.280
R16  21859000.660   116766861.483 6       374.999    21859001.260   116766861.489 6       374.999    21859016.440    90818734.490 7       291.666    21859016.740    90818730.483 7       291.666
R15  23604150.660   126133419.769 6     -1045.516    23604151.220   126133419.764 6     -1045.516    23604184.280    98103910.199 7      -813.179    23604183.920    98103907.203 7      -813.179
R17  21623457.420   115711473.442 6      1608.785    21623457.620   115711473.449 6      1608.785    21623470.500    89997880.550 5      1251.277    21623471.180    89997881.549 5      1251.277
R04  21864483.120   117083309.384 7      6882.820    21864484.740   117083309.429 7      6882.820    21864504.520    91064888.610 8      5353.305    21864504.340    91064889.618 8      5353.305
G17  23857047.240   125369630.743 6      5547.519    23857045.940   125369630.738 3      5547.519    23857054.620    97690650.071 3      4322.742    23857052.200    97690644.116 6      4322.742
G04  23978366.120   126007176.328 5      5779.648    23978363.640   126007176.336 4      5779.648    23978390.040    98187502.635 4      4503.622    23978389.880    98187500.706 8      4503.622
G22  23981877.980   126025618.321 6      4677.019    23981876.380   126025618.329 3      4677.019    23981884.160    98201804.295 3      3644.430
G32  25115373.760   131982186.910 6      1062.698    25115372.160   131982186.928 3      1062.698    25115385.800   102843288.013 3       828.076    25115383.240   102843305.030 5       828.076
> 2025 04 04 16 59 36.0000000  0 18
G27  24607992.640   129315865.481 6      -384.551    24607989.920   129315865.496 5      -384.551    24608017.880   100765646.678 5      -299.650    24608019.060   100765714.636 6      -299.650
G02  22147146.000   116384038.772 6      1580.756    22147144.460   116384038.777 4      1580.756    22147148.740    90688870.021 4      1231.758
G03  19915487.420   104656591.923 7      3379.066    19915486.180   104656591.930 8      3379.066    19915494.060    81550618.775 8      2633.038    19915494.100    81550618.771 8      2633.038
G14  22289008.620   117129532.098 7      3718.460    22289007.740   117129532.102 5      3718.460    22289016.200    91269765.027 5      2897.501    22289016.160    91269793.032 8      2897.501
R03  19883993.280   106440576.327 7      4064.548    19883993.080   106440576.358 7      4064.548    19884004.960    82787164.766 8      3161.315    19884004.480    82787160.763 8      3161.315
G01  20922855.860   109950348.051 7      2320.191    20922855.180   109950348.058 6      2320.191    20922860.120    85675614.472 6      1807.941    20922860.320    85675613.485 8      1807.941
G08  21420214.420   112563984.879 7       702.092    21420213.220   112563984.879 7       702.092    21420224.080    87712225.697 7       547.085    21420224.320    87712234.706 8       547.085
R18  20632974.140   110140213.399 6      3367.961    20632973.860   110140213.394 7      3367.961    20632984.140    85664654.212 7      2619.525    20632984.120    85664657.212 7      2619.525
R09  23039372.700   123028956.423 5      3527.099    23039372.500   123028956.384 5      3527.099    23039383.380    95689245.995 6      2743.299    23039383.860    95689246.995 6      2743.299
R02  21875034.600   116729374.375 7       179.217    21875034.100   116729374.376 6       179.217    21875047.660    90789553.820 6       139.391    21875047.200    90789558.833 6       139.391
R16  21858930.000   116766486.431 6       375.050    21858931.440   116766486.442 6       375.050    21858946.800    90818442.764 7       291.706    21858946.460    90818438.753 7       291.706
R15  23604345.740   126134464.771 6     -1044.850    23604346.780   126134464.772 6     -1044.850    23604379.680    98104723.008 7      -812.661    23604379.420    98104720.014 7      -812.661
R17  21623156.760   115709864.119 6      1609.513    21623156.580   115709864.102 6      1609.513    21623170.300    89996628.831 5      1251.843    21623170.360    89996629.822 5      1251.843
R04  21863197.680   117076426.155 7      6883.397    21863199.620   117076426.189 7      6883.397    21863219.120    91059535.015 8      5353.753    21863218.800    91059536.023 8      5353.753
G17  23855991.680   125364082.629 6      5548.374    23855990.120   125364082.624 3      5548.374    23855999.060    97686326.880 3      4323.409    23855996.800    97686320.918 6      4323.409
G04  23977265.900   126001396.089 5      5780.712    23977263.920   126001396.097 4      5780.712    23977289.820    98182998.583 4      4504.451    23977290.040    98182996.664 8      4504.451
G22  23980987.760   126020940.927 6      4677.487    23980986.300   126020940.934 3      4677.487    23980994.000    98198159.580 3      3644.795
G32  25115171.320   131981123.913 6      1063.055    25115169.920   131981123.934 3      1063.055    25115183.620   102842459.713 3       828.354    25115182.080   102842476.800 5       828.354
> 2025 04 04 16 59 37.0000000  0 18
G27  24608065.460   129316250.095 6      -384.617    24608063.200   129316250.105 5      -384.617    24608091.180   100765946.354 5      -299.702    24608091.860   100766014.300 6      -299.702
G02  22146845.380   116382457.978 6      1580.993    22146843.700   116382457.981 4      1580.993    22146847.840    90687638.244 4      1231.943
G03  19914844.220   104653213.103 8      3378.640    19914843.120   104653213.105 8      3378.640    19914851.060    81547985.937 8      2632.706    19914851.060    81547985.935 8      2632.706
G14  22288301.140   117125813.845 7      3718.020    22288300.360   117125813.852 5      3718.020    22288308.380    91266867.708 5      2897.158    22288308.600    91266895.731 8      2897.158
R03  19883234.000   106436512.074 8      4063.940    19883233.480   106436512.106 8      4063.940    19883245.840    82784003.696 8      3160.842    19883245.380    82783999.695 8      3160.842
G01  20922414.180   109948027.724 7      2320.424    20922413.680   109948027.723 6      2320.424    20922418.620    85673806.427 6      1808.123    20922418.600    85673805.437 8      1808.123
G08  21420080.940   112563282.812 7       701.990    21420079.620   112563282.814 7       701.990    21420090.340    87711678.640 7       547.005    21420090.880    87711687.647 8       547.005
R18  20632342.940   110136845.478 7      3367.942    20632342.960   110136845.476 7      3367.942    20632352.920    85662034.726 7      2619.511    20632353.260    85662037.727 7      2619.511
R09  23038712.040   123025429.548 5      3526.663    23038710.700   123025429.541 5      3526.663    23038722.940    95686502.930 6      2742.960    23038723.780    95686503.944 6      2742.960
R02  21875001.220   116729195.300 7       178.941    21875000.060   116729195.296 6       178.941    21875014.280    90789414.544 6       139.176    21875013.880    90789419.548 6       139.176
R16  21858859.820   116766111.496 6       374.628    21858860.140   116766111.511 6       374.628    21858876.960    90818151.165 7       291.378    21858876.400    90818147.161 7       291.378
R15  23604541.620   126135509.221 6     -1044.393    23604542.800   126135509.225 6     -1044.393    23604574.940    98105535.382 7      -812.306    23604574.600    98105532.393 7      -812.306
R17  21622855.420   115708254.523 6      1609.729    21622855.740   115708254.508 6      1609.729    21622868.780    89995376.904 5      1252.011    21622869.180    89995377.887 5      1252.011
R04  21861911.960   117069542.824 7      6883.431    21861913.960   117069542.855 7      6883.431    21861933.760    91054181.336 8      5353.779    21861933.460    91054182.344 8      5353.779
G17  23854935.800   125358534.137 6      5548.757    23854934.260   125358534.134 3      5548.757    23854943.280    97682003.390 3      4323.707    23854940.420    97681997.428 6      4323.707
G04  23976165.280   125995615.469 5      5780.686    23976163.860   125995615.476 4      5780.686    23976189.900    98178494.232 4      4504.431    23976190.140    98178492.317 8      4504.431
G22  23980097.780   126016263.585 6      4677.229    23980096.340   126016263.590 3      4677.229    23980103.980    98194514.909 3      3644.594
G32  25114969.240   131980060.988 6      1062.851    25114967.760   131980061.008 3      1062.851    25114981.280   102841631.473 3       828.196    25114980.620   102841648.516 5       828.196
> 2025 04 04 16 59 38.0000000  0 18
G27  24608138.580   129316634.251 6      -383.894    24608136.300   129316634.256 5      -383.894    24608164.180   100766245.676 5      -299.139    24608164.640   100766313.650 6      -299.139
G02  22146544.500   116380876.630 7      1581.662    22146542.780   116380876.630 4      1581.662    22146546.880    90686406.033 4      1232.464
G03  19914201.420   104649834.307 7      3378.821    19914200.060   104649834.312 8      3378.821    19914208.220    81545353.115 8      2632.848    19914208.220    81545353.113 8      2632.848
G14  22287593.940   117122095.652 7      3718.228    22287592.820   117122095.657 5      3718.228    22287600.860    91263970.423 5      2897.320    22287601.200    91263998.426 8      2897.320
R03  19882474.800   106432448.095 8      4063.854    19882474.480   106432448.126 8      4063.854    19882486.660    82780842.831 8      3160.775    19882486.480    82780838.830 8      3160.775
G01  20921972.480   109945706.977 7      2320.967    20921972.180   109945706.976 6      2320.967    20921976.940    85671998.061 6      1808.546    20921977.080    85671997.072 8      1808.546
G08  21419947.220   112562580.574 7       702.360    21419945.900   112562580.571 7       702.360    21419956.780    87711131.441 7       547.294    21419957.540    87711140.446 8       547.294
R18  20631711.820   110133477.000 7      3368.703    20631711.880   110133477.001 7      3368.703    20631722.300    85659414.813 7      2620.102    20631722.440    85659417.812 7      2620.102
R09  23038051.620   123021902.878 5      3526.670    23038051.980   123021902.849 5      3526.670    23038063.260    95683759.941 6      2742.966    23038063.060    95683760.928 6      2742.966
R02  21874967.980   116729016.338 7       178.918    21874966.840   116729016.336 6       178.918    21874980.500    90789275.351 6       139.158    21874980.160    90789280.361 6       139.158
R16  21858789.560   116765736.527 6       374.950    21858790.160   116765736.542 6       374.950    21858806.880    90817859.547 7       291.628    21858806.320    90817855.545 7       291.628
R15  23604736.640   126136552.941 6     -1043.380    23604737.740   126136552.939 6     -1043.380    23604770.220    98106347.177 7      -811.518    23604769.960    98106344.189 7      -811.518
R17  21622554.860   115706644.453 6      1610.277    21622554.420   115706644.479 6      1610.277    21622567.280    89994124.692 5      1252.438    21622567.980    89994125.681 5      1252.438
R04  21860626.120   117062659.150 7      6883.960    21860628.900   117062659.192 7      6883.960    21860648.060    91048827.405 8      5354.191    21860648.140    91048828.415 8      5354.191
G17  23853880.180   125352985.095 6      5549.372    23853878.120   125352985.092 3      5549.372    23853887.380    97677679.477 3      4324.186    23853884.140    97677673.532 6      4324.186
G04  23975065.280   125989834.154 5      5781.495    23975063.800   125989834.167 4      5781.495    23975089.760    98173989.346 4      4505.061    23975090.060    98173987.442 8      4505.061
G22  23979207.800   126011586.097 6      4677.671    23979206.120   126011586.096 3      4677.671    23979213.980    98190870.121 3      3644.939
G32  25114767.040   131978997.957 6      1063.113    25114765.440   131978997.978 3      1063.113    25114778.940   102840803.150 3       828.399    25114775.460   102840820.267 5       828.399
> 2025 04 04 16 59 39.0000000  0 18
G27  24608212.080   129317018.121 6      -383.556    24608209.260   129317018.128 5      -383.556    24608237.220   100766544.793 5      -298.875    24608237.400   100766612.813 6      -298.875
G02  22146243.720   116379294.891 6      1581.991    22146241.800   116379294.893 4      1581.991    22146245.920    90685173.515 4      1232.720
G03  19913558.460   104646455.687 8      3378.683    19913557.180   104646455.689 8      3378.683    19913565.300    81542720.432 8      2632.740    19913565.320    81542720.431 8      2632.740
G14  22286886.280   117118377.570 7      3718.253    22286885.200   117118377.578 5      3718.253    22286893.360    91261073.222 5      2897.340    22286893.540    91261101.225 8      2897.340
R03  19881715.800   106428384.482 8      4063.499    19881715.180   106428384.511 8      4063.499    19881727.340    82777682.262 8      3160.500    19881727.200    82777678.263 8      3160.500
G01  20921531.020   109943385.906 7      2321.333    20921530.340   109943385.909 6      2321.333    20921535.300    85670189.443 6      1808.831    20921535.500    85670188.448 8      1808.831
G08  21419813.620   112561878.267 7       702.497    21419812.340   112561878.267 7       702.497    21419823.180    87710584.196 7       547.400    21419823.820    87710593.206 8       547.400
R18  20631080.540   110130108.156 7      3369.237    20631081.240   110130108.154 7      3369.237    20631090.880    85656794.605 7      2620.518    20631091.400    85656797.604 7      2620.518
R09  23037390.820   123018376.469 5      3526.214    23037390.080   123018376.465 5      3526.214    23037402.620    95681017.208 6      2742.611    23037403.280    95681018.208 6      2742.611
R02  21874934.460   116728837.586 7       178.718    21874933.440   116728837.576 6       178.718    21874947.080    90789136.318 6       139.003    21874946.260    90789141.324 6       139.003
R16  21858719.320   116765361.649 6       374.918    21858719.660   116765361.661 6       374.918    21858736.700    90817567.979 7       291.603    21858736.240    90817563.967 7       291.603
R15  23604931.640   126137596.097 6     -1042.777    23604933.100   126137596.096 6     -1042.777    23604965.740    98107158.538 7      -811.049    23604965.320    98107155.542 7      -811.049
R17  21622254.480   115705034.170 6      1610.679    21622253.760   115705034.171 6      1610.679    21622266.380    89992872.210 5      1252.750    21622266.280    89992873.190 5      1252.750
R04  21859340.920   117055775.281 7      6884.072    21859343.560   117055775.331 7      6884.072    21859362.460    91043473.311 8      5354.278    21859362.360    91043474.321 8      5354.278
G17  23852823.960   125347435.575 6      5549.973    23852822.060   125347435.575 3      5549.973    23852831.500    97673355.191 3      4324.654    23852828.600    97673349.239 6      4324.654
G04  23973964.640   125984052.302 5      5782.372    23973963.480   125984052.309 4      5782.372    23973989.540    98169484.035 4      4505.745    23973989.680    98169482.103 8      4505.745
G22  23978317.640   126006908.624 6      4677.464    23978316.080   126006908.626 3      4677.464    23978323.880    98187225.343 3      3644.777
G32  25114564.740   131977934.963 6      1063.059    25114563.260   131977934.981 3      1063.059    25114576.840   102839974.851 3       828.357    25114573.660   102839991.951 5       828.357
> 2025 04 04 16 59 40.0000000  0 18
G27  24608285.200   129317401.780 5      -383.758    24608282.220   129317401.790 4      -383.758    24608310.360   100766843.736 4      -299.032    24608310.480   100766911.695 6      -299.032
G02  22145942.360   116377712.687 6      1582.019    22145940.640   116377712.689 4      1582.019    22145945.020    90683940.628 4      1232.742
G03  19912915.500   104643077.193 7      3378.154    19912914.360   104643077.201 8      3378.154    19912922.360    81540087.844 8      2632.328    19912922.260    81540087.840 8      2632.328
G14  22286178.600   117114659.656 7      3717.531    22286177.720   117114659.666 5      3717.531    22286185.920    91258176.153 5      2896.777    22286186.160    91258204.155 8      2896.777
R03  19880956.640   106424321.215 8      4062.838    19880955.960   106424321.238 8      4062.838    19880968.260    82774521.949 8      3159.985    19880968.340    82774517.952 8      3159.985
G01  20921089.140   109941064.505 7      2321.350    20921088.620   109941064.505 6      2321.350    20921093.620    85668380.563 6      1808.844    20921093.800    85668379.560 8      1808.844
G08  21419680.100   112561175.887 7       702.127    21419678.840   112561175.884 7       702.127    21419689.520    87710036.884 7       547.112    21419690.220    87710045.891 8       547.112
R18  20630449.460   110126738.903 7      3369.152    20630449.380   110126738.915 7      3369.152    20630459.900    85654174.086 7      2620.451    20630460.400    85654177.091 7      2620.451
R09  23036730.520   123014850.339 5      3525.749    23036730.860   123014850.337 5      3525.749    23036742.600    95678274.662 6      2742.249    23036742.980    95678275.662 6      2742.249
R02  21874900.560   116728658.997 7       178.239    21874899.840   116728658.990 6       178.239    21874913.440    90788997.423 6       138.630    21874912.360    90789002.423 6       138.630
R16  21858649.480   116764986.832 6       374.575    21858648.980   116764986.838 6       374.575    21858666.420    90817276.428 7       291.336    21858666.060    90817272.422 7       291.336
R15  23605126.640   126138638.655 6     -1042.585    23605128.220   126138638.672 6     -1042.585    23605160.400    98107969.445 7      -810.899    23605160.260    98107966.457 7      -810.899
R17  21621953.400   115703423.568 6      1610.629    21621952.420   115703423.566 6      1610.629    21621965.780    89991619.528 5      1252.711    21621966.380    89991620.516 5      1252.711
R04  21858055.320   117048891.147 7      6884.027    21858058.020   117048891.189 7      6884.027    21858076.920    91038119.001 8      5354.243    21858076.800    91038120.007 8      5354.243
G17  23851767.800   125341885.554 6      5550.202    23851766.080   125341885.553 3      5550.202    23851775.420    97669030.517 3      4324.832    23851771.920    97669024.569 6      4324.832
G04  23972864.060   125978270.000 5      5782.117    23972863.040   125978270.012 4      5782.117    23972889.240    98164978.374 4      4505.546    23972889.400    98164976.447 8      4505.546
G22  23977427.860   126002231.080 7      4677.336    23977426.060   126002231.085 3      4677.336    23977433.860    98183580.518 3      3644.677
G32  25114362.220   131976871.967 6      1062.731    25114360.900   131976871.982 3      1062.731    25114374.680   102839146.548 3       828.102    25114373.780   102839163.657 5       828.102
> 2025 04 04 16 59 41.0000000  0 18
G27  24608357.920   129317785.293 5      -383.222    24608355.320   129317785.300 4      -383.222    24608383.600   100767142.551 4      -298.615    24608383.700   100767210.507 6      -298.615
G02  22145640.980   116376130.172 7      1582.854    22145639.580   116376130.177 4      1582.854    22145643.820    90682707.504 4      1233.393
G03  19912272.620   104639699.033 7      3378.244    19912271.520   104639699.035 8      3378.244    19912279.500    81537455.511 8      2632.398    19912279.400    81537455.507 8      2632.398
G14  22285471.240   117110942.055 7      3717.583    22285470.260   117110942.065 5      3717.583    22285478.460    91255279.325 5      2896.818    22285478.680    91255307.319 8      2896.818
R03  19880197.840   106420258.515 8      4062.585    19880196.780   106420258.543 7      4062.585    19880209.320    82771362.073 8      3159.788    19880209.240    82771358.075 8      3159.788
G01  20920647.420   109938742.948 7      2321.920    20920646.840   109938742.953 6      2321.920    20920651.960    85666571.564 6      1809.288    20920652.200    85666570.563 8      1809.288
G08  21419546.340   112560473.625 7       702.332    21419545.200   112560473.627 7       702.332    21419555.860    87709489.663 7       547.271    21419556.640    87709498.666 8       547.271
R18  20629818.340   110123369.464 7      3369.683    20629818.160   110123369.476 7      3369.683    20629828.560    85651553.420 7      2620.864    20629829.180    85651556.420 7      2620.864
R09  23036070.480   123011324.667 5      3525.527    23036070.100   123011324.676 5      3525.527    23036082.580    95675532.490 6      2742.077    23036083.120    95675533.481 6      2742.077
R02  21874867.360   116728480.854 7       178.191    21874866.560   116728480.846 6       178.191    21874880.260    90788858.859 6       138.593    21874879.140    90788863.859 6       138.593
R16  21858579.680   116764612.253 6       374.746    21858579.860   116764612.249 6       374.746    21858596.380    90816985.066 7       291.469    21858595.820    90816981.060 7       291.469
R15  23605321.360   126139680.799 6     -1041.719    23605322.920   126139680.806 6     -1041.719    23605355.260    98108780.026 7      -810.226    23605355.500    98108777.030 7      -810.226
R17  21621651.900   115701812.864 6      1610.829    21621650.520   115701812.855 6      1610.829    21621664.040    89990366.754 5      1252.867    21621665.100    89990367.734 5      1252.867
R04  21856770.320   117042006.991 7      6884.439    21856772.400   117042007.039 7      6884.439    21856791.220    91032764.677 8      5354.563    21856791.340    91032765.681 8      5354.563
G17  23850711.420   125336335.314 6      5550.620    23850709.940   125336335.316 3      5550.620    23850719.320    97664705.667 3      4325.158    23850716.420    97664699.724 6      4325.158
G04  23971764.240   125972487.214 5      5783.263    23971762.320   125972487.222 4      5783.263    23971788.640    98160472.330 4      4506.438    23971788.840    98160470.395 8      4506.438
G22  23976537.880   125997553.694 6      4677.742    23976535.920   125997553.696 3      4677.742    23976543.820    98179935.807 3      3644.993
G32  25114160.380   131975809.073 6      1063.286    25114158.520   131975809.088 3      1063.286    25114172.320   102838318.332 3       828.534    25114170.680   102838335.450 5       828.534
> 2025 04 04 16 59 42.0000000  0 18
G27  24608429.920   129318168.608 5      -383.397    24608428.300   129318168.605 4      -383.397    24608456.440   100767441.211 4      -298.751    24608456.160   100767509.165 6      -298.751
G02  22145340.040   116374547.355 7      1583.093    22145338.360   116374547.358 4      1583.093    22145342.720    90681474.143 4      1233.579
G03  19911629.660   104636321.096 7      3377.901    19911628.720   104636321.101 8      3377.901    19911636.680    81534823.359 8      2632.130    19911636.600    81534823.355 8      2632.130
G14  22284763.820   117107224.632 7      3717.504    22284763.020   117107224.640 5      3717.504    22284771.060    91252382.634 5      2896.757    22284771.560    91252410.628 8      2896.757
R03  19879438.800   106416196.238 8      4062.129    19879438.180   106416196.255 7      4062.129    19879450.500    82768202.520 8      3159.433    19879450.460    82768198.522 8      3159.433
G01  20920205.440   109936421.169 7      2322.025    20920204.960   109936421.176 6      2322.025    20920210.060    85664762.385 6      1809.370    20920210.460    85664761.388 8      1809.370
G08  21419412.560   112559771.345 7       702.411    21419411.500   112559771.344 7       702.411    21419422.140    87708942.424 7       547.334    21419422.940    87708951.432 7       547.334
R18  20629187.000   110119999.665 6      3370.128    20629187.620   110119999.666 7      3370.128    20629197.520    85648932.452 7      2621.210    20629197.800    85648935.461 7      2621.210
R09  23035410.640   123007799.367 5      3525.071    23035411.240   123007799.376 5      3525.071    23035422.220    95672790.573 6      2741.722    23035422.980    95672791.591 6      2741.722
R02  21874833.940   116728303.070 7       177.651    21874833.460   116728303.063 6       177.651    21874846.420    90788720.571 6       138.173    21874846.120    90788725.571 6       138.173
R16  21858509.840   116764237.775 6       374.508    21858509.440   116764237.766 6       374.508    21858526.280    90816693.806 7       291.284    21858525.620    90816689.797 7       291.284
R15  23605516.600   126140722.478 6     -1041.349    23605517.800   126140722.476 6     -1041.349    23605550.100    98109590.200 7      -809.938    23605550.140    98109587.202 7      -809.938
R17  21621350.640   115700201.812 6      1611.284    21621350.780   115700201.798 6      1611.284    21621362.820    89989113.701 5      1253.221    21621363.740    89989114.694 5      1253.221
R04  21855484.440   117035122.699 7      6884.469    21855486.820   117035122.747 7      6884.469    21855505.520    91027410.238 8      5354.587    21855505.660    91027411.246 8      5354.587
G17  23849655.180   125330784.636 6      5551.056    23849653.800   125330784.635 3      5551.056    23849662.740    97660380.471 3      4325.499    23849659.200    97660374.518 6      4325.499
G04  23970663.080   125966703.995 5      5783.468    23970661.560   125966704.002 4      5783.468    23970688.520    98155965.956 4      4506.598    23970688.360    98155964.060 8      4506.598
G22  23975647.560   125992876.415 6      4677.290    23975645.840   125992876.418 3      4677.290    23975653.860    98176291.183 3      3644.641
G32  25113957.900   131974746.407 5      1062.800    25113956.360   131974746.425 3      1062.800    25113970.220   102837490.293 3       828.156    25113968.220   102837507.377 5       828.156
> 2025 04 04 16 59 43.0000000  0 18
G27  24608503.360   129318551.508 5      -382.753    24608501.080   129318551.503 4      -382.753    24608529.440   100767739.553 4      -298.249    24608528.680   100767807.507 6      -298.249
G02  22145038.840   116372963.992 6      1583.666    22145036.980   116372963.992 4      1583.666    22145041.240    90680240.355 4      1234.025
G03  19910986.880   104632943.233 7      3377.870    19910985.820   104632943.235 8      3377.870    19910993.900    81532191.260 8      2632.107    19910993.640    81532191.262 8      2632.107
G14  22284056.400   117103507.291 7      3717.432    22284055.500   117103507.307 5      3717.432    22284063.780    91249486.008 5      2896.701    22284064.160    91249514.011 8      2896.701
R03  19878680.160   106412134.234 8      4061.882    19878679.060   106412134.257 7      4061.882    19878691.640    82765043.192 8      3159.242    19878691.380    82765039.195 8      3159.242
G01  20919763.680   109934098.995 7      2322.342    20919763.100   109934098.997 6      2322.342    20919768.120    85662952.897 6      1809.617    20919768.480    85662951.894 8      1809.617
G08  21419278.700   112559068.933 7       702.452    21419278.000   112559068.938 7       702.452    21419288.480    87708395.098 7       547.365    21419289.280    87708404.109 8       547.365
R18  20628555.960   110116629.409 7      3370.637    20628555.660   110116629.404 7      3370.637    20628565.680    85646311.148 7      2621.606    20628566.080    85646314.157 7      2621.606
R09  23034750.460   123004274.235 5      3525.152    23034750.840   123004274.217 5      3525.152    23034762.040    95670048.789 6      2741.785    23034763.000    95670049.809 6      2741.785
R02  21874800.420   116728125.388 7       177.577    21874799.640   116728125.384 7       177.577    21874813.960    90788582.378 6       138.116    21874812.500    90788587.372 6       138.116
R16  21858440.020   116763863.274 6       374.458    21858439.340   116763863.275 6       374.458    21858456.220    90816402.516 7       291.245    21858455.700    90816398.518 7       291.245
R15  23605711.420   126141763.468 6     -1040.611    23605712.220   126141763.474 6     -1040.611    23605744.980    98110399.880 7      -809.364    23605745.080    98110396.890 7      -809.364
R17  21621049.900   115698590.349 6      1611.717    21621048.860   115698590.361 6      1611.717    21621061.900    89987860.351 5      1253.558    21621061.860    89987861.346 5      1253.558
R04  21854198.520   117028238.139 7      6884.659    21854200.440   117028238.197 7      6884.659    21854219.880    91022055.616 8      5354.735    21854219.960    91022056.622 8      5354.735
G17  23848598.920   125325233.426 6      5551.614    23848597.620   125325233.429 3      5551.614    23848606.240    97656054.866 3      4325.933    23848603.320    97656048.916 6      4325.933
G04  23969562.380   125960920.224 5      5784.280    23969560.680   125960920.229 4      5784.280    23969587.900    98151459.144 3      4507.231    23969587.720    98151457.216 8      4507.231
G22  23974757.560   125988198.974 6      4677.520    23974755.740   125988198.976 3      4677.520    23974764.000    98172646.429 3      3644.821
G32  25113755.540   131973683.621 5      1062.640    25113754.180   131973683.639 3      1062.640    25113768.140   102836662.154 3       828.031    25113766.360   102836679.219 5       828.031
> 2025 04 04 16 59 44.0000000  0 18
G27  24608575.960   129318934.078 5      -382.779    24608573.720   129318934.080 4      -382.779    24608602.300   100768037.642 4      -298.269    24608602.080   100768105.609 6      -298.269
G02  22144737.500   116371380.119 7      1584.119    22144735.360   116371380.121 4      1584.119    22144739.860    90679006.166 4      1234.378
G03  19910344.420   104629565.430 8      3377.685    19910342.980   104629565.435 8      3377.685    19910351.140    81529559.210 8      2631.962    19910351.160    81529559.208 8      2631.962
G14  22283349.120   117099790.050 7      3717.026    22283348.100   117099790.065 5      3717.026    22283356.600    91246589.457 5      2896.384    22283356.840    91246617.445 8      2896.384
R03  19877921.540   106408072.559 8      4061.342    19877920.400   106408072.582 8      4061.342    19877932.660    82761884.122 8      3158.821    19877932.580    82761880.127 8      3158.821
G01  20919321.620   109931776.374 7      2322.685    20919321.000   109931776.379 6      2322.685    20919326.260    85661143.063 6      1809.884    20919326.480    85661142.068 8      1809.884
G08  21419144.980   112558366.340 7       702.574    21419144.240   112558366.342 7       702.574    21419154.840    87707847.617 7       547.460    21419155.460    87707856.622 8       547.460
R18  20627924.900   110113258.691 7      3370.827    20627924.660   110113258.684 7      3370.827    20627934.120    85643689.481 7      2621.754    20627934.640    85643692.490 7      2621.754
R09  23034090.520   123000749.324 6      3524.723    23034090.660   123000749.320 5      3524.723    23034101.740    95667307.188 6      2741.451    23034102.680    95667308.185 6      2741.451
R02  21874767.260   116727947.821 7       177.245    21874766.780   116727947.830 7       177.245    21874780.320    90788444.303 6       137.857    21874779.280    90788449.295 6       137.857
R16  21858370.160   116763488.713 6       374.520    21858369.000   116763488.712 6       374.520    21858386.280    90816111.181 7       291.294    21858385.680    90816107.181 7       291.294
R15  23605906.080   126142803.773 6     -1040.152    23605907.240   126142803.766 6     -1040.152    23605939.380    98111208.994 7      -809.007    23605939.260    98111205.998 7      -809.007
R17  21620748.240   115696978.537 6      1611.760    21620746.820   115696978.568 6      1611.760    21620760.500    89986606.761 5      1253.591    21620760.960    89986607.784 5      1253.591
R04  21852912.760   117021353.264 7      6884.868    21852915.160   117021353.319 7      6884.868    21852934.240    91016700.725 8      5354.898    21852934.260    91016701.731 8      5354.898
G17  23847542.480   125319681.652 6      5551.952    23847540.920   125319681.654 3      5551.952    23847549.880    97651728.818 3      4326.196    23847547.100    97651722.834 6      4326.196
G04  23968460.720   125955135.778 5      5785.087    23968459.820   125955135.783 4      5785.087    23968487.120    98146951.808 3      4507.860    23968486.840    98146949.898 7      4507.860
G22  23973867.520   125983521.433 7      4677.549    23973865.820   125983521.435 3      4677.549    23973873.960    98169001.598 3      3644.844
G32  25113553.980   131972620.675 6      1063.109    25113551.920   131972620.695 3      1063.109    25113565.880   102835833.888 3       828.396    25113562.500   102835850.931 5       828.396
> 2025 04 04 16 59 45.0000000  0 18
G27  24608649.240   129319316.410 5      -382.214    24608646.480   129319316.402 4      -382.214    24608675.300   100768335.531 4      -297.829    24608675.240   100768403.483 6      -297.829
G02  22144435.960   116369795.913 7      1584.489    22144433.860   116369795.917 4      1584.489    22144438.540    90677771.724 4      1234.667
G03  19909701.680   104626187.874 7      3377.537    19909700.240   104626187.877 8      3377.537    19909708.360    81526927.356 8      2631.847    19909708.360    81526927.354 8      2631.847
G14  22282641.640   117096072.998 7      3716.925    22282640.840   117096073.010 5      3716.925    22282649.060    91243693.055 5      2896.305    22282649.300    91243721.049 8      2896.305
R03  19877162.800   106404011.368 8      4060.989    19877161.820   106404011.380 7      4060.989    19877174.080    82758725.425 8      3158.547    19877174.100    82758721.426 8      3158.547
G01  20918879.680   109929453.549 7      2322.910    20918879.040   109929453.551 6      2322.910    20918884.300    85659333.071 6      1810.060    20918884.480    85659332.078 8      1810.060
G08  21419011.500   112557663.786 7       702.586    21419010.640   112557663.789 7       702.586    21419021.140    87707300.179 7       547.470    21419021.660    87707309.181 8       547.470
R18  20627293.160   110109887.653 7      3371.169    20627293.320   110109887.649 7      3371.169    20627302.640    85641067.579 7      2622.020    20627302.900    85641070.594 7      2622.020
R09  23033430.100   122997224.811 6      3524.497    23033430.660   122997224.788 5      3524.497    23033442.040    95664565.892 6      2741.276    23033442.680    95664566.906 6      2741.276
R02  21874733.800   116727770.526 7       177.205    21874733.940   116727770.533 6       177.205    21874746.600    90788306.403 6       137.826    21874746.140    90788311.409 6       137.826
R16  21858299.760   116763114.364 6       374.303    21858298.780   116763114.354 6       374.303    21858316.080    90815820.018 7       291.124    21858315.460    90815816.014 7       291.124
R15  23606100.440   126143843.576 6     -1039.541    23606101.840   126143843.577 6     -1039.541    23606133.900    98112017.757 7      -808.532    23606133.980    98112014.763 7      -808.532
R17  21620446.980   115695366.528 6      1612.115    21620445.880   115695366.564 6      1612.115    21620458.060    89985352.972 5      1253.867    21620459.760    89985353.990 5      1253.867
R04  21851627.000   117014468.241 7      6885.147    21851629.340   117014468.282 7      6885.147    21851648.340    91011345.723 8      5355.114    21851648.580    91011346.727 8      5355.114
G17  23846485.920   125314129.507 6      5552.282    23846484.240   125314129.510 3      5552.282    23846493.460    97647402.478 3      4326.453    23846491.240    97647396.514 6      4326.453
G04  23967360.840   125949351.006 5      5784.944    23967358.540   125949351.008 4      5784.944    23967386.060    98142444.220 3      4507.749    23967386.080    98142442.324 7      4507.749
G22  23972977.440   125978843.965 7      4677.521    23972975.780   125978843.965 3      4677.521    23972983.920    98165356.824 3      3644.822
G32  25113351.000   131971557.917 6      1062.794    25113349.800   131971557.938 3      1062.794    25113363.720   102835005.774 3       828.151    25113360.700   102835022.827 5       828.151
> 2025 04 04 16 59 46.0000000  0 18
G27  24608721.860   129319698.346 5      -381.652    24608718.980   129319698.335 4      -381.652    24608747.840   100768633.113 4      -297.391    24608747.840   100768701.059 6      -297.391
G02  22144134.140   116368211.149 6      1585.234    22144132.280   116368211.149 4      1585.234    22144137.240    90676536.841 4      1235.247
G03  19909058.720   104622810.355 7      3377.664    19909057.540   104622810.363 8      3377.664    19909065.640    81524295.529 8      2631.946    19909065.540    81524295.527 8      2631.946
G14  22281934.720   117092355.956 7      3717.246    22281933.520   117092355.964 5      3717.246    22281941.760    91240796.665 5      2896.555    22281941.940    91240824.665 8      2896.555
R03  19876404.360   106399950.440 8      4060.986    19876403.140   106399950.455 8      4060.986    19876415.260    82755566.933 8      3158.545    19876415.720    82755562.934 8      3158.545
G01  20918437.700   109927130.253 7      2323.727    20918436.900   109927130.258 6      2323.727    20918442.260    85657522.718 6      1810.696    20918442.480    85657521.728 8      1810.696
G08  21418877.960   112556961.025 7       703.038    21418876.900   112556961.030 7       703.038    21418887.500    87706752.572 7       547.822    21418887.760    87706761.577 8       547.822
R18  20626661.640   110106516.087 7      3372.085    20626661.300   110106516.077 7      3372.085    20626671.320    85638445.245 7      2622.733    20626671.060    85638448.258 7      2622.733
R09  23032770.540   122993700.432 6      3524.443    23032770.820   122993700.431 5      3524.443    23032781.560    95661824.731 6      2741.233    23032782.720    95661825.732 6      2741.233
R02  21874700.540   116727593.309 7       177.435    21874700.700   116727593.315 7       177.435    21874713.680    90788168.567 6       138.005    21874712.680    90788173.567 6       138.005
R16  21858229.640   116762739.947 6       374.590    21858228.120   116762739.935 6       374.590    21858246.020    90815528.797 7       291.348    21858245.320    90815524.793 7       291.348
R15  23606295.080   126144882.709 7     -1038.635    23606296.220   126144882.713 6     -1038.635    23606327.760    98112825.979 7      -807.827    23606328.420    98112822.987 7      -807.827
R17  21620146.520   115693754.098 6      1613.032    21620143.580   115693754.100 6      1613.032    21620156.880    89984098.840 5      1254.580    21620158.340    89984099.847 5      1254.580
R04  21850341.800   117007582.853 7      6885.870    21850343.480   117007582.898 7      6885.870    21850362.580    91005990.445 8      5355.676    21850362.500    91005991.451 8      5355.676
G17  23845429.780   125308576.756 6      5553.354    23845427.580   125308576.748 3      5553.354    23845436.800    97643075.671 3      4327.289    23845434.220    97643069.686 6      4327.289
G04  23966260.380   125943565.580 5      5785.476    23966257.300   125943565.582 4      5785.476    23966284.880    98137936.129 3      4508.163    23966284.980    98137934.202 7      4508.163
G22  23972087.780   125974166.355 6      4677.983    23972085.700   125974166.347 3      4677.983    23972093.620    98161711.932 3      3645.181
G32  25113148.460   131970495.018 6      1063.223    25113147.640   131970495.033 3      1063.223    25113161.560   102834177.538 3       828.485    25113158.860   102834194.614 5       828.485
> 2025 04 04 16 59 47.0000000  0 18
G27  24608795.220   129320079.581 5      -381.458    24608791.540   129320079.575 4      -381.458    24608820.560   100768930.148 4      -297.240    24608820.340   100768998.106 6      -297.240
G02  22143832.740   116366625.521 7      1585.611    22143830.560   116366625.523 4      1585.611    22143835.320    90675301.291 4      1235.541
G03  19908416.020   104619432.560 7      3377.578    19908414.920   104619432.565 8      3377.578    19908422.940    81521663.492 8      2631.879    19908422.880    81521663.492 8      2631.879
G14  22281226.940   117088638.652 7      3717.054    22281226.100   117088638.659 5      3717.054    22281234.260    91237900.074 5      2896.406    22281234.440    91237928.079 8      2896.406
R03  19875645.780   106395889.477 8      4060.640    19875644.600   106395889.492 8      4060.640    19875656.680    82752408.417 8      3158.275    19875656.960    82752404.422 8      3158.275
G01  20917995.120   109924806.234 7      2324.093    20917994.600   109924806.239 6      2324.093    20917999.960    85655711.799 6      1810.982    20918000.320    85655710.812 8      1810.982
G08  21418744.420   112556257.786 7       703.126    21418743.060   112556257.788 7       703.126    21418753.640    87706204.596 7       547.890    21418753.880    87706213.599 8       547.890
R18  20626029.740   110103143.709 7      3372.438    20626029.680   110103143.699 7      3372.438    20626039.600    85635822.297 7      2623.007    20626039.240    85635825.310 7      2623.007
R09  23032110.060   122990175.949 6      3524.108    23032111.640   122990175.963 5      3524.108    23032122.040    95659083.480 6      2740.973    23032122.760    95659084.484 6      2740.973
R02  21874667.900   116727415.872 7       177.224    21874667.120   116727415.879 7       177.224    21874680.340    90788030.574 6       137.841    21874679.800    90788035.572 6       137.841
R16  21858158.840   116762365.173 6       374.628    21858158.020   116762365.166 6       374.628    21858175.680    90815237.304 7       291.377    21858175.120    90815233.300 7       291.377
R15  23606489.560   126145920.808 7     -1037.985    23606489.940   126145920.814 6     -1037.985    23606522.140    98113633.408 7      -807.321    23606522.780    98113630.416 7      -807.321
R17  21619844.860   115692140.938 6      1613.067    21619842.460   115692140.932 6      1613.067    21619854.520    89982844.172 5      1254.608    21619856.620    89982845.167 5      1254.608
R04  21849055.380   117000696.834 7      6886.011    21849057.340   117000696.892 7      6886.011    21849076.660    91000634.690 8      5355.787    21849076.860    91000635.696 8      5355.787
G17  23844372.520   125303023.171 6      5553.444    23844370.660   125303023.166 3      5553.444    23844380.020    97638748.213 3      4327.359    23844376.980    97638742.238 6      4327.359
G04  23965158.180   125937779.024 5      5786.771    23965155.800   125937779.021 4      5786.771    23965183.820    98133427.144 3      4509.172    23965183.940    98133425.275 7      4509.172
G22  23971197.640   125969488.305 6      4677.825    23971195.480   125969488.299 3      4677.825    23971203.520    98158066.701 3      3645.058
G32  25112946.380   131969431.738 6      1063.108    25112945.280   131969431.751 3      1063.108    25112959.240   102833349.015 3       828.396    25112957.340   102833366.092 5       828.396
> 2025 04 04 16 59 48.0000000  0 18
G27  24608868.340   129320460.792 5      -380.970    24608864.040   129320460.791 4      -380.970    24608893.120   100769227.165 4      -296.860    24608892.000   100769295.114 6      -296.860
G02  22143530.780   116365039.727 6      1586.089    22143528.760   116365039.729 4      1586.089    22143533.640    90674065.615 4      1235.914
G03  19907773.420   104616055.225 7      3377.251    19907772.140   104616055.230 8      3377.251    19907780.220    81519031.816 8      2631.624    19907780.080    81519031.814 8      2631.624
G14  22280519.440   117084921.768 7      3716.881    22280518.800   117084921.778 5      3716.881    22280527.020    91235003.813 5      2896.271    22280527.200    91235031.816 8      2896.271
R03  19874887.120   106391829.170 8      4060.239    19874886.200   106391829.185 7      4060.239    19874898.160    82749250.400 8      3157.964    19874898.440    82749246.403 8      3157.964
G01  20917553.100   109922482.187 7      2324.322    20917552.400   109922482.192 6      2324.322    20917557.600    85653900.861 6      1811.160    20917557.980    85653899.871 8      1811.160
G08  21418610.500   112555554.772 7       703.061    21418609.280   112555554.775 7       703.061    21418619.800    87705656.797 7       547.839    21418620.240    87705665.804 8       547.839
R18  20625398.020   110099771.206 7      3372.819    20625398.280   110099771.201 7      3372.819    20625407.820    85633199.235 7      2623.303    20625407.840    85633202.242 7      2623.303
R09  23031450.740   122986652.013 6      3523.881    23031452.340   122986652.019 5      3523.881    23031461.820    95656342.650 6      2740.797    23031462.640    95656343.678 6      2740.797
R02  21874634.360   116727239.004 7       176.780    21874634.080   116727239.011 7       176.780    21874646.900    90787893.032 6       137.496    21874646.420    90787898.033 6       137.496
R16  21858088.860   116761990.752 6       374.580    21858088.700   116761990.742 6       374.580    21858105.000    90814946.065 7       291.340    21858104.980    90814942.058 7       291.340
R15  23606683.380   126146958.636 6     -1037.383    23606684.680   126146958.629 6     -1037.383    23606716.740    98114440.593 7      -806.853    23606716.760    98114437.599 7      -806.853
R17  21619543.120   115690527.642 6      1613.664    21619540.660   115690527.635 6      1613.664    21619553.340    89981589.373 5      1255.072    21619554.920    89981590.364 5      1255.072
R04  21847769.440   116993810.941 7      6886.070    21847771.500   116993810.991 7      6886.070    21847790.880    90995279.012 8      5355.833    21847790.780    90995280.018 8      5355.833
G17  23843315.720   125297469.340 6      5554.006    23843313.860   125297469.337 3      5554.006    23843323.220    97634420.566 3      4327.797    23843320.300    97634414.618 6      4327.797
G04  23964058.420   125931992.352 5      5786.951    23964054.800   125931992.349 4      5786.951    23964082.340    98128918.078 3      4509.312    23964082.560    98128916.209 7      4509.312
G22  23970307.360   125964810.503 6      4677.819    23970305.340   125964810.498 3      4677.819    23970313.400    98154421.670 3      3645.054
G32  25112743.660   131968368.712 6      1063.069    25112742.920   131968368.725 3      1063.069    25112756.860   102832520.687 3       828.365    25112755.080   102832537.777 5       828.365
> 2025 04 04 16 59 49.0000000  0 18
G27  24608939.880   129320841.629 5      -380.495    24608936.400   129320841.631 4      -380.495    24608965.640   100769523.888 4      -296.490    24608965.360   100769591.830 6      -296.490
G02  22143229.200   116363453.371 6      1586.710    22143226.940   116363453.376 4      1586.710    22143231.760    90672829.498 4      1236.397
G03  19907130.660   104612677.869 7      3377.408    19907129.440   104612677.869 8      3377.408    19907137.580    81516400.114 8      2631.746    19907137.420    81516400.114 8      2631.746
G14  22279812.440   117081204.889 7      3716.768    22279811.460   117081204.899 5      3716.768    22279819.740    91232107.554 5      2896.183    22279819.860    91232135.561 8      2896.183
R03  19874128.620   106387769.069 8      4060.031    19874127.660   106387769.084 8      4060.031    19874139.720    82746092.563 8      3157.802    19874139.840    82746088.566 8      3157.802
G01  20917110.740   109920157.675 7      2324.717    20917110.140   109920157.677 6      2324.717    20917115.040    85652089.561 6      1811.468    20917115.660    85652088.564 8      1811.468
G08  21418476.460   112554851.507 7       703.464    21418475.380   112554851.509 7       703.464    21418485.940    87705108.806 7       548.154    21418486.300    87705117.811 8       548.154
R18  20624765.600   110096398.163 7      3373.424    20624766.680   110096398.156 7      3373.424    20624775.440    85630575.768 7      2623.774    20624775.840    85630578.783 7      2623.774
R09  23030790.440   122983128.152 6      3523.852    23030792.000   122983128.169 5      3523.852    23030801.620    95653601.881 6      2740.774    23030802.720    95653602.891 6      2740.774
R02  21874601.440   116727062.243 7       176.677    21874601.460   116727062.241 7       176.677    21874614.120    90787755.539 6       137.415    21874613.260    90787760.545 6       137.415
R16  21858018.460   116761616.210 6       374.656    21858018.280   116761616.216 6       374.656    21858034.620    90814654.769 7       291.399    21858034.780    90814650.756 7       291.399
R15  23606877.460   126147995.650 6     -1036.566    23606878.740   126147995.654 6     -1036.566    23606910.760    98115247.170 7      -806.218    23606910.980    98115244.174 7      -806.218
R17  21619241.820   115688913.930 6      1613.902    21619239.100   115688913.937 6      1613.902    21619252.320    89980334.311 5      1255.257    21619254.100    89980335.299 5      1255.257
R04  21846483.560   116986924.702 7      6886.456    21846485.480   116986924.741 7      6886.456    21846504.920    90989923.065 8      5356.132    21846504.840    90989924.067 8      5356.132
G17  23842258.480   125291914.914 6      5554.809    23842256.960   125291914.909 3      5554.809    23842266.200    97630092.453 3      4328.423    23842263.380    97630086.493 6      4328.423
G04  23962956.560   125926204.913 4      5787.444    23962953.220   125926204.910 4      5787.444    23962980.720    98124408.420 3      4509.697    23962981.180    98124406.645 7      4509.697
G22  23969417.500   125960132.544 6      4678.076    23969415.200   125960132.541 3      4678.076    23969423.180    98150776.517 3      3645.254
G32  25112541.300   131967305.577 6      1063.289    25112540.600   131967305.587 3      1063.289    25112554.640   102831692.274 3       828.537    25112552.040   102831709.345 5       828.537
> 2025 04 04 16 59 50.0000000  0 18
G27  24609011.200   129321222.238 5      -380.239    24609008.640   129321222.241 4      -380.239    24609038.220   100769820.432 4      -296.290    24609038.000   100769888.353 6      -296.290
G02  22142927.460   116361866.637 6      1587.022    22142924.920   116361866.644 4      1587.022    22142929.720    90671593.086 4      1236.641
G03  19906488.020   104609300.736 7      3377.098    19906486.820   104609300.739 8      3377.098    19906494.920    81513768.590 8      2631.505    19906494.960    81513768.593 8      2631.505
G14  22279104.860   117077488.210 7      3716.624    22279104.300   117077488.220 5      3716.624    22279112.420    91229211.445 5      2896.071    22279112.440    91229239.443 8      2896.071
R03  19873369.960   106383709.401 8      4059.517    19873369.560   106383709.419 8      4059.517    19873381.460    82742935.052 8      3157.402    19873381.680    82742931.053 8      3157.402
G01  20916668.440   109917832.876 7      2325.040    20916667.620   109917832.878 6      2325.040    20916672.640    85650278.034 6      1811.719    20916673.300    85650277.039 8      1811.719
G08  21418342.640   112554148.260 7       703.325    21418341.560   112554148.262 7       703.325    21418352.160    87704560.821 7       548.046    21418352.760    87704569.828 7       548.046
R18  20624133.700   110093024.811 7      3373.585    20624134.780   110093024.807 7      3373.585    20624143.460    85627952.060 7      2623.899    20624144.120    85627955.077 7      2623.899
R09  23030130.600   122979604.702 6      3523.222    23030132.180   122979604.695 6      3523.222    23030142.060    95650861.397 6      2740.284    23030142.500    95650862.401 6      2740.284
R02  21874568.520   116726885.765 7       176.379    21874568.060   116726885.755 7       176.379    21874581.120    90787618.274 6       137.183    21874580.320    90787623.284 6       137.183
R16  21857949.240   116761241.829 7       374.424    21857948.260   116761241.824 7       374.424    21857964.900    90814363.567 7       291.219    21857964.900    90814359.560 7       291.219
R15  23607071.720   126149032.164 6     -1036.293    23607072.920   126149032.171 6     -1036.293    23607104.300    98116053.375 7      -806.005    23607104.780    98116050.385 7      -806.005
R17  21618940.380   115687300.040 6      1614.058    21618937.940   115687300.023 6      1614.058    21618951.340    89979079.021 5      1255.378    21618953.100    89979080.014 5      1255.378
R04  21845197.220   116980038.271 7      6886.710    21845199.080   116980038.310 7      6886.710    21845218.740    90984566.987 8      5356.330    21845218.700    90984567.997 8      5356.330
G17  23841201.760   125286360.087 6      5555.178    23841199.940   125286360.079 3      5555.178    23841209.320    97625764.026 3      4328.710    23841206.540    97625758.039 6      4328.710
G04  23961855.520   125920417.088 4      5788.075    23961852.080   125920417.085 4      5788.075    23961879.600    98119898.468 3      4510.188    23961879.720    98119896.660 7      4510.188
G22  23968527.320   125955454.627 6      4677.959    23968525.100   125955454.627 3      4677.959    23968532.980    98147131.393 3      3645.163
G32  25112339.160   131966242.462 5      1063.160    25112338.360   131966242.475 3      1063.160    25112352.320   102830863.881 3       828.436    25112352.540   102830880.965 5       828.436
> 2025 04 04 16 59 51.0000000  0 18
G27  24609084.240   129321602.527 5      -380.885    24609080.880   129321602.537 4      -380.885    24609110.600   100770193.738 4      -296.794    24609110.640   100770192.726 6      -296.794
G02  22142625.200   116360279.490 6      1587.360    22142622.820   116360279.503 4      1587.360    22142627.660    90670356.352 4      1236.904
G03  19905845.440   104605923.780 7      3376.829    19905844.260   104605923.785 8      3376.829    19905852.280    81511137.204 8      2631.295    19905852.160    81511137.202 8      2631.295
G14  22278397.960   117073771.694 7      3716.342    22278397.080   117073771.704 5      3716.342    22278405.220    91226315.460 5      2895.851    22278405.140    91226343.453 8      2895.851
R03  19872611.840   106379650.111 8      4059.012    19872611.040   106379650.126 8      4059.012    19872622.940    82739777.834 8      3157.010    19872623.140    82739773.836 8      3157.010
G01  20916225.860   109915507.796 7      2325.131    20916225.340   109915507.798 6      2325.131    20916230.440    85648466.293 6      1811.791    20916230.900    85648465.303 8      1811.791
G08  21418208.940   112553444.939 7       703.307    21418207.840   112553444.944 7       703.307    21418218.360    87704012.787 7       548.031    21418219.040    87704021.790 8       548.031
R18  20623501.920   110089651.083 7      3373.739    20623502.820   110089651.076 7      3373.739    20623511.560    85625328.049 7      2624.019    20623512.080    85625331.062 7      2624.019
R09  23029470.620   122976081.508 6      3522.993    23029472.520   122976081.512 6      3522.993    23029480.900    95648121.177 6      2740.105    23029482.560    95648122.202 6      2740.105
R02  21874535.320   116726709.457 7       176.047    21874535.760   116726709.463 7       176.047    21874548.400    90787481.162 6       136.925    21874547.740    90787486.168 6       136.925
R16  21857878.920   116760867.498 7       374.340    21857878.060   116760867.491 7       374.340    21857894.380    90814072.414 7       291.153    21857894.700    90814068.406 7       291.153
R15  23607265.560   126150068.104 6     -1035.782    23607266.520   126150068.111 6     -1035.782    23607298.680    98116859.110 7      -805.608    23607298.540    98116856.116 7      -805.608
R17  21618638.520   115685685.762 6      1614.497    21618636.280   115685685.747 6      1614.497    21618650.240    89977823.454 5      1255.720    21618650.800    89977824.456 5      1255.720
R04  21843911.160   116973151.692 7      6886.660    21843913.140   116973151.723 7      6886.660    21843932.720    90979210.770 8      5356.291    21843932.660    90979211.771 8      5356.291
G17  23840144.440   125280804.845 6      5555.399    23840142.960   125280804.839 3      5555.399    23840152.140    97621435.274 3      4328.883    23840149.180    97621429.291 6      4328.883
G04  23960753.340   125914628.840 4      5788.558    23960750.740   125914628.837 4      5788.558    23960777.900    98115388.179 3      4510.565    23960778.100    98115386.259 7      4510.565
G22  23967636.740   125950776.697 6      4677.805    23967634.760   125950776.697 3      4677.805    23967642.820    98143486.261 3      3645.043
G32  25112136.840   131965179.421 5      1062.854    25112136.140   131965179.436 3      1062.854    25112150.100   102830035.547 3       828.198    25112149.740   102830052.664 5       828.198
> 2025 04 04 16 59 52.0000000  0 18
G27  24609156.380   129321982.521 5      -379.930    24609153.260   129321982.534 4      -379.930    24609183.000   100770489.810 4      -296.049    24609183.260   100770488.789 6      -296.049
G02  22142323.040   116358691.994 7      1587.710    22142320.800   116358692.006 4      1587.710    22142325.560    90669119.344 4      1237.177
G03  19905203.020   104602547.052 8      3376.572    19905201.660   104602547.056 8      3376.572    19905209.620    81508505.995 8      2631.095    19905209.620    81508505.993 8      2631.095
G14  22277690.620   117070055.357 7      3716.280    22277689.880   117070055.369 5      3716.280    22277697.980    91223419.623 5      2895.803    22277698.100    91223447.626 8      2895.803
R03  19871853.420   106375591.255 8      4058.598    19871853.260   106375591.272 8      4058.598    19871864.760    82736620.956 8      3156.687    19871864.780    82736616.958 8      3156.687
G01  20915783.460   109913182.440 7      2325.583    20915782.780   109913182.442 6      2325.583    20915787.960    85646654.334 6      1812.143    20915788.500    85646653.341 8      1812.143
G08  21418075.060   112552741.636 7       703.341    21418073.980   112552741.639 7       703.341    21418084.480    87703464.757 7       548.058    21418085.080    87703473.760 8       548.058
R18  20622869.480   110086276.995 7      3374.153    20622870.620   110086276.993 7      3374.153    20622879.360    85622703.771 7      2624.341    20622879.960    85622706.786 7      2624.341
R09  23028811.460   122972558.683 6      3522.764    23028813.240   122972558.692 6      3522.764    23028822.500    95645381.200 6      2739.927    23028822.840    95645382.208 6      2739.927
R02  21874502.280   116726533.370 7       176.015    21874502.480   116726533.371 7       176.015    21874514.860    90787344.214 6       136.901    21874514.860    90787349.225 6       136.901
R16  21857809.160   116760493.325 6       374.189    21857807.520   116760493.312 6       374.189    21857824.380    90813781.383 7       291.036    21857824.820    90813777.376 7       291.036
R15  23607458.980   126151103.544 7     -1035.105    23607460.440   126151103.545 6     -1035.105    23607492.540    98117664.477 7      -805.081    23607492.620    98117661.481 7      -805.081
R17  21618336.540   115684071.296 6      1614.636    21618334.380   115684071.284 6      1614.636    21618348.600    89976567.761 5      1255.828    21618348.620    89976568.750 5      1255.828
R04  21842625.200   116966264.864 7      6887.006    21842626.300   116966264.901 7      6887.006    21842646.660    90973854.373 8      5356.560    21842646.820    90973855.381 8      5356.560
G17  23839087.260   125275249.155 6      5556.005    23839085.560   125275249.150 3      5556.005    23839094.860    97617106.175 3      4329.355    23839092.360    97617100.220 6      4329.355
G04  23959651.560   125908840.006 4      5789.577    23959649.260   125908840.005 3      5789.577    23959676.300    98110877.422 3      4511.359    23959676.780    98110875.522 8      4511.359
G22  23966746.960   125946098.827 6      4677.957    23966744.560   125946098.830 3      4677.957    23966752.860    98139841.176 3      3645.161
G32  25111934.140   131964116.438 5      1062.786    25111933.860   131964116.453 3      1062.786    25111947.920   102829207.257 3       828.145    25111947.620   102829224.353 5       828.145
> 2025 04 04 16 59 53.0000000  0 18
G27  24609228.340   129322362.387 5      -380.117    24609225.600   129322362.394 4      -380.117    24609255.500   100770785.781 4      -296.195    24609255.820   100770784.731 6      -296.195
G02  22142020.540   116357104.027 7      1588.188    22142018.580   116357104.037 4      1588.188    22142023.560    90667881.971 4      1237.549
G03  19904560.360   104599170.468 7      3376.331    19904559.160   104599170.473 8      3376.331    19904567.120    81505874.903 8      2630.908    19904567.160    81505874.902 8      2630.908
G14  22276983.740   117066339.211 7      3715.980    22276982.660   117066339.224 5      3715.980    22276990.660    91220523.936 5      2895.569    22276990.960    91220551.944 8      2895.569
R03  19871095.300   106371532.773 8      4058.159    19871094.980   106371532.793 7      4058.159    19871106.560    82733464.372 8      3156.346    19871106.580    82733460.373 8      3156.346
G01  20915340.920   109910856.790 7      2325.723    20915340.280   109910856.795 6      2325.723    20915345.480    85644842.147 6      1812.251    20915345.820    85644841.159 8      1812.251
G08  21417940.940   112552038.252 7       703.336    21417940.120   112552038.257 7       703.336    21417950.540    87702916.674 7       548.054    21417951.140    87702925.677 8       548.054
R18  20622237.520   110082902.546 7      3374.534    20622238.300   110082902.544 7      3374.534    20622247.240    85620079.201 7      2624.638    20622247.900    85620082.214 7      2624.638
R09  23028151.640   122969036.186 6      3521.926    23028153.620   122969036.205 6      3521.926    23028162.500    95642641.494 6      2739.276    23028163.900    95642642.519 6      2739.276
R02  21874469.380   116726357.530 7       175.582    21874469.700   116726357.536 7       175.582    21874481.920    90787207.447 6       136.563    21874481.660    90787212.462 6       136.563
R16  21857738.880   116760119.205 6       374.078    21857737.840   116760119.201 6       374.078    21857754.360    90813490.400 7       290.949    21857754.440    90813486.394 7       290.949
R15  23607652.300   126152138.463 7     -1034.749    23607653.500   126152138.467 6     -1034.749    23607685.700    98118469.425 7      -804.805    23607685.940    98118466.433 7      -804.805
R17  21618035.480   115682456.477 6      1614.823    21618032.880   115682456.500 6      1614.823    21618046.120    89975311.861 5      1255.973    21618047.040    89975312.854 5      1255.973
R04  21841339.380   116959377.822 7      6887.036    21841340.740   116959377.854 6      6887.036    21841360.460    90968497.814 8      5356.584    21841360.320    90968498.818 8      5356.584
G17  23838029.960   125269693.064 6      5556.155    23838028.320   125269693.061 3      5556.155    23838037.700    97612776.762 3      4329.471    23838034.640    97612770.796 6      4329.471
G04  23958550.300   125903050.688 5      5789.683    23958547.780   125903050.685 3      5789.683    23958574.580    98106366.288 3      4511.441    23958574.920    98106364.427 8      4511.441
G22  23965856.500   125941420.931 6      4677.780    23965854.380   125941420.934 3      4677.780    23965862.760    98136196.066 3      3645.023
G32  25111731.920   131963053.475 5      1062.800    25111731.500   131963053.485 3      1062.800    25111745.460   102828378.983 3       828.155    25111745.060   102828396.044 5       828.155
> 2025 04 04 16 59 54.0000000  0 18
G27  24609301.760   129322742.094 5      -380.049    24609297.880   129322742.102 4      -380.049    24609327.940   100771081.633 4      -296.142    24609327.700   100771080.595 6      -296.142
G02  22141718.160   116355515.869 6      1588.391    22141716.320   116355515.879 4      1588.391    22141721.400    90666644.447 4      1237.707
G03  19903918.000   104595794.250 7      3376.055    19903916.560   104595794.252 8      3376.055    19903924.720    81503244.088 8      2630.692    19903924.640    81503244.086 8      2630.692
G14  22276276.980   117062623.404 7      3715.674    22276275.520   117062623.414 5      3715.674    22276283.520    91217628.510 5      2895.330    22276283.920    91217656.511 8      2895.330
R03  19870337.460   106367474.901 8      4057.588    19870336.900   106367474.922 7      4057.588    19870348.540    82730308.258 8      3155.902    19870348.760    82730304.261 8      3155.902
G01  20914898.240   109908531.032 7      2325.814    20914897.660   109908531.037 6      2325.814    20914902.700    85643029.870 6      1812.322    20914903.040    85643028.880 8      1812.322
G08  21417807.040   112551335.024 7       703.184    21417806.260   112551335.026 7       703.184    21417816.840    87702368.702 7       547.936    21417817.240    87702377.702 8       547.936
R18  20621605.880   110079527.947 7      3374.547    20621606.180   110079527.940 7      3374.547    20621615.100    85617454.528 7      2624.647    20621615.740    85617457.539 7      2624.647
R09  23027491.860   122965514.143 6      3521.876    23027493.680   122965514.160 6      3521.876    23027502.920    95639902.117 6      2739.237    23027504.040    95639903.136 6      2739.237
R02  21874436.280   116726182.132 7       175.225    21874437.260   116726182.138 7       175.225    21874449.200    90787071.045 6       136.286    21874448.680    90787076.047 6       136.286
R16  21857669.400   116759745.387 6       373.672    21857668.200   116759745.404 6       373.672    21857684.420    90813199.664 7       290.633    21857684.560    90813195.659 7       290.633
R15  23607845.920   126153172.960 6     -1034.197    23607847.400   126153172.953 6     -1034.197    23607879.320    98119274.044 7      -804.375    23607879.440    98119271.048 7      -804.375
R17  21617732.760   115680841.621 6      1615.031    21617730.920   115680841.636 6      1615.031    21617745.740    89974055.856 5      1256.135    21617745.900    89974056.851 5      1256.135
R04  21840052.640   116952490.789 7      6887.094    21840054.620   116952490.814 6      6887.094    21840074.320    90963141.255 8      5356.629    21840074.480    90963142.257 8      5356.629
G17  23836972.460   125264136.684 6      5556.584    23836970.960   125264136.681 3      5556.584    23836980.300    97608447.127 3      4329.806    23836977.140    97608441.182 6      4329.806
G04  23957448.480   125897261.040 5      5790.066    23957446.200   125897261.039 3      5790.066    23957472.800    98101854.902 3      4511.740    23957473.160    98101853.052 8      4511.740
G22  23964966.260   125936743.259 6      4677.454    23964964.380   125936743.261 3      4677.454    23964972.540    98132551.137 3      3644.770
G32  25111529.720   131961990.723 5      1062.478    25111529.180   131961990.736 3      1062.478    25111543.080   102827550.875 3       827.905    25111542.740   102827567.956 5       827.905
> 2025 04 04 16 59 55.0000000  0 18
G27  24609374.320   129323121.555 5      -379.382    24609370.260   129323121.563 4      -379.382    24609400.060   100771377.284 4      -295.622    24609400.180   100771376.229 6      -295.622
G02  22141416.340   116353927.332 6      1588.951    22141413.900   116353927.339 4      1588.951    22141419.160    90665406.633 4      1238.144
G03  19903275.500   104592418.247 7      3376.034    19903274.220   104592418.249 8      3376.034    19903282.300    81500613.446 8      2630.676    19903282.200    81500613.445 8      2630.676
G14  22275569.360   117058907.805 7      3715.672    22275568.480   117058907.820 5      3715.672    22275576.600    91214733.248 5      2895.329    22275576.740    91214761.245 8      2895.329
R03  19869579.260   106363417.474 8      4057.409    19869578.920   106363417.500 8      4057.409    19869590.620    82727152.496 8      3155.763    19869590.900    82727148.497 8      3155.763
G01  20914455.820   109906204.996 7      2326.332    20914455.020   109906204.998 6      2326.332    20914460.100    85641217.381 6      1812.726    20914460.520    85641216.394 8      1812.726
G08  21417673.360   112550631.782 7       703.458    21417672.360   112550631.786 7       703.458    21417682.920    87701820.727 7       548.149    21417683.480    87701829.726 8       548.149
R18  20620973.420   110076152.980 7      3375.327    20620974.140   110076152.971 7      3375.327    20620983.040    85614829.550 7      2625.254    20620983.380    85614832.563 7      2625.254
R09  23026832.240   122961992.484 6      3521.574    23026834.360   122961992.509 6      3521.574    23026843.760    95637163.064 6      2739.002    23026844.740    95637164.080 6      2739.002
R02  21874403.500   116726007.078 7       175.107    21874403.920   116726007.079 7       175.107    21874416.620    90786934.901 6       136.194    21874415.980    90786939.905 6       136.194
R16  21857599.480   116759371.692 7       373.830    21857598.060   116759371.696 7       373.830    21857614.140    90812909.014 7       290.756    21857614.420    90812905.012 7       290.756
R15  23608039.720   126154206.915 6     -1033.351    23608040.600   126154206.908 6     -1033.351    23608072.800    98120078.237 7      -803.718    23608073.000    98120075.241 7      -803.718
R17  21617430.960   115679226.508 6      1615.376    21617429.180   115679226.501 6      1615.376    21617443.960    89972799.648 5      1256.404    21617443.660    89972800.637 5      1256.404
R04  21838766.820   116945603.642 7      6887.347    21838768.340   116945603.679 7      6887.347    21838788.340    90957784.621 8      5356.826    21838788.280    90957785.623 8      5356.826
G17  23835914.800   125258579.933 6      5557.136    23835913.600   125258579.930 3      5557.136    23835922.780    97604117.204 3      4330.236    23835920.200    97604111.240 6      4330.236
G04  23956347.580   125891471.007 5      5790.345    23956344.460   125891471.002 3      5790.345    23956371.220    98097343.215 3      4511.957    23956371.280    98097341.346 8      4511.957
G22  23964076.320   125932065.557 6      4678.001    23964074.320   125932065.562 3      4678.001    23964082.360    98128906.181 3      3645.196
G32  25111327.680   131960928.005 5      1062.860    25111326.920   131960928.018 3      1062.860    25111340.880   102826722.795 3       828.203    25111341.240   102826739.885 5       828.203
> 2025 04 04 16 59 56.0000000  0 18
G27  24609446.040   129323500.740 5      -379.018    24609442.620   129323500.748 4      -379.018    24609472.420   100771672.718 4      -295.339    24609472.880   100771671.674 6      -295.339
G02  22141113.420   116352338.385 6      1589.132    22141111.540   116352338.390 4      1589.132    22141116.780    90664168.494 4      1238.285
G03  19902633.260   104589042.422 7      3375.783    19902631.800   104589042.425 8      3375.783    19902639.920    81497982.940 8      2630.480    19902639.420    81497982.938 8      2630.480
G14  22274862.660   117055192.356 7      3715.483    22274861.500   117055192.369 5      3715.483    22274869.540    91211838.097 5      2895.182    22274869.580    91211866.100 8      2895.182
R03  19868821.460   106359360.475 8      4056.848    19868821.100   106359360.498 8      4056.848    19868832.800    82723997.058 8      3155.326    19868832.740    82723993.059 8      3155.326
G01  20914013.140   109903878.678 7      2326.475    20914012.240   109903878.683 6      2326.475    20914017.420    85639404.672 6      1812.837    20914017.560    85639403.681 8      1812.837
G08  21417539.580   112549928.487 7       703.344    21417538.520   112549928.492 7       703.344    21417549.100    87701272.705 7       548.060    21417549.720    87701281.708 8       548.060
R18  20620341.500   110072777.648 7      3375.516    20620342.060   110072777.644 7      3375.516    20620350.440    85612204.306 7      2625.401    20620351.040    85612207.317 7      2625.401
R09  23026172.540   122958471.120 6      3521.388    23026174.960   122958471.145 6      3521.388    23026184.040    95634424.212 6      2738.857    23026185.260    95634425.237 6      2738.857
R02  21874370.220   116725832.275 7       174.817    21874371.080   116725832.278 7       174.817    21874383.520    90786798.936 6       135.969    21874383.560    90786803.947 6       135.969
R16  21857529.700   116758998.056 7       373.641    21857528.740   116758998.051 7       373.641    21857544.320    90812618.406 7       290.609    21857544.500    90812614.406 7       290.609
R15  23608233.280   126155240.300 6     -1033.057    23608233.620   126155240.309 7     -1033.057    23608266.020    98120882.012 7      -803.489    23608266.240    98120879.020 7      -803.489
R17  21617129.380   115677610.996 6      1615.967    21617126.980   115677610.981 6      1615.967    21617141.540    89971543.129 5      1256.863    21617142.200    89971544.147 5      1256.863
R04  21837480.440   116938716.333 7      6887.475    21837482.240   116938716.366 7      6887.475    21837502.340    90952427.846 8      5356.925    21837502.260    90952428.847 8      5356.925
G17  23834857.840   125253022.715 6      5557.553    23834856.100   125253022.712 3      5557.553    23834865.160    97599786.914 3      4330.561    23834862.320    97599780.944 6      4330.561
G04  23955244.900   125885680.387 5      5790.737    23955242.580   125885680.378 3      5790.737    23955269.280    98092831.070 3      4512.262    23955269.280    98092829.219 8      4512.262
G22  23963185.680   125927387.898 6      4677.778    23963184.240   125927387.900 3      4677.778    23963192.120    98125261.253 3      3645.022
G32  25111125.580   131959865.361 5      1062.827    25111124.800   131959865.374 3      1062.827    25111138.600   102825894.773 3       828.177    25111136.800   102825911.846 5       828.177
> 2025 04 04 16 59 57.0000000  0 18
G27  24609518.180   129323879.710 5      -378.923    24609514.760   129323879.712 4      -378.923    24609544.660   100771967.986 4      -295.264    24609545.360   100771966.927 6      -295.264
G02  22140810.940   116350749.008 6      1589.478    22140809.100   116350749.010 4      1589.478    22140814.280    90662930.020 4      1238.554
G03  19901990.780   104585666.779 7      3375.332    19901989.420   104585666.784 8      3375.332    19901997.520    81495352.583 8      2630.129    19901997.440    81495352.580 8      2630.129
G14  22274155.320   117051477.109 7      3714.879    22274154.320   117051477.124 5      3714.879    22274162.580    91208943.107 5      2894.711    22274162.500    91208971.112 8      2894.711
R03  19868063.700   106355303.896 8      4056.183    19868063.420   106355303.919 8      4056.183    19868074.960    82720841.954 8      3154.809    19868074.780    82720837.955 8      3154.809
G01  20913570.420   109901552.059 7      2326.531    20913569.480   109901552.058 6      2326.531    20913574.760    85637591.728 6      1812.882    20913574.760    85637590.741 8      1812.882
G08  21417405.660   112549225.145 7       703.171    21417404.820   112549225.153 7       703.171    21417415.180    87700724.653 7       547.926    21417415.860    87700733.656 8       547.926
R18  20619709.140   110069401.939 7      3375.635    20619709.880   110069401.938 7      3375.635    20619718.580    85609578.761 7      2625.494    20619718.840    85609581.776 7      2625.494
R09  23025512.960   122954950.062 6      3520.918    23025515.300   122954950.087 6      3520.918    23025524.720    95631685.610 6      2738.492    23025526.020    95631686.636 6      2738.492
R02  21874337.720   116725657.715 7       174.198    21874338.340   116725657.716 7       174.198    21874351.400    90786663.176 6       135.487    21874350.840    90786668.180 6       135.487
R16  21857459.780   116758624.502 7       373.347    21857459.080   116758624.506 7       373.347    21857474.000    90812327.860 7       290.381    21857474.480    90812323.858 7       290.381
R15  23608426.340   126156273.154 7     -1032.749    23608427.440   126156273.152 7     -1032.749    23608459.540    98121685.353 7      -803.249    23608459.160    98121682.353 7      -803.249
R17  21616826.900   115675995.243 6      1615.739    21616825.160   115675995.242 6      1615.739    21616840.480    89970286.455 5      1256.686    21616841.000    89970287.473 5      1256.686
R04  21836194.700   116931828.865 7      6887.287    21836196.120   116931828.899 7      6887.287    21836216.060    90947070.953 8      5356.779    21836215.920    90947071.957 8      5356.779
G17  23833800.340   125247465.055 6      5557.784    23833798.480   125247465.052 3      5557.784    23833807.560    97595456.280 3      4330.741    23833804.620    97595450.314 6      4330.741
G04  23954142.880   125879889.264 5      5791.191    23954140.800   125879889.256 3      5791.191    23954167.360    98088318.533 3      4512.617    23954167.120    98088316.691 8      4512.617
G22  23962295.800   125922710.267 6      4677.475    23962293.960   125922710.270 3      4677.475    23962301.880    98121616.350 3      3644.786
G32  25110923.420   131958802.785 5      1062.317    25110922.640   131958802.798 3      1062.317    25110936.320   102825066.802 3       827.779    25110934.200   102825083.889 5       827.779
> 2025 04 04 16 59 58.0000000  0 18
G27  24609589.440   129324258.548 5      -378.821    24609587.020   129324258.555 5      -378.821    24609616.740   100772263.154 5      -295.185    24609617.680   100772262.105 6      -295.185
G02  22140508.720   116349159.365 7      1589.895    22140506.620   116349159.367 4      1589.895    22140511.700    90661691.344 4      1238.879
G03  19901348.560   104582291.444 7      3375.261    19901347.020   104582291.449 8      3375.261    19901355.260    81492722.458 8      2630.074    19901355.060    81492722.456 8      2630.074
G14  22273448.260   117047762.132 7      3714.922    22273447.420   117047762.143 5      3714.922    22273455.480    91206048.327 5      2894.744    22273455.720    91206076.325 7      2894.744
R03  19867306.020   106351247.853 8      4055.813    19867305.580   106351247.868 7      4055.813    19867317.380    82717687.258 8      3154.521    19867317.200    82717683.257 8      3154.521
G01  20913127.580   109899225.279 7      2326.863    20913126.700   109899225.281 6      2326.863    20913131.840    85635778.657 6      1813.140    20913131.840    85635777.672 8      1813.140
G08  21417271.960   112548521.906 7       703.261    21417271.000   112548521.908 7       703.261    21417281.340    87700176.674 7       547.996    21417281.960    87700185.679 8       547.996
R18  20619076.320   110066025.988 7      3376.159    20619077.140   110066025.994 7      3376.159    20619085.960    85606953.037 7      2625.901    20619086.600    85606956.042 7      2625.901
R09  23024853.560   122951429.477 6      3520.537    23024856.040   122951429.488 6      3520.537    23024865.540    95628947.385 6      2738.195    23024866.800    95628948.379 6      2738.195
R02  21874305.320   116725483.445 7       174.189    21874305.960   116725483.441 7       174.189    21874318.120    90786527.631 6       135.481    21874318.080    90786532.645 6       135.481
R16  21857389.740   116758251.184 7       373.293    21857389.300   116758251.193 7       373.293    21857404.340    90812037.497 7       290.339    21857404.420    90812033.501 7       290.339
R15  23608619.820   126157305.586 7     -1032.129    23608620.480   126157305.581 7     -1032.129    23608652.380    98122488.372 7      -802.767    23608652.440    98122485.383 7      -802.767
R17  21616526.040   115674379.306 6      1616.410    21616521.600   115674379.321 6      1616.410    21616538.000    89969029.621 5      1257.208    21616538.660    89969030.648 5      1257.208
R04  21834908.360   116924941.277 7      6887.850    21834910.000   116924941.313 7      6887.850    21834929.940    90941713.959 8      5357.216    21834929.540    90941714.965 8      5357.216
G17  23832742.500   125241907.109 6      5558.244    23832740.840   125241907.108 3      5558.244    23832749.920    97591125.425 3      4331.100    23832747.480    97591119.470 6      4331.100
G04  23953040.580   125874097.829 5      5791.557    23953038.660   125874097.826 3      5791.557    23953065.220    98083805.757 3      4512.902    23953065.400    98083803.909 8      4512.902
G22  23961405.420   125918032.731 6      4677.535    23961404.000   125918032.734 3      4677.535    23961411.960    98117971.525 3      3644.832
G32  25110721.380   131957740.309 5      1062.454    25110720.460   131957740.324 3      1062.454    25110734.220   102824238.906 3       827.886    25110733.560   102824255.988 5       827.886
> 2025 04 04 16 59 59.0000000  0 18
G27  24609661.400   129324637.005 5      -378.262    24609659.080   129324637.010 5      -378.262    24609688.760   100772558.031 5      -294.750    24609689.600   100772557.005 6      -294.750
G02  22140206.500   116347569.241 6      1590.255    22140204.100   116347569.248 4      1590.255    22140209.080    90660452.290 4      1239.160
G03  19900706.240   104578916.216 7      3375.037    19900704.820   104578916.218 8      3375.037    19900713.000    81490092.416 8      2629.899    19900713.040    81490092.417 8      2629.899
G14  22272741.540   117044047.256 7      3714.712    22272740.560   117044047.263 5      3714.712    22272748.440    91203153.624 5      2894.581    22272748.760    91203181.629 8      2894.581
R03  19866548.520   106347192.106 8      4055.456    19866547.920   106347192.127 7      4055.456    19866559.640    82714532.797 8      3154.244    19866559.680    82714528.798 8      3154.244
G01  20912685.040   109896898.107 7      2327.301    20912683.840   109896898.112 6      2327.301    20912688.900    85633965.282 6      1813.482    20912689.100    85633964.302 8      1813.482
G08  21417138.240   112547818.533 7       703.341    21417137.120   112547818.535 7       703.341    21417147.500    87699628.595 7       548.058    21417148.400    87699637.596 7       548.058
R18  20618444.080   110062649.617 7      3376.401    20618444.780   110062649.629 7      3376.401    20618453.540    85604326.969 7      2626.090    20618454.080    85604329.976 7      2626.090
R09  23024194.460   122947909.028 6      3520.383    23024196.380   122947909.074 6      3520.383    23024206.700    95626209.300 6      2738.076    23024207.680    95626210.287 6      2738.076
R02  21874272.920   116725309.336 7       173.807    21874273.500   116725309.334 7       173.807    21874285.700    90786392.229 6       135.183    21874284.860    90786397.246 6       135.183
R16  21857319.940   116757877.873 7       373.088    21857319.580   116757877.877 7       373.088    21857334.360    90811747.134 7       290.180    21857334.640    90811743.140 7       290.180
R15  23608812.640   126158337.384 7     -1031.673    23608812.960   126158337.377 7     -1031.673    23608845.300    98123290.899 7      -802.413    23608845.480    98123287.899 7      -802.413
R17  21616224.380   115672763.160 6      1616.374    21616220.480   115672763.148 6      1616.374    21616236.420    89967772.594 5      1257.180    21616236.640    89967773.601 5      1257.180
R04  21833622.120   116918053.456 7      6887.847    21833623.280   116918053.503 6      6887.847    21833643.740    90936356.796 8      5357.215    21833643.500    90936357.800 8      5357.215
G17  23831684.880   125236348.650 6      5558.565    23831683.040   125236348.650 3      5558.565    23831692.280    97586794.169 3      4331.349    23831688.920    97586788.222 6      4331.349
G04  23951938.300   125868305.736 5      5792.208    23951936.520   125868305.736 3      5792.208    23951963.000    98079292.461 3      4513.409    23951962.820    98079290.621 7      4513.409
G22  23960515.480   125913355.135 6      4677.495    23960513.920   125913355.140 3      4677.495    23960521.900    98114326.651 3      3644.801
G32  25110519.420   131956677.835 5      1062.590    25110518.320   131956677.850 3      1062.590    25110532.020   102823411.009 3       827.992    25110531.660   102823428.082 5       827.992
> 2025 04 04 17 00  0.0000000  0 18
G27  24609733.380   129325015.184 5      -378.006    24609731.240   129325015.191 5      -378.006    24609760.820   100772852.695 5      -294.550    24609761.220   100772851.682 6      -294.550
G02  22139903.540   116345978.673 6      1590.839    22139901.400   116345978.680 4      1590.839    22139906.360    90659212.891 4      1239.615
G03  19900063.960   104575541.140 8      3375.012    19900062.520   104575541.140 8      3375.012    19900070.740    81487462.498 8      2629.880    19900070.600    81487462.496 8      2629.880
G14  22272034.760   117040332.537 7      3714.506    22272033.820   117040332.544 5      3714.506    22272041.600    91200259.046 5      2894.420    22272041.880    91200287.061 8      2894.420
R03  19865790.760   106343136.708 8      4055.287    19865790.180   106343136.725 8      4055.287    19865802.100    82711378.610 8      3154.112    19865801.920    82711374.611 8      3154.112
G01  20912242.140   109894570.644 7      2327.625    20912241.040   109894570.649 6      2327.625    20912245.900    85632151.685 6      1813.734    20912246.240    85632150.696 8      1813.734
G08  21417004.360   112547115.083 7       703.589    21417003.280   112547115.085 7       703.589    21417013.560    87699080.453 7       548.251    21417014.200    87699089.453 7       548.251
R18  20617811.200   110059272.817 7      3377.087    20617812.300   110059272.820 7      3377.087    20617821.020    85601700.573 7      2626.623    20617821.520    85601703.582 7      2626.623
R09  23023535.400   122944388.926 6      3520.106    23023536.520   122944388.959 6      3520.106    23023547.040    95623471.443 6      2737.860    23023548.380    95623472.428 6      2737.860
R02  21874240.700   116725135.414 7       173.894    21874241.180   116725135.412 7       173.894    21874253.260    90786256.966 6       135.251    21874252.800    90786261.975 6       135.251
R16  21857250.060   116757504.627 7       373.355    21857249.400   116757504.631 7       373.355    21857264.500    90811456.811 7       290.388    21857264.900    90811452.817 7       290.388
R15  23609005.280   126159368.538 6     -1030.883    23609006.400   126159368.534 6     -1030.883    23609038.520    98124092.931 7      -801.798    23609038.440    98124089.935 7      -801.798
R17  21615922.240   115671146.674 6      1616.590    21615918.340   115671146.681 6      1616.590    21615933.560    89966515.327 5      1257.347    21615934.900    89966516.347 5      1257.347
R04  21832335.920   116911165.388 7      6888.301    21832337.040   116911165.425 6      6888.301    21832357.300    90930999.427 8      5357.567    21832357.180    90931000.431 8      5357.567
G17  23830627.240   125230789.719 6      5559.107    23830625.060   125230789.716 3      5559.107    23830634.720    97582462.545 3      4331.772    23830632.140    97582456.585 6      4331.772
G04  23950835.460   125862513.205 5      5792.682    23950834.260   125862513.200 3      5792.682    23950860.760    98074778.829 3      4513.778    23950860.800    98074776.995 7      4513.778
G22  23959625.820   125908677.523 6      4677.653    23959623.880   125908677.525 3      4677.653    23959631.740    98110681.767 3      3644.924
G32  25110317.820   131955615.359 5      1062.510    25110316.020   131955615.377 3      1062.510    25110329.720   102822583.111 3       827.930    25110328.820   102822600.193 5       827.930
> 2025 04 04 17 00  1.0000000  0 18
G27  24609805.180   129325393.157 5      -377.883    24609803.100   129325393.162 5      -377.883    24609832.740   100773147.201 5      -294.454    24609833.280   100773146.186 6      -294.454
G02  22139600.540   116344387.743 7      1591.285    22139598.720   116344387.750 4      1591.285    22139603.580    90657973.209 4      1239.962
G03  19899421.700   104572166.275 8      3374.784    19899420.280   104572166.277 8      3374.784    19899428.500    81484832.743 8      2629.702    19899428.380    81484832.741 8      2629.702
G14  22271327.660   117036617.994 7      3714.403    22271327.060   117036618.004 5      3714.403    22271334.860    91197364.605 5      2894.340    22271335.080    91197392.620 8      2894.340
R03  19865033.280   106339081.762 8      4054.741    19865032.760   106339081.779 8      4054.741    19865044.520    82708224.774 8      3153.687    19865044.580    82708220.773 8      3153.687
G01  20911798.940   109892242.887 7      2328.005    20911798.160   109892242.887 6      2328.005    20911803.020    85630337.854 6      1814.030    20911803.380    85630336.868 8      1814.030
G08  21416870.500   112546411.652 7       703.536    21416869.540   112546411.649 7       703.536    21416879.600    87698532.325 7       548.210    21416880.720    87698541.327 7       548.210
R18  20617178.400   110055895.712 7      3377.361    20617179.300   110055895.710 7      3377.361    20617188.280    85599073.938 7      2626.837    20617188.800    85599076.949 7      2626.837
R09  23022876.640   122940869.163 6      3519.723    23022876.920   122940869.177 6      3519.723    23022887.500    95620733.835 6      2737.562    23022889.300    95620734.826 6      2737.562
R02  21874208.360   116724961.830 7       173.534    21874208.800   116724961.831 7       173.534    21874220.720    90786121.949 6       134.971    21874220.580    90786126.961 6       134.971
R16  21857179.900   116757131.525 7       373.148    21857179.320   116757131.523 7       373.148    21857194.600    90811166.631 7       290.226    21857195.040    90811162.634 7       290.226
R15  23609198.460   126160399.177 7     -1030.325    23609199.520   126160399.168 7     -1030.325    23609230.820    98124894.570 7      -801.364    23609231.440    98124891.574 7      -801.364
R17  21615619.700   115669529.865 6      1617.076    21615616.700   115669529.888 5      1617.076    21615632.160    89965257.836 5      1257.726    21615632.860    89965258.852 5      1257.726
R04  21831049.220   116904277.163 7      6888.356    21831051.120   116904277.197 7      6888.356    21831071.160    90925641.937 8      5357.611    21831070.880    90925642.941 8      5357.611
G17  23829569.180   125225230.382 6      5559.436    23829567.280   125225230.379 3      5559.436    23829576.880    97578130.607 3      4332.028    23829573.700    97578124.661 6      4332.028
G04  23949733.360   125856720.173 5      5793.382    23949731.840   125856720.167 3      5793.382    23949758.240    98070264.802 3      4514.324    23949758.580    98070262.935 7      4514.324
G22  23958735.840   125903999.929 6      4677.784    23958733.880   125903999.929 3      4677.784    23958741.660    98107036.899 3      3645.027
G32  25110115.380   131954552.967 5      1062.372    25110113.800   131954552.985 3      1062.372    25110127.540   102821755.280 3       827.822    25110127.240   102821772.365 5       827.822
> 2025 04 04 17 00  2.0000000  0 18
G27  24609877.060   129325770.908 5      -377.698    24609875.140   129325770.918 5      -377.698    24609904.640   100773441.534 5      -294.310    24609904.940   100773440.508 6      -294.310
G02  22139297.840   116342796.473 6      1591.494    22139296.000   116342796.478 4      1591.494    22139300.680    90656733.265 4      1240.125
G03  19898779.640   104568791.660 8      3374.443    19898778.060   104568791.662 8      3374.443    19898786.340    81482203.178 8      2629.436    19898786.140    81482203.177 8      2629.436
G14  22270620.920   117032903.669 7      3714.399    22270619.980   117032903.674 5      3714.399    22270627.860    91194470.330 5      2894.337    22270628.000    91194498.341 8      2894.337
R03  19864275.820   106335027.276 8      4054.289    19864275.160   106335027.296 8      4054.289    19864287.220    82705071.293 8      3153.336    19864286.940    82705067.292 8      3153.336
G01  20911355.960   109889914.922 7      2328.148    20911355.180   109889914.924 6      2328.148    20911360.080    85628523.862 6      1814.141    20911360.400    85628522.873 8      1814.141
G08  21416736.580   112545708.236 7       703.294    21416735.660   112545708.233 7       703.294    21416745.780    87697984.205 7       548.022    21416746.580    87697993.207 8       548.022
R18  20616545.620   110052518.330 7      3377.561    20616546.840   110052518.331 7      3377.561    20616555.700    85596447.087 7      2626.992    20616556.420    85596450.092 7      2626.992
R09  23022217.360   122937349.793 6      3519.239    23022218.100   122937349.820 6      3519.239    23022229.120    95617996.555 6      2737.186    23022229.980    95617997.540 6      2737.186
R02  21874176.020   116724788.545 7       173.125    21874176.460   116724788.543 7       173.125    21874188.180    90785987.169 6       134.653    21874187.880    90785992.186 6       134.653
R16  21857110.200   116756758.596 7       372.860    21857109.540   116756758.592 7       372.860    21857124.920    90810876.565 7       290.002    21857125.440    90810872.575 7       290.002
R15  23609391.620   126161429.322 7     -1029.882    23609391.860   126161429.320 7     -1029.882    23609423.880    98125695.822 7      -801.020    23609424.160    98125692.822 7      -801.020
R17  21615317.060   115667912.876 6      1616.941    21615315.560   115667912.910 5      1616.941    21615328.980    89964000.182 5      1257.621    21615330.380    89964001.200 5      1257.621
R04  21829762.920   116897388.796 7      6888.410    21829764.520   116897388.835 7      6888.410    21829784.700    90920284.354 8      5357.652    21829784.800    90920285.358 8      5357.652
G17  23828511.020   125219670.655 6      5559.799    23828509.260   125219670.652 3      5559.799    23828518.900    97573798.359 3      4332.311    23828516.200    97573792.414 6      4332.311
G04  23948631.340   125850926.693 5      5793.512    23948629.320   125850926.690 3      5793.512    23948655.640    98065750.427 3      4514.425    23948656.300    98065748.597 8      4514.425
G22  23957845.300   125899322.440 6      4677.494    23957843.900   125899322.440 3      4677.494    23957851.600    98103392.111 3      3644.800
G32  25109913.700   131953490.619 5      1062.561    25109911.740   131953490.637 3      1062.561    25109925.440   102820927.480 3       827.970    25109924.840   102820944.560 5       827.970
> 2025 04 04 17 00  3.0000000  0 18
G27  24609949.680   129326148.406 5      -377.021    24609947.080   129326148.413 5      -377.021    24609976.520   100773735.655 5      -293.783    24609976.740   100773734.609 6      -293.783
G02  22138994.980   116341204.783 7      1591.890    22138993.260   116341204.791 4      1591.890    22138997.880    90655492.993 4      1240.433
G03  19898137.600   104565417.194 8      3374.479    19898136.000   104565417.196 8      3374.479    19898144.180    81479573.735 8      2629.464    19898144.260    81479573.737 8      2629.464
G14  22269914.220   117029189.544 7      3714.193    22269913.420   117029189.554 5      3714.193    22269921.020    91191576.215 5      2894.176    22269921.280    91191604.226 8      2894.176
R03  19863518.060   106330973.205 8      4053.968    19863517.740   106330973.225 8      4053.968    19863529.920    82701918.137 8      3153.086    19863529.520    82701914.136 8      3153.086
G01  20910912.760   109887586.642 7      2328.559    20910912.100   109887586.641 6      2328.559    20910917.040    85626709.621 6      1814.461    20910917.240    85626708.635 8      1814.461
G08  21416603.020   112545004.750 7       703.488    21416601.820   112545004.750 7       703.488    21416611.920    87697436.035 7       548.172    21416612.980    87697445.038 8       548.172
R18  20615913.000   110049140.553 7      3378.076    20615914.260   110049140.548 7      3378.076    20615923.340    85593819.936 7      2627.393    20615923.640    85593822.940 7      2627.393
R09  23021558.420   122933830.732 6      3518.953    23021559.620   122933830.768 6      3518.953    23021569.940    95615259.498 6      2736.964    23021571.080    95615260.483 6      2736.964
R02  21874143.540   116724615.484 7       172.938    21874143.820   116724615.488 7       172.938    21874156.260    90785852.587 6       134.507    21874155.200    90785857.592 6       134.507
R16  21857040.820   116756385.748 7       372.816    21857039.820   116756385.749 7       372.816    21857055.360    90810586.557 7       289.968    21857055.560    90810582.559 7       289.968
R15  23609584.180   126162458.911 7     -1029.187    23609584.460   126162458.914 7     -1029.187    23609616.320    98126496.641 7      -800.478    23609617.000    98126493.645 7      -800.478
R17  21615014.920   115666295.531 6      1617.520    21615012.800   115666295.544 5      1617.520    21615026.040    89962742.247 5      1258.071    21615028.300    89962743.259 5      1258.071
R04  21828476.860   116890500.281 7      6888.626    21828478.560   116890500.307 7      6888.626    21828498.360    90914926.635 8      5357.820    21828498.400    90914927.639 8      5357.820
G17  23827452.540   125214110.473 6      5560.511    23827451.020   125214110.472 3      5560.511    23827461.040    97569465.760 3      4332.866    23827458.540    97569459.811 6      4332.866
G04  23947529.880   125845132.693 5      5794.523    23947526.580   125845132.693 3      5794.523    23947553.200    98061235.649 3      4515.213    23947553.240    98061233.800 7      4515.213
G22  23956955.200   125894644.910 6      4677.694    23956953.700   125894644.912 3      4677.694    23956961.560    98099747.290 3      3644.957
G32  25109710.880   131952428.330 5      1062.415    25109709.680   131952428.348 3      1062.415    25109723.200   102820099.737 3       827.856    25109723.420   102820116.835 5       827.856
> 2025 04 04 17 00  4.0000000  0 18
G27  24610021.620   129326525.807 5      -377.476    24610019.000   129326525.822 5      -377.476    24610048.440   100774029.703 5      -294.137    24610048.280   100774028.686 6      -294.137
G02  22138692.500   116339612.846 6      1592.012    22138690.260   116339612.857 4      1592.012    22138695.160    90654252.527 4      1240.528
G03  19897495.280   104562043.096 7      3373.811    19897493.920   104562043.098 8      3373.811    19897502.200    81476944.574 8      2628.944    19897501.980    81476944.574 8      2628.944
G14  22269207.340   117025475.753 7      3713.469    22269206.800   117025475.766 5      3713.469    22269214.340    91188682.358 5      2893.612    22269214.640    91188710.363 8      2893.612
R03  19862761.280   106326919.696 8      4053.091    19862760.680   106326919.719 7      4053.091    19862772.680    82698765.421 8      3152.404    19862772.280    82698761.422 8      3152.404
G01  20910469.660   109885258.235 7      2328.408    20910469.060   109885258.240 6      2328.408    20910474.020    85624895.287 6      1814.344    20910474.360    85624894.296 8      1814.344
G08  21416469.280   112544301.371 7       703.213    21416467.980   112544301.376 7       703.213    21416478.000    87696887.950 7       547.958    21416479.100    87696896.953 7       547.958
R18  20615280.440   110045762.567 7      3377.931    20615281.180   110045762.573 7      3377.931    20615290.660    85591192.628 7      2627.280    20615290.920    85591195.637 7      2627.280
R09  23020899.860   122930312.091 6      3518.296    23020900.100   122930312.132 6      3518.296    23020910.680    95612522.793 6      2736.453    23020912.280    95612523.774 6      2736.453
R02  21874111.100   116724442.808 7       172.368    21874111.020   116724442.811 7       172.368    21874123.660    90785718.273 6       134.064    21874122.680    90785723.277 6       134.064
R16  21856970.740   116756013.089 7       372.343    21856969.680   116756013.093 7       372.343    21856985.900    90810296.719 7       289.600    21856985.620    90810292.727 7       289.600
R15  23609776.940   126163488.107 6     -1028.947    23609776.900   126163488.110 7     -1028.947    23609808.920    98127297.160 7      -800.292    23609809.400    98127294.162 7      -800.292
R17  21614712.360   115664678.058 6      1617.632    21614710.780   115664678.071 5      1617.632    21614724.820    89961484.198 5      1258.158    21614726.160    89961485.199 5      1258.158
R04  21827190.380   116883611.740 7      6888.428    21827191.620   116883611.768 7      6888.428    21827211.840    90909568.912 8      5357.666    21827211.700    90909569.918 8      5357.666
G17  23826394.440   125208550.043 6      5560.461    23826392.920   125208550.043 3      5560.461    23826402.980    97565132.968 3      4332.827    23826400.140    97565127.021 6      4332.827
G04  23946426.660   125839338.394 5      5794.560    23946423.940   125839338.396 3      5794.560    23946450.460    98056720.635 3      4515.241    23946451.000    98056718.772 7      4515.241
G22  23956065.260   125889967.568 6      4677.249    23956063.560   125889967.570 3      4677.249    23956071.420    98096102.614 3      3644.610
G32  25109509.200   131951366.263 5      1061.849    25109507.600   131951366.279 3      1061.849    25109521.080   102819272.161 3       827.415    25109519.680   102819289.232 5       827.415
> 2025 04 04 17 00  5.0000000  0 18
G27  24610093.600   129326902.966 5      -376.623    24610090.720   129326902.981 5      -376.623    24610120.360   100774323.559 4      -293.472    24610120.180   100774322.523 6      -293.472
G02  22138389.720   116338020.581 6      1592.628    22138387.300   116338020.594 4      1592.628    22138392.200    90653011.809 4      1241.009
G03  19896853.260   104558669.226 7      3374.006    19896851.820   104558669.226 8      3374.006    19896860.160    81474315.591 8      2629.096    19896860.120    81474315.589 8      2629.096
G14  22268500.860   117021762.172 7      3713.642    22268500.060   117021762.185 5      3713.642    22268507.580    91185788.666 5      2893.747    22268507.860    91185816.675 7      2893.747
R03  19862004.440   106322866.637 8      4053.033    19862003.620   106322866.657 7      4053.033    19862015.640    82695613.052 8      3152.359    19862015.180    82695609.049 8      3152.359
G01  20910026.500   109882929.590 7      2329.002    20910025.960   109882929.592 6      2329.002    20910030.880    85623080.766 6      1814.806    20910031.200    85623079.776 8      1814.806
G08  21416335.080   112543598.019 7       703.569    21416333.960   112543598.027 7       703.569    21416344.120    87696339.888 7       548.236    21416345.220    87696348.888 8       548.236
R18  20614647.600   110042384.248 7      3378.691    20614648.500   110042384.246 7      3378.691    20614657.960    85588565.041 7      2627.871    20614658.160    85588568.043 7      2627.871
R09  23020240.860   122926793.839 6      3518.391    23020241.140   122926793.875 6      3518.391    23020252.940    95609786.381 6      2736.527    23020253.000    95609787.371 6      2736.527
R02  21874078.500   116724270.430 7       172.347    21874079.280   116724270.423 7       172.347    21874090.740    90785584.206 6       134.047    21874090.300    90785589.208 6       134.047
R16  21856901.000   116755640.537 7       372.794    21856900.460   116755640.536 7       372.794    21856916.140    90810006.959 7       289.951    21856916.140    90810002.957 7       289.951
R15  23609969.460   126164516.811 6     -1028.297    23609969.160   126164516.815 6     -1028.297    23610001.640    98128097.294 7      -799.787    23610002.160    98128094.303 7      -799.787
R17  21614409.880   115663060.425 6      1617.979    21614408.720   115663060.445 5      1617.979    21614423.600    89960226.037 5      1258.428    21614423.740    89960227.038 5      1258.428
R04  21825903.680   116876723.100 7      6888.970    21825904.820   116876723.133 7      6888.970    21825925.380    90904211.103 8      5358.088    21825925.240    90904212.107 8      5358.088
G17  23825336.060   125202989.212 6      5561.305    23825334.480   125202989.212 3      5561.305    23825344.540    97560799.863 3      4333.484    23825341.820    97560793.908 6      4333.484
G04  23945323.020   125833543.656 5      5794.950    23945321.340   125833543.658 3      5794.950    23945347.740    98052205.281 3      4515.545    23945348.400    98052203.431 8      4515.545
G22  23955174.680   125885290.295 6      4677.641    23955173.500   125885290.294 3      4677.641    23955181.400    98092457.992 3      3644.915
G32  25109306.640   131950304.276 5      1061.914    25109305.320   131950304.294 3      1061.914    25109319.100   102818444.648 3       827.465    25109317.560   102818461.730 5       827.465
> 2025 04 04 17 00  6.0000000  0 18
G27  24610164.960   129327279.952 5      -376.897    24610162.540   129327279.964 5      -376.897    24610191.880   100774617.283 4      -293.686    24610191.920   100774616.254 6      -293.686
G02  22138086.820   116336427.932 7      1592.697    22138084.260   116336427.940 4      1592.697    22138089.000    90651770.788 4      1241.063
G03  19896211.140   104555295.557 7      3373.578    19896209.800   104555295.559 8      3373.578    19896218.120    81471686.769 8      2628.762    19896218.100    81471686.770 8      2628.762
G14  22267794.200   117018048.796 7      3713.198    22267793.420   117018048.803 5      3713.198    22267800.860    91182895.131 5      2893.401    22267801.500    91182923.137 7      2893.401
R03  19861246.780   106318814.020 8      4052.301    19861246.360   106318814.043 8      4052.301    19861258.540    82692461.028 8      3151.790    19861258.160    82692457.027 8      3151.790
G01  20909583.500   109880600.687 7      2328.893    20909582.840   109880600.687 6      2328.893    20909587.580    85621266.045 6      1814.722    20909587.940    85621265.060 8      1814.722
G08  21416201.340   112542894.664 7       703.256    21416200.140   112542894.669 7       703.256    21416210.380    87695791.825 7       547.992    21416211.200    87695800.826 7       547.992
R18  20614014.640   110039005.614 7      3378.770    20614015.120   110039005.604 7      3378.770    20614025.460    85585937.214 7      2627.932    20614024.960    85585940.217 7      2627.932
R09  23019581.980   122923275.950 6      3517.607    23019582.760   122923275.994 6      3517.607    23019594.620    95607050.256 6      2735.916    23019594.760    95607051.237 6      2735.916
R02  21874046.100   116724098.306 7       171.922    21874046.620   116724098.299 7       171.922    21874058.760    90785450.333 6       133.717    21874058.380    90785455.340 6       133.717
R16  21856831.260   116755268.127 7       372.211    21856830.460   116755268.133 7       372.211    21856846.140    90809717.304 7       289.497    21856846.640    90809713.306 7       289.497
R15  23610161.720   126165544.946 6     -1027.927    23610161.260   126165544.937 6     -1027.927    23610193.980    98128896.963 7      -799.498    23610195.000    98128893.967 7      -799.498
R17  21614107.740   115661442.534 6      1617.915    21614106.640   115661442.541 5      1617.915    21614121.240    89958967.671 5      1258.378    21614120.980    89958968.679 5      1258.378
R04  21824617.040   116869834.291 7      6888.901    21824619.120   116869834.335 7      6888.901    21824638.940    90898853.172 8      5358.034    21824638.800    90898854.178 8      5358.034
G17  23824277.780   125197427.987 6      5561.401    23824276.320   125197427.986 3      5561.401    23824286.440    97556466.457 3      4333.559    23824283.720    97556460.508 6      4333.559
G04  23944221.220   125827748.363 5      5795.746    23944218.480   125827748.366 3      5795.746    23944244.840    98047689.494 3      4516.166    23944245.300    98047687.649 8      4516.166
G22  23954284.380   125880613.053 6      4677.146    23954283.400   125880613.053 3      4677.146    23954291.260    98088813.398 3      3644.530
G32  25109104.440   131949242.330 5      1061.658    25109102.940   131949242.348 3      1061.658    25109116.840   102817617.168 3       827.266    25109116.320   102817634.256 5       827.266
> 2025 04 04 17 00  7.0000000  0 18
G27  24610236.440   129327656.717 5      -376.405    24610234.340   129327656.729 5      -376.405    24610263.700   100774910.836 4      -293.303    24610263.780   100774909.802 6      -293.303
G02  22137783.500   116334834.931 7      1593.371    22137781.120   116334834.939 4      1593.371    22137785.800    90650529.497 4      1241.587
G03  19895569.420   104551922.171 7      3373.421    19895568.060   104551922.173 8      3373.421    19895576.160    81469058.167 8      2628.640    19895576.200    81469058.169 8      2628.640
G14  22267087.380   117014335.674 7      3713.122    22267086.780   117014335.682 5      3713.122    22267094.280    91180001.797 5      2893.342    22267094.620    91180029.810 8      2893.342
R03  19860490.100   106314761.884 8      4052.061    19860489.580   106314761.907 8      4052.061    19860501.660    82689309.378 8      3151.603    19860501.120    82689305.375 8      3151.603
G01  20909140.460   109878271.561 7      2329.430    20909139.460   109878271.563 6      2329.430    20909144.340    85619451.145 6      1815.140    20909144.700    85619450.153 8      1815.140
G08  21416067.380   112542191.328 7       703.605    21416066.380   112542191.327 7       703.605    21416076.520    87695243.770 7       548.264    21416077.560    87695252.771 7       548.264
R18  20613381.660   110035626.710 7      3379.212    20613382.220   110035626.711 7      3379.212    20613391.960    85583309.197 7      2628.276    20613392.180    85583312.199 7      2628.276
R09  23018923.260   122919758.436 6      3517.568    23018924.040   122919758.447 6      3517.568    23018935.180    95604314.401 6      2735.886    23018936.280    95604315.384 6      2735.886
R02  21874013.860   116723926.545 7       171.741    21874014.340   116723926.535 7       171.741    21874026.820    90785316.752 6       133.576    21874025.900    90785321.754 6       133.576
R16  21856761.380   116754895.869 7       372.346    21856760.880   116754895.878 7       372.346    21856776.460    90809427.764 7       289.603    21856776.960    90809423.764 7       289.603
R15  23610354.160   126166572.649 6     -1027.427    23610354.220   126166572.615 6     -1027.427    23610386.160    98129696.292 7      -799.110    23610386.960    98129693.300 7      -799.110
R17  21613805.940   115659824.406 6      1618.355    21613804.560   115659824.423 6      1618.355    21613819.180    89957709.148 5      1258.720    21613819.140    89957710.143 5      1258.720
R04  21823330.680   116862945.388 7      6889.046    21823332.820   116862945.424 6      6889.046    21823352.580    90893495.155 8      5358.147    21823352.080    90893496.159 8      5358.147
G17  23823219.120   125191866.430 6      5561.848    23823218.100   125191866.430 3      5561.848    23823228.180    97552132.785 3      4333.908    23823224.740    97552126.819 6      4333.908
G04  23943117.780   125821952.771 5      5796.049    23943115.400   125821952.776 3      5796.049    23943142.000    98043173.474 3      4516.402    23943142.340    98043171.618 8      4516.402
G22  23953394.800   125875935.877 6      4677.429    23953393.260   125875935.874 3      4677.429    23953401.160    98085168.854 3      3644.750
G32  25108901.960   131948180.487 5      1062.077    25108900.900   131948180.508 3      1062.077    25108914.800   102816789.769 3       827.593    25108914.380   102816806.842 5       827.593
> 2025 04 04 17 00  8.0000000  0 18
G27  24610308.120   129328033.282 5      -376.540    24610306.160   129328033.292 5      -376.540    24610335.480   100775204.226 5      -293.408    24610335.460   100775203.180 6      -293.408
G02  22137480.300   116333241.539 6      1593.710    22137477.960   116333241.547 4      1593.710    22137482.520    90649287.899 4      1241.852
G03  19894927.600   104548548.953 8      3373.153    19894926.120   104548548.960 8      3373.153    19894934.320    81466429.696 8      2628.431    19894934.160    81466429.696 8      2628.431
G14  22266381.060   117010622.734 7      3712.803    22266380.220   117010622.742 5      3712.803    22266387.840    91177108.606 5      2893.093    22266388.160    91177136.608 8      2893.093
R03  19859733.360   106310710.190 8      4051.505    19859732.480   106310710.210 7      4051.505    19859744.800    82686158.066 8      3151.170    19859744.360    82686154.065 8      3151.170
G01  20908697.160   109875942.169 7      2329.504    20908696.360   109875942.174 6      2329.504    20908701.100    85617636.041 6      1815.198    20908701.420    85617635.046 8      1815.198
G08  21415933.520   112541487.994 7       703.327    21415932.460   112541487.996 7       703.327    21415942.580    87694695.726 7       548.047    21415943.400    87694704.729 7       548.047
R18  20612748.260   110032247.455 7      3379.413    20612749.420   110032247.466 7      3379.413    20612759.040    85580680.909 7      2628.432    20612759.240    85580683.914 7      2628.432
R09  23018265.080   122916241.223 6      3517.137    23018265.320   122916241.242 6      3517.137    23018277.100    95601578.803 6      2735.551    23018277.340    95601579.784 6      2735.551
R02  21873981.760   116723755.048 7       171.389    21873981.960   116723755.043 7       171.389    21873994.380    90785183.375 6       133.303    21873993.920    90785188.382 6       133.303
R16  21856691.840   116754523.701 7       372.136    21856691.320   116754523.718 7       372.136    21856706.540    90809138.307 7       289.439    21856707.240    90809134.302 7       289.439
R15  23610546.160   126167599.723 6     -1026.836    23610545.280   126167599.727 6     -1026.836    23610578.680    98130495.167 7      -798.650    23610579.000    98130492.177 7      -798.650
R17  21613503.520   115658206.026 6      1618.502    21613502.400   115658206.027 6      1618.502    21613516.820    89956450.397 5      1258.835    21613516.740    89956451.411 5      1258.835
R04  21822043.780   116856056.249 7      6889.231    21822046.560   116856056.281 6      6889.231    21822066.040    90888136.961 8      5358.290    21822065.680    90888137.967 8      5358.290
G17  23822161.040   125186304.446 6      5561.994    23822159.760   125186304.443 3      5561.994    23822169.580    97547798.779 3      4334.022    23822166.700    97547792.822 6      4334.022
G04  23942015.260   125816156.651 5      5796.409    23942012.380   125816156.653 3      5796.409    23942039.000    98038657.040 3      4516.682    23942039.400    98038655.171 8      4516.682
G22  23952504.560   125871258.725 6      4677.239    23952503.380   125871258.719 3      4677.239    23952510.940    98081524.331 3      3644.602
G32  25108700.140   131947118.789 5      1061.722    25108698.840   131947118.804 3      1061.722    25108712.760   102815962.471 3       827.316    25108711.360   102815979.469 5       827.316
> 2025 04 04 17 00  9.0000000  0 18
G27  24610380.120   129328409.556 5      -376.319    24610378.040   129328409.566 5      -376.319    24610407.060   100775497.398 5      -293.235    24610407.200   100775496.376 6      -293.235
G02  22137177.120   116331647.766 6      1593.937    22137174.620   116331647.776 4      1593.937    22137179.100    90648046.003 4      1242.029
G03  19894285.780   104545175.930 7      3373.022    19894284.200   104545175.937 8      3373.022    19894292.480    81463801.366 8      2628.329    19894292.420    81463801.366 8      2628.329
G14  22265674.500   117006909.939 7      3712.648    22265673.700   117006909.946 5      3712.648    22265681.360    91174215.528 5      2892.973    22265681.600    91174243.541 8      2892.973
R03  19858976.420   106306658.911 8      4051.023    19858975.840   106306658.934 8      4051.023    19858988.020    82683007.084 8      3150.796    19858987.640    82683003.081 8      3150.796
G01  20908253.820   109873612.465 7      2329.837    20908252.980   109873612.469 6      2329.837    20908257.580    85615820.687 6      1815.457    20908258.260    85615819.696 8      1815.457
G08  21415799.620   112540784.581 7       703.399    21415798.600   112540784.588 7       703.399    21415808.760    87694147.616 7       548.103    21415809.540    87694156.617 7       548.103
R18  20612115.160   110028867.860 7      3379.557    20612116.220   110028867.871 7      3379.557    20612125.800    85578052.336 7      2628.545    20612126.300    85578055.338 7      2628.545
R09  23017606.360   122912724.354 6      3516.708    23017606.520   122912724.371 6      3516.708    23017619.080    95598843.461 6      2735.217    23017618.960    95598844.430 6      2735.217
R02  21873949.520   116723583.793 7       171.036    21873950.020   116723583.791 7       171.036    21873962.400    90785050.175 6       133.028    21873962.160    90785055.169 6       133.028
R16  21856622.360   116754151.657 7       371.924    21856622.220   116754151.671 7       371.924    21856636.640    90808848.953 7       289.274    21856637.480    90808844.945 7       289.274
R15  23610737.800   126168626.312 6     -1026.415    23610738.360   126168626.310 6     -1026.415    23610770.700    98131293.618 7      -798.323    23610771.140    98131290.620 7      -798.323
R17  21613201.660   115656587.349 6      1618.839    21613199.500   115656587.339 6      1618.839    21613214.820    89955191.436 5      1259.097    21613214.200    89955192.446 5      1259.097
R04  21820757.200   116849166.950 7      6889.300    21820759.520   116849166.995 7      6889.300    21820779.540    90882778.643 8      5358.345    21820779.160    90882779.647 8      5358.345
G17  23821103.060   125180741.959 6      5562.803    23821101.140   125180741.959 3      5562.803    23821110.880    97543464.387 3      4334.651    23821108.100    97543458.421 6      4334.651
G04  23940912.240   125810360.013 5      5796.647    23940909.240   125810360.018 3      5796.647    23940935.900    98034140.201 3      4516.868    23940936.360    98034138.377 8      4516.868
G22  23951614.420   125866581.601 7      4677.136    23951613.300   125866581.596 3      4677.136    23951620.880    98077879.826 3      3644.521
G32  25108498.040   131946057.064 5      1061.368    25108496.840   131946057.082 3      1061.368    25108510.500   102815135.153 3       827.040    25108509.600   102815152.229 5       827.040
> 2025 04 04 17 00 10.0000000  0 18
G27  24610452.220   129328785.582 5      -376.008    24610449.620   129328785.600 5      -376.008    24610478.740   100775790.371 5      -292.994    24610478.540   100775789.347 6      -292.994
G02  22136873.380   116330053.588 6      1594.498    22136871.240   116330053.595 4      1594.498    22136875.900    90646803.793 4      1242.466
G03  19893643.920   104541803.101 8      3372.771    19893642.480   104541803.106 8      3372.771    19893650.620    81461173.200 8      2628.133    19893650.620    81461173.200 8      2628.133
G14  22264967.760   117003197.377 7      3712.498    22264967.200   117003197.384 5      3712.498    22264974.860    91171322.629 5      2892.856    22264975.120    91171350.626 8      2892.856
R03  19858219.540   106302608.049 8      4050.694    19858219.060   106302608.075 7      4050.694    19858231.160    82679856.424 8      3150.540    19858231.020    82679852.421 8      3150.540
G01  20907810.360   109871282.492 7      2330.160    20907809.540   109871282.497 6      2330.160    20907814.280    85614005.128 6      1815.709    20907814.600    85614004.138 8      1815.709
G08  21415665.860   112540081.163 7       703.544    21415664.920   112540081.162 7       703.544    21415674.900    87693599.490 7       548.216    21415675.420    87693608.495 7       548.216
R18  20611482.120   110025487.838 6      3380.190    20611482.900   110025487.844 7      3380.190    20611492.700    85575423.440 7      2629.037    20611492.920    85575426.449 7      2629.037
R09  23016947.700   122909207.798 6      3516.292    23016947.560   122909207.826 6      3516.292    23016960.860    95596108.374 6      2734.894    23016960.440    95596109.358 6      2734.894
R02  21873917.280   116723412.760 7       170.913    21873917.640   116723412.758 7       170.913    21873929.800    90784917.154 6       132.932    21873929.740    90784922.154 6       132.932
R16  21856552.480   116753779.759 7       371.853    21856552.740   116753779.768 7       371.853    21856566.700    90808559.679 7       289.219    21856567.660    90808555.679 7       289.219
R15  23610929.720   126169652.283 6     -1025.633    23610929.880   126169652.286 6     -1025.633    23610962.800    98132091.602 7      -797.714    23610963.400    98132088.612 7      -797.714
R17  21612899.700   115654968.409 6      1618.946    21612896.400   115654968.416 6      1618.946    21612912.480    89953932.270 5      1259.180    21612911.920    89953933.277 5      1259.180
R04  21819470.740   116842277.523 7      6889.569    21819473.140   116842277.565 7      6889.569    21819492.880    90877420.226 8      5358.554    21819492.720    90877421.228 8      5358.554
G17  23820044.300   125175179.102 6      5563.141    23820042.620   125175179.102 3      5563.141    23820052.420    97539129.701 3      4334.915    23820049.620    97539123.735 6      4334.915
G04  23939808.420   125804562.874 5      5797.187    23939805.920   125804562.878 3      5797.187    23939832.820    98029622.978 3      4517.289    23939833.240    98029621.179 8      4517.289
G22  23950724.500   125861904.467 7      4677.228    23950723.400   125861904.464 3      4677.228    23950730.820    98074235.306 3      3644.593
G32  25108296.480   131944995.363 5      1061.760    25108294.800   131944995.378 3      1061.760    25108308.400   102814307.856 3       827.346    25108309.080   102814324.935 5       827.346
> 2025 04 04 17 00 11.0000000  0 18
G27  24610523.820   129329161.178 5      -375.595    24610521.200   129329161.193 5      -375.595    24610550.220   100776083.022 5      -292.671    24610550.100   100776082.028 6      -292.671
G02  22136569.900   116328458.868 6      1594.874    22136567.740   116328458.876 4      1594.874    22136572.380    90645561.156 4      1242.759
G03  19893002.080   104538430.319 8      3372.561    19893000.580   104538430.321 8      3372.561    19893008.860    81458545.067 8      2627.969    19893008.560    81458545.067 8      2627.969
G14  22264261.340   116999484.802 7      3712.452    22264260.840   116999484.807 5      3712.452    22264268.460    91168429.718 5      2892.820    22264268.440    91168457.721 8      2892.820
R03  19857463.080   106298557.447 8      4050.380    19857462.560   106298557.470 8      4050.380    19857474.580    82676705.962 8      3150.295    19857474.280    82676701.957 8      3150.295
G01  20907366.940   109868952.068 7      2330.519    20907366.100   109868952.070 6      2330.519    20907370.780    85612189.219 6      1815.989    20907371.420    85612188.231 8      1815.989
G08  21415532.040   112539377.540 7       703.651    21415530.900   112539377.553 7       703.651    21415540.900    87693051.229 7       548.299    21415541.440    87693060.232 7       548.299
R18  20610849.400   110022107.309 7      3380.640    20610849.460   110022107.320 7      3380.640    20610859.820    85572794.146 7      2629.387    20610859.340    85572797.153 7      2629.387
R09  23016289.140   122905691.418 6      3516.105    23016289.240   122905691.419 6      3516.105    23016302.440    95593373.416 6      2734.748    23016302.520    95593374.383 6      2734.748
R02  21873885.680   116723241.802 7       170.851    21873885.400   116723241.803 7       170.851    21873897.740    90784784.199 6       132.884    21873897.660    90784789.195 6       132.884
R16  21856482.980   116753407.819 7       371.810    21856483.000   116753407.831 7       371.810    21856497.440    90808270.388 7       289.185    21856497.940    90808266.384 7       289.185
R15  23611121.660   126170677.594 6     -1025.118    23611121.740   126170677.595 6     -1025.118    23611154.200    98132889.062 7      -797.314    23611155.680    98132886.070 7      -797.314
R17  21612596.000   115653348.986 6      1619.545    21612593.920   115653348.969 6      1619.545    21612609.840    89952672.708 5      1259.646    21612609.800    89952673.713 5      1259.646
R04  21818183.920   116835387.777 7      6889.793    21818186.520   116835387.824 7      6889.793    21818206.440    90872061.562 8      5358.728    21818205.820    90872062.561 8      5358.728
G17  23818985.540   125169615.656 6      5563.482    23818983.960   125169615.656 3      5563.482    23818993.760    97534794.561 3      4335.181    23818990.760    97534788.625 6      4335.181
G04  23938704.980   125798765.082 5      5798.243    23938702.400   125798765.087 3      5798.243    23938729.640    98025105.252 3      4518.111    23938729.640    98025103.442 8      4518.111
G22  23949834.740   125857227.213 6      4677.136    23949833.300   125857227.210 3      4677.136    23949840.640    98070590.702 3      3644.521
G32  25108095.260   131943933.588 5      1061.438    25108092.740   131943933.599 3      1061.438    25108106.500   102813480.501 3       827.095    25108108.140   102813497.550 5       827.095
> 2025 04 04 17 00 12.0000000  0 18
G27  24610594.740   129329536.832 5      -375.601    24610592.740   129329536.844 5      -375.601    24610621.660   100776375.719 5      -292.676    24610621.880   100776374.700 6      -292.676
G02  22136266.620   116326864.025 6      1595.180    22136264.280   116326864.030 4      1595.180    22136268.800    90644318.426 4      1242.998
G03  19892360.260   104535058.003 7      3372.173    19892359.000   104535058.005 8      3372.173    19892367.080    81455917.298 8      2627.667    19892366.720    81455917.298 8      2627.667
G14  22263554.780   116995772.705 7      3712.025    22263554.360   116995772.710 5      3712.025    22263562.080    91165537.183 5      2892.487    22263561.980    91165565.192 8      2892.487
R03  19856706.360   106294507.525 8      4049.723    19856706.060   106294507.548 8      4049.723    19856717.940    82673556.035 8      3149.785    19856717.500    82673552.028 8      3149.785
G01  20906923.820   109866621.657 7      2330.532    20906922.700   109866621.656 6      2330.532    20906927.340    85610373.325 6      1815.999    20906927.880    85610372.334 8      1815.999
G08  21415398.260   112538674.201 7       703.342    21415397.000   112538674.200 7       703.342    21415407.040    87692503.164 7       548.059    21415407.760    87692512.167 7       548.059
R18  20610215.200   110018726.766 7      3380.761    20610216.080   110018726.767 7      3380.761    20610226.920    85570164.835 7      2629.481    20610226.700    85570167.838 7      2629.481
R09  23015630.280   122902175.583 6      3515.893    23015630.460   122902175.616 6      3515.893    23015644.140    95590638.901 6      2734.583    23015643.880    95590639.886 6      2734.583
R02  21873853.260   116723071.425 7       170.259    21873853.600   116723071.421 7       170.259    21873865.620    90784651.682 6       132.424    21873865.760    90784656.680 6       132.424
R16  21856413.320   116753036.253 7       371.504    21856413.880   116753036.262 7       371.504    21856427.780    90807981.396 7       288.948    21856428.700    90807977.396 7       288.948
R15  23611313.880   126171702.654 6     -1024.730    23611313.980   126171702.652 6     -1024.730    23611345.900    98133686.331 7      -797.012    23611347.400    98133683.339 7      -797.012
R17  21612294.080   115651729.632 6      1619.445    21612291.560   115651729.628 6      1619.445    21612307.220    89951413.218 5      1259.568    21612306.280    89951414.218 5      1259.568
R04  21816898.300   116828498.114 7      6889.777    21816899.620   116828498.161 7      6889.777    21816919.720    90866702.964 8      5358.716    21816919.360    90866703.966 8      5358.716
G17  23817926.980   125164052.079 6      5563.797    23817925.260   125164052.079 3      5563.797    23817934.980    97530459.318 3      4335.426    23817933.240    97530453.367 6      4335.426
G04  23937601.380   125792967.154 5      5798.035    23937598.980   125792967.162 3      5798.035    23937626.400    98020587.417 3      4517.950    23937626.360    98020585.613 8      4517.950
G22  23948944.780   125852550.249 7      4676.920    23948943.500   125852550.246 3      4676.920    23948950.820    98066946.323 3      3644.353
G32  25107893.060   131942872.092 5      1061.577    25107890.900   131942872.102 3      1061.577    25107904.380   102812653.365 3       827.203    25107905.520   102812670.445 5       827.203
> 2025 04 04 17 00 13.0000000  0 18
G27  24610666.620   129329912.149 5      -375.309    24610664.360   129329912.156 5      -375.309    24610693.240   100776668.131 5      -292.448    24610692.900   100776667.095 6      -292.448
G02  22135963.260   116325268.691 6      1595.565    22135960.800   116325268.696 4      1595.565    22135965.200    90643075.314 4      1243.297
G03  19891718.600   104531685.773 8      3372.168    19891717.140   104531685.775 8      3372.168    19891725.380    81453289.592 8      2627.664    19891725.140    81453289.591 8      2627.664
G14  22262848.360   116992060.696 7      3711.951    22262848.040   116992060.700 5      3711.951    22262855.680    91162644.714 5      2892.429    22262855.520    91162672.721 8      2892.429
R03  19855949.880   106290457.894 8      4049.499    19855949.480   106290457.917 8      4049.499    19855961.440    82670406.327 8      3149.611    19855961.520    82670402.323 8      3149.611
G01  20906479.820   109864290.846 7      2330.986    20906479.040   109864290.851 6      2330.986    20906483.840    85608557.119 6      1816.353    20906484.180    85608556.126 8      1816.353
G08  21415264.100   112537970.693 7       703.556    21415263.040   112537970.696 7       703.556    21415273.120    87691954.979 7       548.225    21415273.720    87691963.984 7       548.225
R18  20609582.240   110015345.746 7      3381.271    20609582.740   110015345.753 7      3381.271    20609593.300    85567535.159 7      2629.877    20609592.680    85567538.166 7      2629.877
R09  23014972.320   122898660.049 6      3515.500    23014972.940   122898660.072 6      3515.500    23014986.140    95587904.597 6      2734.278    23014985.820    95587905.590 6      2734.278
R02  21873821.200   116722901.204 7       170.149    21873821.980   116722901.199 7       170.149    21873833.920    90784519.289 6       132.338    21873833.580    90784524.291 6       132.338
R16  21856344.040   116752664.654 7       371.631    21856344.420   116752664.669 7       371.631    21856358.640    90807692.365 7       289.046    21856359.020    90807688.369 7       289.046
R15  23611505.700   126172727.051 6     -1024.024    23611505.460   126172727.044 6     -1024.024    23611537.780    98134483.101 7      -796.463    23611538.420    98134480.109 7      -796.463
R17  21611990.620   115650109.911 6      1620.021    21611989.260   115650109.905 6      1620.021    21612003.780    89950153.432 5      1260.017    21612004.120    89950154.452 5      1260.017
R04  21815610.800   116821608.183 7      6890.086    21815612.920   116821608.219 7      6890.086    21815633.060    90861344.139 8      5358.956    21815632.840    90861345.145 8      5358.956
G17  23816868.100   125158487.953 6      5564.430    23816866.280   125158487.953 3      5564.430    23816876.060    97526123.648 3      4335.919    23816873.640    97526117.686 6      4335.919
G04  23936498.080   125787168.598 5      5798.684    23936495.500   125787168.609 3      5798.684    23936522.580    98016069.084 3      4518.455    23936522.880    98016067.282 8      4518.455
G22  23948054.600   125847873.202 7      4677.140    23948053.340   125847873.199 3      4677.140    23948060.860    98063301.879 3      3644.525
G32  25107691.120   131941810.620 5      1061.357    25107688.900   131941810.622 3      1061.357    25107702.280   102811826.254 3       827.032    25107703.600   102811843.323 5       827.032
> 2025 04 04 17 00 14.0000000  0 18
G27  24610737.680   129330287.161 5      -374.955    24610735.760   129330287.166 5      -374.955    24610764.620   100776960.322 5      -292.172    24610764.560   100776959.313 6      -292.172
G02  22135659.820   116323672.931 6      1595.962    22135657.020   116323672.939 4      1595.962    22135661.660    90641831.871 4      1243.607
G03  19891077.040   104528313.719 7      3371.921    19891075.540   104528313.724 8      3371.921    19891083.720    81450662.026 8      2627.471    19891083.440    81450662.029 8      2627.471
G14  22262142.320   116988348.822 7      3711.759    22262141.700   116988348.827 5      3711.759    22262149.340    91159752.354 5      2892.280    22262149.160    91159780.367 7      2892.280
R03  19855193.680   106286408.665 8      4048.954    19855192.960   106286408.685 8      4048.954    19855205.160    82667256.934 8      3149.186    19855204.920    82667252.934 8      3149.186
G01  20906036.280   109861959.741 7      2331.213    20906035.460   109861959.746 6      2331.213    20906040.220    85606740.678 6      1816.530    20906040.540    85606739.687 8      1816.530
G08  21415130.500   112537267.160 7       703.519    21415129.200   112537267.157 7       703.519    21415139.240    87691406.771 7       548.197    21415139.900    87691415.782 7       548.197
R18  20608948.560   110011964.385 7      3381.395    20608949.460   110011964.380 7      3381.395    20608960.280    85564905.217 7      2629.974    20608959.280    85564908.222 7      2629.974
R09  23014314.000   122895144.775 6      3515.159    23014313.260   122895144.781 6      3515.159    23014327.940    95585170.499 6      2734.012    23014327.660    95585171.463 6      2734.012
R02  21873789.360   116722731.211 7       169.876    21873789.860   116722731.212 7       169.876    21873801.440    90784387.093 6       132.126    21873801.860    90784392.098 6       132.126
R16  21856274.580   116752293.131 7       371.431    21856275.140   116752293.137 7       371.431    21856288.620    90807403.394 7       288.891    21856289.320    90807399.395 7       288.891
R15  23611697.120   126173750.887 6     -1023.614    23611696.740   126173750.867 6     -1023.614    23611729.480    98135279.424 7      -796.144    23611730.080    98135276.433 7      -796.144
R17  21611688.020   115648489.939 6      1620.009    21611686.500   115648489.925 6      1620.009    21611701.920    89948893.455 5      1260.007    21611701.300    89948894.465 5      1260.007
R04  21814324.620   116814718.059 7      6890.120    21814326.400   116814718.093 7      6890.120    21814346.380    90855985.179 8      5358.982    21814346.400    90855986.185 8      5358.982
G17  23815808.800   125152923.401 6      5564.740    23815807.540   125152923.401 3      5564.740    23815817.180    97521787.646 3      4336.161    23815814.940    97521781.688 6      4336.161
G04  23935394.460   125781369.522 5      5799.503    23935391.780   125781369.532 3      5799.503    23935419.240    98011550.354 3      4519.093    23935419.440    98011548.542 8      4519.093
G22  23947164.440   125843196.173 7      4676.837    23947163.380   125843196.173 3      4676.837    23947171.020    98059657.451 3      3644.288
G32  25107488.420   131940749.100 5      1061.582    25107486.860   131940749.107 3      1061.582    25107500.060   102810999.104 3       827.206    25107501.840   102811016.171 5       827.206
> 2025 04 04 17 00 15.0000000  0 18
G27  24610808.740   129330662.003 5      -374.884    24610806.980   129330662.005 5      -374.884    24610836.120   100777252.376 5      -292.118    24610835.860   100777251.360 6      -292.118
G02  22135355.760   116322076.843 6      1596.089    22135353.400   116322076.851 4      1596.089    22135358.080    90640588.172 4      1243.705
G03  19890435.160   104524941.917 7      3371.515    19890433.940   104524941.925 8      3371.515    19890442.020    81448034.661 8      2627.155    19890441.980    81448034.663 8      2627.155
G14  22261435.900   116984637.209 7      3711.463    22261435.400   116984637.214 5      3711.463    22261442.880    91156860.194 5      2892.049    22261443.120    91156888.203 7      2892.049
R03  19854437.000   106282359.891 8      4048.409    19854436.580   106282359.914 8      4048.409    19854448.780    82664107.903 8      3148.762    19854448.560    82664103.898 8      3148.762
G01  20905592.780   109859628.408 7      2331.309    20905591.880   109859628.415 6      2331.309    20905596.420    85604924.065 6      1816.604    20905596.960    85604923.074 8      1816.604
G08  21414996.840   112536563.637 7       703.357    21414995.340   112536563.639 7       703.357    21415005.340    87690858.575 7       548.070    21415006.060    87690867.582 7       548.070
R18  20608315.200   110008582.673 7      3381.791    20608316.040   110008582.677 7      3381.791    20608326.220    85562275.006 7      2630.282    20608326.000    85562278.010 7      2630.282
R09  23013656.020   122891629.925 6      3514.631    23013655.860   122891629.915 6      3514.631    23013669.980    95582436.720 6      2733.602    23013669.500    95582437.680 6      2733.602
R02  21873757.520   116722561.539 7       169.332    21873758.200   116722561.534 7       169.332    21873769.900    90784255.122 6       131.703    21873770.280    90784260.126 6       131.703
R16  21856204.820   116751921.730 7       371.218    21856205.300   116751921.734 7       371.218    21856219.480    90807114.528 7       288.725    21856219.480    90807110.528 7       288.725
R15  23611888.840   126174774.200 7     -1023.248    23611888.040   126174774.196 6     -1023.248    23611921.300    98136075.353 7      -795.859    23611921.440    98136072.365 7      -795.859
R17  21611384.960   115646869.692 6      1620.220    21611384.140   115646869.688 6      1620.220    21611399.640    89947633.280 5      1260.171    21611398.480    89947634.281 5      1260.171
R04  21813038.540   116807827.801 7      6890.245    21813039.320   116807827.838 7      6890.245    21813059.680    90850626.113 8      5359.080    21813059.500    90850627.123 8      5359.080
G17  23814749.900   125147358.463 6      5565.090    23814748.480   125147358.466 3      5565.090    23814758.320    97517451.349 3      4336.434    23814756.540    97517445.407 6      4336.434
G04  23934291.320   125775570.036 5      5799.496    23934288.580   125775570.044 3      5799.496    23934315.820    98007031.298 2      4519.088    23934315.860    98007029.530 8      4519.088
G22  23946274.860   125838519.192 7      4676.815    23946273.440   125838519.194 3      4676.815    23946280.980    98056013.062 3      3644.272
G32  25107286.920   131939687.738 5      1061.294    25107284.840   131939687.740 3      1061.294    25107298.020   102810172.078 3       826.983    25107300.900   102810189.148 5       826.983
> 2025 04 04 17 00 16.0000000  0 18
G27  24610879.200   129331036.527 5      -374.462    24610878.480   129331036.534 5      -374.462    24610907.420   100777544.188 5      -291.788    24610907.140   100777543.187 6      -291.788
G02  22135052.380   116320480.305 6      1596.674    22135049.540   116320480.313 4      1596.674    22135054.220    90639344.119 4      1244.162
G03  19889793.680   104521570.266 7      3371.484    19889792.280   104521570.271 8      3371.484    19889800.460    81445407.404 8      2627.130    19889800.580    81445407.406 8      2627.130
G14  22260730.020   116980925.767 7      3711.134    22260729.160   116980925.774 5      3711.134    22260736.520    91153968.175 5      2891.793    22260736.640    91153996.184 7      2891.793
R03  19853680.760   106278311.505 8      4048.073    19853680.160   106278311.533 8      4048.073    19853692.480    82660959.171 8      3148.501    19853692.040    82660955.167 8      3148.501
G01  20905148.840   109857296.770 7      2331.673    20905148.360   109857296.777 6      2331.673    20905152.640    85603107.206 6      1816.888    20905153.200    85603106.217 8      1816.888
G08  21414862.800   112535860.040 7       703.549    21414861.340   112535860.039 7       703.549    21414871.560    87690310.320 7       548.220    21414872.320    87690319.329 7       548.220
R18  20607681.200   110005200.596 7      3382.212    20607682.420   110005200.600 7      3382.212    20607692.580    85559644.501 7      2630.609    20607692.720    85559647.502 7      2630.609
R09  23012998.360   122888115.312 6      3514.405    23012997.160   122888115.297 6      3514.405    23013012.220    95579703.141 6      2733.426    23013011.480    95579704.118 6      2733.426
R02  21873725.920   116722392.003 7       169.408    21873726.420   116722391.996 7       169.408    21873738.000    90784123.261 6       131.762    21873738.680    90784128.267 6       131.762
R16  21856135.620   116751550.407 7       371.219    21856135.440   116751550.410 7       371.219    21856149.920    90806825.715 7       288.726    21856150.120    90806821.715 7       288.726
R15  23612080.440   126175796.903 7     -1022.522    23612079.880   126175796.888 6     -1022.522    23612112.380    98136870.814 7      -795.295    23612112.960    98136867.824 7      -795.295
R17  21611081.700   115645249.171 6      1620.495    21611081.720   115645249.170 6      1620.495    21611097.300    89946372.868 5      1260.385    21611096.500    89946373.865 5      1260.385
R04  21811751.660   116800937.332 7      6890.554    21811753.140   116800937.369 7      6890.554    21811772.980    90845266.888 8      5359.320    21811772.860    90845267.896 8      5359.320
G17  23813690.760   125141793.094 6      5565.440    23813689.460   125141793.094 3      5565.440    23813699.300    97513114.710 3      4336.706    23813696.740    97513108.762 6      4336.706
G04  23933187.580   125769770.040 5      5800.285    23933184.780   125769770.045 3      5800.285    23933212.460    98002511.852 2      4519.703    23933212.020    98002510.044 8      4519.703
G22  23945384.540   125833842.218 7      4676.780    23945383.560   125833842.220 3      4676.780    23945390.840    98052368.675 3      3644.244
G32  25107084.100   131938626.381 5      1061.116    25107082.820   131938626.383 3      1061.116    25107096.020   102809345.053 3       826.844    25107098.420   102809362.141 5       826.844
> 2025 04 04 17 00 17.0000000  0 18
G27  24610950.820   129331410.966 5      -374.243    24610949.600   129331410.971 5      -374.243    24610978.600   100777835.941 5      -291.618    24610979.380   100777834.940 6      -291.618
G02  22134748.380   116318883.545 6      1596.891    22134745.540   116318883.552 4      1596.891    22134750.380    90638099.894 4      1244.331
G03  19889152.240   104518198.976 7      3371.067    19889150.800   104518198.981 8      3371.067    19889158.940    81442780.433 8      2626.806    19889159.000    81442780.433 8      2626.806
G14  22260023.800   116977214.632 7      3710.882    22260023.180   116977214.647 5      3710.882    22260030.380    91151076.388 5      2891.596    22260030.400    91151104.399 7      2891.596
R03  19852924.500   106274263.705 8      4047.500    19852924.260   106274263.731 8      4047.500    19852936.340    82657810.890 8      3148.056    19852935.760    82657806.887 8      3148.056
G01  20904705.140   109854965.003 7      2331.834    20904704.480   109854965.008 6      2331.834    20904708.940    85601290.246 6      1817.014    20904709.640    85601289.254 8      1817.014
G08  21414728.800   112535156.577 7       703.496    21414727.580   112535156.579 7       703.496    21414737.700    87689762.173 7       548.179    21414738.380    87689771.180 7       548.179
R18  20607047.660   110001818.324 7      3382.338    20607048.980   110001818.339 7      3382.338    20607059.500    85557013.849 7      2630.707    20607058.860    85557016.852 7      2630.707
R09  23012340.240   122884601.178 6      3514.153    23012338.500   122884601.168 6      3514.153    23012353.580    95576969.931 6      2733.230    23012353.400    95576970.912 6      2733.230
R02  21873694.000   116722222.899 7       168.784    21873694.360   116722222.900 7       168.784    21873705.640    90783991.739 6       131.276    21873706.500    90783996.748 6       131.276
R16  21856065.940   116751179.364 7       370.987    21856066.480   116751179.370 7       370.987    21856080.500    90806537.122 7       288.545    21856080.600    90806533.124 7       288.545
R15  23612271.400   126176819.238 7     -1022.180    23612270.960   126176819.229 7     -1022.180    23612303.980    98137665.982 7      -795.029    23612304.380    98137662.990 7      -795.029
R17  21610779.240   115643628.463 6      1620.959    21610777.960   115643628.454 6      1620.959    21610793.480    89945112.322 5      1260.746    21610793.440    89945113.332 5      1260.746
R04  21810464.340   116794046.869 7      6890.580    21810466.000   116794046.908 7      6890.580    21810486.120    90839907.668 8      5359.340    21810485.980    90839908.672 8      5359.340
G17  23812631.620   125136227.447 6      5565.757    23812630.520   125136227.449 3      5565.757    23812640.160    97508777.854 3      4336.953    23812638.020    97508771.896 6      4336.953
G04  23932083.780   125763969.735 5      5800.092    23932081.120   125763969.739 3      5800.092    23932108.540    97997992.158 2      4519.552    23932108.140    97997990.373 8      4519.552
G22  23944494.920   125829165.418 7      4676.656    23944493.520   125829165.417 3      4676.656    23944500.980    98048724.422 3      3644.147
G32  25106882.560   131937565.174 5      1061.052    25106880.900   131937565.171 3      1061.052    25106893.860   102808518.149 3       826.794    25106896.400   102808535.245 5       826.794
> 2025 04 04 17 00 18.0000000  0 18
G27  24611021.900   129331785.314 5      -374.467    24611020.900   129331785.316 5      -374.467    24611050.100   100778127.630 5      -291.792    24611050.820   100778126.621 6      -291.792
G02  22134444.340   116317286.505 6      1597.046    22134441.820   116317286.510 4      1597.046    22134446.520    90636855.454 4      1244.452
G03  19888510.580   104514827.976 8      3370.829    19888509.300   104514827.981 8      3370.829    19888517.440    81440153.680 8      2626.620    19888517.220    81440153.678 8      2626.620
G14  22259317.760   116973503.788 7      3710.685    22259316.940   116973503.799 5      3710.685    22259324.320    91148184.826 5      2891.443    22259324.520    91148212.828 7      2891.443
R03  19852168.360   106270216.438 8      4046.888    19852168.100   106270216.467 8      4046.888    19852180.180    82654663.022 8      3147.580    19852180.020    82654659.021 8      3147.580
G01  20904261.280   109852633.054 7      2332.030    20904260.680   109852633.057 6      2332.030    20904265.220    85599473.150 6      1817.166    20904265.900    85599472.149 8      1817.166
G08  21414595.020   112534453.209 7       703.178    21414593.680   112534453.214 7       703.178    21414604.000    87689214.096 7       547.931    21414604.740    87689223.101 7       547.931
R18  20606414.660   109998435.826 7      3382.640    20606415.080   109998435.834 7      3382.640    20606425.640    85554383.028 7      2630.943    20606425.520    85554386.028 7      2630.943
R09  23011682.500   122881087.537 6      3513.355    23011680.720   122881087.509 6      3513.355    23011696.420    95574237.100 6      2732.609    23011695.800    95574238.066 6      2732.609
R02  21873662.440   116722054.139 7       168.615    21873662.640   116722054.135 7       168.615    21873674.100    90783860.474 6       131.145    21873674.620    90783865.488 6       131.145
R16  21855996.780   116750808.551 7       370.689    21855997.080   116750808.557 7       370.689    21856011.320    90806248.720 7       288.313    21856011.360    90806244.730 7       288.313
R15  23612462.860   126177841.127 7     -1021.691    23612462.080   126177841.106 7     -1021.691    23612495.560    98138460.811 7      -794.648    23612495.380    98138457.817 7      -794.648
R17  21610475.760   115642007.654 6      1620.960    21610474.380   115642007.647 6      1620.960    21610491.060    89943851.667 5      1260.747    21610490.640    89943852.681 5      1260.747
R04  21809177.740   116787156.413 7      6890.348    21809178.660   116787156.455 7      6890.348    21809199.320    90834548.431 8      5359.160    21809198.980    90834549.437 8      5359.160
G17  23811572.240   125130661.455 6      5566.311    23811571.440   125130661.455 3      5566.311    23811581.040    97504440.726 3      4337.385    23811578.680    97504434.772 6      4337.385
G04  23930980.840   125758169.074 5      5800.494    23930977.120   125758169.082 3      5800.494    23931004.740    97993472.191 2      4519.865    23931004.720    97993470.363 8      4519.865
G22  23943604.700   125824488.709 7      4676.654    23943603.620   125824488.712 3      4676.654    23943611.140    98045080.237 3      3644.146
G32  25106679.700   131936504.180 5      1060.832    25106679.060   131936504.174 3      1060.832    25106692.160   102807691.410 3       826.622    25106695.100   102807708.486 5       826.622
> 2025 04 04 17 00 19.0000000  0 18
G27  24611093.760   129332159.599 5      -374.429    24611092.380   129332159.598 5      -374.429    24611121.580   100778419.252 5      -291.763    24611122.220   100778418.248 6      -291.763
G02  22134140.080   116315689.237 6      1597.328    22134137.840   116315689.242 4      1597.328    22134142.620    90635610.835 4      1244.671
G03  19887869.340   104511457.394 7      3370.243    19887868.360   104511457.396 8      3370.243    19887875.720    81437527.248 8      2626.163    19887875.800    81437527.248 8      2626.163
G14  22258611.700   116969793.355 7      3710.078    22258610.780   116969793.363 5      3710.078    22258618.180    91145293.581 5      2890.970    22258618.560    91145321.594 7      2890.970
R03  19851412.620   106266169.789 8      4046.179    19851412.240   106266169.815 7      4046.179    19851424.380    82651515.641 8      3147.028    19851423.980    82651511.638 8      3147.028
G01  20903817.480   109850301.038 7      2331.888    20903816.900   109850301.045 6      2331.888    20903821.580    85597656.002 6      1817.055    20903822.120    85597655.010 8      1817.055
G08  21414461.220   112533750.004 7       702.984    21414459.800   112533750.003 7       702.984    21414470.240    87688666.148 7       547.779    21414470.940    87688675.157 7       547.779
R18  20605780.840   109995053.207 7      3382.577    20605781.320   109995053.205 7      3382.577    20605792.080    85551752.116 7      2630.893    20605791.500    85551755.117 7      2630.893
R09  23011024.240   122877574.396 6      3512.643    23011022.860   122877574.402 6      3512.643    23011038.000    95571504.675 6      2732.056    23011037.780    95571505.642 6      2732.056
R02  21873630.840   116721885.902 7       167.887    21873630.880   116721885.909 7       167.887    21873642.180    90783729.625 6       130.579    21873643.200    90783734.642 6       130.579
R16  21855927.400   116750438.069 7       370.163    21855928.020   116750438.078 7       370.163    21855941.660    90805960.574 7       287.904    21855942.260    90805956.582 7       287.904
R15  23612654.180   126178862.710 7     -1021.555    23612653.260   126178862.706 7     -1021.555    23612686.520    98139255.416 7      -794.543    23612686.840    98139252.428 7      -794.543
R17  21610172.980   115640386.788 6      1620.826    21610171.400   115640386.803 6      1620.826    21610188.720    89942591.009 5      1260.643    21610187.340    89942592.016 5      1260.643
R04  21807891.360   116780265.981 7      6890.081    21807892.040   116780266.018 6      6890.081    21807912.480    90829189.240 8      5358.952    21807912.380    90829190.245 8      5358.952
G17  23810513.320   125125095.277 6      5566.236    23810512.220   125125095.279 3      5566.236    23810521.820    97500103.454 3      4337.327    23810519.400    97500097.495 6      4337.327
G04  23929877.040   125752368.004 5      5800.866    23929872.960   125752368.019 3      5800.866    23929900.600    97988951.905 2      4520.155    23929900.760    97988950.128 8      4520.155
G22  23942714.800   125819812.285 7      4676.105    23942713.800   125819812.287 3      4676.105    23942721.360    98041436.276 3      3643.718
G32  25106477.520   131935443.393 5      1060.822    25106477.140   131935443.382 3      1060.822    25106490.380   102806864.827 3       826.615    25106494.260   102806881.891 5       826.615
> 2025 04 04 17 00 20.0000000  0 18
G27  24611165.500   129332533.700 5      -373.980    24611163.880   129332533.699 5      -373.980    24611192.800   100778710.730 5      -291.413    24611193.160   100778709.723 6      -291.413
G02  22133836.060   116314091.701 7      1597.900    22133834.000   116314091.709 4      1597.900    22133838.480    90634366.006 4      1245.117
G03  19887227.860   104508087.056 7      3370.269    19887226.460   104508087.061 8      3370.269    19887234.600    81434901.037 8      2626.184    19887234.260    81434901.037 8      2626.184
G14  22257905.780   116966083.156 7      3710.246    22257904.860   116966083.160 5      3710.246    22257912.040    91142402.522 5      2891.101    22257912.240    91142430.529 7      2891.101
R03  19850656.940   106262123.673 8      4045.972    19850656.360   106262123.696 7      4045.972    19850668.380    82648368.670 8      3146.867    19850668.200    82648364.669 8      3146.867
G01  20903374.060   109847968.814 7      2332.448    20903373.120   109847968.824 6      2332.448    20903377.800    85595838.691 6      1817.492    20903378.140    85595837.690 8      1817.492
G08  21414327.420   112533046.846 7       703.116    21414325.960   112533046.856 7       703.116    21414336.260    87688118.247 7       547.883    21414336.980    87688127.254 7       547.883
R18  20605147.180   109991670.276 7      3383.207    20605147.780   109991670.279 7      3383.207    20605158.160    85549120.948 7      2631.383    20605157.940    85549123.944 7      2631.383
R09  23010366.340   122874061.610 6      3512.655    23010365.220   122874061.627 6      3512.655    23010380.400    95568772.535 6      2732.065    23010380.080    95568773.518 6      2732.065
R02  21873599.340   116721718.002 7       167.830    21873599.880   116721718.003 7       167.830    21873610.340    90783599.035 6       130.534    21873611.760    90783604.046 6       130.534
R16  21855857.900   116750067.750 7       370.371    21855858.840   116750067.756 7       370.371    21855872.260    90805672.546 7       288.066    21855872.900    90805668.550 7       288.066
R15  23612845.180   126179883.800 7     -1020.835    23612844.860   126179883.785 7     -1020.835    23612878.120    98140049.646 7      -793.983    23612878.420    98140046.659 7      -793.983
R17  21609870.020   115638765.687 6      1621.627    21609869.960   115638765.688 6      1621.627    21609885.620    89941330.148 5      1261.265    21609884.000    89941331.168 5      1261.265
R04  21806604.100   116773375.386 7      6890.671    21806604.800   116773375.418 6      6890.671    21806625.700    90823829.921 8      5359.411    21806625.460    90823830.929 8      5359.411
G17  23809454.140   125119528.776 6      5566.783    23809453.000   125119528.780 3      5566.783    23809462.640    97495765.935 3      4337.753    23809459.900    97495759.975 6      4337.753
G04  23928772.460   125746566.670 5      5801.678    23928769.020   125746566.681 3      5801.678    23928796.540    97984431.412 2      4520.788    23928796.720    97984429.605 8      4520.788
G22  23941825.080   125815135.918 7      4676.404    23941823.920   125815135.920 3      4676.404    23941831.640    98037792.364 3      3643.951
G32  25106276.260   131934382.798 5      1060.642    25106275.500   131934382.790 3      1060.642    25106288.600   102806038.402 3       826.474    25106291.260   102806055.478 5       826.474
> 2025 04 04 17 00 21.0000000  0 18
G27  24611237.140   129332907.530 5      -373.678    24611234.980   129332907.540 5      -373.678    24611263.980   100779002.004 5      -291.178    24611264.340   100779000.984 6      -291.178
G02  22133532.140   116312493.755 7      1598.232    22133530.100   116312493.763 4      1598.232    22133534.380    90633120.856 4      1245.376
G03  19886586.660   104504716.915 7      3370.131    19886585.220   104504716.917 8      3370.131    19886593.280    81432274.957 8      2626.076    19886593.160    81432274.956 8      2626.076
G14  22257199.740   116962373.158 7      3710.059    22257198.680   116962373.163 5      3710.059    22257205.980    91139511.622 5      2890.955    22257206.020    91139539.626 7      2890.955
R03  19849901.140   106258078.001 8      4045.488    19849900.460   106258078.022 8      4045.488    19849912.720    82645222.040 8      3146.491    19849912.260    82645218.035 8      3146.491
G01  20902930.040   109845636.311 7      2332.681    20902929.380   109845636.321 6      2332.681    20902933.820    85594021.159 6      1817.673    20902934.280    85594020.168 8      1817.673
G08  21414193.460   112532343.646 7       703.299    21414192.080   112532343.648 7       703.299    21414202.560    87687570.289 7       548.026    21414203.080    87687579.292 7       548.026
R18  20604513.080   109988287.013 7      3383.299    20604514.120   109988287.028 7      3383.299    20604524.440    85546489.544 7      2631.454    20604524.020    85546492.545 7      2631.454
R09  23009708.760   122870549.202 6      3512.337    23009707.420   122870549.198 6      3512.337    23009722.520    95566040.661 6      2731.817    23009722.440    95566041.632 6      2731.817
R02  21873568.640   116721550.371 7       167.612    21873568.460   116721550.371 7       167.612    21873579.400    90783468.664 6       130.365    21873580.060    90783473.674 6       130.365
R16  21855788.600   116749697.548 7       370.271    21855789.540   116749697.560 7       370.271    21855802.700    90805384.599 7       287.989    21855803.600    90805380.601 7       287.989
R15  23613035.920   126180904.318 7     -1020.379    23613035.900   126180904.316 7     -1020.379    23613068.900    98140843.437 7      -793.628    23613069.180    98140840.441 7      -793.628
R17  21609566.520   115637144.393 6      1621.491    21609566.600   115637144.386 6      1621.491    21609582.520    89940069.131 5      1261.159    21609580.600    89940070.153 5      1261.159
R04  21805317.000   116766484.671 7      6890.736    21805318.220   116766484.705 6      6890.736    21805339.000    90818470.495 8      5359.461    21805338.680    90818471.499 8      5359.461
G17  23808394.960   125113961.820 6      5567.135    23808393.560   125113961.824 3      5567.135    23808403.320    97491428.060 3      4338.027    23808400.260    97491422.096 6      4338.027
G04  23927668.280   125740764.701 5      5802.173    23927664.620   125740764.706 3      5802.173                                                    23927692.480    97979908.674 8      4521.174
G22  23940935.180   125810459.583 7      4676.332    23940934.080   125810459.585 3      4676.332    23940941.800    98034148.473 3      3643.895
G32  25106073.440   131933322.203 5      1060.819    25106073.580   131933322.200 3      1060.819    25106086.560   102805211.973 3       826.612    25106089.800   102805229.040 5       826.612
> 2025 04 04 17 00 22.0000000  0 18
G27  24611307.860   129333281.189 5      -373.564    24611306.180   129333281.196 5      -373.564    24611335.260   100779293.140 5      -291.089    24611336.040   100779292.137 6      -291.089
G02  22133227.860   116310895.454 7      1598.565    22133226.100   116310895.457 4      1598.565    22133230.220    90631875.429 4      1245.635
G03  19885945.320   104501347.010 8      3369.877    19885944.080   104501347.015 8      3369.877    19885952.020    81429649.060 8      2625.878    19885951.920    81429649.060 8      2625.878
G14  22256493.780   116958663.376 7      3709.863    22256492.680   116958663.381 5      3709.863    22256500.060    91136620.887 5      2890.802    22256500.200    91136648.895 8      2890.802
R03  19849145.420   106254032.768 8      4045.101    19849144.620   106254032.791 8      4045.101    19849157.080    82642075.763 8      3146.190    19849156.820    82642071.760 8      3146.190
G01  20902486.120   109843303.546 7      2332.968    20902485.420   109843303.553 6      2332.968    20902489.980    85592203.425 6      1817.897    20902490.460    85592202.433 8      1817.897
G08  21414059.500   112531640.457 7       703.322    21414058.340   112531640.456 7       703.322    21414068.780    87687022.345 7       548.043    21414069.100    87687031.352 7       548.043
R18  20603879.420   109984903.391 7      3383.862    20603880.040   109984903.397 7      3383.862    20603890.620    85543857.828 7      2631.893    20603890.040    85543860.837 7      2631.893
R09  23009050.660   122867037.143 6      3511.976    23009049.460   122867037.117 6      3511.976    23009064.900    95563309.038 6      2731.537    23009064.960    95563310.011 6      2731.537
R02  21873537.700   116721383.062 7       167.199    21873536.960   116721383.063 7       167.199    21873547.700    90783338.539 6       130.044    21873548.900    90783343.540 6       130.044
R16  21855719.240   116749327.486 7       370.142    21855720.000   116749327.497 7       370.142    21855733.420    90805096.777 7       287.888    21855733.960    90805092.778 7       287.888
R15  23613226.560   126181924.339 7     -1019.686    23613226.620   126181924.335 6     -1019.686    23613259.840    98141636.786 7      -793.089    23613260.160    98141633.790 7      -793.089
R17  21609263.860   115635522.781 6      1621.937    21609263.260   115635522.790 6      1621.937    21609279.360    89938807.907 5      1261.506    21609278.040    89938808.920 6      1261.506
R04  21804030.300   116759593.798 7      6891.025    21804031.860   116759593.826 6      6891.025    21804052.140    90813110.949 8      5359.686    21804051.860    90813111.953 8      5359.686
G17  23807335.240   125108394.472 6      5567.681    23807334.100   125108394.477 3      5567.681    23807344.100    97487089.875 3      4338.453    23807341.780    97487083.919 6      4338.453
G04  23926564.980   125734962.441 5      5802.609                                                                                                    23926588.200    97975387.430 8      4521.514
G22  23940045.040   125805783.274 7      4676.425    23940044.220   125805783.279 3      4676.425    23940052.100    98030504.606 3      3643.967
G32  25105871.320   131932261.697 5      1060.531    25105871.720   131932261.697 3      1060.531    25105884.860   102804385.617 3       826.387    25105888.060   102804402.689 5       826.387
> 2025 04 04 17 00 23.0000000  0 18
G27  24611378.120   129333654.572 5      -373.298    24611377.240   129333654.577 5      -373.298    24611406.420   100779584.062 5      -290.881    24611407.260   100779583.028 6      -290.881
G02  22132923.560   116309296.752 7      1598.702    22132922.000   116309296.757 4      1598.702    22132926.060    90630629.690 4      1245.742
G03  19885304.160   104497977.324 8      3369.407    19885302.780   104497977.329 8      3369.407    19885310.700    81427023.338 8      2625.512    19885310.680    81427023.339 8      2625.512
G14  22255787.840   116954953.815 7      3709.252    22255786.740   116954953.818 5      3709.252    22255794.300    91133730.324 5      2890.326    22255794.160    91133758.335 7      2890.326
R03  19848389.780   106249987.980 8      4044.392    19848389.360   106249988.005 7      4044.392    19848401.340    82638929.829 8      3145.638    19848401.260    82638925.825 8      3145.638
G01  20902042.200   109840970.549 7      2332.958    20902041.460   109840970.551 6      2332.958    20902045.980    85590385.510 6      1817.890    20902046.600    85590384.515 8      1817.890
G08  21413925.760   112530937.257 7       703.170    21413924.500   112530937.259 7       703.170    21413935.000    87686474.403 7       547.925    21413935.500    87686483.410 8       547.925
R18  20603245.520   109981519.478 7      3383.884    20603246.580   109981519.484 7      3383.884    20603256.880    85541225.895 7      2631.910    20603256.300    85541228.896 7      2631.910
R09  23008394.500   122863525.384 6      3511.444    23008391.740   122863525.364 6      3511.444    23008406.660    95560577.706 6      2731.123    23008406.660    95560578.674 6      2731.123
R02  21873506.040   116721215.986 7       166.854    21873505.400   116721215.982 7       166.854    21873516.000    90783208.579 6       129.775    21873517.240    90783213.589 6       129.775
R16  21855649.840   116748957.511 7       369.727    21855650.800   116748957.525 7       369.727    21855664.020    90804809.029 7       287.566    21855664.900    90804805.031 7       287.566
R15  23613417.520   126182943.828 7     -1019.502    23613417.280   126182943.829 6     -1019.502    23613450.520    98142429.741 7      -792.946    23613450.620    98142426.751 7      -792.946
R17  21608961.680   115633901.019 6      1621.650    21608960.640   115633901.023 6      1621.650    21608976.240    89937546.526 5      1261.284    21608974.700    89937547.546 6      1261.284
R04  21802743.100   116752702.796 7      6890.922    21802744.480   116752702.821 6      6890.922    21802765.360    90807751.298 8      5359.606    21802764.980    90807752.302 8      5359.606
G17  23806275.560   125102826.725 6      5567.809    23806274.620   125102826.730 3      5567.809    23806284.660    97482751.385 3      4338.553    23806281.440    97482745.405 6      4338.553
G04  23925460.200   125729159.636 5      5802.769    23925461.200   125729159.538 1      5802.769    23925468.260    97970764.754 1      4521.638    23925483.980    97970865.788 8      4521.638
G22  23939155.400   125801107.068 7      4675.899    23939154.440   125801107.078 3      4675.899    23939162.340    98026860.817 3      3643.558
G32  25105669.820   131931201.294 5      1060.224    25105669.920   131931201.299 3      1060.224    25105683.080   102803559.343 3       826.149    25105685.960   102803576.405 5       826.149
> 2025 04 04 17 00 24.0000000  0 18
G27  24611449.140   129334027.790 5      -372.936    24611448.680   129334027.792 5      -372.936    24611477.340   100779874.852 5      -290.600    24611477.920   100779873.839 6      -290.600
G02  22132619.540   116307697.744 7      1599.336    22132617.860   116307697.747 4      1599.336    22132621.780    90629383.717 4      1246.236
G03  19884662.980   104494607.885 8      3369.475    19884661.700   104494607.887 8      3369.475    19884669.500    81424397.803 8      2625.565    19884669.360    81424397.799 8      2625.565
G14  22255082.020   116951244.457 7      3709.399    22255080.780   116951244.464 5      3709.399    22255088.280    91130839.929 5      2890.441    22255088.520    91130867.950 7      2890.441
R03  19847634.580   106245943.678 8      4044.199    19847633.640   106245943.701 8      4044.199    19847645.800    82635784.265 8      3145.488    19847645.800    82635780.262 8      3145.488
G01  20901598.080   109838637.308 7      2333.479    20901597.420   109838637.310 6      2333.479    20901601.940    85588567.404 6      1818.296    20901602.800    85588566.416 8      1818.296
G08  21413792.220   112530234.109 7       703.201    21413790.620   112530234.109 7       703.201    21413801.100    87685926.502 7       547.949    21413801.820    87685935.507 7       547.949
R18  20602611.500   109978135.295 7      3384.313    20602612.280   109978135.309 7      3384.313    20602622.920    85538593.771 7      2632.243    20602622.200    85538596.774 7      2632.243
R09  23007736.280   122860014.053 6      3511.331    23007734.100   122860014.030 6      3511.331    23007748.760    95557846.671 6      2731.036    23007748.580    95557847.643 6      2731.036
R02  21873474.620   116721049.222 7       166.711    21873473.800   116721049.223 7       166.711    21873485.200    90783078.886 6       129.664    21873486.160    90783083.882 6       129.664
R16  21855580.860   116748587.681 7       369.817    21855581.820   116748587.693 7       369.817    21855594.920    90804521.373 7       287.635    21855595.660    90804517.370 7       287.635
R15  23613608.100   126183962.874 6     -1018.853    23613608.520   126183962.867 6     -1018.853    23613641.380    98143222.351 7      -792.441    23613641.360    98143219.355 7      -792.441
R17  21608658.460   115632278.997 6      1622.338    21608657.360   115632278.980 6      1622.338    21608673.580    89936284.935 6      1261.818    21608672.140    89936285.955 6      1261.818
R04  21801455.740   116745811.681 7      6891.254    21801457.480   116745811.712 6      6891.254    21801478.500    90802391.576 8      5359.865    21801478.220    90802392.582 8      5359.865
G17  23805216.320   125097258.616 6      5568.456    23805215.100   125097258.615 3      5568.456    23805225.020    97478412.607 3      4339.057    23805221.520    97478406.651 6      4339.057
G04  23924355.500   125723356.477 5      5803.398    23924353.660   125723356.479 3      5803.398    23924379.260    97966242.863 3      4522.128    23924379.740    97966343.846 8      4522.128
G22  23938265.500   125796430.914 7      4676.230    23938264.680   125796430.921 3      4676.230    23938272.660    98023217.061 3      3643.815
G32  25105468.280   131930140.986 5      1060.260    25105468.140   131930140.988 3      1060.260    25105481.380   102802733.139 3       826.176    25105484.000   102802750.198 5       826.176
> 2025 04 04 17 00 25.0000000  0 18
G27  24611520.160   129334400.756 5      -372.532    24611519.500   129334400.755 5      -372.532    24611548.240   100780165.448 5      -290.285    24611549.100   100780164.439 6      -290.285
G02  22132315.600   116306098.356 7      1599.682    22132313.660   116306098.358 4      1599.682    22132317.540    90628137.444 4      1246.506
G03  19884021.660   104491238.666 8      3369.207    19884020.640   104491238.668 8      3369.207    19884028.360    81421772.444 8      2625.356    19884028.080    81421772.444 8      2625.356
G14  22254376.080   116947535.363 7      3708.866    22254374.840   116947535.371 5      3708.866    22254382.360    91127949.738 5      2890.025    22254382.540    91127977.757 7      2890.025
R03  19846878.900   106241899.794 8      4043.720    19846878.300   106241899.823 8      4043.720    19846890.260    82632639.036 8      3145.115    19846890.120    82632635.033 8      3145.115
G01  20901154.240   109836303.804 7      2333.730    20901153.440   109836303.809 6      2333.730    20901157.860    85586749.096 6      1818.491    20901158.720    85586748.101 8      1818.491
G08  21413658.320   112529530.925 7       703.288    21413656.700   112529530.922 7       703.288    21413667.380    87685378.567 7       548.017    21413668.020    87685387.569 7       548.017
R18  20601977.460   109974750.727 7      3384.884    20601978.540   109974750.742 7      3384.884    20601989.200    85535961.332 7      2632.687    20601988.380    85535964.331 7      2632.687
R09  23007078.220   122856503.043 6      3510.847    23007077.040   122856503.052 6      3510.847    23007091.260    95555115.907 6      2730.659    23007090.840    95555116.886 6      2730.659
R02  21873443.160   116720882.690 7       166.416    21873443.220   116720882.686 7       166.416    21873453.120    90782949.351 6       129.435    21873454.800    90782954.359 6       129.435
R16  21855511.720   116748217.939 7       369.681    21855512.540   116748217.950 7       369.681    21855526.020    90804233.781 7       287.529    21855526.240    90804229.781 7       287.529
R15  23613798.980   126184981.339 6     -1018.116    23613798.480   126184981.338 6     -1018.116    23613831.980    98144014.514 7      -791.868    23613832.000    98144011.520 7      -791.868
R17  21608355.720   115630656.697 6      1622.357    21608354.120   115630656.704 6      1622.357    21608370.320    89935023.144 6      1261.833    21608369.040    89935024.160 6      1261.833
R04  21800169.140   116738920.404 7      6891.419    21800170.600   116738920.443 6      6891.419    21800191.660    90797031.718 8      5359.992    21800191.440    90797032.722 8      5359.992
G17  23804157.100   125091690.115 6      5568.841    23804155.560   125091690.120 3      5568.841    23804165.260    97474073.529 3      4339.357    23804162.560    97474067.564 6      4339.357
G04  23923250.740   125717552.816 5      5803.628    23923248.260   125717552.823 3      5803.628    23923275.120    97961720.536 3      4522.307    23923275.260    97961821.547 8      4522.307
G22  23937375.640   125791754.762 7      4676.303    23937375.060   125791754.770 3      4676.303    23937382.820    98019573.313 3      3643.873
G32  25105267.260   131929080.717 5      1060.190    25105266.440   131929080.716 3      1060.190    25105279.740   102801906.968 3       826.122    25105282.180   102801924.033 5       826.122
> 2025 04 04 17 00 26.0000000  0 18
G27  24611591.860   129334773.685 5      -372.641    24611590.520   129334773.682 5      -372.641    24611619.340   100780456.015 5      -290.370    24611620.060   100780454.981 6      -290.370
G02  22132010.960   116304498.726 7      1599.760    22132009.220   116304498.731 4      1599.760    22132013.180    90626890.989 4      1246.566
G03  19883380.600   104487869.799 7      3368.677    19883379.520   104487869.804 8      3368.677    19883387.260    81419147.359 8      2624.943    19883387.220    81419147.362 8      2624.943
G14  22253670.180   116943826.567 7      3708.458    22253669.280   116943826.574 5      3708.458    22253676.720    91125059.773 5      2889.708    22253676.940    91125087.792 7      2889.708
R03  19846123.940   106237856.496 8      4043.040    19846123.180   106237856.522 8      4043.040    19846135.120    82629494.251 8      3144.586    19846135.000    82629490.250 8      3144.586
G01  20900710.000   109833970.193 7      2333.669    20900709.500   109833970.198 6      2333.669    20900713.920    85584930.703 6      1818.443    20900714.420    85584929.715 8      1818.443
G08  21413524.400   112528827.888 7       702.946    21413522.820   112528827.885 7       702.946    21413533.580    87684830.746 7       547.750    21413534.280    87684839.752 7       547.750
R18  20601342.920   109971365.987 7      3384.846    20601344.120   109971366.004 7      3384.846    20601355.000    85533328.758 7      2632.658    20601354.520    85533331.763 7      2632.658
R09  23006421.060   122852992.523 6      3510.253    23006419.760   122852992.532 6      3510.253    23006433.160    95552385.508 6      2730.196    23006433.700    95552386.482 6      2730.196
R02  21873412.520   116720716.543 7       166.054    21873411.760   116720716.535 7       166.054    21873422.040    90782820.127 6       129.153    21873423.780    90782825.137 6       129.153
R16  21855442.780   116747848.469 7       369.341    21855443.600   116747848.481 7       369.341    21855456.540    90803946.412 7       287.265    21855457.120    90803942.413 7       287.265
R15  23613989.320   126185999.453 6     -1017.928    23613989.240   126185999.451 6     -1017.928    23614022.300    98144806.388 7      -791.722    23614022.500    98144803.396 7      -791.722
R17  21608051.720   115629034.264 6      1622.436    21608050.440   115629034.271 6      1622.436    21608067.620    89933761.253 6      1261.894    21608065.940    89933762.277 6      1261.894
R04  21798882.280   116732029.137 7      6891.264    21798883.860   116732029.181 6      6891.264    21798904.880    90791671.871 8      5359.872    21798904.300    90791672.877 8      5359.872
G17  23803097.240   125086121.362 6      5568.758    23803095.800   125086121.364 3      5568.758    23803105.540    97469734.245 3      4339.292    23803103.020    97469728.277 6      4339.292
G04  23922147.200   125711748.758 5      5803.977    23922143.880   125711748.760 3      5803.977    23922170.780    97957197.961 3      4522.579    23922170.700    97957298.952 8      4522.579
G22  23936486.140   125787078.819 7      4675.894    23936485.300   125787078.829 3      4675.894    23936493.000    98015929.728 3      3643.554
G32  25105066.620   131928020.647 5      1059.813    25105064.700   131928020.650 3      1059.813    25105078.020   102801080.950 3       825.829    25105080.040   102801098.027 5       825.829
> 2025 04 04 17 00 27.0000000  0 18
G27  24611662.160   129335146.261 5      -372.116    24611661.460   129335146.258 5      -372.116    24611690.280   100780746.312 5      -289.960    24611690.980   100780745.297 6      -289.960
G02  22131706.400   116302898.667 7      1600.357    22131704.780   116302898.670 4      1600.357    22131708.760    90625644.195 4      1247.031
G03  19882739.680   104484501.064 8      3368.758    19882738.520   104484501.069 8      3368.758    19882746.200    81416522.381 8      2625.007    19882746.220    81416522.381 8      2625.007
G14  22252964.520   116940117.889 7      3708.641    22252963.480   116940117.899 5      3708.641    22252970.980    91122169.904 5      2889.850    22252971.260    91122197.917 7      2889.850
R03  19845368.660   106233813.587 8      4042.771    19845367.860   106233813.615 8      4042.771    19845379.840    82626349.778 8      3144.377    19845379.780    82626345.777 8      3144.377
G01  20900265.900   109831636.234 7      2334.161    20900265.380   109831636.245 6      2334.161    20900269.780    85583112.047 6      1818.827    20900270.400    85583111.052 8      1818.827
G08  21413390.440   112528124.738 7       703.315    21413389.040   112528124.745 7       703.315    21413399.860    87684282.845 7       548.038    21413400.520    87684291.850 8       548.038
R18  20600708.860   109967980.846 7      3385.424    20600709.920   109967980.860 7      3385.424    20600721.000    85530695.877 7      2633.108    20600720.480    85530698.884 7      2633.108
R09  23005762.980   122849482.282 6      3510.248    23005761.740   122849482.269 6      3510.248    23005775.480    95549655.334 6      2730.193    23005776.380    95549656.303 6      2730.193
R02  21873380.880   116720550.632 7       165.864    21873381.020   116720550.647 7       165.864    21873391.300    90782691.100 6       129.005    21873392.340    90782696.096 6       129.005
R16  21855373.440   116747479.085 7       369.400    21855374.780   116747479.094 7       369.400    21855387.480    90803659.113 7       287.311    21855388.140    90803655.106 7       287.311
R15  23614179.380   126187016.927 6     -1017.178    23614179.800   126187016.915 6     -1017.178    23614212.880    98145597.778 7      -791.139    23614213.100    98145594.784 7      -791.139
R17  21607747.780   115627411.528 6      1622.878    21607746.880   115627411.543 6      1622.878    21607764.840    89932499.131 6      1262.238    21607762.800    89932500.158 6      1262.238
R04  21797595.280   116725137.634 7      6891.685    21797596.960   116725137.681 6      6891.685    21797617.800    90786311.836 8      5360.199    21797617.520    90786312.842 8      5360.199
G17  23802036.700   125080552.083 6      5569.654    23802035.740   125080552.085 3      5569.654    23802045.760    97465394.558 3      4339.990    23802042.840    97465388.588 6      4339.990
G04  23921042.740   125705944.227 5      5804.659    23921038.680   125705944.247 4      5804.659    23921066.060    97952674.987 3      4523.111    23921066.260    97952775.984 8      4523.111
G22  23935596.240   125782402.846 7      4676.003    23935595.500   125782402.856 3      4676.003    23935603.200    98012286.124 4      3643.639
G32  25104864.000   131926960.623 5      1059.942    25104863.020   131926960.622 3      1059.942    25104876.140   102800254.965 3       825.929    25104879.540   102800272.010 5       825.929
> 2025 04 04 17 00 28.0000000  0 18
G27  24611732.880   129335518.439 5      -371.852    24611732.340   129335518.438 5      -371.852    24611761.040   100781036.294 5      -289.755    24611761.820   100781035.281 6      -289.755
G02  22131401.860   116301298.033 7      1600.891    22131400.280   116301298.033 4      1600.891    22131404.180    90624396.947 4      1247.447
G03  19882098.660   104481132.363 8      3368.652    19882097.560   104481132.371 8      3368.652    19882105.140    81413897.425 8      2624.924    19882105.140    81413897.424 8      2624.924
G14  22252259.040   116936409.226 7      3708.740    22252257.640   116936409.239 5      3708.740    22252265.040    91119280.045 5      2889.927    22252265.500    91119308.054 7      2889.927
R03  19844613.380   106229770.934 8      4042.505    19844612.720   106229770.957 8      4042.505    19844624.540    82623205.497 8      3144.171    19844624.340    82623201.494 8      3144.171
G01  20899821.660   109829301.837 7      2334.537    20899821.200   109829301.847 6      2334.537    20899825.620    85581293.040 6      1819.120    20899826.220    85581292.041 8      1819.120
G08  21413256.600   112527421.420 7       703.360    21413255.160   112527421.427 7       703.360    21413266.020    87683734.805 7       548.072    21413266.900    87683743.809 7       548.072
R18  20600074.940   109964595.168 6      3385.941    20600075.660   109964595.180 7      3385.941    20600086.240    85528062.585 7      2633.510    20600086.280    85528065.594 7      2633.510
R09  23005105.600   122845972.251 6      3509.884    23005104.680   122845972.244 6      3509.884    23005118.040    95546925.319 6      2729.910    23005118.540    95546926.289 6      2729.910
R02  21873350.000   116720384.850 7       165.676    21873350.020   116720384.859 7       165.676    21873360.760    90782562.159 6       128.859    21873361.160    90782567.159 6       128.859
R16  21855304.480   116747109.636 7       369.430    21855305.500   116747109.646 7       369.430    21855318.000    90803371.766 7       287.334    21855318.700    90803367.764 7       287.334
R15  23614369.720   126188033.654 6     -1016.308    23614370.040   126188033.639 6     -1016.308    23614403.720    98146388.567 7      -790.462    23614403.400    98146385.575 7      -790.462
R17  21607444.580   115625788.366 6      1623.495    21607443.680   115625788.371 6      1623.495    21607460.180    89931236.679 6      1262.719    21607459.680    89931237.697 6      1262.719
R04  21796308.580   116718245.816 7      6891.926    21796309.700   116718245.857 6      6891.926    21796330.900    90780951.554 8      5360.387    21796330.660    90780952.557 8      5360.387
G17  23800977.060   125074982.255 6      5570.009    23800975.800   125074982.260 3      5570.009    23800985.820    97461054.447 3      4340.266    23800983.260    97461048.489 6      4340.266
G04  23919938.040   125700139.034 5      5805.424    23919933.640   125700139.057 4      5805.424    23919961.040    97948151.458 4      4523.707    23919961.760    97948252.473 8      4523.707
G22  23934706.320   125777726.711 7      4676.172    23934705.640   125777726.723 3      4676.172    23934713.380    98008642.388 4      3643.771
G32  25104662.260   131925900.440 5      1060.133    25104661.280   131925900.440 3      1060.133    25104674.520   102799428.857 3       826.077    25104677.960   102799445.885 5       826.077
> 2025 04 04 17 00 29.0000000  0 18
G27  24611804.060   129335890.556 5      -371.788    24611803.220   129335890.563 5      -371.788    24611831.840   100781326.237 5      -289.705    24611832.380   100781325.205 6      -289.705
G02  22131097.200   116299697.181 7      1601.055    22131095.700   116299697.181 4      1601.055    22131099.580    90623149.534 4      1247.576
G03  19881457.560   104477764.038 8      3368.246    19881456.460   104477764.045 8      3368.246    19881464.220    81411272.769 8      2624.607    19881464.180    81411272.767 8      2624.607
G14  22251553.500   116932700.989 7      3708.111    22251551.860   116932700.999 5      3708.111    22251559.500    91116390.512 5      2889.437    22251560.160    91116418.523 8      2889.437
R03  19843858.400   106225728.886 8      4041.931    19843857.240   106225728.906 8      4041.931    19843869.280    82620061.692 8      3143.724    19843869.340    82620057.687 8      3143.724
G01  20899377.440   109826967.325 7      2334.615    20899376.880   109826967.335 6      2334.615    20899381.420    85579473.948 6      1819.181    20899382.120    85579472.959 8      1819.181
G08  21413122.760   112526718.259 7       703.124    21413121.420   112526718.261 7       703.124    21413132.360    87683186.887 7       547.889    21413133.080    87683195.892 8       547.889
R18  20599441.040   109961209.360 7      3386.055    20599441.140   109961209.361 7      3386.055    20599451.920    85525429.170 7      2633.599    20599451.840    85525432.179 7      2633.599
R09  23004448.540   122842462.669 6      3509.486    23004448.420   122842462.648 6      3509.486    23004460.420    95544195.635 6      2729.600    23004461.160    95544196.600 6      2729.600
R02  21873318.780   116720219.564 7       165.094    21873318.620   116720219.563 7       165.094    21873329.580    90782433.617 6       128.407    21873330.140    90782438.613 6       128.407
R16  21855235.280   116746740.458 7       369.187    21855236.620   116746740.467 7       369.187    21855249.260    90803084.623 7       287.145    21855249.660    90803080.621 7       287.145
R15  23614560.080   126189050.017 6     -1016.052    23614560.280   126189050.007 6     -1016.052    23614593.420    98147179.109 7      -790.263    23614593.600    98147176.119 7      -790.263
R17  21607141.240   115624165.194 6      1623.267    21607139.680   115624165.207 6      1623.267    21607156.820    89929974.218 6      1262.541    21607156.320    89929975.232 6      1262.541
R04  21795021.380   116711353.986 7      6891.913    21795022.640   116711354.031 6      6891.913    21795043.900    90775591.284 8      5360.377    21795043.440    90775592.287 8      5360.377
G17  23799917.040   125069412.170 6      5570.342    23799915.880   125069412.172 3      5570.342    23799925.880    97456714.135 3      4340.526    23799923.260    97456708.183 6      4340.526
G04  23918833.480   125694333.502 5      5806.006    23918829.260   125694333.501 4      5806.006    23918856.480    97943627.707 4      4524.160    23918856.860    97943728.711 8      4524.160
G22  23933816.760   125773050.783 7      4676.072    23933815.680   125773050.795 3      4676.072    23933823.640    98004998.814 4      3643.693
G32  25104460.540   131924840.555 5      1059.600    25104459.480   131924840.554 3      1059.600    25104473.020   102798602.978 3       825.662    25104476.760   102798619.994 5       825.662
> 2025 04 04 17 00 30.0000000  0 18
G27  24611875.100   129336262.470 5      -371.841    24611874.040   129336262.473 5      -371.841    24611902.720   100781616.010 5      -289.746    24611903.160   100781614.978 6      -289.746
G02  22130792.680   116298095.962 7      1601.420    22130791.020   116298095.964 4      1601.420    22130794.880    90621901.837 4      1247.860
G03  19880816.440   104474395.928 7      3368.002    19880815.520   104474395.927 8      3368.002    19880823.340    81408648.276 8      2624.417    19880823.220    81408648.278 8      2624.417
G14  22250847.800   116928992.929 7      3707.857    22250846.220   116928992.939 5      3707.857    22250853.840    91113501.125 5      2889.239    22250854.340    91113529.133 7      2889.239
R03  19843103.300   106221687.299 8      4041.373    19843102.480   106221687.324 7      4041.373    19843114.540    82616918.252 8      3143.290    19843114.420    82616914.251 8      3143.290
G01  20898933.060   109824632.554 7      2334.945    20898932.400   109824632.564 6      2334.945    20898937.160    85577654.656 6      1819.438    20898937.620    85577653.664 8      1819.438
G08  21412989.240   112526015.078 7       703.132    21412987.700   112526015.077 7       703.132    21412998.320    87682638.954 7       547.895    21412999.320    87682647.956 7       547.895
R18  20598806.640   109957823.236 7      3386.251    20598807.180   109957823.253 7      3386.251    20598817.700    85522795.533 7      2633.751    20598817.400    85522798.538 7      2633.751
R09  23003792.300   122838953.460 6      3509.114    23003791.660   122838953.442 6      3509.114    23003803.120    95541466.267 6      2729.311    23003804.180    95541467.238 6      2729.311
R02  21873288.420   116720054.511 7       164.923    21873288.460   116720054.509 7       164.923    21873298.640    90782305.240 6       128.273    21873299.660    90782310.236 6       128.273
R16  21855166.300   116746371.392 7       369.007    21855167.720   116746371.401 7       369.007    21855179.780    90802797.574 7       287.006    21855180.320    90802793.580 7       287.006
R15  23614750.360   126190065.859 6     -1015.383    23614750.060   126190065.865 6     -1015.383    23614783.520    98147969.225 7      -789.742    23614783.700    98147966.231 7      -789.742
R17  21606838.360   115622541.789 6      1623.482    21606836.780   115622541.802 6      1623.482    21606853.080    89928711.559 6      1262.708    21606852.660    89928712.573 6      1262.708
R04  21793734.960   116704462.034 7      6891.988    21793735.700   116704462.086 6      6891.988    21793756.820    90770230.907 8      5360.435    21793756.460    90770231.903 8      5360.435
G17  23798857.140   125063841.688 6      5570.666    23798855.840   125063841.687 3      5570.666    23798865.920    97452373.512 3      4340.779    23798863.180    97452367.550 6      4340.779
G04  23917727.300   125688527.578 5      5806.461    23917724.120   125688527.575 4      5806.461    23917752.100    97939103.646 4      4524.515    23917752.000    97939204.635 8      4524.515
G22  23932927.020   125768374.931 6      4675.743    23932925.920   125768374.941 3      4675.743    23932933.720    98001355.303 4      3643.436
G32  25104259.460   131923780.619 5      1059.962    25104257.640   131923780.614 3      1059.962    25104271.260   102797777.062 3       825.945    25104273.520   102797794.105 5       825.945
> 2025 04 04 17 00 31.0000000  0 18
G27  24611945.740   129336634.183 6      -371.809    24611944.920   129336634.190 5      -371.809    24611973.740   100781905.631 5      -289.722    24611974.240   100781904.603 6      -289.722
G02  22130487.560   116296494.429 7      1601.694    22130486.320   116296494.429 4      1601.694    22130490.060    90620653.893 4      1248.073
G03  19880175.820   104471028.062 8      3367.708    19880174.640   104471028.067 8      3367.708    19880182.540    81406023.985 8      2624.188    19880182.280    81406023.988 8      2624.188
G14  22250142.040   116925285.099 7      3707.617    22250140.680   116925285.112 5      3707.617    22250148.320    91110611.913 5      2889.052    22250148.920    91110639.924 8      2889.052
R03  19842348.360   106217646.190 8      4040.798    19842347.660   106217646.211 8      4040.798    19842359.420    82613775.180 8      3142.843    19842359.420    82613771.175 8      3142.843
G01  20898488.880   109822297.592 7      2335.078    20898488.220   109822297.597 6      2335.078    20898492.940    85575835.210 6      1819.542    20898493.420    85575834.213 8      1819.542
G08  21412855.520   112525311.904 7       703.130    21412853.880   112525311.914 7       703.130    21412864.660    87682091.042 7       547.893    21412865.580    87682100.047 7       547.893
R18  20598172.080   109954436.793 7      3386.537    20598173.100   109954436.804 7      3386.537    20598183.040    85520161.645 7      2633.973    20598182.840    85520164.652 7      2633.973
R09  23003135.240   122835444.623 6      3508.586    23003134.500   122835444.602 6      3508.586    23003145.760    95538737.176 6      2728.900    23003146.880    95538738.142 6      2728.900
R02  21873257.560   116719889.716 7       164.622    21873257.100   116719889.717 7       164.622    21873267.580    90782177.083 6       128.040    21873268.440    90782182.079 6       128.040
R16  21855096.880   116746002.467 7       368.814    21855098.120   116746002.473 7       368.814    21855110.640    90802510.647 7       286.855    21855111.180    90802506.657 7       286.855
R15  23614940.240   126191081.282 6     -1015.233    23614939.920   126191081.291 6     -1015.233    23614973.500    98148759.009 7      -789.625    23614973.560    98148756.017 7      -789.625
R17  21606535.760   115620918.128 6      1623.817    21606533.680   115620918.127 6      1623.817    21606549.360    89927448.732 6      1262.969    21606549.480    89927449.731 6      1262.969
R04  21792448.180   116697569.988 7      6892.011    21792448.520   116697570.027 6      6892.011    21792470.040    90764870.448 8      5360.453    21792469.440    90764871.450 8      5360.453
G17  23797797.080   125058270.848 6      5571.032    23797795.580   125058270.848 3      5571.032    23797805.600    97448032.610 3      4341.064    23797803.320    97448026.654 6      4341.064
G04  23916622.020   125682721.206 5      5806.609    23916619.540   125682721.224 4      5806.609    23916646.800    97934579.228 4      4524.631    23916646.920    97934680.246 8      4524.631
G22  23932037.180   125763699.111 6      4675.894    23932036.000   125763699.118 3      4675.894    23932043.860    97997711.817 4      3643.554
G32  25104056.800   131922720.831 5      1059.984    25104055.880   131922720.825 3      1059.984    25104069.520   102796951.266 3       825.961    25104072.580   102796968.309 5       825.961
> 2025 04 04 17 00 32.0000000  0 18
G27  24612016.040   129337005.777 6      -371.465    24612015.740   129337005.784 5      -371.465    24612044.300   100782195.156 5      -289.453    24612045.180   100782194.139 6      -289.453
G02  22130182.680   116294892.629 7      1602.109    22130181.700   116294892.634 4      1602.109    22130185.340    90619405.743 4      1248.397
G03  19879535.060   104467660.573 7      3367.402    19879533.880   104467660.575 8      3367.402    19879541.680    81403399.978 8      2623.950    19879541.300    81403399.980 8      2623.950
G14  22249436.500   116921577.608 7      3707.529    22249435.220   116921577.616 5      3707.529    22249442.740    91107722.969 5      2888.984    22249443.300    91107750.980 7      2888.984
R03  19841593.640   106213605.641 8      4040.350    19841592.860   106213605.662 8      4040.350    19841604.620    82610632.539 8      3142.494    19841604.740    82610628.539 8      3142.494
G01  20898044.380   109819962.491 7      2335.227    20898043.680   109819962.496 6      2335.227    20898048.500    85574015.658 6      1819.658    20898048.960    85574014.663 8      1819.658
G08  21412721.960   112524608.891 7       703.060    21412720.160   112524608.898 7       703.060    21412730.860    87681543.242 7       547.839    21412731.580    87681552.249 7       547.839
R18  20597537.520   109951050.144 7      3386.988    20597538.560   109951050.147 7      3386.988    20597548.880    85517527.576 7      2634.324    20597548.140    85517530.585 7      2634.324
R09  23002478.000   122831936.258 6      3508.292    23002477.440   122831936.238 6      3508.292    23002488.720    95536008.460 6      2728.672    23002489.860    95536009.445 6      2728.672
R02  21873226.960   116719725.329 7       164.263    21873227.060   116719725.322 7       164.263    21873236.900    90782049.210 6       127.760    21873237.880    90782054.206 6       127.760
R16  21855027.540   116745633.812 7       368.598    21855029.060   116745633.815 7       368.598    21855041.960    90802223.913 7       286.687    21855042.340    90802219.927 7       286.687
R15  23615129.780   126192096.306 6     -1014.656    23615129.020   126192096.302 6     -1014.656    23615163.660    98149548.491 7      -789.177    23615163.680    98149545.491 7      -789.177
R17  21606232.560   115619294.335 6      1623.973    21606230.100   115619294.320 6      1623.973    21606246.120    89926185.749 6      1263.090    21606245.800    89926186.762 6      1263.090
R04  21791161.220   116690677.931 7      6892.107    21791161.380   116690677.962 6      6892.107    21791182.920    90759509.982 8      5360.528    21791182.340    90759510.988 8      5360.528
G17  23796737.020   125052699.746 6      5571.365    23796735.360   125052699.748 3      5571.365    23796745.640    97443691.506 3      4341.323    23796743.580    97443685.550 6      4341.323
G04  23915517.800   125676914.491 5      5807.226    23915513.560   125676914.493 4      5807.226    23915541.640    97930054.542 4      4525.111    23915541.920    97930155.556 8      4525.111
G22  23931147.480   125759023.501 6      4675.607    23931146.180   125759023.508 3      4675.607    23931154.060    97994068.493 4      3643.330
G32  25103855.460   131921661.311 5      1059.457    25103854.320   131921661.303 3      1059.457    25103868.020   102796125.676 3       825.551    25103871.440   102796142.702 5       825.551
> 2025 04 04 17 00 33.0000000  0 18
G27  24612087.260   129337377.250 6      -371.626    24612086.340   129337377.257 5      -371.626    24612114.820   100782484.589 5      -289.578    24612116.440   100782483.564 6      -289.578
G02  22129878.100   116293290.586 7      1602.035    22129877.120   116293290.594 4      1602.035    22129880.520    90618157.405 4      1248.339
G03  19878894.300   104464293.364 8      3366.979    19878893.100   104464293.366 8      3366.979    19878900.780    81400776.189 8      2623.620    19878900.580    81400776.189 8      2623.620
G14  22248730.900   116917870.423 7      3707.025    22248729.840   116917870.428 5      3707.025    22248737.480    91104834.257 5      2888.591    22248738.020    91104862.270 7      2888.591
R03  19840838.960   106209565.601 8      4039.712    19840838.220   106209565.624 8      4039.712    19840849.740    82607490.300 8      3141.998    19840849.980    82607486.299 8      3141.998
G01  20897600.080   109817627.203 7      2335.246    20897599.420   109817627.211 6      2335.246    20897604.140    85572195.962 6      1819.673    20897604.660    85572194.971 8      1819.673
G08  21412587.860   112523905.961 7       702.688    21412586.380   112523905.974 7       702.688    21412597.080    87680995.511 7       547.549    21412597.800    87681004.518 7       547.549
R18  20596902.820   109947663.244 7      3386.988    20596903.540   109947663.255 7      3386.988    20596913.840    85514893.337 7      2634.324    20596913.860    85514896.348 7      2634.324
R09  23001820.900   122828428.347 6      3507.642    23001820.720   122828428.330 6      3507.642    23001831.620    95533280.096 6      2728.166    23001833.200    95533281.068 6      2728.166
R02  21873196.200   116719561.276 7       163.661    21873196.480   116719561.274 7       163.661    21873205.900    90781921.626 6       127.292    21873207.480    90781926.619 6       127.292
R16  21854958.340   116745265.376 7       368.234    21854959.820   116745265.374 7       368.234    21854973.100    90801937.347 7       286.404    21854973.420    90801933.359 7       286.404
R15  23615319.520   126193110.914 6     -1014.636    23615319.580   126193110.915 6     -1014.636    23615353.360    98150337.651 7      -789.162    23615353.440    98150334.653 7      -789.162
R17  21605929.220   115617670.312 6      1624.084    21605927.100   115617670.300 6      1624.084    21605943.000    89924922.632 5      1263.177    21605942.560    89924923.636 6      1263.177
R04  21789873.780   116683785.799 7      6892.149    21789873.620   116683785.828 6      6892.149    21789895.740    90754149.464 8      5360.561    21789895.360    90754150.470 8      5360.561
G17  23795677.240   125047128.344 6      5571.317    23795674.980   125047128.349 3      5571.317    23795685.420    97439350.164 3      4341.286    23795683.060    97439344.212 6      4341.286
G04  23914412.220   125671107.441 5      5807.194    23914409.900   125671107.453 4      5807.194    23914436.380    97925529.613 4      4525.086    23914436.700    97925630.629 8      4525.086
G22  23930257.760   125754348.041 7      4675.173    23930256.380   125754348.048 3      4675.173    23930264.240    97990425.289 4      3642.992
G32  25103653.860   131920601.901 5      1059.220    25103652.860   131920601.885 3      1059.220    25103666.660   102795300.164 3       825.366    25103670.380   102795317.184 5       825.366
> 2025 04 04 17 00 34.0000000  0 18
G27  24612158.340   129337748.594 5      -371.085    24612157.260   129337748.607 5      -371.085    24612185.540   100782773.928 5      -289.157    24612186.180   100782772.894 6      -289.157
G02  22129573.060   116291688.271 7      1602.669    22129572.120   116291688.276 4      1602.669    22129575.680    90616908.852 4      1248.833
G03  19878253.500   104460926.505 7      3366.810    19878252.520   104460926.507 8      3366.810    19878260.120    81398152.674 8      2623.489    19878259.960    81398152.673 8      2623.489
G14  22248025.380   116914163.563 7      3706.889    22248024.480   116914163.570 5      3706.889    22248032.120    91101945.805 5      2888.485    22248032.700    91101973.816 8      2888.485
R03  19840083.880   106205526.141 8      4039.268    19840083.560   106205526.172 8      4039.268    19840095.220    82604348.511 8      3141.653    19840095.220    82604344.510 8      3141.653
G01  20897155.620   109815291.795 7      2335.613    20897154.980   109815291.802 6      2335.613    20897159.720    85570376.169 6      1819.958    20897160.240    85570375.170 8      1819.958
G08  21412454.000   112523203.124 7       702.934    21412452.640   112523203.129 7       702.934    21412463.500    87680447.845 7       547.741    21412464.040    87680456.850 7       547.741
R18  20596268.520   109944276.186 7      3387.278    20596269.480   109944276.192 7      3387.278    20596279.560    85512258.967 7      2634.550    20596279.060    85512261.972 7      2634.550
R09  23001164.060   122824920.917 6      3507.153    23001165.200   122824920.921 6      3507.153    23001174.680    95530552.096 6      2727.786    23001176.420    95530553.061 6      2727.786
R02  21873165.700   116719397.636 7       163.508    21873165.980   116719397.642 7       163.508    21873174.800    90781794.352 6       127.173    21873176.240    90781799.348 6       127.173
R16  21854889.560   116744897.196 7       368.161    21854891.160   116744897.200 7       368.161    21854904.780    90801650.987 7       286.347    21854904.660    90801647.002 7       286.347
R15  23615509.940   126194125.046 6     -1013.773    23615509.340   126194125.034 6     -1013.773    23615543.060    98151126.418 7      -788.490    23615543.300    98151123.418 7      -788.490
R17  21605625.320   115616046.190 6      1624.298    21605623.600   115616046.202 6      1624.298    21605639.560    89923659.441 5      1263.343    21605638.800    89923660.455 5      1263.343
R04  21788586.600   116676893.705 7      6892.258    21788586.780   116676893.725 6      6892.258    21788608.700    90748788.961 8      5360.645    21788608.480    90748789.965 8      5360.645
G17  23794616.980   125041556.664 6      5571.714    23794614.720   125041556.669 3      5571.714    23794625.140    97435008.607 3      4341.595    23794621.920    97435002.666 6      4341.595
G04  23913308.060   125665300.043 5      5807.777    23913304.140   125665300.045 4      5807.777    23913331.320    97921004.380 4      4525.541    23913331.660    97921105.400 8      4525.541
G22  23929367.960   125749672.712 6      4675.313    23929366.600   125749672.719 3      4675.313    23929374.500    97986782.188 4      3643.101
G32  25103452.320   131919542.680 5      1059.283    25103451.280   131919542.664 3      1059.283    25103465.160   102794474.805 3       825.415    25103468.160   102794491.838 5       825.415
> 2025 04 04 17 00 35.0000000  0 18
G27  24612228.980   129338119.737 5      -370.978    24612227.920   129338119.747 4      -370.978    24612256.020   100783063.103 4      -289.074    24612256.680   100783062.078 6      -289.074
G02  22129267.740   116290085.595 7      1602.969    22129267.280   116290085.598 4      1602.969    22129270.800    90615660.016 4      1249.067
G03  19877612.820   104457559.864 8      3366.543    19877611.900   104457559.866 8      3366.543    19877619.500    81395529.322 8      2623.280    19877619.320    81395529.320 8      2623.280
G14  22247320.240   116910456.944 7      3706.438    22247318.920   116910456.952 5      3706.438    22247326.720    91099057.537 5      2888.133    22247327.340    91099085.538 8      2888.133
R03  19839329.200   106201487.102 8      4038.861    19839328.960   106201487.125 7      4038.861    19839340.620    82601207.038 8      3141.336    19839340.780    82601203.035 8      3141.336
G01  20896711.120   109812956.118 7      2335.850    20896710.340   109812956.128 6      2335.850    20896715.260    85568556.169 6      1820.143    20896715.820    85568555.174 8      1820.143
G08  21412320.280   112522500.281 7       702.864    21412318.940   112522500.286 7       702.864    21412329.820    87679900.172 7       547.686    21412330.520    87679909.175 7       547.686
R18  20595633.640   109940888.739 7      3387.653    20595635.120   109940888.745 7      3387.653    20595644.720    85509624.307 7      2634.841    20595644.720    85509627.310 7      2634.841
R09  23000507.240   122821413.815 6      3507.051    23000508.840   122821413.800 6      3507.051    23000518.400    95527824.338 6      2727.706    23000519.560    95527825.313 6      2727.706
R02  21873135.140   116719234.309 7       163.116    21873135.540   116719234.307 7       163.116    21873144.480    90781667.330 6       126.868    21873145.360    90781672.316 6       126.868
R16  21854820.540   116744529.139 7       367.893    21854822.100   116744529.148 7       367.893    21854835.920    90801364.738 7       286.139    21854835.840    90801360.756 7       286.139
R15  23615698.880   126195138.617 6     -1013.288    23615699.600   126195138.615 6     -1013.288    23615733.500    98151914.787 7      -788.113    23615732.940    98151911.795 7      -788.113
R17  21605321.960   115614421.870 6      1624.618    21605320.720   115614421.864 6      1624.618    21605335.520    89922396.073 5      1263.592    21605335.580    89922397.082 5      1263.592
R04  21787299.620   116670001.407 7      6892.362    21787299.540   116670001.438 6      6892.362    21787321.560    90743428.318 8      5360.726    21787321.340    90743429.326 8      5360.726
G17  23793556.580   125035984.503 6      5572.395    23793554.380   125035984.510 3      5572.395    23793564.720    97430666.678 3      4342.126    23793562.040    97430660.732 6      4342.126
G04  23912201.800   125659492.209 5      5807.760    23912199.220   125659492.214 4      5807.760    23912226.640    97916478.843 4      4525.527    23912226.600    97916579.867 8      4525.527
G22  23928477.920   125744997.412 6      4675.312    23928476.680   125744997.419 3      4675.312    23928484.900    97983139.108 3      3643.100
G32  25103250.960   131918483.565 5      1059.097    25103249.600   131918483.548 3      1059.097    25103263.640   102793649.526 3       825.270    25103266.320   102793666.551 5       825.270
> 2025 04 04 17 00 36.0000000  0 18
G27  24612299.580   129338490.829 5      -371.555    24612298.420   129338490.836 4      -371.555    24612326.740   100783352.237 4      -289.523    24612327.060   100783351.193 6      -289.523
G02  22128962.960   116288482.694 7      1602.639    22128962.280   116288482.696 4      1602.639    22128965.760    90614411.003 4      1248.810
G03  19876972.240   104454193.543 8      3365.879    19876971.140   104454193.548 8      3365.879    19876979.000    81392906.233 8      2622.763    19876978.880    81392906.236 8      2622.763
G14  22246614.780   116906750.602 7      3705.929    22246613.780   116906750.607 5      3705.929    22246621.300    91096169.491 5      2887.737    22246621.920    91096197.502 7      2887.737
R03  19838575.200   106197448.665 8      4037.825    19838574.420   106197448.688 7      4037.825    19838586.200    82598066.037 8      3140.530    19838586.440    82598062.036 8      3140.530
G01  20896266.600   109810620.320 7      2335.563    20896265.920   109810620.325 6      2335.563    20896270.740    85566736.067 6      1819.919    20896271.300    85566735.074 8      1819.919
G08  21412186.520   112521797.554 7       702.319    21412185.360   112521797.567 7       702.319    21412196.180    87679352.607 7       547.262    21412197.100    87679361.611 7       547.262
R18  20594999.280   109937501.129 6      3387.402    20595000.460   109937501.146 7      3387.402    20595010.200    85506989.516 7      2634.646    20595010.020    85506992.523 7      2634.646
R09  22999850.160   122817907.223 6      3506.127    22999851.200   122817907.203 6      3506.127    22999861.360    95525097.001 6      2726.988    22999862.140    95525097.972 6      2726.988
R02  21873104.560   116719071.387 7       162.511    21873104.320   116719071.396 7       162.511    21873114.600    90781540.630 6       126.398    21873115.100    90781545.630 6       126.398
R16  21854751.800   116744161.299 7       367.487    21854753.420   116744161.302 7       367.487    21854767.580    90801078.606 7       285.823    21854767.140    90801074.614 7       285.823
R15  23615888.720   126196151.766 6     -1013.070    23615888.060   126196151.772 6     -1013.070    23615922.520    98152702.798 7      -787.944    23615922.460    98152699.802 7      -787.944
R17  21605017.720   115612797.499 6      1624.070    21605017.100   115612797.517 6      1624.070    21605031.680    89921132.682 5      1263.165    21605031.900    89921133.685 5      1263.165
R04  21786012.120   116663109.112 7      6892.006    21786012.740   116663109.130 6      6892.006    21786034.480    90738067.655 8      5360.449    21786034.240    90738068.659 8      5360.449
G17  23792496.280   125030412.132 6      5572.236    23792493.920   125030412.136 3      5572.236    23792504.280    97426324.585 3      4342.002    23792501.800    97426318.645 6      4342.002
G04  23911096.540   125653683.950 5      5808.363    23911094.000   125653683.952 4      5808.363    23911120.860    97911952.947 4      4525.997    23911121.340    97912053.950 8      4525.997
G22  23927588.000   125740322.306 6      4674.830    23927586.920   125740322.314 3      4674.830    23927595.080    97979496.179 3      3642.725
G32  25103049.700   131917424.596 5      1058.617    25103048.020   131917424.583 3      1058.617    25103062.080   102792824.368 3       824.897    25103065.360   102792841.378 5       824.897
> 2025 04 04 17 00 37.0000000  0 18
G27  24612370.160   129338861.692 5      -370.862    24612369.260   129338861.708 4      -370.862    24612397.520   100783641.199 4      -288.983    24612397.540   100783640.153 6      -288.983
G02  22128657.840   116286879.488 7      1603.287    22128657.340   116286879.490 4      1603.287    22128660.660    90613161.754 4      1249.315
G03  19876331.980   104450827.559 7      3365.839    19876330.640   104450827.556 8      3365.839    19876338.380    81390283.391 8      2622.732    19876338.160    81390283.389 8      2622.732
G14  22245909.840   116903044.570 7      3705.925    22245908.540   116903044.575 5      3705.925    22245916.000    91093281.688 5      2887.734    22245916.560    91093309.709 8      2887.734
R03  19837821.160   106193410.755 8      4037.643    19837820.000   106193410.775 8      4037.643    19837831.840    82594925.451 8      3140.389    19837832.420    82594921.448 8      3140.389
G01  20895822.320   109808284.357 7      2335.964    20895821.500   109808284.359 6      2335.964    20895825.940    85564915.844 6      1820.232    20895826.780    85564914.850 8      1820.232
G08  21412053.080   112521094.927 7       702.584    21412051.780   112521094.929 7       702.584    21412062.320    87678805.097 7       547.468    21412063.340    87678814.097 8       547.468
R18  20594364.380   109934113.295 7      3387.971    20594366.000   109934113.314 7      3387.971    20594375.440    85504354.532 7      2635.089    20594375.700    85504357.532 7      2635.089
R09  22999193.780   122814401.051 6      3505.935    22999195.060   122814401.049 6      3505.935    22999204.420    95522369.989 6      2726.839    22999205.900    95522370.963 6      2726.839
R02  21873073.660   116718908.865 7       162.332    21873074.160   116718908.869 7       162.332    21873083.920    90781414.230 6       126.258    21873084.580    90781419.230 6       126.258
R16  21854683.220   116743793.675 7       367.610    21854684.480   116743793.670 7       367.610    21854698.640    90800792.695 7       285.919    21854698.480    90800788.701 7       285.919
R15  23616078.100   126197164.570 6     -1012.537    23616077.880   126197164.555 6     -1012.537    23616112.260    98153490.540 7      -787.529    23616112.460    98153487.544 7      -787.529
R17  21604713.700   115611172.949 6      1624.659    21604713.620   115611172.943 6      1624.659    21604728.540    89919869.141 6      1263.624    21604727.620    89919870.154 5      1263.624
R04  21784725.220   116656216.795 7      6892.229    21784725.800   116656216.829 6      6892.229    21784747.380    90732707.000 8      5360.623    21784747.000    90732708.003 8      5360.623
G17  23791435.600   125024839.463 6      5572.976    23791433.520   125024839.463 3      5572.976    23791443.840    97421982.258 3      4342.579    23791441.460    97421976.294 6      4342.579
G04  23909991.260   125647875.404 5      5808.879    23909988.600   125647875.399 4      5808.879    23910015.980    97907426.834 4      4526.399    23910015.720    97907527.850 8      4526.399
G22  23926698.960   125735647.322 7      4674.968    23926697.180   125735647.329 3      4674.968    23926705.360    97975853.337 3      3642.832
G32  25102847.580   131916365.862 5      1058.510    25102846.720   131916365.853 3      1058.510    25102860.720   102791999.388 3       824.813    25102863.380   102792016.395 5       824.813
> 2025 04 04 17 00 38.0000000  0 18
G27  24612440.540   129339232.393 5      -370.567    24612439.780   129339232.406 4      -370.567    24612468.180   100783930.026 4      -288.754    24612468.220   100783928.962 6      -288.754
G02  22128353.120   116285275.924 7      1603.829    22128352.380   116285275.927 4      1603.829    22128355.640    90611912.226 4      1249.737
G03  19875691.140   104447461.798 8      3365.695    19875690.120   104447461.800 8      3365.695    19875697.980    81387660.734 8      2622.619    19875697.880    81387660.734 8      2622.619
G14  22245204.300   116899338.808 7      3705.714    22245203.240   116899338.813 5      3705.714    22245211.000    91090394.083 5      2887.569    22245211.880    91090422.084 8      2887.569
R03  19837067.300   106189373.326 8      4037.258    19837065.860   106189373.349 8      4037.258    19837077.460    82591785.244 8      3140.090    19837077.840    82591781.241 8      3140.090
G01  20895377.520   109805948.126 7      2336.422    20895376.900   109805948.133 6      2336.422    20895381.500    85563095.415 6      1820.588    20895382.260    85563094.428 8      1820.588
G08  21411919.200   112520392.297 7       702.743    21411918.000   112520392.300 7       702.743    21411928.760    87678257.601 7       547.592    21411929.800    87678266.602 8       547.592
R18  20593729.540   109930725.138 7      3388.542    20593731.880   109930725.155 7      3388.542    20593740.500    85501719.303 7      2635.533    20593740.780    85501722.307 7      2635.533
R09  22998536.820   122810895.284 6      3505.754    22998538.960   122810895.280 6      3505.754    22998548.840    95519643.256 6      2726.698    22998549.700    95519644.227 6      2726.698
R02  21873043.320   116718746.559 7       162.273    21873043.660   116718746.555 7       162.273    21873052.920    90781287.990 6       126.212    21873054.920    90781292.993 6       126.212
R16  21854614.240   116743426.173 7       367.516    21854615.540   116743426.166 7       367.516    21854630.040    90800506.871 7       285.846    21854629.880    90800502.871 7       285.846
R15  23616268.380   126198176.853 7     -1012.078    23616267.140   126198176.849 6     -1012.078    23616302.060    98154277.897 7      -787.172    23616301.320    98154274.903 7      -787.172
R17  21604409.740   115609548.105 6      1625.021    21604410.080   115609548.128 6      1625.021    21604424.940    89918605.402 6      1263.905    21604423.740    89918606.428 6      1263.905
R04  21783437.860   116649324.318 7      6892.631    21783438.700   116649324.341 6      6892.631    21783460.100    90727346.209 8      5360.935    21783459.820    90727347.215 8      5360.935
G17  23790375.220   125019266.430 6      5573.281    23790373.000   125019266.435 3      5573.281    23790383.280    97417639.643 3      4342.816    23790380.620    97417633.685 6      4342.816
G04  23908885.660   125642066.383 5      5809.335    23908883.600   125642066.391 4      5809.335    23908910.320    97902900.359 4      4526.754    23908910.680    97903001.393 8      4526.754
G22  23925808.640   125730972.405 6      4674.946    23925807.400   125730972.413 3      4674.946    23925815.520    97972210.548 3      3642.815
G32  25102646.460   131915307.166 5      1058.585    25102645.280   131915307.161 3      1058.585    25102659.000   102791174.433 3       824.872    25102661.480   102791191.454 5       824.872
> 2025 04 04 17 00 39.0000000  0 18
G27  24612511.240   129339603.015 5      -370.328    24612510.340   129339603.025 4      -370.328    24612538.560   100784218.790 4      -288.567    24612538.920   100784217.762 6      -288.567
G02  22128048.120   116283672.203 7      1603.969    22128047.340   116283672.205 4      1603.969    22128050.460    90610662.579 4      1249.846
G03  19875050.840   104444096.439 7      3365.372    19875049.660   104444096.439 8      3365.372    19875057.600    81385038.383 8      2622.368    19875057.580    81385038.383 8      2622.368
G14  22244499.280   116895633.406 7      3705.470    22244498.080   116895633.409 5      3705.470    22244505.760    91087506.759 5      2887.379    22244506.760    91087534.766 8      2887.379
R03  19836312.920   106185336.538 8      4036.677    19836312.060   106185336.561 8      4036.677    19836323.440    82588645.526 8      3139.638    19836323.660    82588641.521 8      3139.638
G01  20894933.100   109803611.855 7      2336.502    20894932.280   109803611.863 6      2336.502    20894936.880    85561274.948 6      1820.651    20894937.900    85561273.958 8      1820.651
G08  21411785.640   112519689.846 7       702.678    21411784.500   112519689.854 7       702.678    21411795.120    87677710.241 7       547.541    21411796.080    87677719.242 8       547.541
R18  20593094.960   109927336.861 7      3388.651    20593096.820   109927336.872 7      3388.651    20593106.160    85499083.984 7      2635.618    20593105.820    85499086.985 7      2635.618
R09  22997880.300   122807390.051 6      3505.054    22997882.620   122807390.049 6      3505.054    22997892.680    95516916.999 6      2726.153    22997892.620    95516917.949 6      2726.153
R02  21873013.200   116718584.707 7       161.782    21873012.840   116718584.708 7       161.782    21873023.000    90781162.108 6       125.830    21873024.300    90781167.110 6       125.830
R16  21854545.300   116743059.006 7       367.222    21854546.820   116743059.004 7       367.222    21854561.360    90800221.286 7       285.617    21854561.320    90800217.288 7       285.617
R15  23616457.700   126199188.819 7     -1011.664    23616456.620   126199188.796 7     -1011.664    23616491.060    98155064.975 7      -786.849    23616490.900    98155061.974 7      -786.849
R17  21604106.760   115607923.234 6      1625.192    21604106.420   115607923.249 6      1625.192    21604120.780    89917341.605 6      1264.039    21604120.160    89917342.621 6      1264.039
R04  21782151.000   116642431.889 7      6892.675    21782151.880   116642431.926 6      6892.675    21782173.040    90721985.460 8      5360.970    21782172.640    90721986.464 8      5360.970
G17  23789314.520   125013693.160 6      5573.649    23789312.520   125013693.160 3      5573.649    23789322.760    97413296.854 3      4343.103    23789320.260    97413290.916 6      4343.103
G04  23907779.760   125636257.078 5      5810.046    23907777.680   125636257.101 4      5810.046    23907804.460    97898373.664 4      4527.309    23907804.720    97898474.670 8      4527.309
G22  23924919.360   125726297.683 6      4674.958    23924917.700   125726297.691 3      4674.958    23924925.820    97968567.913 3      3642.824
G32  25102445.100   131914248.694 5      1058.652    25102443.800   131914248.684 3      1058.652    25102457.560   102790349.650 3       824.924    25102460.560   102790366.670 5       824.924
> 2025 04 04 17 00 40.0000000  0 18
G27  24612582.120   129339973.348 5      -370.104    24612580.840   129339973.355 4      -370.104    24612609.260   100784507.336 4      -288.393    24612609.900   100784506.294 6      -288.393
G02  22127742.500   116282067.951 7      1604.385    22127742.220   116282067.953 4      1604.385    22127745.380    90609412.519 4      1250.170
G03  19874410.560   104440731.167 7      3365.249    19874409.200   104440731.167 8      3365.249    19874417.100    81382416.099 8      2622.272    19874417.200    81382416.099 8      2622.272
G14  22243794.300   116891928.076 7      3705.320    22243792.980   116891928.075 5      3705.320    22243800.720    91084619.497 5      2887.262    22243801.500    91084647.514 7      2887.262
R03  19835558.500   106181300.044 8      4036.321    19835557.580   106181300.067 7      4036.321    19835569.460    82585506.043 8      3139.361    19835569.400    82585502.038 8      3139.361
G01  20894488.540   109801275.188 7      2336.811    20894487.580   109801275.193 6      2336.811    20894492.380    85559454.175 6      1820.892    20894493.280    85559453.182 8      1820.892
G08  21411652.000   112518987.272 7       702.590    21411650.700   112518987.290 7       702.590    21411661.320    87677162.788 7       547.473    21411662.280    87677171.791 7       547.473
R18  20592460.000   109923948.114 7      3389.039    20592461.960   109923948.123 7      3389.039    20592471.660    85496448.298 7      2635.919    20592471.700    85496451.299 7      2635.919
R09  22997223.740   122803885.011 6      3504.805    22997226.560   122803885.025 6      3504.805    22997235.520    95514190.873 6      2725.960    22997236.440    95514191.840 6      2725.960
R02  21872982.920   116718422.983 7       161.602    21872982.780   116718422.987 7       161.602    21872993.000    90781036.326 6       125.690    21872994.320    90781041.335 6       125.690
R16  21854477.020   116742691.804 7       367.147    21854477.700   116742691.797 7       367.147    21854492.440    90799935.664 7       285.558    21854492.700    90799931.666 7       285.558
R15  23616647.000   126200200.076 7     -1011.031    23616645.800   126200200.058 6     -1011.031    23616680.360    98155851.537 7      -786.358    23616680.300    98155848.541 7      -786.358
R17  21603804.040   115606298.015 6      1625.380    21603803.580   115606298.001 6      1625.380    21603817.560    89916077.519 6      1264.185    21603816.420    89916078.545 6      1264.185
R04  21780863.080   116635539.195 7      6892.794    21780865.140   116635539.224 6      6892.794    21780885.920    90716624.497 8      5361.062    21780885.460    90716625.505 8      5361.062
G17  23788253.760   125008119.391 6      5574.064    23788252.020   125008119.393 3      5574.064    23788262.300    97408953.667 3      4343.426    23788260.000    97408947.711 6      4343.426
G04  23906675.000   125630447.239 5      5810.263    23906672.220   125630447.247 4      5810.263    23906699.260    97893846.538 4      4527.477    23906699.260    97893947.572 8      4527.477
G22  23924029.980   125721622.935 6      4674.826    23924027.960   125721622.943 3      4674.826    23924035.920    97964925.263 3      3642.722
G32  25102242.760   131913190.254 5      1058.139    25102242.380   131913190.251 3      1058.139    25102256.320   102789524.901 3       824.524    25102260.400   102789541.922 5       824.524
> 2025 04 04 17 00 41.0000000  0 18
G27  24612652.140   129340343.788 5      -370.419    24612651.400   129340343.791 4      -370.419    24612679.760   100784795.961 4      -288.638    24612679.820   100784794.913 6      -288.638
G02  22127436.660   116280463.699 7      1604.208    22127436.760   116280463.699 4      1604.208    22127439.940    90608162.459 4      1250.032
G03  19873770.200   104437366.473 8      3364.466    19873769.000   104437366.475 8      3364.466    19873776.980    81379794.263 8      2621.662    19873776.780    81379794.262 8      2621.662
G14  22243089.540   116888223.331 7      3704.523    22243088.100   116888223.330 5      3704.523    22243095.620    91081732.693 5      2886.641    22243096.480    91081760.708 7      2886.641
R03  19834804.540   106177264.342 8      4035.373    19834803.740   106177264.365 7      4035.373    19834815.600    82582367.172 8      3138.623    19834815.720    82582363.169 8      3138.623
G01  20894043.800   109798938.592 7      2336.652    20894043.040   109798938.599 6      2336.652    20894047.940    85557633.458 6      1820.768    20894048.680    85557632.468 8      1820.768
G08  21411518.400   112518285.052 7       702.101    21411517.100   112518285.057 7       702.101    21411527.740    87676615.594 7       547.092    21411528.700    87676624.592 7       547.092
R18  20591825.440   109920559.396 7      3388.683    20591826.980   109920559.397 7      3388.683    20591836.720    85493812.646 7      2635.642    20591836.860    85493815.648 7      2635.642
R09  22996567.380   122800380.683 6      3503.770    22996569.980   122800380.681 6      3503.770    22996579.020    95511465.299 6      2725.155    22996579.980    95511466.258 6      2725.155
R02  21872952.820   116718261.929 7       160.764    21872952.520   116718261.933 7       160.764    21872963.040    90780911.075 6       125.038    21872963.600    90780916.085 6       125.038
R16  21854408.100   116742325.091 7       366.404    21854409.000   116742325.089 7       366.404    21854423.340    90799650.430 7       284.981    21854423.880    90799646.436 7       284.981
R15  23616836.020   126201211.119 7     -1010.806    23616834.940   126201211.120 6     -1010.806    23616869.460    98156637.927 7      -786.182    23616869.680    98156634.933 7      -786.182
R17  21603499.960   115604672.877 6      1625.098    21603499.180   115604672.854 6      1625.098    21603514.400    89914813.522 6      1263.965    21603513.220    89914814.534 6      1263.965
R04  21779576.080   116628646.747 7      6892.446    21779578.220   116628646.784 6      6892.446    21779598.580    90711263.727 8      5360.791    21779598.300    90711264.733 8      5360.791
G17  23787193.040   125002545.561 6      5573.988    23787191.440   125002545.564 3      5573.988    23787201.700    97404610.431 3      4343.367    23787199.720    97404604.470 6      4343.367
G04  23905569.680   125624637.267 5      5810.258    23905567.200   125624637.277 4      5810.258    23905593.600    97889319.322 4      4527.474    23905593.540    97889420.333 8      4527.474
G22  23923140.240   125716948.584 6      4674.111    23923138.320   125716948.586 3      4674.111    23923146.320    97961282.911 3      3642.164
G32  25102041.200   131912132.150 5      1057.853    25102041.020   131912132.144 3      1057.853    25102054.800   102788700.409 3       824.301    25102058.880   102788717.440 5       824.301
> 2025 04 04 17 00 42.0000000  0 18
G27  24612722.960   129340713.972 5      -370.069    24612722.020   129340713.982 4      -370.069    24612750.260   100785084.405 4      -288.366    24612749.340   100785083.371 6      -288.366
G02  22127131.260   116278859.079 7      1604.809    22127131.180   116278859.079 4      1604.809    22127134.680    90606912.116 4      1250.501
G03  19873130.200   104434002.031 8      3364.287    19873128.820   104434002.036 8      3364.287    19873136.600    81377172.626 8      2621.522    19873136.760    81377172.625 8      2621.522
G14  22242384.640   116884518.809 7      3704.331    22242383.060   116884518.812 5      3704.331    22242390.560    91078846.057 5      2886.491    22242391.520    91078874.070 7      2886.491
R03  19834050.600   106173229.106 8      4034.980    19834049.680   106173229.126 7      4034.980    19834061.800    82579228.659 8      3138.318    19834061.920    82579224.656 8      3138.318
G01  20893599.000   109796601.793 7      2336.974    20893598.340   109796601.803 6      2336.974    20893602.980    85555812.581 6      1821.019    20893603.880    85555811.588 8      1821.019
G08  21411384.900   112517582.845 7       702.194    21411383.500   112517582.847 7       702.194    21411394.180    87676068.422 7       547.164    21411394.800    87676077.429 7       547.164
R18  20591190.940   109917170.377 7      3389.204    20591192.100   109917170.386 7      3389.204    20591202.240    85491176.744 7      2636.047    20591201.900    85491179.742 7      2636.047
R09  22995912.120   122796876.686 6      3503.756    22995914.120   122796876.695 6      3503.756    22995923.360    95508739.987 6      2725.143    22995923.020    95508740.966 6      2725.143
R02  21872922.540   116718101.235 7       160.530    21872922.220   116718101.236 7       160.530    21872932.320    90780786.088 6       124.856    21872933.240    90780791.090 6       124.856
R16  21854339.420   116741958.535 7       366.449    21854340.380   116741958.533 7       366.449    21854354.540    90799365.333 7       285.016    21854355.060    90799361.341 7       285.016
R15  23617025.080   126202221.671 7     -1010.117    23617024.400   126202221.672 7     -1010.117    23617058.540    98157423.918 7      -785.646    23617058.480    98157420.918 7      -785.646
R17  21603196.440   115603047.532 6      1625.324    21603195.560   115603047.541 6      1625.324    21603210.500    89913549.402 6      1264.141    21603210.080    89913550.418 6      1264.141
R04  21778289.500   116621754.201 7      6892.552    21778290.900   116621754.229 6      6892.552    21778311.400    90705902.874 8      5360.874    21778311.120    90705903.880 8      5360.874
G17  23786132.420   124996971.374 6      5574.433    23786130.680   124996971.374 3      5574.433    23786140.920    97400266.919 3      4343.714    23786138.140    97400260.949 6      4343.714
G04  23904464.700   125618826.906 5      5810.524    23904461.420   125618826.921 4      5810.524    23904488.100    97884791.784 4      4527.681    23904487.940    97884892.812 8      4527.681
G22  23922250.720   125712274.245 7      4674.328    23922248.860   125712274.250 3      4674.328    23922256.920    97957640.582 3      3642.334
G32  25101840.660   131911074.154 5      1058.026    25101839.740   131911074.151 3      1058.026    25101853.560   102787876.006 3       824.436    25101857.940   102787893.049 5       824.436
> 2025 04 04 17 00 43.0000000  0 18
G27  24612793.420   129341084.076 5      -370.229    24612792.500   129341084.089 4      -370.229    24612820.620   100785372.769 4      -288.490    24612819.900   100785371.727 6      -288.490
G02  22126825.900   116277254.189 7      1604.811    22126825.900   116277254.186 4      1604.811    22126829.260    90605661.556 4      1250.502
G03  19872489.700   104430637.870 8      3363.829    19872488.680   104430637.872 8      3363.829    19872496.420    81374551.211 8      2621.166    19872496.260    81374551.209 8      2621.166
G14  22241679.920   116880814.569 7      3704.001    22241678.140   116880814.569 5      3704.001    22241685.840    91075959.644 5      2886.234    22241686.640    91075987.651 7      2886.234
R03  19833296.860   106169194.368 8      4034.302    19833295.760   106169194.388 8      4034.302    19833308.100    82576090.540 8      3137.790    19833308.100    82576086.539 8      3137.790
G01  20893154.480   109794264.813 7      2336.933    20893153.540   109794264.821 6      2336.933    20893158.300    85553991.561 6      1820.987    20893159.160    85553990.573 8      1820.987
G08  21411251.220   112516880.701 7       701.900    21411249.960   112516880.709 7       701.900    21411260.620    87675521.305 7       546.935    21411261.200    87675530.304 7       546.935
R18  20590555.900   109913781.139 7      3389.112    20590557.220   109913781.145 7      3389.112    20590566.980    85488540.682 7      2635.976    20590567.060    85488543.679 7      2635.976
R09  22995255.380   122793373.109 6      3503.322    22995258.100   122793373.115 6      3503.322    22995267.400    95506014.987 6      2724.806    22995267.260    95506015.957 6      2724.806
R02  21872892.760   116717940.901 7       159.996    21872892.400   116717940.902 7       159.996    21872902.280    90780661.399 6       124.441    21872903.260    90780666.409 6       124.441
R16  21854270.800   116741592.174 7       366.090    21854271.740   116741592.181 7       366.090    21854286.180    90799080.394 7       284.737    21854286.180    90799076.402 7       284.737
R15  23617214.120   126203231.774 7     -1010.016    23617213.700   126203231.775 6     -1010.016    23617247.640    98158209.589 7      -785.568    23617247.540    98158206.595 7      -785.568
R17  21602892.720   115601422.011 6      1625.386    21602892.640   115601422.004 6      1625.386    21602906.800    89912285.089 6      1264.189    21602906.420    89912286.109 6      1264.189
R04  21777002.440   116614861.544 7      6892.556    21777003.960   116614861.567 6      6892.556    21777024.240    90700541.937 8      5360.877    21777023.980    90700542.943 8      5360.877
G17  23785071.820   124991396.851 6      5574.501    23785069.900   124991396.851 3      5574.501    23785080.160    97395923.145 3      4343.767    23785077.520    97395917.204 6      4343.767
G04  23903359.220   125613016.119 5      5811.000    23903355.880   125613016.124 4      5811.000    23903382.260    97880263.918 4      4528.052    23903382.380    97880364.936 8      4528.052
G22  23921361.300   125707600.065 6      4674.036    23921359.380   125707600.070 3      4674.036    23921367.300    97953998.369 3      3642.106
G32  25101639.960   131910016.386 5      1057.435    25101638.500   131910016.380 3      1057.435    25101652.260   102787051.780 3       823.976    25101656.300   102787068.807 5       823.976
> 2025 04 04 17 00 44.0000000  0 18
G27  24612863.120   129341454.020 5      -369.624    24612862.980   129341454.025 4      -369.624    24612891.060   100785661.008 4      -288.019    24612890.600   100785659.971 6      -288.019
G02  22126520.580   116275648.999 7      1605.597    22126520.380   116275648.996 4      1605.597    22126523.720    90604410.760 4      1251.115
G03  19871849.700   104427274.001 8      3364.014    19871848.560   104427274.003 8      3364.014    19871856.300    81371930.022 8      2621.309    19871856.180    81371930.020 8      2621.309
G14  22240974.940   116877110.626 7      3704.054    22240973.220   116877110.628 5      3704.054    22240981.020    91073073.465 5      2886.276    22240981.520    91073101.477 7      2886.276
R03  19832543.160   106165160.170 8      4034.252    19832542.220   106165160.193 7      4034.252    19832554.620    82572952.839 8      3137.751    19832554.380    82572948.834 8      3137.751
G01  20892709.820   109791927.641 7      2337.597    20892708.720   109791927.652 6      2337.597    20892713.640    85552170.395 6      1821.504    20892714.540    85552169.408 8      1821.504
G08  21411117.400   112516178.613 7       702.375    21411116.260   112516178.623 7       702.375    21411127.000    87674974.225 7       547.305    21411127.440    87674983.226 7       547.305
R18  20589921.160   109910391.615 7      3389.965    20589922.560   109910391.629 7      3389.965    20589931.880    85485904.386 7      2636.640    20589932.020    85485907.383 7      2636.640
R09  22994599.800   122789869.983 6      3503.181    22994602.740   122789869.989 6      3503.181    22994610.700    95503290.344 6      2724.696    22994611.260    95503291.329 6      2724.696
R02  21872862.320   116717780.912 7       160.106    21872862.040   116717780.910 7       160.106    21872871.800    90780536.960 6       124.527    21872872.760    90780541.979 6       124.527
R16  21854202.140   116741226.027 7       366.349    21854203.420   116741226.034 7       366.349    21854217.760    90798795.613 7       284.938    21854217.740    90798791.621 7       284.938
R15  23617402.580   126204241.450 7     -1009.153    23617402.220   126204241.448 6     -1009.153    23617436.500    98158994.896 7      -784.897    23617436.440    98158991.902 7      -784.897
R17  21602589.460   115599796.294 6      1626.198    21602588.420   115599796.288 6      1626.198    21602603.120    89911020.641 6      1264.820    21602602.980    89911021.651 6      1264.820
R04  21775715.460   116607968.823 7      6893.107    21775717.160   116607968.844 6      6893.107    21775737.100    90695180.943 8      5361.306    21775736.760    90695181.947 8      5361.306
G17  23784010.920   124985822.015 6      5575.367    23784009.100   124985822.017 3      5575.367    23784019.280    97391579.126 3      4344.441    23784016.340    97391573.155 6      4344.441
G04  23902253.000   125607204.969 5      5811.546    23902249.780   125607204.971 4      5811.546    23902276.460    97875735.784 4      4528.478    23902276.460    97875836.810 8      4528.478
G22  23920472.040   125702925.989 6      4674.420    23920470.040   125702925.997 3      4674.420    23920477.860    97950356.240 3      3642.405
G32  25101438.900   131908958.708 5      1057.848    25101437.060   131908958.697 3      1057.848    25101450.920   102786227.623 3       824.297    25101453.880   102786244.631 5       824.297
> 2025 04 04 17 00 45.0000000  0 18
G27  24612933.180   129341823.648 5      -369.467    24612933.360   129341823.648 4      -369.467    24612961.460   100785949.004 4      -287.896    24612960.920   100785947.942 6      -287.896
G02  22126215.120   116274043.346 7      1605.769    22126214.640   116274043.346 4      1605.769    22126218.080    90603159.609 4      1251.248
G03  19871209.620   104423910.269 7      3363.610    19871208.420   104423910.274 8      3363.610    19871216.260    81369308.938 8      2620.995    19871216.280    81369308.938 8      2620.995
G14  22240270.020   116873406.803 7      3703.670    22240268.300   116873406.805 5      3703.670    22240276.240    91070187.375 5      2885.976    22240276.880    91070215.382 7      2885.976
R03  19831789.520   106161126.366 8      4033.459    19831788.720   106161126.389 7      4033.459    19831800.960    82569815.444 8      3137.135    19831800.860    82569811.443 8      3137.135
G01  20892265.080   109789590.146 7      2337.557    20892263.980   109789590.157 6      2337.557    20892268.900    85550348.974 6      1821.473    20892269.640    85550347.983 8      1821.473
G08  21410983.820   112515476.461 7       702.090    21410982.780   112515476.472 7       702.090    21410993.360    87674427.094 7       547.083    21410994.020    87674436.099 7       547.083
R18  20589286.540   109907001.696 7      3390.100    20589287.880   109907001.703 7      3390.100    20589296.960    85483267.776 7      2636.745    20589296.740    85483270.773 7      2636.745
R09  22993943.580   122786367.126 6      3502.590    22993946.780   122786367.127 6      3502.590    22993955.440    95500565.895 6      2724.236    22993955.280    95500566.887 6      2724.236
R02  21872832.820   116717621.074 7       159.679    21872832.760   116717621.075 7       159.679    21872842.560    90780412.640 6       124.195    21872842.720    90780417.659 6       124.195
R16  21854133.720   116740859.915 7       365.965    21854134.980   116740859.919 7       365.965    21854149.260    90798510.857 7       284.639    21854149.260    90798506.861 7       284.639
R15  23617591.720   126205250.513 7     -1008.837    23617591.240   126205250.504 7     -1008.837    23617625.780    98159779.759 7      -784.651    23617625.240    98159776.769 7      -784.651
R17  21602285.480   115598170.272 6      1626.095    21602285.540   115598170.279 6      1626.095    21602300.400    89909755.968 6      1264.741    21602299.160    89909756.982 6      1264.741
R04  21774428.000   116601075.843 7      6893.068    21774429.440   116601075.879 6      6893.068    21774449.980    90689819.771 8      5361.275    21774449.920    90689820.775 8      5361.275
G17  23782950.260   124980246.698 6      5575.335    23782948.200   124980246.703 3      5575.335    23782958.160    97387234.733 3      4344.417    23782956.220    97387228.775 6      4344.417
G04  23901146.880   125601393.205 5      5812.129    23901144.000   125601393.215 4      5812.129    23901170.220    97871207.170 4      4528.932    23901170.540    97871308.206 8      4528.932
G22  23919582.400   125698251.916 6      4674.055    23919580.520   125698251.926 3      4674.055    23919588.360    97946714.110 3      3642.120
G32  25101237.160   131907900.969 5      1057.837    25101235.680   131907900.958 3      1057.837    25101249.480   102785403.422 3       824.288    25101252.680   102785420.477 5       824.288
> 2025 04 04 17 00 46.0000000  0 18
G27  24613003.520   129342193.190 5      -369.416    24613003.500   129342193.185 4      -369.416    24613031.780   100786236.930 4      -287.856    24613031.780   100786235.899 6      -287.856
G02  22125909.320   116272437.505 7      1606.103    22125909.100   116272437.504 4      1606.103    22125912.500    90601908.308 4      1251.508
G03  19870569.520   104420546.928 8      3363.253    19870568.440   104420546.935 8      3363.253    19870576.180    81366688.163 8      2620.716    19870576.360    81366688.161 8      2620.716
G14  22239565.560   116869703.354 7      3703.272    22239563.420   116869703.358 5      3703.272    22239571.540    91067301.581 5      2885.667    22239572.140    91067329.589 7      2885.667
R03  19831036.160   106157093.156 8      4032.988    19831035.300   106157093.177 7      4032.988    19831047.760    82566678.511 8      3136.769    19831047.400    82566674.511 8      3136.769
G01  20891820.060   109787252.544 7      2337.743    20891819.140   109787252.551 6      2337.743    20891824.080    85548527.472 6      1821.618    20891824.840    85548526.485 8      1821.618
G08  21410850.120   112514774.470 7       701.963    21410849.220   112514774.480 7       701.963    21410859.740    87673880.090 7       546.984    21410860.640    87673889.090 7       546.984
R18  20588651.180   109903611.620 7      3390.251    20588652.340   109903611.637 7      3390.251    20588662.220    85480631.067 7      2636.862    20588661.780    85480634.068 7      2636.862
R09  22993287.480   122782864.793 6      3502.174    22993291.100   122782864.796 6      3502.174    22993298.940    95497841.863 6      2723.913    22993299.360    95497842.854 6      2723.913
R02  21872802.660   116717461.645 7       159.313    21872802.720   116717461.640 7       159.313    21872812.660    90780288.635 6       123.910    21872813.080    90780293.658 6       123.910
R16  21854065.180   116740494.072 7       365.746    21854066.140   116740494.073 7       365.746    21854080.700    90798226.298 7       284.469    21854081.020    90798222.298 7       284.469
R15  23617780.400   126206259.270 7     -1008.456    23617780.540   126206259.257 7     -1008.456    23617814.060    98160564.349 7      -784.355    23617814.240    98160561.362 7      -784.355
R17  21601981.060   115596544.195 6      1626.305    21601982.080   115596544.193 6      1626.305    21601995.780    89908491.228 6      1264.904    21601995.480    89908492.242 6      1264.904
R04  21773140.760   116594182.929 7      6893.052    21773142.700   116594182.966 6      6893.052    21773162.840    90684458.647 8      5361.263    21773162.560    90684459.651 8      5361.263
G17  23781889.660   124974671.135 6      5575.734    23781887.320   124974671.137 3      5575.734    23781897.120    97382890.152 3      4344.728    23781895.220    97382884.195 6      4344.728
G04  23900040.440   125595581.233 5      5812.649    23900038.460   125595581.243 4      5812.649    23900064.380    97866678.381 4      4529.337    23900064.580    97866779.390 8      4529.337
G22  23918693.480   125693578.041 6      4673.773    23918691.040   125693578.048 3      4673.773    23918698.940    97943072.135 3      3641.901
G32  25101035.760   131906843.559 5      1057.390    25101034.400   131906843.545 3      1057.390    25101048.140   102784579.472 3       823.941    25101051.620   102784596.510 5       823.941
> 2025 04 04 17 00 47.0000000  0 18
G27  24613074.380   129342562.569 5      -369.351    24613073.800   129342562.574 4      -369.351    24613101.860   100786524.742 4      -287.806    24613101.360   100786523.702 6      -287.806
G02  22125603.740   116270831.382 7      1606.124    22125603.420   116270831.384 4      1606.124    22125606.920    90600656.788 4      1251.525
G03  19869929.560   104417183.855 8      3362.896    19869928.480   104417183.862 8      3362.896    19869936.220    81364067.597 8      2620.438    19869936.140    81364067.597 8      2620.438
G14  22238860.880   116866000.177 7      3702.860    22238858.660   116866000.182 5      3702.860    22238866.880    91064415.993 5      2885.345    22238867.680    91064444.002 7      2885.345
R03  19830282.700   106153060.471 8      4032.395    19830282.240   106153060.491 7      4032.395    19830294.280    82563541.987 8      3136.308    19830294.120    82563537.986 8      3136.308
G01  20891375.220   109784914.749 7      2337.871    20891374.200   109784914.757 6      2337.871    20891379.280    85546705.816 6      1821.718    20891379.920    85546704.825 8      1821.718
G08  21410716.520   112514072.524 7       701.834    21410715.740   112514072.526 7       701.834    21410726.280    87673333.116 7       546.884    21410727.020    87673342.117 7       546.884
R18  20588015.480   109900221.269 7      3390.476    20588017.520   109900221.286 7      3390.476    20588026.740    85477994.136 7      2637.037    20588026.780    85477997.136 7      2637.037
R09  22992631.920   122779362.849 6      3501.742    22992635.500   122779362.850 6      3501.742    22992643.720    95495118.118 6      2723.577    22992643.940    95495119.106 6      2723.577
R02  21872772.780   116717302.519 7       158.937    21872772.500   116717302.515 7       158.937    21872783.160    90780164.881 6       123.618    21872783.280    90780169.890 6       123.618
R16  21853996.860   116740128.398 7       365.493    21853997.780   116740128.399 7       365.493    21854012.220    90797941.875 7       284.272    21854012.680    90797937.872 7       284.272
R15  23617968.940   126207267.550 7     -1008.241    23617969.260   126207267.543 7     -1008.241    23618002.620    98161348.591 7      -784.187    23618002.880    98161345.597 7      -784.187
R17  21601676.680   115594917.900 6      1626.338    21601676.960   115594917.910 6      1626.338    21601692.100    89907226.345 6      1264.930    21601691.340    89907227.346 6      1264.930
R04  21771853.240   116587289.946 7      6892.906    21771855.560   116587289.988 7      6892.906    21771875.580    90679097.467 8      5361.149    21771875.100    90679098.473 8      5361.149
G17  23780828.200   124969095.235 6      5575.991    23780826.360   124969095.234 3      5575.991    23780836.040    97378545.307 3      4344.928    23780834.420    97378539.348 6      4344.928
G04  23898933.740   125589768.869 5      5812.447    23898932.280   125589768.879 4      5812.447    23898958.560    97862149.291 4      4529.180    23898958.480    97862250.339 8      4529.180
G22  23917803.700   125688904.251 6      4673.612    23917801.660   125688904.259 3      4673.612    23917809.500    97939430.229 3      3641.776
G32  25100834.700   131905786.259 6      1057.306    25100833.280   131905786.245 3      1057.306    25100846.860   102783755.606 3       823.874    25100850.280   102783772.628 5       823.874
> 2025 04 04 17 00 48.0000000  0 18
G27  24613145.040   129342931.896 5      -369.187    24613143.960   129342931.901 4      -369.187    24613172.180   100786812.510 4      -287.678    24613172.100   100786811.438 6      -287.678
G02  22125298.320   116269224.952 7      1606.672    22125297.600   116269224.954 4      1606.672    22125301.200    90599405.032 4      1251.952
G03  19869289.780   104413821.129 8      3362.732    19869288.600   104413821.128 8      3362.732    19869296.380    81361447.293 8      2620.311    19869296.440    81361447.291 8      2620.311
G14  22238156.140   116862297.306 7      3702.891    22238153.960   116862297.311 5      3702.891    22238162.320    91061530.645 5      2885.370    22238162.880    91061558.656 7      2885.370
R03  19829529.380   106149028.350 8      4032.040    19829528.700   106149028.376 7      4032.040    19829541.060    82560405.914 8      3136.031    19829540.720    82560401.911 8      3136.031
G01  20890930.220   109782576.818 7      2338.116    20890929.340   109782576.820 6      2338.116    20890934.280    85544884.057 6      1821.908    20890934.960    85544883.073 8      1821.908
G08  21410583.100   112513370.674 7       701.881    21410582.160   112513370.682 7       701.881    21410592.800    87672786.227 7       546.920    21410593.340    87672795.228 8       546.920
R18  20587380.320   109896830.718 7      3390.787    20587382.020   109896830.732 7      3390.787    20587391.400    85475357.044 7      2637.279    20587391.840    85475360.043 7      2637.279
R09  22991976.540   122775861.371 6      3501.544    22991978.980   122775861.366 6      3501.544    22991987.640    95492394.763 6      2723.423    22991988.340    95492395.764 6      2723.423
R02  21872742.900   116717143.832 7       158.688    21872742.960   116717143.816 7       158.688    21872753.300    90780041.464 6       123.424    21872753.440    90780046.478 6       123.424
R16  21853928.660   116739762.948 7       365.532    21853929.160   116739762.946 7       365.532    21853943.500    90797657.642 7       284.302    21853944.140    90797653.644 7       284.302
R15  23618157.720   126208275.364 7     -1007.394    23618157.780   126208275.351 7     -1007.394    23618191.500    98162132.460 7      -783.529    23618191.200    98162129.468 7      -783.529
R17  21601373.540   115593291.472 6      1626.689    21601373.340   115593291.476 6      1626.689    21601388.060    89905961.354 6      1265.202    21601387.360    89905962.355 6      1265.202
R04  21770565.780   116580396.933 7      6893.268    21770567.880   116580396.975 7      6893.268    21770588.380    90673736.252 8      5361.431    21770588.260    90673737.258 8      5361.431
G17  23779766.800   124963519.061 6      5576.369    23779765.300   124963519.061 3      5576.369    23779775.020    97374200.250 3      4345.222    23779772.760    97374194.298 6      4345.222
G04  23897827.480   125583956.101 5      5813.119    23897826.240   125583956.129 4      5813.119    23897852.280    97857619.908 4      4529.703    23897852.360    97857720.953 8      4529.703
G22  23916914.200   125684230.628 6      4673.715    23916912.380   125684230.635 3      4673.715    23916920.120    97935788.453 3      3641.856
G32  25100633.500   131904729.111 6      1057.399    25100632.200   131904729.097 3      1057.399    25100645.700   102782931.858 3       823.947    25100648.680   102782948.887 5       823.947
> 2025 04 04 17 00 49.0000000  0 18
G27  24613214.880   129343301.083 5      -368.877    24613214.140   129343301.088 4      -368.877    24613242.480   100787100.158 4      -287.437    24613242.600   100787099.122 5      -287.437
G02  22124992.160   116267618.393 7      1606.644    22124991.900   116267618.395 4      1606.644    22124995.420    90598153.170 4      1251.930
G03  19868649.900   104410458.802 8      3362.201    19868648.660   104410458.807 8      3362.201    19868656.500    81358827.309 8      2619.897    19868656.660    81358827.311 8      2619.897
G14  22237451.260   116858594.873 7      3702.198    22237449.500   116858594.878 5      3702.198    22237457.740    91058645.636 5      2884.829    22237458.360    91058673.651 7      2884.829
R03  19828776.460   106144996.915 8      4031.151    19828775.720   106144996.943 8      4031.151    19828788.200    82557270.359 8      3135.340    19828787.820    82557266.358 8      3135.340
G01  20890485.520   109780238.819 7      2338.028    20890484.520   109780238.826 6      2338.028    20890489.360    85543062.248 6      1821.840    20890490.060    85543061.257 8      1821.840
G08  21410449.840   112512669.024 7       701.555    21410448.720   112512669.035 7       701.555    21410459.200    87672239.493 7       546.666    21410459.880    87672248.496 8       546.666
R18  20586745.640   109893440.033 7      3390.764    20586746.920   109893440.047 7      3390.764    20586756.600    85472719.858 7      2637.261    20586756.040    85472722.858 7      2637.261
R09  22991320.680   122772360.452 6      3500.760    22991322.440   122772360.459 6      3500.760    22991331.940    95489671.841 6      2722.813    22991332.600    95489672.834 6      2722.813
R02  21872713.540   116716985.640 7       157.995    21872712.920   116716985.630 7       157.995    21872723.200    90779918.426 6       122.885    21872723.880    90779923.441 6       122.885
R16  21853860.180   116739397.859 7       364.956    21853860.560   116739397.860 7       364.956    21853875.120    90797373.688 7       283.854    21853875.560    90797369.683 7       283.854
R15  23618345.880   126209282.821 7     -1007.245    23618346.620   126209282.828 7     -1007.245    23618379.960    98162916.078 7      -783.413    23618379.880    98162913.088 7      -783.413
R17  21601069.460   115591665.060 6      1626.569    21601069.080   115591665.037 6      1626.569    21601084.480    89904696.354 6      1265.109    21601083.380    89904697.357 6      1265.109
R04  21769278.880   116573504.006 7      6892.945    21769280.760   116573504.040 7      6892.945    21769301.180    90668375.105 8      5361.180    21769300.920    90668376.111 8      5361.180
G17  23778705.460   124957942.704 6      5576.520    23778704.200   124957942.701 4      5576.520    23778713.920    97369855.044 3      4345.340    23778711.980    97369849.062 6      4345.340
G04  23896721.900   125578143.138 5      5813.324    23896719.900   125578143.162 4      5813.324    23896745.920    97853090.356 4      4529.863    23896745.800    97853191.365 8      4529.863
G22  23916024.900   125679557.249 6      4673.423    23916023.020   125679557.256 3      4673.423    23916030.820    97932146.867 3      3641.628
G32  25100432.900   131903672.250 6      1057.082    25100431.140   131903672.236 3      1057.082    25100444.660   102782108.336 3       823.700    25100446.460   102782125.344 5       823.700
> 2025 04 04 17 00 50.0000000  0 18
G27  24613285.320   129343670.260 5      -369.425    24613284.640   129343670.268 4      -369.425    24613312.640   100787387.806 4      -287.864    24613312.480   100787386.749 5      -287.864
G02  22124686.620   116266011.519 7      1606.841    22124686.120   116266011.521 4      1606.841    22124689.700    90596901.066 4      1252.084
G03  19868010.180   104407096.783 8      3361.669    19868008.820   104407096.790 8      3361.669    19868016.660    81356207.566 8      2619.483    19868016.880    81356207.562 8      2619.483
G14  22236746.960   116854892.688 7      3701.960    22236744.980   116854892.687 5      3701.960    22236753.440    91055760.820 5      2884.644    22236753.980    91055788.823 7      2884.644
R03  19828023.400   106140965.985 8      4030.450    19828022.560   106140966.008 7      4030.450    19828035.140    82554135.196 8      3134.795    19828034.860    82554131.193 8      3134.795
G01  20890040.440   109777900.630 7      2338.091    20890039.540   109777900.638 6      2338.091    20890044.400    85541240.291 6      1821.889    20890045.180    85541239.302 8      1821.889
G08  21410316.400   112511967.443 7       701.384    21410315.400   112511967.453 7       701.384    21410325.580    87671692.804 7       546.533    21410326.500    87671701.803 8       546.533
R18  20586110.240   109890049.114 7      3390.863    20586112.320   109890049.131 7      3390.863    20586121.180    85470082.478 7      2637.338    20586120.940    85470085.483 7      2637.338
R09  22990665.080   122768859.959 6      3500.226    22990666.820   122768859.965 6      3500.226    22990676.760    95486949.245 6      2722.398    22990676.700    95486950.230 6      2722.398
R02  21872683.960   116716827.825 7       157.491    21872683.840   116716827.813 7       157.491    21872693.440    90779795.683 6       122.493    21872694.320    90779800.693 6       122.493
R16  21853792.100   116739032.967 7       364.649    21853792.300   116739032.965 7       364.649    21853806.720    90797089.864 7       283.616    21853807.260    90797085.851 7       283.616
R15  23618534.340   126210289.870 7     -1006.996    23618535.140   126210289.861 7     -1006.996    23618568.800    98163699.338 7      -783.219    23618568.180    98163696.346 7      -783.219
R17  21600765.900   115590038.407 6      1626.655    21600764.820   115590038.403 6      1626.655    21600780.360    89903431.202 6      1265.176    21600779.440    89903432.201 6      1265.176
R04  21767991.620   116566610.991 7      6892.873    21767993.460   116566611.022 7      6892.873    21768013.800    90663013.896 8      5361.124    21768013.620    90663014.904 8      5361.124
G17  23777644.560   124952365.992 6      5576.708    23777642.980   124952365.987 4      5576.708    23777652.540    97365509.561 3      4345.487    23777650.200    97365503.597 6      4345.487
G04  23895616.120   125572329.758 5      5813.580    23895613.580   125572329.773 4      5813.580    23895639.500    97848560.467 4      4530.063    23895639.560    97848661.497 8      4530.063
G22  23915135.760   125674884.016 6      4672.924    23915133.720   125674884.024 3      4672.924    23915141.400    97928505.391 3      3641.239
G32  25100231.920   131902615.541 6      1056.524    25100230.040   131902615.530 3      1056.524    25100243.600   102781284.933 3       823.265    25100245.940   102781301.970 5       823.265
> 2025 04 04 17 00 51.0000000  0 18
G27  24613355.720   129344039.266 5      -368.965    24613354.900   129344039.271 4      -368.965    24613382.920   100787675.318 4      -287.505    24613383.680   100787674.266 5      -287.505
G02  22124380.980   116264404.445 7      1607.180    22124380.180   116264404.444 4      1607.180    22124384.020    90595648.801 4      1252.348
G03  19867370.600   104403735.116 7      3361.591    19867369.160   104403735.118 8      3361.591    19867377.040    81353588.089 8      2619.422    19867377.100    81353588.089 8      2619.422
G14  22236042.520   116851190.873 7      3701.762    22236040.560   116851190.877 5      3701.762    22236048.940    91052876.297 5      2884.490    22236049.340    91052904.314 7      2884.490
R03  19827270.680   106136935.634 7      4030.115    19827269.600   106136935.657 7      4030.115    19827282.200    82551000.487 8      3134.534    19827281.900    82550996.486 8      3134.534
G01  20889595.580   109775562.347 7      2338.393    20889594.480   109775562.352 6      2338.393    20889599.540    85539418.258 6      1822.125    20889600.260    85539417.271 8      1822.125
G08  21410182.740   112511266.009 7       701.475    21410181.920   112511266.014 7       701.475    21410192.180    87671146.230 7       546.604    21410192.840    87671155.231 8       546.604
R18  20585474.860   109886658.015 7      3391.218    20585476.580   109886658.035 7      3391.218    20585485.640    85467444.965 7      2637.614    20585485.540    85467447.974 7      2637.614
R09  22990010.020   122765360.015 6      3499.808    22990011.840   122765360.024 6      3499.808    22990021.020    95484227.069 6      2722.073    22990021.660    95484228.073 6      2722.073
R02  21872654.380   116716670.426 7       157.244    21872653.960   116716670.427 7       157.244    21872664.480    90779673.270 6       122.301    21872664.760    90779678.280 6       122.301
R16  21853723.920   116738668.363 7       364.488    21853724.220   116738668.365 7       364.488    21853738.420    90796806.286 7       283.491    21853739.060    90796802.277 7       283.491
R15  23618722.900   126211296.540 7     -1006.413    23618723.260   126211296.533 7     -1006.413    23618757.200    98164482.330 7      -782.766    23618756.640    98164479.338 7      -782.766
R17  21600461.840   115588411.708 6      1626.849    21600462.020   115588411.726 6      1626.849    21600475.960    89902166.005 6      1265.327    21600475.460    89902167.006 6      1265.327
R04  21766704.080   116559718.005 7      6893.050    21766706.160   116559718.055 7      6893.050    21766726.560    90657652.718 8      5361.261    21766726.380    90657653.726 8      5361.261
G17  23776583.080   124946789.033 6      5577.268    23776581.700   124946789.028 4      5577.268    23776591.060    97361163.885 3      4345.923    23776588.260    97361157.933 6      4345.923
G04  23894509.220   125566516.102 5      5814.051    23894507.200   125566516.104 4      5814.051    23894533.280    97844030.362 4      4530.429    23894533.280    97844131.390 8      4530.429
G22  23914246.420   125670211.005 6      4672.894    23914244.520   125670211.015 3      4672.894    23914252.100    97924864.090 3      3641.216
G32  25100030.860   131901559.050 6      1056.417    25100028.920   131901559.037 3      1056.417    25100042.220   102780461.697 3       823.182    25100046.200   102780478.724 5       823.182
> 2025 04 04 17 00 52.0000000  0 18
G27  24613426.340   129344408.020 5      -368.737    24613425.080   129344408.030 4      -368.737    24613453.160   100787962.636 4      -287.327    24613453.280   100787961.584 5      -287.327
G02  22124075.020   116262796.919 7      1607.664    22124074.240   116262796.921 4      1607.664    22124078.140    90594396.187 4      1252.725
G03  19866730.760   104400373.632 8      3361.292    19866729.520   104400373.637 8      3361.292    19866737.300    81350968.755 8      2619.188    19866737.340    81350968.755 8      2619.188
G14  22235338.040   116847489.252 7      3701.343    22235335.880   116847489.259 5      3701.343    22235344.580    91049991.928 5      2884.163    22235345.120    91050019.935 7      2884.163
R03  19826518.280   106132905.679 8      4029.609    19826516.720   106132905.702 7      4029.609    19826529.400    82547866.085 8      3134.141    19826529.240    82547862.082 8      3134.141
G01  20889150.360   109773223.743 7      2338.666    20889149.400   109773223.751 6      2338.666    20889154.580    85537595.975 6      1822.337    20889155.160    85537594.985 8      1822.337
G08  21410049.300   112510564.519 7       701.427    21410048.360   112510564.524 7       701.427    21410058.760    87670599.613 7       546.567    21410059.560    87670608.613 8       546.567
R18  20584839.320   109883266.549 7      3391.548    20584841.140   109883266.552 7      3391.548    20584850.640    85464807.150 7      2637.871    20584850.360    85464810.152 7      2637.871
R09  22989354.440   122761860.352 6      3499.445    22989355.480   122761860.353 6      3499.445    22989365.840    95481505.100 6      2721.791    22989366.100    95481506.096 6      2721.791
R02  21872625.480   116716513.243 7       156.905    21872624.180   116716513.244 7       156.905    21872635.500    90779551.025 6       122.037    21872635.360    90779556.025 6       122.037
R16  21853655.800   116738303.790 7       364.434    21853655.840   116738303.788 7       364.434    21853669.940    90796522.716 7       283.449    21853670.960    90796518.709 7       283.449
R15  23618911.380   126212302.659 7     -1005.896    23618912.000   126212302.650 7     -1005.896    23618945.080    98165264.880 7      -782.363    23618944.640    98165261.888 7      -782.363
R17  21600157.640   115586784.718 6      1626.999    21600158.000   115586784.719 6      1626.999    21600171.740    89900900.549 6      1265.444    21600170.840    89900901.553 6      1265.444
R04  21765416.800   116552824.821 7      6893.134    21765418.640   116552824.865 7      6893.134    21765439.280    90652291.373 8      5361.326    21765439.020    90652292.381 8      5361.326
G17  23775521.960   124941211.672 6      5577.515    23775520.400   124941211.669 4      5577.515    23775529.740    97356817.899 3      4346.115    23775526.720    97356811.943 6      4346.115
G04  23893402.720   125560701.883 5      5814.307    23893401.160   125560701.891 4      5814.307    23893427.040    97839499.833 4      4530.629    23893426.900    97839600.887 8      4530.629
G22  23913357.640   125665537.949 6      4672.963    23913355.440   125665537.957 3      4672.963    23913362.820    97921222.756 3      3641.270
G32  25099829.680   131900502.588 6      1056.367    25099827.900   131900502.578 3      1056.367    25099841.100   102779638.489 3       823.143    25099844.820   102779655.497 5       823.143
> 2025 04 04 17 00 53.0000000  0 18
G27  24613497.120   129344776.676 5      -368.702    24613495.440   129344776.689 4      -368.702    24613523.400   100788249.874 4      -287.300    24613522.920   100788248.771 5      -287.300
G02  22123769.140   116261189.104 7      1608.106    22123768.260   116261189.109 4      1608.106    22123772.140    90593143.349 4      1253.069
G03  19866091.360   104397012.420 8      3361.110    19866089.820   104397012.419 8      3361.110    19866097.720    81348349.639 8      2619.047    19866097.760    81348349.635 8      2619.047
G14  22234633.740   116843787.889 7      3701.181    22234631.600   116843787.893 5      3701.181    22234640.260    91047107.751 5      2884.037    22234640.540    91047135.756 7      2884.037
R03  19825765.300   106128876.235 8      4029.272    19825764.040   106128876.258 7      4029.272    19825776.680    82544732.084 8      3133.878    19825776.400    82544728.083 8      3133.878
G01  20888705.480   109770884.953 7      2338.976    20888704.400   109770884.963 6      2338.976    20888709.600    85535773.544 6      1822.579    20888710.180    85535772.557 8      1822.579
G08  21409915.700   112509863.077 7       701.527    21409914.980   112509863.079 7       701.527    21409925.300    87670053.037 7       546.644    21409925.840    87670062.037 7       546.644
R18  20584204.100   109879874.796 7      3392.017    20584205.420   109879874.800 7      3392.017    20584215.040    85462169.124 7      2638.235    20584214.880    85462172.129 7      2638.235
R09  22988699.160   122758361.097 6      3499.049    22988700.420   122758361.119 6      3499.049    22988710.340    95478783.478 6      2721.482    22988710.680    95478784.476 6      2721.482
R02  21872595.820   116716356.351 7       156.838    21872594.880   116716356.352 7       156.838    21872605.340    90779429.004 6       121.985    21872606.340    90779434.010 6       121.985
R16  21853587.120   116737939.395 7       364.355    21853588.040   116737939.398 7       364.355    21853602.400    90796239.298 7       283.387    21853602.700    90796235.289 7       283.387
R15  23619099.560   126213308.330 7     -1005.343    23619100.000   126213308.315 7     -1005.343    23619133.020    98166047.083 7      -781.933    23619133.080    98166044.091 7      -781.933
R17  21599852.900   115585157.540 6      1627.247    21599853.180   115585157.545 6      1627.247    21599867.840    89899634.967 6      1265.636    21599866.960    89899635.970 6      1265.636
R04  21764129.640   116545931.573 7      6893.240    21764131.520   116545931.614 6      6893.240    21764151.960    90646929.973 8      5361.409    21764151.780    90646930.981 8      5361.409
G17  23774460.220   124935633.988 6      5577.854    23774459.080   124935633.988 4      5577.854    23774468.300    97352471.660 3      4346.380    23774466.280    97352465.710 6      4346.380
G04  23892296.580   125554887.342 5      5814.721    23892294.780   125554887.352 4      5814.721    23892320.340    97834969.054 4      4530.951    23892320.620    97835070.084 8      4530.951
G22  23912468.560   125660865.035 6      4672.880    23912466.040   125660865.042 3      4672.880    23912473.640    97917581.530 3      3641.205
G32  25099629.140   131899446.242 6      1056.324    25099626.920   131899446.234 3      1056.324    25099639.780   102778815.368 3       823.109    25099640.960   102778832.407 5       823.109
> 2025 04 04 17 00 54.0000000  0 18
G27  24613566.960   129345145.107 5      -368.231    24613565.520   129345145.122 4      -368.231    24613593.560   100788536.938 4      -286.934    24613594.300   100788535.874 5      -286.934
G02  22123463.320   116259581.076 7      1608.199    22123462.180   116259581.084 4      1608.199    22123466.020    90591890.342 4      1253.142
G03  19865451.700   104393651.562 8      3360.695    19865450.260   104393651.564 8      3360.695    19865458.200    81345730.797 8      2618.724    19865458.040    81345730.799 8      2618.724
G14  22233929.860   116840086.843 7      3700.840    22233927.240   116840086.848 5      3700.840    22233935.920    91044223.826 5      2883.772    22233936.180    91044251.838 7      2883.772
R03  19825012.620   106124847.401 8      4028.557    19825011.540   106124847.429 7      4028.557    19825024.320    82541598.557 8      3133.322    19825023.940    82541594.556 8      3133.322
G01  20888260.420   109768546.055 7      2338.975    20888259.320   109768546.065 6      2338.975    20888264.660    85533951.032 6      1822.578    20888264.980    85533950.041 8      1822.578
G08  21409782.480   112509161.782 7       701.271    21409781.540   112509161.784 7       701.271    21409791.920    87669506.575 7       546.445    21409792.560    87669515.576 8       546.445
R18  20583569.000   109876482.871 7      3392.078    20583570.280   109876482.879 7      3392.078    20583579.520    85459530.964 7      2638.283    20583579.400    85459533.973 7      2638.283
R09  22988043.280   122754862.336 6      3498.571    22988045.600   122754862.361 6      3498.571    22988055.240    95476062.228 6      2721.111    22988055.600    95476063.215 6      2721.111
R02  21872566.520   116716199.875 7       156.262    21872565.700   116716199.874 7       156.262    21872576.000    90779307.305 6       121.537    21872576.840    90779312.317 6       121.537
R16  21853519.280   116737575.245 7       364.035    21853519.600   116737575.246 7       364.035    21853534.440    90795956.066 7       283.139    21853534.500    90795952.054 7       283.139
R15  23619287.720   126214313.599 7     -1005.110    23619288.780   126214313.595 7     -1005.110    23619321.360    98166828.986 7      -781.753    23619321.420    98166825.994 7      -781.753
R17  21599548.700   115583530.237 6      1627.439    21599549.020   115583530.239 6      1627.439    21599563.140    89898369.289 5      1265.786    21599562.740    89898370.298 6      1265.786
R04  21762842.060   116539038.303 7      6893.288    21762843.820   116539038.334 6      6893.288    21762864.680    90641568.555 8      5361.446    21762864.600    90641569.563 8      5361.446
G17  23773399.220   124930056.068 6      5577.922    23773397.560   124930056.062 4      5577.922    23773406.800    97348125.241 4      4346.433    23773404.680    97348119.273 6      4346.433
G04  23891190.000   125549072.450 6      5815.042    23891188.460   125549072.453 4      5815.042    23891214.000    97830437.994 4      4531.201    23891214.160    97830539.034 8      4531.201
G22  23911579.020   125656192.289 6      4672.644    23911576.680   125656192.296 3      4672.644    23911584.460    97913940.436 3      3641.022
G32  25099428.120   131898390.138 6      1055.997    25099425.940   131898390.127 3      1055.997    25099438.920   102777992.433 3       822.855    25099439.720   102778009.441 5       822.855
> 2025 04 04 17 00 55.0000000  0 18
G27  24613636.720   129345513.579 5      -368.872    24613635.620   129345513.595 3      -368.872    24613663.680   100788824.029 3      -287.433    24613663.740   100788822.930 5      -287.433
G02  22123157.060   116257972.760 6      1608.297    22123155.980   116257972.764 4      1608.297    22123159.940    90590637.110 4      1253.219
G03  19864812.120   104390291.003 8      3360.272    19864810.840   104390291.008 8      3360.272    19864818.700    81343112.186 8      2618.394    19864818.540    81343112.188 8      2618.394
G14  22233225.740   116836386.108 7      3700.370    22233223.040   116836386.113 5      3700.370    22233231.720    91041340.142 5      2883.405    22233232.160    91041368.155 7      2883.405
R03  19824259.920   106120819.094 8      4027.824    19824259.140   106120819.120 7      4027.824    19824271.740    82538465.438 8      3132.752    19824271.260    82538461.437 8      3132.752
G01  20887815.360   109766206.975 7      2338.966    20887814.160   109766206.980 6      2338.966    20887819.400    85532128.375 6      1822.571    20887819.980    85532127.386 8      1822.571
G08  21409648.940   112508460.563 7       700.951    21409647.980   112508460.566 7       700.951    21409658.500    87668960.169 7       546.196    21409659.420    87668969.169 7       546.196
R18  20582933.580   109873090.729 7      3392.052    20582934.620   109873090.745 7      3392.052    20582944.280    85456892.644 7      2638.263    20582943.660    85456895.650 7      2638.263
R09  22987387.840   122751364.019 6      3497.855    22987390.480   122751364.044 6      3497.855    22987399.680    95473341.319 6      2720.554    22987400.720    95473342.291 6      2720.554
R02  21872537.020   116716043.762 7       155.740    21872536.440   116716043.766 7       155.740    21872546.980    90779185.892 6       121.131    21872547.720    90779190.908 6       121.131
R16  21853451.120   116737211.299 7       363.639    21853451.460   116737211.306 7       363.639    21853465.900    90795672.993 7       282.831    21853466.240    90795668.980 7       282.831
R15  23619475.300   126215318.385 7     -1004.694    23619476.860   126215318.373 7     -1004.694    23619509.000    98167610.499 7      -781.428    23619509.300    98167607.509 7      -781.428
R17  21599244.920   115581902.779 6      1627.277    21599245.440   115581902.788 6      1627.277    21599259.900    89897103.515 5      1265.660    21599258.380    89897104.518 6      1265.660
R04  21761555.060   116532144.993 7      6893.186    21761556.900   116532145.019 6      6893.186    21761577.540    90636207.113 8      5361.367    21761577.120    90636208.119 8      5361.367
G17  23772337.500   124924477.766 6      5578.278    23772335.940   124924477.760 4      5578.278    23772345.460    97343778.522 4      4346.710    23772342.760    97343772.565 6      4346.710
G04  23890083.400   125543257.149 6      5815.285    23890081.720   125543257.157 4      5815.285    23890107.340    97825906.622 4      4531.391    23890107.520    97826007.680 8      4531.391
G22  23910689.960   125651519.656 6      4672.463    23910687.700   125651519.658 3      4672.463    23910695.220    97910299.429 3      3640.880
G32  25099226.700   131897334.151 6      1055.725    25099224.940   131897334.143 3      1055.725    25099237.940   102777169.591 3       822.643    25099239.400   102777186.605 5       822.643
