     3.05           OBSERVATION DATA    MIXED               RINEX VERSION / TYPE
TPS2RIN 1.0.28.3459 TPS-USER            20250407 105758 UTC PGM / RUN BY / DATE
Win64 build Jun 01, 2022 (c) Topcon Positioning Systems     COMMENT
SRC: 20250404_grav_20250404_174124.tps                      COMMENT
Observer            Agency                                  OBSERVER / AGENCY
O0M3X53SBGM         TPS HIPER_SR        4.8 HSR Jul,08,2022 REC # / TYPE / VERS
FW: 4.8 HSR Jul,08,2022 p3                                  COMMENT
SN: HiPer SR 1212-12575                                     COMMENT
000                 TPSHIPER_SR     NONE                    ANT # / TYPE
        1.8000        0.0000        0.0000                  ANTENNA: DELTA H/E/N
DELTA H stands for **SLANT** height here!                   COMMENT
Oro06                                                       MARKER NAME
  5383293.5445 -1598747.9814  3014606.1604                  APPROX POSITION XYZ
  2025     4     4    15    41   47.0000000     GPS         TIME OF FIRST OBS
  2025     4     4    15    56   53.0000000     GPS         TIME OF LAST OBS
     1.000                                                  INTERVAL
   907 EPOCHS                                               COMMENT
G   12 C1C L1C D1C C1W L1W D1W C2W L2W D2W C2X L2X D2X      SYS / # / OBS TYPES
R   12 C1C L1C D1C C1P L1P D1P C2P L2P D2P C2C L2C D2C      SYS / # / OBS TYPES
    13                                                      # OF SATELLITES
   G01   907   907   907   907   907   907   907   907   907PRN / # OF OBS
         907   907   907                                    PRN / # OF OBS
   G02   907   907   907   907   907   907   907   907   907PRN / # OF OBS
           0     0     0                                    PRN / # OF OBS
   G03   907   907   907   907   907   907   907   907   907PRN / # OF OBS
         907   907   907                                    PRN / # OF OBS
   G07   469   469   469   467   467   467   466   466   466PRN / # OF OBS
         469   469   469                                    PRN / # OF OBS
   G08   907   907   907   907   907   907   907   907   907PRN / # OF OBS
         907   907   907                                    PRN / # OF OBS
   G27   907   907   907   907   907   907   907   907   907PRN / # OF OBS
         907   907   907                                    PRN / # OF OBS
   G32   907   907   907   907   907   907   907   907   907PRN / # OF OBS
         907   907   907                                    PRN / # OF OBS
   R02   907   907   907   907   907   907   907   907   907PRN / # OF OBS
         907   907   907                                    PRN / # OF OBS
   R03   907   907   907   907   907   907   907   907   907PRN / # OF OBS
         907   907   907                                    PRN / # OF OBS
   R15   907   907   907   907   907   907   907   907   907PRN / # OF OBS
         907   907   907                                    PRN / # OF OBS
   R16   700   700   700   678   678   678   678   678   678PRN / # OF OBS
         674   674   674                                    PRN / # OF OBS
   R17   907   907   907   907   907   907   907   907   907PRN / # OF OBS
         907   907   907                                    PRN / # OF OBS
   R18   230   230   230   219   219   219   219   219   219PRN / # OF OBS
         217   217   217                                    PRN / # OF OBS
G L1C                                                       SYS / PHASE SHIFT
G L1W -0.25000                                              SYS / PHASE SHIFT
G L2W  0.00000                                              SYS / PHASE SHIFT
G L2X  0.25000                                              SYS / PHASE SHIFT
R L1C                                                       SYS / PHASE SHIFT
R L1P -0.25000                                              SYS / PHASE SHIFT
R L2P -0.25000                                              SYS / PHASE SHIFT
R L2C                                                       SYS / PHASE SHIFT
  6 R02 -4 R03  5 R15  0 R16 -1 R17  4 R18 -3               GLONASS SLOT / FRQ #
                                                            GLONASS COD/PHS/BIS
    18                  GPS                                 LEAP SECONDS
                                                            END OF HEADER
> 2025 04 04 15 41 47.0000000  0 12
G02  21228562.880   111556848.038 7      1730.782    21228561.580   111556848.046 6      1730.782    21228564.900    86927421.001 6      1348.661
G03  21708823.240   114080635.892 7      5773.896    21708822.100   114080635.894 6      5773.896    21708833.300    88894046.379 6      4499.140    21708834.100    88894048.378 7      4499.140
G08  20460129.240   107518699.595 8      2392.914    20460128.120   107518699.598 8      2392.914    20460135.400    83780833.644 8      1864.608    20460136.120    83780835.646 8      1864.608
G01  20965849.780   110176281.834 7      3209.146    20965849.180   110176281.836 6      3209.146    20965854.260    85851666.943 6      2500.633    20965854.720    85851666.947 8      2500.633
R15  20545003.120   109786260.621 8        44.539    20545003.420   109786260.627 7        44.539    20545014.720    85389364.906 8        34.642    20545014.920    85389365.910 7        34.642
R17  20820362.880   111413963.300 6      1853.500    20820362.420   111413963.289 6      1853.500    20820374.620    86655354.051 7      1441.611    20820373.760    86655352.060 7      1441.611
G27  22324006.980   117313442.679 7       624.130    22324005.960   117313442.681 7       624.130    22324016.960    91413111.921 7       486.335    22324017.280    91413113.923 7       486.335
R02  21254837.520   113419886.832 8      3846.950    21254837.800   113419886.835 8      3846.950    21254849.540    88215514.515 8      2992.072    21254850.020    88215517.515 8      2992.072
R18  21272075.040   113551784.051 6      3490.198    21272079.760   113551784.043 5      3490.198    21272082.800    88318096.128 5      2714.598    21272085.080    88318103.135 5      2714.598
R03  22344888.640   119613945.067 6      6430.328    22344887.300   119613945.087 6      6430.328    22344911.120    93033157.619 7      5001.366    22344910.960    93033157.615 7      5001.366
G32  24684640.000   129718659.612 7      3224.416    24684639.660   129718659.614 6      3224.416    24684655.000   101079537.536 6      2512.532    24684655.540   101079538.545 7      2512.532
G07  24468236.260   128581443.966 6      1073.607    24468233.560   128581443.968 2      1073.607    24468254.140   100193383.409 3       836.577    24468256.340   100193413.310 6       836.577
> 2025 04 04 15 41 48.0000000  0 12
G02  21228233.540   111555116.762 7      1732.039    21228232.000   111555116.766 6      1732.039    21228235.360    86926071.966 6      1349.641
G03  21707724.220   114074861.601 7      5774.862    21707723.260   114074861.606 6      5774.862    21707734.500    88889546.948 6      4499.892    21707735.060    88889548.953 7      4499.892
G08  20459673.860   107516306.184 8      2394.014    20459672.680   107516306.186 8      2394.014    20459679.880    83778968.656 8      1865.465    20459680.740    83778970.663 8      1865.465
G01  20965239.240   110173072.258 7      3210.175    20965238.520   110173072.263 6      3210.175    20965243.520    85849165.991 6      2501.435    20965244.020    85849165.997 8      2501.435
R15  20544994.660   109786215.782 8        45.400    20544995.280   109786215.788 7        45.400    20545006.200    85389330.039 8        35.311    20545006.560    85389331.041 7        35.311
R17  20820016.400   111412109.015 6      1855.161    20820016.240   111412108.987 6      1855.161    20820027.640    86653911.829 7      1442.903    20820027.240    86653909.838 7      1442.903
G27  22323888.060   117312818.168 7       625.210    22323887.200   117312818.175 7       625.210    22323898.160    91412625.295 7       487.176    22323898.520    91412627.294 8       487.176
R02  21254116.840   113416039.619 8      3847.661    21254116.760   113416039.620 7      3847.661    21254128.600    88212522.245 8      2992.625    21254129.120    88212525.244 7      2992.625
R18  21271420.580   113548293.419 6      3491.470    21271426.580   113548293.433 5      3491.470    21271428.580    88315381.204 5      2715.588    21271430.920    88315388.211 5      2715.588
R03  22343687.700   119607514.133 6      6431.611    22343686.020   119607514.158 6      6431.611    22343710.020    93028155.807 7      5002.364    22343709.800    93028155.796 7      5002.364
G32  24684026.240   129715434.594 7      3225.727    24684025.940   129715434.591 6      3225.727    24684041.260   101077024.543 6      2513.553    24684041.680   101077025.557 7      2513.553
G07  24468031.780   128580369.810 6      1074.872    24468029.300   128580369.813 2      1074.872    24468049.940   100192546.392 3       837.562    24468052.220   100192576.303 6       837.562
> 2025 04 04 15 41 49.0000000  0 12
G02  21227903.920   111553384.518 7      1732.474    21227902.560   111553384.520 6      1732.474    21227905.760    86924722.170 6      1349.980
G03  21706625.340   114069086.590 7      5775.065    21706624.280   114069086.592 6      5775.065    21706635.660    88885046.954 6      4500.051    21706635.980    88885048.959 7      4500.051
G08  20459218.140   107513912.022 8      2394.209    20459217.120   107513912.021 8      2394.209    20459224.360    83777103.081 8      1865.618    20459225.240    83777105.084 8      1865.618
G01  20964628.240   110169861.878 8      3210.487    20964627.600   110169861.883 6      3210.487    20964632.480    85846664.409 6      2501.678    20964633.040    85846664.419 8      2501.678
R15  20544985.900   109786170.480 7        45.346    20544986.680   109786170.484 8        45.346    20544997.940    85389294.813 8        35.269    20544997.840    85389295.815 8        35.269
R17  20819669.560   111410253.668 6      1855.737    20819669.440   111410253.637 6      1855.737    20819681.680    86652468.787 7      1443.351    20819680.640    86652466.796 7      1443.351
G27  22323769.040   117312192.824 7       625.508    22323768.140   117312192.831 7       625.508    22323779.180    91412138.020 7       487.409    22323779.380    91412140.021 8       487.409
R02  21253396.200   113412192.049 8      3847.556    21253395.760   113412192.047 7      3847.556    21253407.500    88209529.704 8      2992.544    21253408.200    88209532.704 7      2992.544
R18  21270766.180   113544801.826 6      3491.498    21270771.780   113544801.829 5      3491.498    21270775.080    88312665.517 5      2715.610    21270776.900    88312672.516 5      2715.610
R03  22342485.660   119601082.238 6      6432.081    22342484.840   119601082.253 6      6432.081    22342508.660    93023153.259 7      5002.730    22342508.220    93023153.255 7      5002.730
G32  24683412.360   129712208.935 7      3225.745    24683411.960   129712208.937 6      3225.745    24683427.220   101074511.067 6      2513.568    24683427.660   101074512.083 7      2513.568
G07  24467826.900   128579294.783 6      1075.320    24467824.660   128579294.787 2      1075.320    24467845.320   100191708.704 3       837.912    24467848.360   100191738.619 6       837.912
> 2025 04 04 15 41 50.0000000  0 12
G02  21227574.420   111551651.615 7      1733.255    21227572.660   111551651.622 6      1733.255    21227575.980    86923371.868 6      1350.588
G03  21705526.560   114063311.159 7      5775.660    21705525.260   114063311.164 6      5775.660    21705536.640    88880546.641 6      4500.514    21705537.180    88880548.642 7      4500.514
G08  20458762.480   107511517.373 8      2394.919    20458761.360   107511517.378 8      2394.919    20458768.660    83775237.135 8      1866.170    20458769.500    83775239.140 8      1866.170
G01  20964017.100   110166651.023 7      3211.179    20964016.520   110166651.028 6      3211.179    20964021.400    85844162.453 6      2502.217    20964021.960    85844162.458 8      2502.217
R15  20544977.640   109786125.000 8        45.645    20544977.980   109786125.001 7        45.645    20544989.280    85389259.448 8        35.502    20544989.500    85389260.450 8        35.502
R17  20819322.680   111408397.518 6      1856.670    20819322.540   111408397.511 6      1856.670    20819334.320    86651025.136 7      1444.077    20819333.380    86651023.145 7      1444.077
G27  22323650.080   117311566.970 7       626.151    22323648.920   117311566.972 7       626.151    22323660.020    91411650.346 7       487.910    22323660.540    91411652.345 8       487.910
R02  21252675.300   113408344.401 8      3847.802    21252674.660   113408344.402 7      3847.802    21252686.340    88206537.110 8      2992.735    21252686.860    88206540.110 7      2992.735
R18  21270111.600   113541309.488 6      3492.570    21270117.820   113541309.492 5      3492.570    21270120.580    88309949.263 5      2716.443    21270122.400    88309956.259 5      2716.443
R03  22341283.480   119594649.682 6      6432.933    22341283.220   119594649.713 6      6432.933    22341306.400    93018150.204 7      5003.393    22341306.300    93018150.198 7      5003.393
G32  24682798.360   129708982.903 7      3226.241    24682798.020   129708982.908 6      3226.241    24682813.440   101071997.296 6      2513.954    24682814.020   101071998.300 6      2513.954
G07  24467622.440   128578219.072 6      1076.152    24467620.040   128578219.074 3      1076.152    24467640.460   100190870.480 3       838.560    24467643.060   100190900.405 5       838.560
> 2025 04 04 15 41 51.0000000  0 12
G02  21227244.540   111549917.881 7      1734.160    21227242.740   111549917.889 6      1734.160    21227246.040    86922020.917 6      1351.294
G03  21704427.140   114057535.147 7      5776.311    21704426.020   114057535.152 6      5776.311    21704437.400    88876045.869 6      4501.022    21704437.840    88876047.874 7      4501.022
G08  20458306.580   107509122.125 8      2395.590    20458305.620   107509122.127 8      2395.590    20458312.800    83773370.719 8      1866.694    20458313.620    83773372.721 8      1866.694
G01  20963406.080   110163439.523 7      3211.833    20963405.540   110163439.528 6      3211.833    20963410.340    85841659.993 6      2502.727    20963410.740    85841659.999 8      2502.727
R15  20544969.180   109786079.173 8        46.050    20544969.640   109786079.176 7        46.050    20544980.780    85389223.806 8        35.817    20544980.660    85389224.811 8        35.817
R17  20818976.160   111406540.464 6      1857.555    20818975.600   111406540.457 6      1857.555    20818987.240    86649580.773 7      1444.765    20818986.720    86649578.777 7      1444.765
G27  22323530.760   117310940.423 7       626.928    22323529.700   117310940.425 7       626.928    22323540.900    91411162.131 7       488.516    22323541.080    91411164.132 8       488.516
R02  21251953.920   113404496.511 8      3848.047    21251953.620   113404496.512 7      3848.047    21251965.360    88203544.323 8      2992.925    21251965.880    88203547.325 7      2992.925
R18  21269457.720   113537816.259 5      3493.810    21269462.840   113537816.249 5      3493.810    21269466.760    88307232.300 5      2717.408    21269468.320    88307239.303 5      2717.408
R03  22340082.040   119588216.371 6      6433.565    22340081.660   119588216.391 6      6433.565    22340104.720    93013146.541 7      5003.884    22340104.320    93013146.530 7      5003.884
G32  24682184.620   129705756.311 7      3226.995    24682184.000   129705756.316 6      3226.995    24682199.620   101069483.079 6      2514.542    24682200.220   101069484.087 7      2514.542
G07  24467417.400   128577142.591 6      1076.870    24467415.160   128577142.590 3      1076.870    24467435.380   100190031.657 3       839.119    24467436.540   100190061.586 5       839.119
> 2025 04 04 15 41 52.0000000  0 12
G02  21226914.560   111548183.491 7      1734.605    21226912.720   111548183.496 6      1734.605    21226916.040    86920669.450 6      1351.640
G03  21703328.080   114051758.733 7      5776.413    21703326.900   114051758.741 6      5776.413    21703338.160    88871544.788 6      4501.101    21703338.880    88871546.792 8      4501.101
G08  20457850.740   107506726.438 8      2395.736    20457849.580   107506726.435 8      2395.736    20457857.040    83771503.958 8      1866.808    20457857.740    83771505.961 8      1866.808
G01  20962794.840   110160227.522 7      3212.065    20962794.180   110160227.532 6      3212.065    20962799.200    85839157.151 6      2502.908    20962799.480    85839157.159 8      2502.908
R15  20544960.360   109786033.198 8        45.906    20544960.880   109786033.199 7        45.906    20544972.240    85389188.055 8        35.705    20544971.980    85389189.059 8        35.705
R17  20818628.660   111404682.628 6      1858.060    20818628.640   111404682.624 6      1858.060    20818640.000    86648135.800 7      1445.158    20818639.160    86648133.809 7      1445.158
G27  22323411.380   117310313.358 7       627.175    22323410.380   117310313.363 7       627.175    22323421.680    91410673.518 7       488.708    22323421.900    91410675.520 8       488.708
R02  21251232.720   113400648.570 8      3847.725    21251232.500   113400648.570 7      3847.725    21251244.200    88200551.489 8      2992.675    21251244.500    88200554.492 7      2992.675
R18  21268804.760   113534322.294 5      3494.136    21268808.320   113534322.295 5      3494.136    21268811.680    88304514.805 5      2717.661    21268813.500    88304521.797 5      2717.661
R03  22338880.020   119581782.330 6      6434.057    22338879.060   119581782.355 6      6434.057    22338902.540    93008142.336 7      5004.267    22338902.440    93008142.334 7      5004.267
G32  24681570.740   129702529.367 6      3226.977    24681569.840   129702529.375 6      3226.977    24681585.480   101066968.602 6      2514.527    24681586.200   101066969.620 7      2514.527
G07  24467212.620   128576065.482 6      1077.295    24467210.360   128576065.484 3      1077.295    24467230.420   100189192.341 3       839.450    24467231.820   100189222.234 5       839.450
> 2025 04 04 15 41 53.0000000  0 12
G02  21226584.420   111546448.341 7      1735.637    21226582.460   111546448.346 6      1735.637    21226585.920    86919317.396 6      1352.445
G03  21702228.820   114045981.802 7      5777.294    21702227.640   114045981.807 6      5777.294    21702238.860    88867043.301 6      4501.787    21702239.580    88867045.306 8      4501.787
G08  20457394.840   107504330.192 8      2396.537    20457393.720   107504330.192 8      2396.537    20457401.020    83769636.759 8      1867.431    20457401.560    83769638.762 8      1867.431
G01  20962183.720   110157014.946 7      3212.948    20962182.880   110157014.950 6      3212.948    20962187.700    85836653.857 6      2503.596    20962187.980    85836653.863 8      2503.596
R15  20544951.600   109785986.983 8        46.427    20544952.400   109785986.984 7        46.427    20544963.640    85389152.118 7        36.110    20544963.440    85389153.118 7        36.110
R17  20818280.920   111402823.998 6      1859.164    20818281.200   111402823.975 6      1859.164    20818292.880    86646690.194 7      1446.016    20818291.980    86646688.203 7      1446.016
G27  22323292.140   117309685.696 7       627.991    22323290.960   117309685.699 7       627.991    22323302.060    91410184.435 7       489.344    22323302.040    91410186.433 7       489.344
R02  21250511.640   113396800.490 8      3848.208    21250511.800   113396800.488 7      3848.208    21250523.040    88197558.554 8      2993.051    21250523.520    88197561.552 8      2993.051
R18  21268150.120   113530827.565 5      3494.978    21268152.680   113530827.563 5      3494.978    21268157.580    88301796.670 5      2718.316    21268159.420    88301803.654 5      2718.316
R03  22337677.800   119575347.560 6      6435.124    22337677.840   119575347.580 6      6435.124    22337700.240    93003137.545 7      5005.096    22337700.180    93003137.534 7      5005.096
G32  24680956.820   129699301.969 7      3227.714    24680955.680   129699301.974 6      3227.714    24680971.700   101064453.763 6      2515.102    24680971.740   101064454.778 6      2515.102
G07  24467007.600   128574987.656 6      1078.139    24467005.220   128574987.658 3      1078.139    24467025.320   100188352.469 3       840.108    24467027.840   100188382.349 5       840.108
> 2025 04 04 15 41 54.0000000  0 12
G02  21226254.020   111544712.193 7      1736.484    21226252.180   111544712.193 6      1736.484    21226255.480    86917964.562 6      1353.104
G03  21701129.540   114040204.106 7      5777.960    21701128.080   114040204.108 6      5777.960    21701139.420    88862541.211 6      4502.306    21701140.120    88862543.217 8      4502.306
G08  20456938.600   107501933.134 8      2397.242    20456937.720   107501933.139 8      2397.242    20456944.920    83767768.936 8      1867.981    20456945.740    83767770.939 8      1867.981
G01  20961572.140   110153801.526 7      3213.666    20961571.300   110153801.536 6      3213.666    20961576.320    85834149.909 6      2504.155    20961576.700    85834149.918 8      2504.155
R15  20544943.220   109785940.239 8        46.931    20544943.600   109785940.238 7        46.931    20544954.900    85389115.762 8        36.502    20544954.920    85389116.764 8        36.502
R17  20817933.020   111400964.254 6      1859.961    20817933.260   111400964.248 6      1859.961    20817944.740    86645243.748 7      1446.636    20817944.480    86645241.751 7      1446.636
G27  22323172.360   117309057.147 7       628.787    22323171.320   117309057.149 7       628.787    22323182.540    91409694.658 7       489.964    22323182.680    91409696.661 8       489.964
R02  21249790.840   113392952.050 8      3848.445    21249790.460   113392952.051 7      3848.445    21249801.800    88194565.340 8      2993.235    21249802.200    88194568.339 7      2993.235
R18  21267495.380   113527331.747 5      3495.886    21267497.940   113527331.742 5      3495.886    21267502.080    88299077.729 5      2719.023    21267504.700    88299084.722 5      2719.023
R03  22336475.460   119568911.779 6      6436.127    22336475.300   119568911.805 6      6436.127    22336498.440    92998131.981 7      5005.877    22336498.060    92998131.973 7      5005.877
G32  24680342.460   129696073.848 7      3228.294    24680341.540   129696073.847 6      3228.294    24680357.360   101061938.356 6      2515.554    24680357.140   101061939.357 7      2515.554
G07  24466801.980   128573908.802 6      1079.235    24466799.920   128573908.802 3      1079.235    24466820.180   100187511.795 3       840.962    24466821.820   100187541.706 5       840.962
> 2025 04 04 15 41 55.0000000  0 12
G02  21225923.340   111542975.110 7      1737.603    21225921.740   111542975.112 6      1737.603    21225924.760    86916611.002 6      1353.976
G03  21700030.040   114034425.740 7      5778.826    21700028.620   114034425.742 6      5778.826    21700039.900    88858038.612 6      4502.981    21700040.400    88858040.619 8      4502.981
G08  20456482.320   107499535.353 8      2398.305    20456481.380   107499535.358 8      2398.305    20456488.720    83765900.542 8      1868.809    20456489.640    83765902.546 8      1868.809
G01  20960960.460   110150587.359 8      3214.752    20960959.660   110150587.369 6      3214.752    20960964.720    85831645.375 6      2505.001    20960965.120    85831645.387 8      2505.001
R15  20544934.260   109785893.065 8        47.499    20544934.860   109785893.072 8        47.499    20544946.260    85389079.077 8        36.943    20544946.120    85389080.081 8        36.943
R17  20817585.680   111399103.457 6      1861.460    20817586.680   111399103.442 6      1861.460    20817596.680    86643796.470 7      1447.802    20817596.820    86643794.472 7      1447.802
G27  22323052.760   117308427.817 7       629.898    22323051.600   117308427.817 7       629.898    22323062.720    91409204.277 7       490.830    22323063.060    91409206.276 8       490.830
R02  21249069.420   113389103.343 8      3848.972    21249069.260   113389103.346 7      3848.972    21249080.540    88191571.916 8      2993.645    21249080.860    88191574.915 7      2993.645
R18  21266840.560   113523834.869 5      3497.700    21266842.160   113523834.873 5      3497.700    21266847.120    88296357.940 5      2720.433    21266849.280    88296364.932 5      2720.433
R03  22335273.200   119562475.133 6      6437.261    22335272.240   119562475.148 6      6437.261    22335295.800    92993125.736 7      5006.759    22335295.660    92993125.730 7      5006.759
G32  24679727.960   129692845.072 7      3229.106    24679726.980   129692845.080 6      3229.106    24679742.860   101059422.446 6      2516.187    24679742.940   101059423.470 7      2516.187
G07  24466596.680   128572829.079 6      1080.294    24466594.460   128572829.079 3      1080.294    24466614.700   100186670.448 3       841.788    24466616.040   100186700.365 5       841.788
> 2025 04 04 15 41 56.0000000  0 12
G02  21225592.720   111541237.209 7      1738.290    21225590.860   111541237.217 6      1738.290    21225594.100    86915256.802 6      1354.512
G03  21698930.180   114028646.809 7      5779.196    21698928.980   114028646.814 6      5779.196    21698940.180    88853535.574 6      4503.270    21698941.120    88853537.574 8      4503.270
G08  20456025.980   107497136.974 8      2398.688    20456024.900   107497136.978 8      2398.688    20456032.240    83764031.687 8      1869.108    20456033.080    83764033.691 8      1869.108
G01  20960348.640   110147372.568 7      3215.108    20960348.000   110147372.573 6      3215.108    20960352.980    85829140.354 6      2505.279    20960353.180    85829140.361 8      2505.279
R15  20544925.700   109785845.562 8        47.648    20544926.000   109785845.569 7        47.648    20544937.300    85389042.139 8        37.060    20544937.640    85389043.141 8        37.060
R17  20817238.140   111397241.723 6      1862.143    20817237.560   111397241.705 6      1862.143    20817249.100    86642348.454 7      1448.333    20817249.020    86642346.457 7      1448.333
G27  22322932.980   117307797.822 7       630.340    22322931.720   117307797.819 7       630.340    22322942.820    91408713.376 7       491.174    22322943.040    91408715.375 7       491.174
R02  21248347.680   113385254.439 8      3848.975    21248347.880   113385254.437 7      3848.975    21248359.260    88188578.336 8      2993.647    21248359.660    88188581.335 7      2993.647
R18  21266184.940   113520337.228 5      3497.965    21266186.980   113520337.243 5      3497.965    21266193.340    88293637.571 5      2720.640    21266194.260    88293644.560 5      2720.640
R03  22334071.160   119556037.711 6      6437.859    22334069.680   119556037.723 6      6437.859    22334093.120    92988118.875 7      5007.223    22334092.980    92988118.863 7      5007.223
G32  24679113.500   129689615.766 7      3229.572    24679112.460   129689615.774 6      3229.572    24679128.320   101056906.126 6      2516.549    24679128.600   101056907.135 7      2516.549
G07  24466391.020   128571748.578 6      1080.912    24466389.060   128571748.580 3      1080.912    24466408.960   100185828.489 3       842.269    24466410.940   100185858.380 5       842.269
> 2025 04 04 15 41 57.0000000  0 12
G02  21225262.000   111539498.644 7      1738.872    21225260.080   111539498.651 6      1738.872    21225263.220    86913902.090 6      1354.965
G03  21697830.240   114022867.426 7      5779.660    21697829.080   114022867.431 6      5779.660    21697840.320    88849032.175 6      4503.631    21697841.220    88849034.182 8      4503.631
G08  20455569.380   107494738.123 8      2399.120    20455568.480   107494738.126 8      2399.120    20455575.780    83762162.459 8      1869.444    20455576.560    83762164.462 8      1869.444
G01  20959736.860   110144157.266 7      3215.576    20959736.060   110144157.271 6      3215.576    20959741.160    85826634.933 6      2505.644    20959741.380    85826634.943 8      2505.644
R15  20544916.760   109785797.899 8        47.723    20544917.120   109785797.908 7        47.723    20544928.500    85389005.071 8        37.118    20544928.620    85389006.072 8        37.118
R17  20816890.160   111395379.194 6      1862.949    20816889.880   111395379.174 6      1862.949    20816900.760    86640899.829 6      1448.961    20816900.620    86640897.830 6      1448.961
G27  22322812.820   117307167.300 7       630.757    22322811.720   117307167.294 7       630.757    22322822.860    91408222.062 7       491.499    22322823.320    91408224.062 8       491.499
R02  21247626.500   113381405.420 8      3849.073    21247626.360   113381405.420 7      3849.073    21247637.960    88185584.673 8      2993.723    21247638.400    88185587.673 7      2993.723
R18  21265529.900   113516838.813 5      3498.775    21265531.680   113516838.812 5      3498.775    21265537.100    88290916.596 5      2721.270    21265538.700    88290923.591 5      2721.270
R03  22332868.620   119549599.604 6      6438.357    22332867.160   119549599.619 6      6438.357    22332890.180    92983111.496 7      5007.611    22332890.200    92983111.492 7      5007.611
G32  24678498.480   129686386.106 7      3229.739    24678497.860   129686386.116 6      3229.739    24678513.760   101054389.527 6      2516.680    24678514.220   101054390.535 7      2516.680
G07  24466185.200   128570667.431 6      1081.373    24466183.340   128570667.430 3      1081.373    24466203.500   100184986.027 3       842.628    24466204.920   100185015.962 5       842.628
> 2025 04 04 15 41 58.0000000  0 12
G02  21224930.840   111537759.185 7      1739.880    21224929.100   111537759.195 6      1739.880    21224932.240    86912546.676 6      1355.751
G03  21696730.320   114017087.439 7      5780.310    21696729.180   114017087.441 6      5780.310    21696740.520    88844528.305 6      4504.138    21696741.080    88844530.312 8      4504.138
G08  20455112.820   107492338.593 8      2399.935    20455111.860   107492338.595 8      2399.935    20455119.180    83760292.707 8      1870.079    20455120.000    83760294.708 8      1870.079
G01  20959124.980   110140941.235 7      3216.437    20959124.140   110140941.242 6      3216.437    20959129.040    85824128.946 6      2506.315    20959129.280    85824128.959 8      2506.315
R15  20544907.700   109785749.827 8        48.281    20544908.260   109785749.831 8        48.281    20544919.460    85388967.680 8        37.552    20544919.680    85388968.680 8        37.552
R17  20816541.800   111393515.718 6      1864.010    20816541.100   111393515.704 6      1864.010    20816552.440    86639450.469 6      1449.786    20816552.520    86639448.472 7      1449.786
G27  22322692.820   117306536.012 7       631.675    22322691.660   117306536.012 7       631.675    22322702.800    91407730.160 7       492.214    22322703.140    91407732.162 8       492.214
R02  21246905.220   113377556.099 8      3849.462    21246905.160   113377556.094 8      3849.462    21246916.700    88182590.772 8      2994.026    21246916.880    88182593.775 7      2994.026
R18  21264874.120   113513339.416 5      3500.167    21264876.140   113513339.420 5      3500.167    21264881.400    88288194.851 5      2722.352    21264883.120    88288201.844 5      2722.352
R03  22331665.740   119543160.587 6      6439.327    22331664.100   119543160.607 6      6439.327    22331687.400    92978103.409 7      5008.365    22331687.200    92978103.401 7      5008.365
G32  24677883.940   129683155.822 7      3230.499    24677883.300   129683155.830 6      3230.499    24677898.960   101051872.438 6      2517.272    24677899.200   101051873.452 7      2517.272
G07  24465979.700   128569585.400 6      1082.415    24465977.400   128569585.403 3      1082.415    24465997.700   100184142.884 3       843.440    24465998.720   100184172.797 5       843.440
> 2025 04 04 15 41 59.0000000  0 12
G02  21224599.960   111536019.054 7      1740.397    21224597.980   111536019.064 6      1740.397    21224601.220    86911190.742 6      1356.154
G03  21695630.340   114011306.994 7      5780.760    21695629.260   114011306.999 6      5780.760    21695640.420    88840024.083 6      4504.488    21695640.920    88840026.088 8      4504.488
G08  20454656.220   107489938.610 8      2400.216    20454655.180   107489938.610 8      2400.216    20454662.480    83758422.593 8      1870.298    20454663.460    83758424.593 8      1870.298
G01  20958512.940   110137724.722 8      3216.758    20958512.080   110137724.729 6      3216.758    20958517.180    85821622.583 6      2506.565    20958517.180    85821622.594 8      2506.565
R15  20544898.780   109785701.619 8        48.259    20544899.160   109785701.618 8        48.259    20544910.460    85388930.181 8        37.535    20544910.440    85388931.185 8        37.535
R17  20816193.300   111391651.496 6      1864.538    20816192.680   111391651.484 6      1864.538    20816204.000    86638000.531 6      1450.196    20816204.000    86637998.530 7      1450.196
G27  22322572.500   117305904.212 7       631.976    22322571.480   117305904.212 7       631.976    22322582.540    91407237.846 7       492.449    22322582.640    91407239.847 8       492.449
R02  21246183.760   113373706.733 8      3849.347    21246183.900   113373706.734 8      3849.347    21246195.300    88179596.833 8      2993.937    21246195.760    88179599.830 7      2993.937
R18  21264219.100   113509839.355 5      3500.267    21264219.880   113509839.388 5      3500.267    21264226.140    88285472.625 5      2722.430    21264227.380    88285479.613 5      2722.430
R03  22330462.480   119536720.917 6      6439.816    22330461.380   119536720.942 6      6439.816    22330484.280    92973094.825 7      5008.746    22330484.580    92973094.816 7      5008.746
G32  24677269.100   129679925.189 7      3230.718    24677268.520   129679925.192 6      3230.718    24677284.160   101049355.074 6      2517.443    24677284.560   101049356.075 6      2517.443
G07  24465773.940   128568502.734 6      1082.995    24465771.460   128568502.739 3      1082.995    24465791.600   100183299.238 3       843.893    24465792.880   100183329.145 5       843.893
> 2025 04 04 15 42  0.0000000  0 12
G02  21224268.680   111534278.252 7      1741.073    21224266.700   111534278.257 6      1741.073    21224269.980    86909834.279 6      1356.680
G03  21694530.440   114005526.161 7      5780.965    21694529.100   114005526.169 6      5780.965    21694540.380    88835519.556 6      4504.648    21694540.880    88835521.565 8      4504.648
G08  20454199.480   107487538.149 8      2400.652    20454198.360   107487538.149 8      2400.652    20454205.620    83756552.114 8      1870.638    20454206.700    83756554.115 8      1870.638
G01  20957900.900   110134507.718 7      3217.113    20957899.860   110134507.728 6      3217.113    20957904.840    85819115.843 6      2506.841    20957905.060    85819115.852 8      2506.841
R15  20544889.780   109785653.240 8        48.397    20544889.880   109785653.238 8        48.397    20544901.400    85388892.563 8        37.642    20544901.560    85388893.561 8        37.642
R17  20815844.620   111389786.449 6      1865.354    20815843.920   111389786.435 6      1865.354    20815855.120    86636549.952 6      1450.831    20815855.540    86636547.955 7      1450.831
G27  22322452.160   117305271.869 7       632.555    22322451.080   117305271.868 7       632.555    22322462.220    91406745.121 7       492.900    22322462.260    91406747.120 8       492.900
R02  21245462.540   113369857.333 8      3849.311    21245462.460   113369857.336 8      3849.311    21245473.980    88176602.869 8      2993.909    21245474.120    88176605.871 7      2993.909
R18  21263563.240   113506338.556 5      3501.346    21263563.600   113506338.552 5      3501.346    21263569.720    88282749.765 5      2723.269    21263571.900    88282756.762 5      2723.269
R03  22329259.420   119530280.585 6      6440.619    22329258.520   119530280.592 6      6440.619    22329281.100    92968085.695 7      5009.371    22329281.360    92968085.689 7      5009.371
G32  24676654.300   129676694.139 7      3231.216    24676653.580   129676694.144 6      3231.216    24676669.160   101046837.382 6      2517.831    24676669.300   101046838.384 7      2517.831
G07  24465567.940   128567419.425 6      1083.441    24465565.420   128567419.429 3      1083.441    24465585.500   100182455.090 3       844.240    24465587.140   100182484.993 5       844.240
> 2025 04 04 15 42  1.0000000  0 12
G02  21223937.100   111532536.762 7      1742.036    21223935.280   111532536.770 6      1742.036    21223938.480    86908477.282 6      1357.431
G03  21693430.180   113999744.884 7      5781.581    21693429.040   113999744.891 6      5781.581    21693440.340    88831014.687 6      4505.128    21693440.580    88831016.686 8      4505.128
G08  20453742.680   107485137.210 8      2401.370    20453741.540   107485137.210 8      2401.370    20453748.780    83754681.265 8      1871.197    20453749.680    83754683.270 8      1871.197
G01  20957288.400   110131290.189 7      3217.948    20957287.540   110131290.199 6      3217.948    20957292.540    85816608.686 6      2507.492    20957292.760    85816608.690 8      2507.492
R15  20544880.360   109785604.660 8        48.836    20544880.740   109785604.664 7        48.836    20544892.360    85388854.785 8        37.984    20544892.220    85388855.787 8        37.984
R17  20815496.480   111387920.648 6      1866.343    20815495.640   111387920.637 6      1866.343    20815505.960    86635098.780 6      1451.600    20815506.660    86635096.776 6      1451.600
G27  22322332.000   117304638.999 7       633.241    22322330.660   117304638.999 7       633.241    22322341.920    91406251.983 7       493.435    22322341.920    91406253.983 8       493.435
R02  21244741.380   113366007.913 8      3849.498    21244741.080   113366007.914 7      3849.498    21244752.540    88173608.891 8      2994.054    21244752.880    88173611.893 7      2994.054
R18  21262906.460   113502837.000 5      3502.352    21262908.800   113502837.001 5      3502.352    21262914.740    88280026.349 5      2724.051    21262916.240    88280033.348 5      2724.051
R03  22328056.380   119523839.582 6      6441.513    22328055.680   119523839.597 6      6441.513    22328078.040    92963076.069 7      5010.066    22328077.760    92963076.061 7      5010.066
G32  24676039.340   129673462.704 7      3231.742    24676038.680   129673462.709 6      3231.742    24676054.360   101044319.402 6      2518.240    24676054.680   101044320.403 7      2518.240
G07  24465361.480   128566335.487 6      1084.454    24465359.200   128566335.489 3      1084.454    24465379.480   100181610.451 3       845.029    24465380.560   100181640.372 5       845.029
> 2025 04 04 15 42  2.0000000  0 12
G02  21223605.480   111530794.437 7      1742.695    21223603.640   111530794.442 6      1742.695    21223607.000    86907119.638 6      1357.944
G03  21692329.760   113993962.999 7      5782.114    21692328.780   113993963.012 6      5782.114    21692339.940    88826509.333 6      4505.543    21692340.420    88826511.344 8      4505.543
G08  20453285.600   107482735.641 8      2401.863    20453284.520   107482735.640 8      2401.863    20453291.860    83752809.922 8      1871.581    20453292.620    83752811.925 8      1871.581
G01  20956676.020   110128071.984 7      3218.490    20956675.100   110128071.991 6      3218.490    20956680.140    85814101.008 6      2507.915    20956680.280    85814101.020 8      2507.915
R15  20544871.560   109785555.741 8        49.025    20544871.680   109785555.743 7        49.025    20544883.200    85388816.745 7        38.130    20544883.280    85388817.748 7        38.130
R17  20815147.200   111386053.839 6      1867.382    20815146.920   111386053.832 6      1867.382    20815157.060    86633646.829 6      1452.408    20815157.800    86633644.832 6      1452.408
G27  22322211.460   117304005.413 7       633.882    22322210.040   117304005.415 7       633.882    22322221.240    91405758.283 7       493.934    22322221.280    91405760.281 8       493.934
R02  21244019.800   113362158.241 8      3849.684    21244019.700   113362158.241 7      3849.684    21244031.220    88170614.720 8      2994.199    21244031.380    88170617.721 7      2994.199
R18  21262250.200   113499334.576 5      3502.958    21262252.040   113499334.574 5      3502.958    21262258.000    88277302.248 5      2724.523    21262260.140    88277309.232 6      2724.523
R03  22326852.880   119517397.773 6      6442.049    22326852.380   119517397.799 6      6442.049    22326874.440    92958065.824 7      5010.483    22326874.780    92958065.820 7      5010.483
G32  24675424.400   129670230.700 7      3232.243    24675423.640   129670230.705 6      3232.243    24675439.040   101041800.971 6      2518.631    24675439.780   101041801.993 7      2518.631
G07  24465154.940   128565250.692 6      1085.155    24465152.740   128565250.697 3      1085.155    24465172.980   100180765.147 3       845.575    24465174.600   100180795.066 5       845.575
> 2025 04 04 15 42  3.0000000  0 12
G02  21223273.720   111529051.326 7      1743.420    21223271.900   111529051.331 6      1743.420    21223275.180    86905761.382 6      1358.509
G03  21691229.360   113988180.597 7      5782.623    21691228.320   113988180.605 6      5782.623    21691239.620    88822003.586 6      4505.940    21691240.020    88822005.590 7      4505.940
G08  20452828.500   107480333.498 8      2402.397    20452827.440   107480333.498 8      2402.397    20452834.680    83750938.131 8      1871.998    20452835.340    83750940.134 8      1871.998
G01  20956063.300   110124853.188 7      3219.065    20956062.620   110124853.198 6      3219.065    20956067.580    85811592.870 6      2508.362    20956067.740    85811592.878 8      2508.362
R15  20544862.320   109785506.561 8        49.259    20544862.460   109785506.559 8        49.259    20544873.840    85388778.494 8        38.313    20544874.040    85388779.492 8        38.313
R17  20814797.940   111384186.186 6      1868.154    20814798.440   111384186.180 6      1868.154    20814807.880    86632194.227 6      1453.009    20814808.740    86632192.228 6      1453.009
G27  22322090.720   117303371.193 7       634.619    22322089.300   117303371.193 7       634.619    22322100.540    91405264.090 7       494.508    22322100.720    91405266.092 7       494.508
R02  21243298.240   113358308.411 8      3849.842    21243298.260   113358308.414 7      3849.842    21243309.620    88167620.428 8      2994.321    21243310.100    88167623.432 7      2994.321
R18  21261594.340   113495831.282 5      3503.666    21261595.860   113495831.302 5      3503.666    21261601.600    88274577.520 5      2725.074    21261604.200    88274584.504 6      2725.074
R03  22325648.720   119510955.189 6      6442.775    22325648.520   119510955.206 6      6442.775    22325670.880    92953054.962 7      5011.047    22325671.220    92953054.953 7      5011.047
G32  24674809.240   129666998.228 7      3232.630    24674808.500   129666998.235 6      3232.630    24674823.960   101039282.195 6      2518.933    24674824.300   101039283.212 7      2518.933
G07  24464948.260   128564165.183 6      1085.755    24464946.300   128564165.188 3      1085.755    24464966.400   100179919.289 3       846.043    24464968.720   100179949.210 5       846.043
> 2025 04 04 15 42  4.0000000  0 12
G02  21222941.840   111527307.450 7      1744.314    21222940.080   111527307.458 6      1744.314    21222943.400    86904402.530 6      1359.205
G03  21690128.980   113982397.691 7      5783.048    21690127.880   113982397.696 6      5783.048    21690139.140    88817497.448 6      4506.271    21690139.860    88817499.450 8      4506.271
G08  20452371.100   107477930.815 8      2403.035    20452370.120   107477930.812 8      2403.035    20452377.460    83749065.914 8      1872.495    20452378.060    83749067.919 8      1872.495
G01  20955450.680   110121633.811 7      3219.699    20955449.940   110121633.821 6      3219.699    20955455.020    85809084.275 6      2508.856    20955455.040    85809084.285 8      2508.856
R15  20544853.000   109785457.083 7        49.730    20544853.220   109785457.087 7        49.730    20544864.620    85388740.024 8        38.679    20544864.740    85388741.026 8        38.679
R17  20814448.900   111382317.678 6      1868.959    20814448.900   111382317.698 6      1868.959    20814459.080    86630740.964 6      1453.635    20814459.520    86630738.970 6      1453.635
G27  22321969.880   117302736.380 7       635.103    22321968.620   117302736.377 7       635.103    22321979.820    91404769.438 7       494.885    22321980.060    91404771.437 7       494.885
R02  21242576.740   113354458.420 8      3850.092    21242576.920   113354458.421 7      3850.092    21242588.340    88164626.006 8      2994.516    21242588.600    88164629.003 8      2994.516
R18  21260936.600   113492327.198 5      3504.585    21260938.820   113492327.229 5      3504.585    21260945.800    88271852.127 5      2725.788    21260947.440    88271859.126 6      2725.788
R03  22324444.920   119504511.908 6      6443.484    22324444.800   119504511.933 6      6443.484    22324466.880    92948043.548 7      5011.599    22324467.660    92948043.544 7      5011.599
G32  24674194.000   129663765.306 7      3233.217    24674193.240   129663765.311 6      3233.217    24674208.760   101036763.058 6      2519.390    24674209.020   101036764.065 6      2519.390
G07  24464741.480   128563078.923 6      1086.788    24464739.760   128563078.925 3      1086.788    24464759.740   100179072.840 3       846.848    24464761.340   100179102.747 5       846.848
> 2025 04 04 15 42  5.0000000  0 12
G02  21222609.880   111525562.747 7      1745.301    21222608.000   111525562.754 6      1745.301    21222611.340    86903043.025 6      1359.975
G03  21689028.560   113976614.154 7      5784.021    21689027.280   113976614.159 6      5784.021    21689038.600    88812990.810 6      4507.030    21689039.220    88812992.816 7      4507.030
G08  20451913.880   107475527.493 8      2403.732    20451912.720   107475527.497 8      2403.732    20451920.160    83747193.214 8      1873.038    20451920.880    83747195.219 8      1873.038
G01  20954837.960   110118413.757 7      3220.571    20954837.140   110118413.767 6      3220.571    20954842.200    85806575.150 6      2509.536    20954842.420    85806575.160 8      2509.536
R15  20544843.580   109785407.251 8        50.111    20544844.100   109785407.255 7        50.111    20544855.360    85388701.273 8        38.975    20544855.320    85388702.273 8        38.975
R17  20814099.580   111380448.249 6      1869.964    20814099.520   111380448.256 6      1869.964    20814108.920    86629286.965 6      1454.417    20814110.100    86629284.966 6      1454.417
G27  22321849.040   117302100.852 7       636.000    22321847.700   117302100.851 7       636.000    22321858.800    91404274.223 7       495.585    22321858.760    91404276.222 7       495.585
R02  21241855.380   113350608.193 8      3850.483    21241855.080   113350608.193 7      3850.483    21241866.640    88161631.382 8      2994.820    21241867.080    88161634.380 7      2994.820
R18  21260279.400   113488822.258 5      3505.583    21260281.920   113488822.242 5      3505.583    21260289.820    88269126.054 5      2726.564    21260290.740    88269133.051 6      2726.564
R03  22323241.980   119498067.744 6      6444.734    22323240.800   119498067.756 6      6444.734    22323263.300    92943031.447 7      5012.571    22323263.320    92943031.443 7      5012.571
G32  24673578.780   129660531.794 7      3233.870    24673577.860   129660531.799 6      3233.870    24673593.340   101034243.435 6      2519.899    24673593.840   101034244.447 6      2519.899
G07  24464534.400   128561991.877 6      1087.633    24464532.840   128561991.879 3      1087.633    24464552.880   100178225.783 3       847.506    24464555.000   100178255.706 5       847.506
> 2025 04 04 15 42  6.0000000  0 12
G02  21222277.960   111523817.171 7      1746.025    21222275.840   111523817.179 6      1746.025    21222279.080    86901682.847 6      1360.539
G03  21687927.960   113970830.021 7      5784.616    21687926.680   113970830.028 6      5784.616    21687937.800    88808483.717 6      4507.493    21687938.500    88808485.724 8      4507.493
G08  20451456.260   107473123.514 8      2404.380    20451455.240   107473123.511 8      2404.380    20451462.660    83745319.988 8      1873.543    20451463.320    83745321.990 8      1873.543
G01  20954225.080   110115193.035 7      3221.066    20954224.300   110115193.042 6      3221.066    20954229.280    85804065.504 6      2509.922    20954229.580    85804065.519 8      2509.922
R15  20544834.420   109785357.031 8        50.440    20544834.580   109785357.035 7        50.440    20544846.120    85388662.211 8        39.231    20544846.240    85388663.209 8        39.231
R17  20813749.920   111378577.814 6      1870.936    20813750.180   111378577.837 6      1870.936    20813759.620    86627832.199 6      1455.173    20813760.520    86627830.210 6      1455.173
G27  22321727.680   117301464.611 7       636.649    22321726.460   117301464.611 7       636.649    22321737.560    91403778.460 7       496.090    22321738.040    91403780.454 7       496.090
R02  21241133.900   113346757.746 8      3850.557    21241133.540   113346757.744 7      3850.557    21241145.060    88158636.620 7      2994.878    21241145.460    88158639.619 7      2994.878
R18  21259623.240   113485316.417 5      3506.197    21259625.800   113485316.397 5      3506.197    21259632.720    88266399.304 6      2727.042    21259634.500    88266406.299 6      2727.042
R03  22322037.940   119491622.776 6      6445.485    22322036.920   119491622.786 6      6445.485    22322059.380    92938018.733 7      5013.155    22322059.420    92938018.727 7      5013.155
G32  24672963.300   129657297.742 7      3234.395    24672962.440   129657297.747 6      3234.395    24672977.940   101031723.420 6      2520.308    24672978.380   101031724.431 6      2520.308
G07  24464327.680   128560903.982 6      1088.262    24464325.860   128560903.987 3      1088.262    24464346.120   100177378.061 3       847.996    24464348.240   100177407.990 5       847.996
> 2025 04 04 15 42  7.0000000  0 12
G02  21221945.520   111522070.823 7      1746.656    21221943.520   111522070.825 6      1746.656    21221946.960    86900322.064 6      1361.031
G03  21686826.980   113965045.396 7      5784.753    21686825.780   113965045.403 6      5784.753    21686837.100    88803976.238 6      4507.600    21686837.740    88803978.249 8      4507.600
G08  20450998.900   107470718.964 8      2404.782    20450997.760   107470718.964 8      2404.782    20451005.040    83743446.327 8      1873.856    20451005.960    83743448.330 8      1873.856
G01  20953612.120   110111971.688 7      3221.522    20953611.440   110111971.692 6      3221.522    20953616.420    85801555.378 6      2510.277    20953616.620    85801555.388 8      2510.277
R15  20544824.980   109785306.554 8        50.559    20544825.020   109785306.553 7        50.559    20544836.760    85388622.958 8        39.324    20544836.660    85388623.958 8        39.324
R17  20813400.140   111376706.525 6      1871.714    20813400.920   111376706.545 6      1871.714    20813409.460    86626376.755 6      1455.778    20813410.540    86626374.768 6      1455.778
G27  22321606.380   117300827.730 7       637.158    22321605.280   117300827.727 7       637.158    22321616.400    91403282.191 7       496.487    22321616.880    91403284.187 7       496.487
R02  21240412.540   113342907.161 8      3850.545    21240411.980   113342907.159 7      3850.545    21240423.340    88155641.734 7      2994.868    21240423.640    88155644.736 7      2994.868
R18  21258967.300   113481809.675 5      3507.128    21258968.740   113481809.647 5      3507.128    21258976.120    88263671.831 6      2727.766    21258976.960    88263678.822 6      2727.766
R03  22320833.300   119485177.022 6      6446.206    22320832.720   119485177.043 6      6446.206    22320855.120    92933005.410 7      5013.716    22320855.440    92933005.406 7      5013.716
G32  24672347.860   129654063.194 7      3234.801    24672347.000   129654063.197 6      3234.801    24672362.440   101029203.005 6      2520.624    24672363.160   101029204.019 6      2520.624
G07  24464120.780   128559815.315 6      1088.974    24464118.840   128559815.319 3      1088.974    24464139.020   100176529.740 3       848.551    24464140.960   100176559.680 6       848.551
> 2025 04 04 15 42  8.0000000  0 12
G02  21221613.140   111520323.944 7      1747.182    21221611.020   111520323.949 6      1747.182    21221614.620    86898960.874 6      1361.440
G03  21685726.280   113959260.469 7      5785.089    21685724.860   113959260.479 6      5785.089    21685736.240    88799468.517 6      4507.861    21685737.100    88799470.528 8      4507.861
G08  20450541.180   107468314.105 7      2405.036    20450539.940   107468314.107 8      2405.036    20450547.400    83741572.421 8      1874.054    20450548.400    83741574.422 8      1874.054
G01  20952999.120   110108749.999 7      3221.839    20952998.200   110108750.006 6      3221.839    20953003.340    85799044.987 6      2510.524    20953003.820    85799044.998 8      2510.524
R15  20544815.460   109785256.091 8        50.525    20544815.540   109785256.092 7        50.525    20544827.180    85388583.715 7        39.297    20544827.160    85388584.717 7        39.297
R17  20813050.720   111374834.616 6      1872.220    20813051.520   111374834.636 6      1872.220    20813059.980    86624920.842 6      1456.171    20813060.840    86624918.853 6      1456.171
G27  22321484.920   117300190.475 7       637.391    22321484.000   117300190.480 7       637.391    22321495.080    91402785.639 7       496.669    22321495.320    91402787.642 7       496.669
R02  21239690.940   113339056.672 8      3850.482    21239690.500   113339056.673 7      3850.482    21239701.840    88152646.928 8      2994.819    21239702.340    88152649.928 7      2994.819
R18  21258308.560   113478302.354 5      3507.591    21258312.140   113478302.368 5      3507.591    21258319.340    88260943.965 6      2728.126    21258320.420    88260950.959 6      2728.126
R03  22319629.160   119478730.789 6      6446.595    22319628.360   119478730.810 6      6446.595    22319650.800    92927991.704 7      5014.018    22319651.460    92927991.700 7      5014.018
G32  24671732.260   129650828.426 7      3234.834    24671731.420   129650828.428 6      3234.834    24671746.720   101026682.423 6      2520.650    24671747.500   101026683.430 6      2520.650
G07  24463913.720   128558726.203 6      1089.312    24463911.640   128558726.206 3      1089.312    24463932.020   100175681.070 3       848.815    24463932.540   100175710.997 6       848.815
> 2025 04 04 15 42  9.0000000  0 12
G02  21221280.320   111518576.432 7      1747.979    21221278.540   111518576.434 6      1747.979    21221282.020    86897599.181 6      1362.062
G03  21684625.000   113953475.166 7      5785.602    21684624.100   113953475.168 6      5785.602    21684635.380    88794960.501 6      4508.262    21684635.860    88794962.510 8      4508.262
G08  20450083.460   107465908.815 7      2405.602    20450082.360   107465908.817 8      2405.602    20450089.760    83739698.173 8      1874.495    20450090.620    83739700.178 8      1874.495
G01  20952385.900   110105527.842 7      3222.502    20952385.140   110105527.847 6      3222.502    20952390.120    85796534.222 6      2511.041    20952390.560    85796534.231 8      2511.041
R15  20544805.840   109785205.489 8        50.786    20544806.160   109785205.490 7        50.786    20544817.920    85388544.366 7        39.500    20544817.780    85388545.366 8        39.500
R17  20812700.340   111372961.971 6      1873.090    20812701.240   111372961.996 6      1873.090    20812710.020    86623464.348 6      1456.847    20812710.780    86623462.357 6      1456.847
G27  22321363.760   117299552.722 7       638.064    22321362.560   117299552.724 7       638.064    22321373.740    91402288.694 7       497.192    22321374.320    91402290.695 7       497.192
R02  21238969.420   113335206.156 8      3850.667    21238969.000   113335206.157 7      3850.667    21238980.120    88149652.095 8      2994.963    21238980.760    88149655.093 7      2994.963
R18  21257652.120   113474794.474 5      3508.008    21257654.700   113474794.411 5      3508.008    21257660.520    88258215.583 6      2728.450    21257663.360    88258222.580 6      2728.450
R03  22318424.420   119472283.879 6      6447.465    22318423.840   119472283.913 6      6447.465    22318446.720    92922977.493 7      5014.695    22318446.960    92922977.491 7      5014.695
G32  24671116.920   129647593.300 7      3235.333    24671115.720   129647593.307 6      3235.333    24671131.140   101024161.566 6      2521.038    24671131.760   101024162.579 6      2521.038
G07  24463706.460   128557636.440 6      1090.193    24463704.320   128557636.445 3      1090.193    24463724.740   100174831.896 3       849.501    24463726.060   100174861.819 6       849.501
> 2025 04 04 15 42 10.0000000  0 12
G02  21220947.780   111516828.000 7      1749.013    21220945.800   111516828.005 6      1749.013    21220949.260    86896236.779 6      1362.867
G03  21683524.140   113947689.172 7      5786.433    21683523.160   113947689.177 6      5786.433    21683534.380    88790451.953 6      4508.909    21683534.960    88790453.962 8      4508.909
G08  20449625.580   107463502.800 7      2406.452    20449624.540   107463502.802 8      2406.452    20449631.980    83737823.366 8      1875.158    20449632.680    83737825.369 8      1875.158
G01  20951772.600   110102304.945 7      3223.320    20951771.580   110102304.955 6      3223.320    20951776.880    85794022.892 6      2511.678    20951777.260    85794022.900 8      2511.678
R15  20544796.400   109785154.449 8        51.327    20544796.620   109785154.450 7        51.327    20544808.080    85388504.672 8        39.921    20544808.240    85388505.677 8        39.921
R17  20812350.140   111371088.333 6      1874.142    20812351.360   111371088.342 6      1874.142    20812359.720    86622007.075 6      1457.666    20812360.360    86622005.085 6      1457.666
G27  22321242.220   117298914.193 7       638.942    22321241.140   117298914.198 7       638.942    22321252.200    91401791.147 7       497.877    22321252.680    91401793.146 7       497.877
R02  21238247.600   113331355.325 8      3851.026    21238247.220   113331355.329 8      3851.026    21238258.500    88146657.019 8      2995.243    21238259.080    88146660.017 7      2995.243
R18  21256995.140   113471285.405 5      3509.680    21256997.080   113471285.360 5      3509.680    21257003.720    88255486.321 6      2729.751    21257005.660    88255493.316 6      2729.751
R03  22317220.360   119465836.142 6      6448.235    22317220.000   119465836.176 6      6448.235    22317241.940    92917962.615 7      5015.294    22317242.300    92917962.613 7      5015.294
G32  24670501.320   129644357.546 7      3236.084    24670499.860   129644357.551 6      3236.084    24670515.160   101021640.215 6      2521.624    24670515.440   101021641.225 6      2521.624
G07  24463498.920   128556545.797 6      1091.159    24463496.860   128556545.807 3      1091.159    24463517.140   100173982.034 3       850.254    24463518.520   100174011.965 6       850.254
> 2025 04 04 15 42 11.0000000  0 12
G02  21220614.860   111515078.841 7      1749.393    21220612.920   111515078.848 6      1749.393    21220616.400    86894873.807 6      1363.164
G03  21682423.160   113941902.716 7      5786.601    21682422.120   113941902.721 6      5786.601    21682433.200    88785943.045 6      4509.040    21682433.780    88785945.053 8      4509.040
G08  20449167.740   107461096.280 7      2406.678    20449166.540   107461096.282 8      2406.678    20449174.000    83735948.164 8      1875.333    20449174.780    83735950.167 8      1875.333
G01  20951159.200   110099081.488 7      3223.642    20951158.220   110099081.498 6      3223.642    20951163.440    85791511.115 6      2511.929    20951163.780    85791511.124 8      2511.929
R15  20544786.900   109785103.149 8        51.230    20544787.180   109785103.156 7        51.230    20544798.680    85388464.781 8        39.846    20544798.780    85388465.783 8        39.846
R17  20812000.160   111369213.823 6      1874.787    20812001.160   111369213.835 6      1874.787    20812009.760    86620549.137 6      1458.167    20812010.420    86620547.150 6      1458.167
G27  22321120.760   117298275.075 7       639.280    22321119.500   117298275.075 7       639.280    22321130.620    91401293.136 7       498.141    22321131.280    91401295.132 7       498.141
R02  21237526.120   113327504.364 8      3850.887    21237525.640   113327504.365 8      3850.887    21237536.960    88143661.843 7      2995.135    21237537.320    88143664.841 7      2995.135
R18  21256338.240   113467775.612 5      3510.002    21256340.120   113467775.631 5      3510.002    21256346.060    88252756.540 6      2730.002    21256348.400    88252763.547 6      2730.002
R03  22316015.160   119459387.650 6      6448.664    22316015.320   119459387.667 6      6448.664    22316037.300    92912947.153 7      5015.627    22316037.660    92912947.147 7      5015.627
G32  24669885.380   129641121.361 7      3236.197    24669884.140   129641121.361 6      3236.197    24669899.200   101019118.527 6      2521.712    24669899.600   101019119.537 6      2521.712
G07  24463291.260   128555454.465 6      1091.465    24463289.260   128555454.473 3      1091.465    24463309.560   100173131.635 3       850.492    24463310.940   100173161.564 6       850.492
> 2025 04 04 15 42 12.0000000  0 12
G02  21220281.860   111513328.938 7      1750.397    21220279.840   111513328.945 6      1750.397    21220283.480    86893510.261 6      1363.946
G03  21681322.020   113936115.763 7      5787.346    21681320.840   113936115.768 6      5787.346    21681332.100    88781433.753 6      4509.620    21681332.860    88781435.758 8      4509.620
G08  20448709.880   107458689.208 7      2407.535    20448708.500   107458689.213 8      2407.535    20448715.960    83734072.536 8      1876.001    20448717.040    83734074.541 8      1876.001
G01  20950545.780   110095857.476 7      3224.363    20950544.920   110095857.481 6      3224.363    20950549.940    85788998.909 6      2512.491    20950550.260    85788998.919 8      2512.491
R15  20544777.300   109785051.598 8        51.813    20544777.340   109785051.602 7        51.813    20544789.060    85388424.688 8        40.299    20544789.180    85388425.692 7        40.299
R17  20811649.800   111367338.529 6      1875.760    20811650.540   111367338.538 6      1875.760    20811659.320    86619090.583 6      1458.924    20811660.180    86619088.598 6      1458.924
G27  22320998.640   117297635.356 7       640.132    22320997.820   117297635.361 7       640.132    22321008.920    91400794.662 7       498.804    22321009.340    91400796.660 7       498.804
R02  21236804.580   113323653.323 8      3851.181    21236803.940   113323653.329 8      3851.181    21236815.140    88140666.606 7      2995.363    21236815.600    88140669.605 7      2995.363
R18  21255681.280   113464265.095 5      3510.783    21255681.840   113464265.118 5      3510.783    21255688.200    88250026.166 6      2730.609    21255690.680    88250033.166 6      2730.609
R03  22314810.520   119452938.416 6      6449.695    22314810.460   119452938.437 6      6449.695    22314832.500    92907931.113 7      5016.429    22314832.820    92907931.114 7      5016.429
G32  24669269.320   129637884.701 7      3236.971    24669268.280   129637884.706 6      3236.971    24669283.280   101016596.475 6      2522.315    24669284.000   101016597.484 6      2522.315
G07  24463083.560   128554362.409 6      1092.525    24463081.480   128554362.416 3      1092.525    24463101.820   100172280.667 3       851.318    24463103.040   100172310.601 6       851.318
> 2025 04 04 15 42 13.0000000  0 12
G02  21219948.900   111511578.362 7      1750.898    21219946.660   111511578.369 6      1750.898    21219950.360    86892146.184 6      1364.336
G03  21680220.580   113930328.385 7      5787.698    21680219.500   113930328.390 6      5787.698    21680230.820    88776924.120 6      4509.895    21680231.380    88776926.133 8      4509.895
G08  20448251.640   107456281.695 8      2407.794    20448250.500   107456281.692 8      2407.794    20448257.920    83732196.558 8      1876.203    20448258.760    83732198.563 8      1876.203
G01  20949931.920   110092632.944 8      3224.891    20949931.160   110092632.949 6      3224.891    20949936.300    85786486.301 6      2512.902    20949936.700    85786486.311 8      2512.902
R15  20544767.420   109784999.887 8        51.817    20544767.880   109784999.897 7        51.817    20544779.380    85388384.481 7        40.302    20544779.360    85388385.483 8        40.302
R17  20811299.020   111365462.427 6      1876.408    20811300.420   111365462.461 6      1876.408    20811308.540    86617631.416 6      1459.429    20811309.400    86617629.431 6      1459.429
G27  22320877.240   117296995.122 7       640.547    22320875.920   117296995.119 7       640.547    22320887.000    91400295.780 7       499.127    22320887.680    91400297.776 7       499.127
R02  21236082.620   113319802.254 8      3851.128    21236082.280   113319802.258 8      3851.128    21236093.520    88137671.343 7      2995.322    21236093.700    88137674.345 7      2995.322
R18  21255022.720   113460753.832 5      3511.648    21255024.780   113460753.833 5      3511.648    21255030.560    88247295.174 6      2731.282    21255032.840    88247302.192 6      2731.282
R03  22313605.300   119446488.503 6      6450.394    22313605.860   119446488.523 6      6450.394    22313627.440    92902914.556 7      5016.973    22313628.000    92902914.552 7      5016.973
G32  24668653.120   129634647.691 7      3237.154    24668652.160   129634647.698 6      3237.154    24668667.460   101014074.144 6      2522.458    24668668.000   101014075.151 6      2522.458
G07  24462875.260   128553269.706 6      1093.177    24462873.640   128553269.710 3      1093.177    24462894.040   100171429.194 3       851.826    24462895.820   100171459.117 6       851.826
> 2025 04 04 15 42 14.0000000  0 12
G02  21219615.460   111509827.161 7      1751.489    21219613.500   111509827.163 6      1751.489    21219617.280    86890781.618 6      1364.797
G03  21679119.060   113924540.633 7      5787.995    21679118.120   113924540.641 6      5787.995    21679129.420    88772414.210 6      4510.126    21679130.100    88772416.215 8      4510.126
G08  20447793.180   107453873.746 8      2408.151    20447792.320   107453873.751 8      2408.151    20447799.660    83730320.249 8      1876.481    20447800.480    83730322.251 8      1876.481
G01  20949318.460   110089407.984 7      3225.187    20949317.580   110089407.992 6      3225.187    20949322.600    85783973.359 6      2513.132    20949322.920    85783973.364 8      2513.132
R15  20544757.640   109784948.056 8        51.938    20544758.100   109784948.063 8        51.938    20544769.680    85388344.168 8        40.396    20544769.580    85388345.170 8        40.396
R17  20810948.360   111363585.603 6      1877.115    20810949.080   111363585.615 6      1877.115    20810957.760    86616171.663 6      1459.979    20810958.580    86616169.670 6      1459.979
G27  22320755.280   117296354.391 7       640.957    22320754.080   117296354.394 7       640.957    22320765.080    91399796.517 7       499.447    22320765.640    91399798.514 7       499.447
R02  21235360.660   113315951.181 8      3851.111    21235360.500   113315951.184 7      3851.111    21235371.880    88134676.078 7      2995.309    21235372.220    88134679.076 7      2995.309
R18  21254365.540   113457241.871 5      3512.085    21254365.960   113457241.891 5      3512.085    21254372.780    88244563.673 6      2731.622    21254375.080    88244570.698 6      2731.622
R03  22312400.480   119440038.001 6      6450.719    22312401.040   119440038.032 6      6450.719    22312422.360    92897897.542 7      5017.226    22312422.900    92897897.545 7      5017.226
G32  24668037.140   129631410.324 7      3237.595    24668036.160   129631410.326 6      3237.595    24668051.440   101011551.536 6      2522.802    24668052.020   101011552.554 6      2522.802
G07  24462667.660   128552176.414 6      1093.639    24462665.600   128552176.421 3      1093.639    24462686.120   100170577.268 3       852.186    24462687.240   100170607.199 6       852.186
> 2025 04 04 15 42 15.0000000  0 12
G02  21219282.060   111508075.316 7      1752.147    21219280.220   111508075.323 6      1752.147    21219283.740    86889416.554 6      1365.310
G03  21678017.680   113918752.509 7      5788.298    21678016.720   113918752.519 6      5788.298    21678027.940    88767904.004 6      4510.362    21678028.480    88767906.010 8      4510.362
G08  20447334.880   107451465.374 8      2408.660    20447333.920   107451465.373 8      2408.660    20447341.420    83728443.601 8      1876.878    20447342.200    83728445.604 8      1876.878
G01  20948704.660   110086182.535 7      3225.732    20948703.700   110086182.548 6      3225.732    20948708.820    85781460.031 6      2513.557    20948709.160    85781460.043 8      2513.557
R15  20544747.800   109784896.094 8        52.045    20544748.380   109784896.098 7        52.045    20544759.840    85388303.759 8        40.479    20544760.000    85388304.761 8        40.479
R17  20810597.320   111361708.000 6      1877.923    20810598.620   111361708.022 6      1877.923    20810607.340    86614711.324 6      1460.607    20810608.180    86614709.335 6      1460.607
G27  22320633.240   117295713.172 7       641.509    22320632.020   117295713.172 7       641.509    22320643.060    91399296.868 7       499.877    22320643.480    91399298.869 7       499.877
R02  21234639.080   113312100.073 8      3851.113    21234638.860   113312100.082 8      3851.113    21234650.120    88131680.795 8      2995.310    21234650.460    88131683.794 7      2995.310
R18  21253707.840   113453729.217 5      3512.952    21253708.180   113453729.224 5      3512.952    21253714.500    88241831.614 5      2732.296    21253716.620    88241838.628 5      2732.296
R03  22311194.820   119433586.848 6      6451.407    22311196.520   119433586.882 6      6451.407    22311217.300    92892880.017 7      5017.761    22311217.680    92892880.015 7      5017.761
G32  24667420.920   129628172.628 7      3237.873    24667420.100   129628172.630 6      3237.873    24667435.160   101009028.675 6      2523.018    24667436.120   101009029.691 6      2523.018
G07  24462459.580   128551082.533 6      1094.100    24462457.620   128551082.541 3      1094.100    24462478.040   100169724.879 3       852.546    24462478.700   100169754.815 6       852.546
> 2025 04 04 15 42 16.0000000  0 12
G02  21218948.440   111506322.598 7      1753.145    21218946.580   111506322.603 6      1753.145    21218950.320    86888050.813 6      1366.087
G03  21676916.040   113912963.759 7      5789.043    21676915.240   113912963.761 6      5789.043    21676926.380    88763393.300 7      4510.943    21676927.240    88763395.308 8      4510.943
G08  20446876.560   107449056.344 8      2409.363    20446875.540   107449056.347 8      2409.363    20446882.980    83726566.446 8      1877.426    20446883.960    83726568.448 8      1877.426
G01  20948090.920   110082956.419 7      3226.431    20948089.740   110082956.429 6      3226.431    20948094.980    85778946.186 6      2514.102    20948095.440    85778946.193 8      2514.102
R15  20544738.120   109784843.734 8        52.512    20544738.640   109784843.735 7        52.512    20544750.100    85388263.039 8        40.843    20544750.180    85388264.041 8        40.843
R17  20810246.740   111359829.476 6      1878.834    20810248.120   111359829.488 6      1878.834    20810256.160    86613250.248 6      1461.316    20810257.100    86613248.259 6      1461.316
G27  22320511.220   117295071.238 7       642.248    22320509.940   117295071.232 7       642.248    22320520.840    91398796.660 7       500.453    22320521.440    91398798.660 7       500.453
R02  21233917.300   113308248.693 8      3851.439    21233917.000   113308248.699 8      3851.439    21233928.440    88128685.287 7      2995.564    21233928.840    88128688.287 7      2995.564
R18  21253049.680   113450215.669 5      3513.663    21253050.260   113450215.681 5      3513.663    21253056.280    88239098.880 5      2732.849    21253058.480    88239105.895 5      2732.849
R03  22309989.380   119427134.836 6      6452.443    22309990.720   119427134.865 6      6452.443    22310011.780    92887861.817 7      5018.567    22310012.140    92887861.821 7      5018.567
G32  24666804.640   129624934.352 7      3238.457    24666803.900   129624934.356 6      3238.457    24666818.860   101006505.363 6      2523.473    24666819.720   101006506.375 6      2523.473
G07  24462251.180   128549987.778 6      1095.108    24462249.240   128549987.783 4      1095.108    24462269.940   100168871.811 3       853.331    24462271.120   100168901.747 6       853.331
> 2025 04 04 15 42 17.0000000  0 12
G02  21218614.780   111504569.340 7      1753.655    21218612.840   111504569.347 6      1753.655    21218616.680    86886684.645 6      1366.484
G03  21675814.520   113907174.728 7      5789.127    21675813.660   113907174.738 6      5789.127    21675824.800    88758882.387 6      4511.008    21675825.400    88758884.400 8      4511.008
G08  20446418.140   107446646.984 8      2409.637    20446417.100   107446646.981 8      2409.637    20446424.500    83724689.026 8      1877.639    20446425.340    83724691.025 8      1877.639
G01  20947477.020   110079729.932 7      3226.708    20947475.820   110079729.940 6      3226.708    20947480.980    85776432.049 6      2514.318    20947481.460    85776432.057 8      2514.318
R15  20544728.260   109784791.318 7        52.500    20544728.780   109784791.319 7        52.500    20544740.300    85388222.268 8        40.833    20544740.320    85388223.270 8        40.833
R17  20809895.760   111357950.278 6      1879.545    20809896.760   111357950.293 6      1879.545    20809905.300    86611788.659 6      1461.868    20809906.120    86611786.667 6      1461.868
G27  22320388.840   117294428.886 7       642.662    22320387.740   117294428.886 7       642.662    22320398.660    91398296.134 7       500.776    22320399.260    91398298.132 7       500.776
R02  21233195.700   113304397.376 8      3851.302    21233195.420   113304397.380 7      3851.302    21233206.780    88125689.831 7      2995.457    21233207.120    88125692.831 7      2995.457
R18  21252390.920   113446701.461 5      3514.791    21252393.000   113446701.462 5      3514.791    21252397.780    88236365.603 5      2733.727    21252400.260    88236372.616 5      2733.727
R03  22308784.800   119420682.346 6      6452.795    22308785.380   119420682.358 6      6452.795    22308806.380    92882843.233 7      5018.840    22308807.020    92882843.234 7      5018.840
G32  24666188.760   129621695.828 7      3238.629    24666187.540   129621695.833 6      3238.629    24666202.700   101003981.849 6      2523.607    24666203.620   101003982.862 6      2523.607
G07  24462042.820   128548892.524 7      1095.583    24462040.820   128548892.531 4      1095.583    24462061.540   100168018.356 3       853.701    24462062.520   100168048.283 6       853.701
> 2025 04 04 15 42 18.0000000  0 12
G02  21218281.060   111502815.259 7      1754.476    21218278.880   111502815.267 6      1754.476    21218282.920    86885317.839 6      1367.124
G03  21674712.640   113901385.095 7      5789.844    21674711.920   113901385.102 6      5789.844    21674722.980    88754371.003 6      4511.566    21674723.940    88754373.010 8      4511.566
G08  20445959.420   107444236.988 8      2410.290    20445958.480   107444236.988 8      2410.290    20445965.940    83722811.117 8      1878.148    20445966.920    83722813.120 8      1878.148
G01  20946862.900   110076502.755 7      3227.522    20946861.720   110076502.762 6      3227.522    20946866.960    85773917.379 6      2514.952    20946867.420    85773917.384 8      2514.952
R15  20544718.300   109784738.551 8        52.936    20544719.040   109784738.547 7        52.936    20544730.560    85388181.230 7        41.173    20544730.540    85388182.234 8        41.173
R17  20809544.140   111356070.163 6      1880.510    20809545.780   111356070.170 6      1880.510    20809553.700    86610326.351 6      1462.619    20809554.740    86610324.359 6      1462.619
G27  22320266.800   117293785.846 7       643.387    22320265.400   117293785.845 7       643.387    22320276.320    91397795.068 7       501.340    22320276.940    91397797.066 7       501.340
R02  21232473.840   113300545.841 8      3851.628    21232473.640   113300545.845 8      3851.628    21232485.080    88122694.205 7      2995.710    21232485.340    88122697.205 7      2995.710
R18  21251732.940   113443186.434 5      3515.553    21251734.500   113443186.422 5      3515.553    21251739.840    88233631.697 5      2734.319    21251741.480    88233638.710 5      2734.319
R03  22307579.200   119414229.001 6      6453.698    22307579.160   119414229.027 6      6453.698    22307601.000    92877824.013 7      5019.543    22307601.220    92877824.011 7      5019.543
G32  24665572.200   129618456.740 7      3239.386    24665571.140   129618456.742 6      3239.386    24665586.300   101001457.898 6      2524.197    24665586.700   101001458.908 6      2524.197
G07  24461834.420   128547796.449 6      1096.437    24461832.300   128547796.457 4      1096.437    24461852.860   100167164.262 4       854.366    24461854.560   100167194.197 6       854.366
> 2025 04 04 15 42 19.0000000  0 12
G02  21217947.340   111501060.411 7      1755.145    21217945.060   111501060.421 6      1755.145    21217948.940    86883950.435 6      1367.645
G03  21673611.040   113895594.955 7      5790.282    21673610.160   113895594.962 6      5790.282    21673621.160    88749859.226 6      4511.908    21673622.220    88749861.235 8      4511.908
G08  20445500.700   107441826.459 8      2410.652    20445499.720   107441826.464 8      2410.652    20445507.220    83720932.797 8      1878.430    20445508.160    83720934.800 8      1878.430
G01  20946248.860   110073275.038 7      3227.846    20946247.400   110073275.049 6      3227.846    20946252.620    85771402.284 6      2515.205    20946253.120    85771402.290 8      2515.205
R15  20544708.460   109784685.561 8        53.025    20544709.180   109784685.567 7        53.025    20544720.680    85388140.027 8        41.241    20544720.820    85388141.027 8        41.241
R17  20809192.420   111354189.218 6      1881.104    20809194.060   111354189.214 6      1881.104    20809202.140    86608863.394 6      1463.081    20809203.020    86608861.398 6      1463.081
G27  22320144.140   117293142.204 7       643.882    22320142.940   117293142.203 7       643.882    22320153.940    91397293.533 7       501.726    22320154.120    91397295.531 7       501.726
R02  21231752.180   113296694.231 8      3851.490    21231751.820   113296694.235 8      3851.490    21231763.240    88119698.523 7      2995.603    21231763.540    88119701.521 7      2995.603
R18  21251074.200   113439670.575 5      3516.286    21251076.360   113439670.584 5      3516.286    21251080.460    88230897.164 5      2734.889    21251082.820    88230904.184 5      2734.889
R03  22306374.040   119407774.968 6      6454.381    22306373.200   119407775.005 6      6454.381    22306395.180    92872804.252 7      5020.074    22306395.580    92872804.256 7      5020.074
G32  24664955.680   129615217.205 7      3239.720    24664954.880   129615217.207 6      3239.720    24664969.800   100998933.602 6      2524.457    24664969.860   100998934.615 6      2524.457
G07  24461625.580   128546699.658 7      1097.108    24461623.580   128546699.665 4      1097.108    24461644.200   100166309.609 4       854.889    24461644.960   100166339.544 6       854.889
> 2025 04 04 15 42 20.0000000  0 12
G02  21217613.520   111499304.977 7      1755.751    21217610.860   111499304.984 6      1755.751    21217614.880    86882582.573 6      1368.118
G03  21672509.180   113889804.476 7      5790.677    21672508.200   113889804.489 6      5790.677    21672519.280    88745347.185 6      4512.216    21672519.860    88745349.198 8      4512.216
G08  20445042.020   107439415.527 8      2411.164    20445040.900   107439415.527 8      2411.164    20445048.460    83719054.155 8      1878.829    20445049.360    83719056.160 8      1878.829
G01  20945634.520   110070046.860 7      3228.460    20945633.140   110070046.867 6      3228.460    20945638.240    85768886.832 6      2515.683    20945638.700    85768886.841 8      2515.683
R15  20544698.540   109784632.479 8        53.192    20544699.160   109784632.485 7        53.192    20544710.660    85388098.748 7        41.371    20544710.660    85388099.750 8        41.371
R17  20808841.040   111352307.503 6      1882.117    20808842.200   111352307.515 6      1882.117    20808850.600    86607399.858 6      1463.868    20808851.400    86607397.867 6      1463.868
G27  22320021.540   117292498.104 7       644.390    22320020.320   117292498.101 7       644.390    22320031.240    91396791.643 7       502.122    22320031.620    91396793.640 7       502.122
R02  21231030.420   113292842.624 8      3851.649    21231030.000   113292842.623 8      3851.649    21231041.540    88116702.837 7      2995.727    21231041.640    88116705.841 7      2995.727
R18  21250414.980   113436154.114 5      3516.886    21250417.140   113436154.089 5      3516.886    21250422.220    88228162.132 5      2735.355    21250423.920    88228169.147 5      2735.355
R03  22305167.800   119401320.430 6      6454.988    22305168.660   119401320.440 6      6454.988    22305189.540    92867784.072 7      5020.546    22305189.840    92867784.074 7      5020.546
G32  24664339.080   129611977.352 7      3240.156    24664338.360   129611977.354 6      3240.156    24664353.160   100996409.057 6      2524.797    24664353.180   100996410.067 6      2524.797
G07  24461416.300   128545602.293 7      1097.786    24461414.820   128545602.301 4      1097.786    24461435.560   100165454.507 4       855.418    24461436.680   100165484.443 6       855.418
> 2025 04 04 15 42 21.0000000  0 12
G02  21217279.400   111497548.791 7      1756.613    21217276.740   111497548.796 6      1756.613    21217280.740    86881214.125 6      1368.789
G03  21671407.080   113884013.519 7      5791.287    21671406.160   113884013.524 6      5791.287    21671417.280    88740834.763 6      4512.692    21671417.900    88740836.772 8      4512.692
G08  20444583.140   107437004.073 8      2411.740    20444582.040   107437004.075 8      2411.740    20444589.500    83717175.110 8      1879.278    20444590.740    83717177.111 8      1879.278
G01  20945019.860   110066818.134 7      3229.127    20945018.720   110066818.139 6      3229.127    20945023.980    85766370.953 6      2516.203    20945024.340    85766370.957 8      2516.203
R15  20544688.720   109784579.152 8        53.515    20544689.140   109784579.161 7        53.515    20544700.620    85388057.277 7        41.623    20544700.800    85388058.279 8        41.623
R17  20808488.940   111350424.993 6      1883.040    20808490.040   111350425.016 6      1883.040    20808498.380    86605935.702 6      1464.586    20808499.720    86605933.715 6      1464.586
G27  22319898.940   117291853.404 7       645.082    22319897.700   117291853.406 7       645.082    22319908.600    91396289.287 7       502.661    22319908.900    91396291.288 7       502.661
R02  21230308.500   113288990.919 8      3851.844    21230308.200   113288990.922 8      3851.844    21230319.520    88113707.085 8      2995.878    21230319.860    88113710.084 7      2995.878
R18  21249756.360   113432636.816 5      3517.904    21249758.600   113432636.798 5      3517.904    21249763.760    88225426.470 5      2736.147    21249764.920    88225433.483 5      2736.147
R03  22303962.200   119394865.137 6      6455.816    22303962.140   119394865.144 6      6455.816    22303983.700    92862763.320 7      5021.190    22303984.200    92862763.322 7      5021.190
G32  24663722.340   129608737.060 7      3240.610    24663721.800   129608737.068 6      3240.610    24663736.560   100993884.177 6      2525.151    24663736.580   100993885.185 6      2525.151
G07  24461207.840   128544504.217 7      1098.581    24461205.940   128544504.222 4      1098.581    24461226.620   100164598.855 4       856.037    24461228.100   100164628.797 6       856.037
> 2025 04 04 15 42 22.0000000  0 12
G02  21216945.020   111495791.959 7      1757.059    21216942.420   111495791.964 6      1757.059    21216946.600    86879845.173 6      1369.137
G03  21670305.240   113878222.152 7      5791.473    21670304.060   113878222.157 6      5791.473    21670315.340    88736322.024 6      4512.836    21670315.840    88736324.033 8      4512.836
G08  20444124.160   107434592.172 8      2412.009    20444123.140   107434592.172 8      2412.009    20444130.620    83715295.711 8      1879.488    20444131.620    83715297.712 8      1879.488
G01  20944405.280   110063588.944 7      3229.262    20944404.260   110063588.954 6      3229.262    20944409.420    85763854.715 6      2516.308    20944410.000    85763854.721 8      2516.308
R15  20544678.700   109784525.648 8        53.440    20544679.200   109784525.654 7        53.440    20544690.600    85388015.663 8        41.565    20544690.700    85388016.665 8        41.565
R17  20808136.580   111348541.774 6      1883.461    20808138.700   111348541.786 6      1883.461    20808146.700    86604470.972 6      1464.914    20808148.060    86604468.989 6      1464.914
G27  22319776.020   117291208.201 7       645.418    22319774.860   117291208.200 7       645.418    22319785.820    91395786.532 7       502.923    22319786.260    91395788.532 7       502.923
R02  21229586.620   113285139.191 8      3851.597    21229586.280   113285139.198 7      3851.597    21229597.800    88110711.314 7      2995.687    21229598.060    88110714.313 7      2995.687
R18  21249095.780   113429118.797 5      3518.412    21249099.940   113429118.790 5      3518.412    21249104.020    88222690.258 5      2736.543    21249106.360    88222697.281 5      2736.543
R03  22302755.960   119388409.231 6      6456.104    22302756.180   119388409.240 6      6456.104    22302777.540    92857742.095 7      5021.414    22302778.020    92857742.097 7      5021.414
G32  24663105.740   129605496.440 7      3240.642    24663105.260   129605496.451 6      3240.642    24663119.900   100991359.033 6      2525.176    24663120.140   100991360.032 6      2525.176
G07  24460998.540   128543405.547 7      1098.826    24460996.860   128543405.552 4      1098.826    24461017.460   100163742.738 4       856.228    24461018.740   100163772.684 6       856.228
> 2025 04 04 15 42 23.0000000  0 12
G02  21216610.460   111494034.452 7      1757.876    21216607.980   111494034.460 6      1757.876    21216612.040    86878475.697 6      1369.774
G03  21669202.940   113872430.356 7      5792.083    21669201.880   113872430.369 6      5792.083    21669213.120    88731808.963 7      4513.312    21669213.680    88731810.974 8      4513.312
G08  20443665.080   107432179.814 8      2412.657    20443664.080   107432179.813 8      2412.657    20443671.560    83713415.964 8      1879.992    20443672.600    83713417.966 8      1879.992
G01  20943790.800   110060359.238 7      3230.004    20943789.560   110060359.249 6      3230.004    20943794.920    85761338.076 6      2516.886    20943795.420    85761338.080 8      2516.886
R15  20544668.580   109784471.930 8        53.876    20544669.000   109784471.934 7        53.876    20544680.540    85387973.889 8        41.904    20544680.560    85387974.891 8        41.904
R17  20807784.660   111346657.701 6      1884.619    20807786.520   111346657.719 6      1884.619    20807794.540    86603005.601 6      1465.815    20807795.720    86603003.612 6      1465.815
G27  22319653.300   117290562.480 7       645.999    22319652.100   117290562.483 7       645.999    22319662.960    91395283.381 7       503.376    22319663.280    91395285.380 7       503.376
R02  21228864.840   113281287.406 8      3851.961    21228864.520   113281287.409 7      3851.961    21228876.140    88107715.493 7      2995.970    21228876.260    88107718.494 7      2995.970
R18  21248436.780   113425600.076 5      3519.312    21248441.140   113425600.064 5      3519.312    21248445.600    88219953.479 5      2737.243    21248447.360    88219960.502 5      2737.243
R03  22301549.900   119381952.637 6      6456.950    22301549.320   119381952.644 6      6456.950    22301571.420    92852720.339 7      5022.072    22301572.080    92852720.339 7      5022.072
G32  24662489.400   129602255.416 7      3241.212    24662488.400   129602255.421 6      3241.212    24662503.120   100988833.569 6      2525.620    24662503.140   100988834.579 6      2525.620
G07  24460789.140   128542306.185 7      1099.920    24460787.760   128542306.188 4      1099.920    24460808.340   100162886.079 4       857.081    24460808.920   100162916.033 6       857.081
> 2025 04 04 15 42 24.0000000  0 12
G02  21216275.800   111492276.496 7      1758.027    21216273.400   111492276.503 6      1758.027    21216277.500    86877105.873 6      1369.891
G03  21668100.860   113866638.388 7      5791.979    21668099.720   113866638.393 6      5791.979    21668111.000    88727295.751 6      4513.230    21668111.580    88727297.760 8      4513.230
G08  20443206.080   107429767.206 8      2412.682    20443204.980   107429767.206 8      2412.682    20443212.460    83711536.020 8      1880.012    20443213.480    83711538.022 8      1880.012
G01  20943176.020   110057129.265 7      3230.011    20943174.880   110057129.273 6      3230.011    20943180.320    85758821.221 6      2516.892    20943180.900    85758821.228 8      2516.892
R15  20544658.320   109784418.296 8        53.420    20544659.220   109784418.302 7        53.420    20544670.560    85387932.177 8        41.549    20544670.620    85387933.180 8        41.549
R17  20807432.180   111344773.120 6      1884.675    20807434.020   111344773.148 6      1884.675    20807442.420    86601539.828 6      1465.858    20807443.520    86601537.850 6      1465.858
G27  22319530.220   117289916.445 7       646.044    22319529.120   117289916.450 7       646.044    22319539.960    91394779.983 7       503.411    22319540.760    91394781.981 7       503.411
R02  21228143.060   113277435.783 8      3851.412    21228142.780   113277435.791 7      3851.412    21228154.120    88104719.806 7      2995.542    21228154.380    88104722.808 7      2995.542
R18  21247777.580   113422080.851 5      3519.380    21247781.580   113422080.849 5      3519.380    21247785.900    88217216.324 5      2737.296    21247788.600    88217223.354 5      2737.296
R03  22300343.240   119375495.612 6      6457.096    22300343.640   119375495.624 6      6457.096    22300365.240    92847698.246 7      5022.186    22300366.020    92847698.250 7      5022.186
G32  24661872.720   129599014.236 7      3241.053    24661871.460   129599014.243 6      3241.053    24661886.460   100986307.993 6      2525.496    24661886.520   100986309.005 6      2525.496
G07  24460579.940   128541206.459 7      1099.793    24460578.440   128541206.464 4      1099.793    24460599.220   100162029.139 4       856.981    24460600.280   100162059.089 6       856.981
> 2025 04 04 15 42 25.0000000  0 12
G02  21215941.320   111490518.103 7      1758.910    21215938.920   111490518.113 6      1758.910    21215942.980    86875735.707 6      1370.580
G03  21666998.680   113860846.230 7      5792.542    21666997.740   113860846.235 6      5792.542    21667008.740    88722782.398 6      4513.669    21667009.240    88722784.407 8      4513.669
G08  20442746.900   107427354.396 8      2413.220    20442745.820   107427354.390 8      2413.220    20442753.280    83709655.912 8      1880.431    20442754.300    83709657.913 8      1880.431
G01  20942561.500   110053899.045 7      3230.622    20942560.200   110053899.050 6      3230.622    20942565.600    85756304.173 6      2517.368    20942565.940    85756304.177 8      2517.368
R15  20544648.220   109784364.744 8        53.820    20544649.120   109784364.745 7        53.820    20544660.540    85387890.524 8        41.860    20544660.700    85387891.526 8        41.860
R17  20807080.060   111342888.050 6      1885.567    20807081.320   111342888.064 6      1885.567    20807089.720    86600073.664 6      1466.552    20807091.200    86600071.681 6      1466.552
G27  22319407.240   117289270.128 7       646.707    22319406.160   117289270.130 7       646.707    22319416.900    91394276.363 7       503.928    22319417.560    91394278.360 7       503.928
R02  21227421.140   113273584.322 8      3851.618    21227421.040   113273584.328 7      3851.618    21227432.360    88101724.241 7      2995.703    21227432.760    88101727.242 7      2995.703
R18  21247118.480   113418561.150 5      3520.287    21247121.340   113418561.130 5      3520.287    21247126.540    88214478.777 5      2738.001    21247128.760    88214485.807 5      2738.001
R03  22299137.180   119369038.183 6      6457.937    22299137.120   119369038.203 6      6457.937    22299158.840    92842675.834 7      5022.840    22299159.240    92842675.841 7      5022.840
G32  24661255.780   129595772.920 7      3241.652    24661254.740   129595772.924 6      3241.652    24661269.740   100983782.304 6      2525.963    24661270.060   100983783.308 6      2525.963
G07  24460370.780   128540106.286 7      1100.677    24460369.220   128540106.291 4      1100.677    24460390.000   100161171.851 4       857.671    24460391.220   100161201.803 6       857.671
> 2025 04 04 15 42 26.0000000  0 12
G02  21215606.480   111488758.809 7      1759.780    21215604.280   111488758.817 6      1759.780    21215608.140    86874364.839 6      1371.257
G03  21665896.400   113855053.412 7      5793.206    21665895.400   113855053.420 6      5793.206    21665906.340    88718268.533 7      4514.186    21665906.940    88718270.541 8      4514.186
G08  20442287.600   107424940.871 8      2413.899    20442286.600   107424940.871 8      2413.899    20442294.020    83707775.254 8      1880.960    20442295.100    83707777.254 8      1880.960
G01  20941946.560   110050668.070 7      3231.434    20941945.360   110050668.075 6      3231.434    20941950.820    85753786.538 6      2518.000    20941951.040    85753786.547 8      2518.000
R15  20544638.040   109784310.788 8        54.223    20544638.720   109784310.790 7        54.223    20544650.640    85387848.565 8        42.173    20544650.760    85387849.565 8        42.173
R17  20806727.180   111341001.968 6      1886.597    20806729.060   111341001.988 6      1886.597    20806737.160    86598606.724 6      1467.353    20806738.620    86598604.743 6      1467.353
G27  22319284.160   117288623.028 7       647.576    22319283.000   117288623.033 7       647.576    22319293.960    91393772.134 7       504.605    22319294.360    91393774.132 7       504.605
R02  21226699.340   113269732.574 8      3851.886    21226699.060   113269732.580 7      3851.886    21226710.440    88098728.451 7      2995.911    21226710.980    88098731.455 7      2995.911
R18  21246458.260   113415040.484 5      3521.140    21246462.280   113415040.474 5      3521.140    21246467.040    88211740.498 5      2738.665    21246469.460    88211747.523 5      2738.665
R03  22297930.480   119362579.857 6      6458.855    22297930.640   119362579.875 6      6458.855    22297952.680    92837652.732 7      5023.554    22297953.120    92837652.736 7      5023.554
G32  24660638.660   129592530.983 7      3242.303    24660637.940   129592530.988 6      3242.303    24660652.860   100981256.135 6      2526.470    24660653.320   100981257.134 6      2526.470
G07  24460161.260   128539005.256 7      1101.449    24460159.860   128539005.263 4      1101.449    24460180.480   100160313.895 4       858.272    24460181.480   100160343.845 6       858.272
> 2025 04 04 15 42 27.0000000  0 12
G02  21215271.800   111486998.808 7      1760.229    21215269.320   111486998.821 6      1760.229    21215273.220    86872993.418 6      1371.607
G03  21664794.160   113849260.143 7      5793.276    21664792.880   113849260.153 6      5793.276    21664803.900    88713754.319 7      4514.241    21664804.180    88713756.330 8      4514.241
G08  20441828.360   107422526.852 8      2414.057    20441827.220   107422526.857 8      2414.057    20441834.740    83705894.212 8      1881.083    20441835.600    83705896.217 8      1881.083
G01  20941331.580   110047436.578 7      3231.605    20941330.500   110047436.583 6      3231.605    20941335.700    85751268.505 6      2518.134    20941336.260    85751268.515 8      2518.134
R15  20544628.260   109784256.622 8        54.138    20544628.780   109784256.623 7        54.138    20544640.340    85387806.437 7        42.108    20544640.300    85387807.440 8        42.108
R17  20806374.660   111339115.070 6      1887.241    20806376.740   111339115.090 6      1887.241    20806384.660    86597139.149 6      1467.854    20806385.920    86597137.164 6      1467.854
G27  22319160.840   117287975.398 7       647.666    22319159.780   117287975.405 7       647.666    22319170.580    91393267.495 7       504.675    22319170.880    91393269.493 7       504.675
R02  21225977.420   113265880.775 8      3851.602    21225977.400   113265880.781 7      3851.602    21225988.780    88095732.624 7      2995.690    21225989.140    88095735.625 7      2995.690
R18  21245798.100   113411519.091 5      3521.473    21245802.180   113411519.071 5      3521.473    21245807.480    88209001.639 5      2738.924    21245809.660    88209008.683 5      2738.924
R03  22296723.500   119356120.846 6      6459.230    22296724.020   119356120.850 6      6459.230    22296745.760    92832629.077 7      5023.845    22296746.180    92832629.084 7      5023.845
G32  24660021.880   129589288.642 7      3242.380    24660020.840   129589288.647 6      3242.380    24660035.880   100978729.653 6      2526.530    24660035.780   100978730.659 6      2526.530
G07  24459951.780   128537903.556 7      1101.839    24459950.300   128537903.564 4      1101.839    24459970.920   100159455.413 4       858.576    24459971.480   100159485.363 6       858.576
> 2025 04 04 15 42 28.0000000  0 12
G02  21214936.640   111485238.282 7      1760.738    21214934.220   111485238.290 6      1760.738    21214938.160    86871621.590 6      1372.004
G03  21663691.600   113843466.595 7      5793.553    21663690.420   113843466.603 7      5793.553    21663701.480    88709239.885 7      4514.457    21663702.060    88709241.894 8      4514.457
G08  20441368.860   107420112.497 8      2414.483    20441367.820   107420112.502 8      2414.483    20441375.280    83704012.907 8      1881.416    20441376.060    83704014.912 8      1881.416
G01  20940716.480   110044204.721 7      3231.995    20940715.480   110044204.728 6      3231.995    20940720.580    85748750.187 6      2518.438    20940721.060    85748750.193 8      2518.438
R15  20544618.180   109784202.416 8        54.165    20544618.800   109784202.422 7        54.165    20544630.200    85387764.283 8        42.129    20544630.240    85387765.287 8        42.129
R17  20806022.460   111337227.583 6      1887.635    20806024.280   111337227.600 6      1887.635    20806031.980    86595671.096 6      1468.161    20806033.240    86595669.113 6      1468.161
G27  22319037.360   117287327.347 7       648.186    22319036.460   117287327.349 7       648.186    22319047.320    91392762.522 7       505.080    22319047.800    91392764.521 7       505.080
R02  21225255.720   113262029.093 8      3851.498    21225255.440   113262029.107 8      3851.498    21225266.960    88092736.894 7      2995.610    21225267.360    88092739.896 7      2995.610
R18  21245139.460   113407997.093 5      3522.125    21245142.400   113407997.067 5      3522.125    21245147.820    88206262.315 5      2739.430    21245149.900    88206269.339 5      2739.430
R03  22295516.800   119349661.252 6      6459.845    22295516.800   119349661.283 6      6459.845    22295539.000    92827605.003 7      5024.324    22295539.580    92827605.007 7      5024.324
G32  24659404.660   129586046.038 7      3242.667    24659403.700   129586046.048 6      3242.667    24659418.720   100976202.968 6      2526.753    24659418.940   100976203.977 6      2526.753
G07  24459742.320   128536801.333 7      1102.388    24459740.620   128536801.338 4      1102.388    24459761.240   100158596.526 4       859.003    24459762.020   100158626.468 6       859.003
> 2025 04 04 15 42 29.0000000  0 12
G02  21214601.360   111483477.144 7      1761.616    21214598.960   111483477.154 6      1761.616    21214603.140    86870249.278 6      1372.687
G03  21662588.960   113837672.672 7      5794.265    21662587.860   113837672.682 6      5794.265    21662598.940    88704725.160 6      4515.012    21662599.560    88704727.168 8      4515.012
G08  20440909.280   107417697.753 8      2415.195    20440908.300   107417697.758 8      2415.195    20440915.740    83702131.299 8      1881.970    20440916.540    83702133.299 8      1881.970
G01  20940101.440   110040972.430 7      3232.696    20940100.320   110040972.437 6      3232.696    20940105.580    85746231.531 6      2518.984    20940106.100    85746231.543 8      2518.984
R15  20544608.140   109784148.108 8        54.529    20544608.460   109784148.117 7        54.529    20544620.220    85387722.039 7        42.411    20544620.180    85387723.044 8        42.411
R17  20805669.640   111335339.294 6      1888.674    20805671.340   111335339.306 6      1888.674    20805678.760    86594202.445 6      1468.969    20805680.080    86594200.462 6      1468.969
G27  22318914.160   117286678.841 7       648.949    22318913.100   117286678.843 7       648.949    22318923.940    91392257.193 7       505.675    22318924.280    91392259.196 7       505.675
R02  21224533.920   113258177.467 8      3851.811    21224533.760   113258177.473 7      3851.811    21224545.220    88089741.193 7      2995.853    21224545.580    88089744.195 7      2995.853
R18  21244480.500   113404474.414 5      3523.353    21244480.880   113404474.340 5      3523.353    21244488.180    88203522.435 5      2740.386    21244489.680    88203529.473 6      2740.386
R03  22294309.900   119343201.109 6      6460.626    22294310.360   119343201.140 6      6460.626    22294332.160    92822580.466 7      5024.931    22294332.740    92822580.470 7      5024.931
G32  24658787.680   129582803.148 7      3243.265    24658786.540   129582803.155 6      3243.265    24658801.460   100973676.058 6      2527.220    24658801.840   100973677.058 6      2527.220
G07  24459532.300   128535698.535 7      1103.403    24459530.580   128535698.540 4      1103.403    24459551.360   100157737.189 4       859.794    24459552.220   100157767.128 6       859.794
> 2025 04 04 15 42 30.0000000  0 12
G02  21214266.080   111481715.490 7      1761.697    21214263.820   111481715.498 6      1761.697    21214267.900    86868876.574 6      1372.751
G03  21661486.460   113831878.509 7      5794.150    21661485.180   113831878.509 6      5794.150    21661496.320    88700210.236 6      4514.922    21661496.960    88700212.245 8      4514.922
G08  20440449.680   107415282.725 8      2414.889    20440448.740   107415282.728 8      2414.889    20440456.300    83700249.467 8      1881.731    20440456.960    83700251.472 8      1881.731
G01  20939486.400   110037739.803 8      3232.584    20939485.080   110037739.810 6      3232.584    20939490.420    85743712.615 6      2518.896    20939491.080    85743712.625 8      2518.896
R15  20544598.220   109784093.781 7        54.031    20544598.320   109784093.793 7        54.031    20544610.140    85387679.800 8        42.024    20544610.080    85387680.802 8        42.024
R17  20805316.540   111333450.426 6      1888.850    20805318.040   111333450.441 6      1888.850    20805326.200    86592733.343 6      1469.105    20805327.560    86592731.360 6      1469.105
G27  22318790.740   117286029.991 7       648.686    22318789.500   117286029.996 7       648.686    22318800.380    91391751.608 7       505.470    22318800.980    91391753.607 7       505.470
R02  21223812.460   113254325.964 8      3851.215    21223811.820   113254325.970 8      3851.215    21223823.340    88086745.588 7      2995.390    21223823.780    88086748.592 7      2995.390
R18  21243820.080   113400951.107 5      3523.481    21243821.420   113400951.089 5      3523.481    21243828.640    88200782.152 5      2740.485    21243829.700    88200789.178 6      2740.485
R03  22293103.500   119336740.460 6      6460.609    22293103.860   119336740.464 6      6460.609    22293125.120    92817555.533 7      5024.918    22293125.620    92817555.537 7      5024.918
G32  24658170.360   129579560.055 6      3242.919    24658169.480   129579560.060 6      3242.919    24658184.320   100971148.982 6      2526.950    24658184.480   100971149.987 6      2526.950
G07  24459321.920   128534595.256 6      1103.295    24459320.420   128534595.259 4      1103.295    24459341.360   100156877.479 4       859.711    24459342.720   100156907.431 6       859.711
> 2025 04 04 15 42 31.0000000  0 13
G02  21213930.560   111479953.306 7      1762.474    21213928.400   111479953.311 6      1762.474    21213932.620    86867503.451 6      1373.356
G03  21660383.880   113826084.068 7      5794.688    21660382.600   113826084.073 6      5794.688    21660393.620    88695695.111 6      4515.341    21660394.200    88695697.122 8      4515.341
G08  20439990.020   107412867.361 8      2415.548    20439989.140   107412867.366 8      2415.548    20439996.600    83698367.371 8      1882.245    20439997.320    83698369.374 8      1882.245
G01  20938871.120   110034506.816 7      3233.230    20938869.860   110034506.823 6      3233.230    20938875.120    85741193.418 6      2519.400    20938875.680    85741193.427 8      2519.400
R15  20544587.740   109784039.433 8        54.385    20544588.240   109784039.442 7        54.385    20544599.780    85387637.537 8        42.299    20544599.720    85387638.540 8        42.299
R17  20804963.760   111331560.968 6      1889.635    20804965.440   111331560.991 6      1889.635    20804972.860    86591263.768 6      1469.716    20804974.600    86591261.781 6      1469.716
G27  22318667.360   117285380.729 7       649.487    22318665.940   117285380.723 7       649.487    22318676.920    91391245.686 7       506.094    22318677.600    91391247.688 7       506.094
R02  21223090.600   113250474.493 8      3851.516    21223090.140   113250474.502 7      3851.516    21223101.600    88083750.016 7      2995.623    21223101.840    88083753.018 7      2995.623
R18  21243159.760   113397427.334 5      3524.019    21243162.480   113397427.329 5      3524.019    21243168.240    88198041.445 5      2740.904    21243170.100    88198048.471 6      2740.904
R03  22291896.700   119330279.286 6      6461.356    22291896.320   119330279.312 6      6461.356    22291917.900    92812530.240 7      5025.499    22291918.620    92812530.243 7      5025.499
G32  24657553.460   129576316.695 7      3243.522    24657552.060   129576316.694 6      3243.522    24657567.120   100968621.700 6      2527.420    24657567.440   100968622.703 6      2527.420
G07  24459111.940   128533491.470 6      1104.162    24459110.420   128533491.475 4      1104.162    24459131.220   100156017.373 4       860.386    24459133.060   100156047.327 6       860.386
R16  21213671.780   113319626.226 6      3867.810
> 2025 04 04 15 42 32.0000000  0 13
G02  21213595.160   111478190.412 7      1763.311    21213592.940   111478190.420 6      1763.311    21213597.260    86866129.780 6      1374.009
G03  21659281.060   113820289.177 7      5795.299    21659279.860   113820289.182 6      5795.299    21659291.040    88691179.631 6      4515.817    21659291.600    88691181.642 8      4515.817
G08  20439530.300   107410451.501 8      2416.227    20439529.380   107410451.503 8      2416.227    20439536.900    83696484.888 8      1882.775    20439537.660    83696486.891 8      1882.775
G01  20938255.840   110031273.300 7      3233.943    20938254.480   110031273.305 6      3233.943    20938260.000    85738673.806 6      2519.955    20938260.440    85738673.815 8      2519.955
R15  20544577.500   109783984.871 8        54.809    20544577.880   109783984.880 7        54.809    20544589.600    85387595.103 8        42.629    20544589.600    85387596.107 8        42.629
R17  20804610.460   111329670.613 6      1890.851    20804611.920   111329670.649 6      1890.851    20804619.660    86589793.509 6      1470.662    20804621.020    86589791.524 6      1470.662
G27  22318543.580   117284730.897 7       650.325    22318542.460   117284730.899 7       650.325    22318553.320    91390739.331 7       506.747    22318553.980    91390741.331 7       506.747
R02  21222368.860   113246622.907 8      3851.739    21222368.080   113246622.913 7      3851.739    21222379.660    88080754.355 7      2995.797    21222380.100    88080757.355 7      2995.797
R18  21242499.080   113393902.720 5      3525.080    21242502.000   113393902.737 5      3525.080    21242508.080    88195300.118 5      2741.729    21242509.660    88195307.140 6      2741.729
R03  22290689.620   119323817.452 6      6462.411    22290689.280   119323817.459 6      6462.411    22290711.320    92807504.390 7      5026.320    22290711.640    92807504.392 7      5026.320
G32  24656935.740   129573072.916 7      3244.096    24656934.720   129573072.918 6      3244.096    24656949.880   100966094.095 6      2527.867    24656950.540   100966095.108 6      2527.867
G07  24458901.980   128532386.996 7      1105.023    24458900.260   128532387.001 4      1105.023    24458921.000   100155156.734 4       861.057    24458922.120   100155186.683 6       861.057
R16  21212947.520   113315758.363 6      3867.972
> 2025 04 04 15 42 33.0000000  0 13
G02  21213259.460   111476426.833 7      1763.710    21213257.380   111476426.838 6      1763.710    21213261.720    86864755.571 6      1374.319
G03  21658178.060   113814493.845 7      5795.356    21658176.980   113814493.850 6      5795.356    21658188.240    88686663.804 7      4515.862    21658188.840    88686665.809 8      4515.862
G08  20439070.520   107408035.178 8      2416.217    20439069.600   107408035.177 8      2416.217    20439077.160    83694602.047 8      1882.766    20439077.900    83694604.050 8      1882.766
G01  20937640.320   110028039.286 7      3233.960    20937639.160   110028039.293 6      3233.960    20937644.540    85736153.805 6      2519.969    20937645.200    85736153.818 8      2519.969
R15  20544567.180   109783930.109 8        54.643    20544567.520   109783930.110 8        54.643    20544579.440    85387552.506 7        42.500    20544579.280    85387553.510 8        42.500
R17  20804257.260   111327779.546 6      1891.096    20804258.660   111327779.569 6      1891.096    20804266.120    86588322.681 6      1470.853    20804267.560    86588320.690 6      1470.853
G27  22318419.860   117284080.549 7       650.324    22318418.580   117284080.554 7       650.324    22318429.480    91390232.575 7       506.746    22318430.060    91390234.577 7       506.746
R02  21221647.000   113242771.217 8      3851.433    21221646.340   113242771.224 8      3851.433    21221657.760    88077758.607 7      2995.559    21221658.200    88077761.604 7      2995.559
R18  21241838.760   113390377.332 5      3525.813    21241840.320   113390377.322 5      3525.813    21241847.580    88192558.127 5      2742.299    21241849.360    88192565.149 6      2742.299
R03  22289482.740   119317355.001 6      6462.555    22289481.840   119317355.014 6      6462.555    22289503.740    92802478.079 7      5026.432    22289504.380    92802478.079 7      5026.432
G32  24656318.440   129569828.746 7      3244.107    24656317.460   129569828.751 6      3244.107    24656332.560   100963566.195 6      2527.876    24656333.240   100963567.210 6      2527.876
G07  24458692.120   128531281.901 6      1105.103    24458690.020   128531281.904 4      1105.103    24458710.880   100154295.609 4       861.119    24458712.120   100154325.550 6       861.119
R16  21212223.360   113311890.506 6      3867.503
> 2025 04 04 15 42 34.0000000  0 13
G02  21212923.600   111474662.565 7      1764.581    21212921.700   111474662.567 6      1764.581    21212926.000    86863380.825 6      1374.998
G03  21657075.380   113808698.088 7      5795.956    21657074.140   113808698.093 6      5795.956    21657085.480    88682147.640 6      4516.330    21657086.100    88682149.644 8      4516.330
G08  20438610.620   107405618.332 8      2417.025    20438609.680   107405618.339 8      2417.025    20438617.180    83692718.805 8      1883.396    20438618.080    83692720.808 8      1883.396
G01  20937024.720   110024804.722 7      3234.825    20937023.580   110024804.724 6      3234.825    20937029.000    85733633.376 6      2520.643    20937029.600    85733633.383 8      2520.643
R15  20544556.900   109783875.098 8        55.053    20544557.380   109783875.102 7        55.053    20544569.320    85387509.724 7        42.819    20544569.140    85387510.728 8        42.819
R17  20803903.600   111325887.623 6      1892.377    20803905.040   111325887.652 6      1892.377    20803912.560    86586851.196 6      1471.849    20803914.260    86586849.211 6      1471.849
G27  22318296.040   117283429.626 7       651.206    22318294.780   117283429.629 7       651.206    22318305.640    91389725.362 7       507.433    22318305.980    91389727.363 7       507.433
R02  21220925.320   113238919.482 8      3851.724    21220924.460   113238919.488 7      3851.724    21220936.200    88074762.817 7      2995.785    21220936.200    88074765.819 7      2995.785
R18  21241177.700   113386851.281 5      3526.475    21241179.840   113386851.274 5      3526.475    21241187.440    88189815.677 5      2742.814    21241188.600    88189822.686 6      2742.814
R03  22288275.380   119310891.903 6      6463.145    22288274.360   119310891.921 6      6463.145    22288296.380    92797451.261 7      5026.891    22288297.080    92797451.265 7      5026.891
G32  24655700.780   129566584.185 7      3244.775    24655700.120   129566584.192 6      3244.775    24655715.040   100961037.983 6      2528.396    24655715.800   100961038.983 6      2528.396
G07  24458481.540   128530176.105 7      1105.968    24458479.600   128530176.108 4      1105.968    24458500.380   100153433.935 4       861.793    24458502.040   100153463.879 6       861.793
R16  21211499.020   113308022.651 6      3867.896
> 2025 04 04 15 42 35.0000000  0 13
G02  21212588.020   111472897.546 7      1765.234    21212585.940   111472897.551 6      1765.234    21212590.120    86862005.493 6      1375.507
G03  21655972.320   113802901.815 7      5796.402    21655971.080   113802901.820 6      5796.402    21655982.460    88677631.080 7      4516.677    21655982.960    88677633.089 8      4516.677
G08  20438150.620   107403200.984 8      2417.430    20438149.680   107403200.983 8      2417.430    20438157.180    83690835.160 8      1883.712    20438158.080    83690837.162 8      1883.712
G01  20936409.200   110021569.617 8      3235.196    20936407.960   110021569.622 6      3235.196    20936413.480    85731112.524 6      2520.932    20936413.800    85731112.530 8      2520.932
R15  20544546.840   109783819.850 8        55.168    20544546.760   109783819.853 7        55.168    20544558.820    85387466.753 8        42.909    20544558.720    85387467.757 8        42.909
R17  20803550.160   111323994.914 6      1893.080    20803552.420   111323994.926 6      1893.080    20803559.040    86585379.091 6      1472.395    20803560.600    86585377.106 6      1472.395
G27  22318172.000   117282778.128 7       651.599    22318170.820   117282778.128 7       651.599    22318181.680    91389217.699 7       507.740    22318181.980    91389219.698 7       507.740
R02  21220203.580   113235067.688 8      3851.628    21220202.660   113235067.689 7      3851.628    21220214.540    88071766.996 7      2995.711    21220214.460    88071769.996 7      2995.711
R18  21240517.660   113383324.452 5      3527.196    21240519.380   113383324.426 5      3527.196    21240526.880    88187072.571 5      2743.375    21240527.900    88187079.584 6      2743.375
R03  22287067.900   119304427.997 6      6464.193    22287066.340   119304428.012 6      6464.193    22287089.040    92792423.807 7      5027.705    22287089.560    92792423.809 7      5027.705
G32  24655083.360   129563339.177 6      3245.074    24655082.540   129563339.179 6      3245.074    24655097.660   100958509.412 6      2528.629    24655098.200   100958510.417 6      2528.629
G07  24458271.040   128529069.571 7      1106.721    24458269.120   128529069.573 4      1106.721    24458289.960   100152571.690 4       862.380    24458291.260   100152601.659 6       862.380
R16  21210774.740   113304154.804 6      3867.524
> 2025 04 04 15 42 36.0000000  0 13
G02  21212252.140   111471131.980 7      1765.812    21212249.840   111471131.988 6      1765.812    21212254.140    86860629.736 6      1375.957
G03  21654869.240   113797105.274 7      5796.543    21654868.040   113797105.279 6      5796.543    21654879.340    88673114.315 6      4516.787    21654880.060    88673116.324 8      4516.787
G08  20437690.500   107400783.273 7      2417.811    20437689.580   107400783.273 8      2417.811    20437697.180    83688951.240 8      1884.008    20437698.100    83688953.242 8      1884.008
G01  20935793.480   110018334.108 7      3235.595    20935792.320   110018334.110 6      3235.595    20935797.700    85728591.360 6      2521.243    20935798.180    85728591.366 8      2521.243
R15  20544536.340   109783764.542 7        55.245    20544536.440   109783764.543 7        55.245    20544548.540    85387423.740 8        42.969    20544548.400    85387424.744 8        42.969
R17  20803196.260   111322101.546 6      1893.622    20803198.460   111322101.561 6      1893.622    20803205.520    86583906.474 6      1472.817    20803206.600    86583904.486 6      1472.817
G27  22318047.880   117282126.202 7       652.107    22318046.780   117282126.199 7       652.107    22318057.560    91388709.704 7       508.135    22318058.120    91388711.709 7       508.135
R02  21219481.620   113231215.985 8      3851.587    21219480.720   113231215.989 7      3851.587    21219492.520    88068771.245 7      2995.679    21219492.900    88068774.243 7      2995.679
R18  21239857.280   113379796.993 5      3527.912    21239858.640   113379796.932 5      3527.912    21239865.740    88184328.985 5      2743.932    21239867.200    88184335.996 6      2743.932
R03  22285860.160   119297963.593 6      6464.792    22285858.980   119297963.608 6      6464.792    22285881.560    92787395.971 7      5028.172    22285881.760    92787395.971 7      5028.172
G32  24654465.960   129560093.904 7      3245.286    24654464.920   129560093.908 6      3245.286    24654480.060   100955980.648 6      2528.794    24654480.600   100955981.664 6      2528.794
G07  24458060.580   128527962.524 7      1107.328    24458058.460   128527962.524 4      1107.328    24458079.480   100151709.044 4       862.853    24458080.460   100151739.006 6       862.853
R16  21210050.980   113300287.059 6      3867.649
> 2025 04 04 15 42 37.0000000  0 13
G02  21211916.260   111469365.899 7      1766.257    21211913.820   111469365.904 6      1766.257    21211918.080    86859253.575 6      1376.304
G03  21653766.060   113791308.434 7      5796.889    21653765.080   113791308.439 6      5796.889    21653776.240    88668597.316 7      4517.056    21653776.780    88668599.324 8      4517.056
G08  20437230.520   107398365.261 8      2418.073    20437229.480   107398365.260 8      2418.073    20437237.080    83687067.080 8      1884.213    20437237.980    83687069.083 8      1884.213
G01  20935177.660   110015098.262 7      3235.903    20935176.640   110015098.269 6      3235.903    20935181.920    85726069.936 6      2521.483    20935182.440    85726069.944 8      2521.483
R15  20544526.060   109783709.232 7        55.220    20544526.040   109783709.234 7        55.220    20544538.200    85387380.725 8        42.949    20544538.160    85387381.728 8        42.949
R17  20802842.020   111320207.601 6      1894.147    20802844.660   111320207.632 6      1894.147    20802851.120    86582433.434 6      1473.225    20802852.580    86582431.445 6      1473.225
G27  22317924.060   117281473.894 7       652.435    22317922.580   117281473.899 7       652.435    22317933.500    91388201.425 7       508.391    22317934.120    91388203.430 7       508.391
R02  21218759.700   113227364.410 8      3851.498    21218758.840   113227364.419 7      3851.498    21218771.000    88065775.601 7      2995.609    21218771.100    88065778.601 7      2995.609
R18  21239196.040   113376269.000 5      3528.044    21239198.280   113376268.931 5      3528.044    21239205.640    88181584.996 5      2744.034    21239206.560    88181592.014 6      2744.034
R03  22284653.120   119291498.739 6      6464.734    22284650.760   119291498.760 6      6464.734    22284673.820    92782367.793 7      5028.126    22284674.220    92782367.795 7      5028.126
G32  24653848.500   129556848.404 7      3245.536    24653847.400   129556848.409 6      3245.536    24653862.440   100953451.695 6      2528.989    24653862.920   100953452.699 6      2528.989
G07  24457849.860   128526855.004 7      1107.854    24457847.800   128526855.004 4      1107.854    24457868.680   100150846.031 4       863.263    24457869.840   100150875.971 6       863.263
R16  21209327.460   113296419.568 6      3867.335
> 2025 04 04 15 42 38.0000000  0 13
G02  21211579.880   111467599.072 7      1767.355    21211577.640   111467599.077 6      1767.355    21211581.900    86857876.835 6      1377.160
G03  21652663.200   113785511.140 7      5797.566    21652661.760   113785511.145 6      5797.566    21652673.020    88664079.959 7      4517.584    21652673.680    88664081.968 8      4517.584
G08  20436770.420   107395946.730 8      2418.883    20436769.300   107395946.735 8      2418.883    20436776.940    83685182.521 8      1884.844    20436777.800    83685184.528 8      1884.844
G01  20934562.200   110011861.856 7      3236.795    20934560.600   110011861.864 6      3236.795    20934566.020    85723548.071 6      2522.178    20934566.420    85723548.080 8      2522.178
R15  20544515.820   109783653.698 8        55.679    20544515.860   109783653.699 7        55.679    20544527.860    85387337.536 8        43.306    20544527.880    85387338.538 7        43.306
R17  20802487.520   111318312.823 6      1895.335    20802490.240   111318312.843 6      1895.335    20802497.580    86580959.710 6      1474.149    20802498.440    86580957.720 6      1474.149
G27  22317799.960   117280821.029 7       653.273    22317798.320   117280821.029 7       653.273    22317809.360    91387692.697 7       509.044    22317809.700    91387694.698 7       509.044
R02  21218037.480   113223512.712 8      3851.911    21218037.120   113223512.716 7      3851.911    21218049.020    88062779.838 7      2995.930    21218049.400    88062782.833 7      2995.930
R18  21238535.680   113372740.115 5      3529.423    21238537.600   113372740.060 5      3529.423    21238544.560    88178840.333 5      2745.107    21238545.100    88178847.349 6      2745.107
R03  22283445.120   119285033.080 6      6466.120    22283442.960   119285033.103 6      6466.120    22283465.660    92777338.978 7      5029.204    22283466.160    92777338.978 7      5029.204
G32  24653230.940   129553602.463 7      3246.242    24653229.700   129553602.466 6      3246.242    24653244.820   100950922.405 6      2529.539    24653244.940   100950923.409 6      2529.539
G07  24457639.000   128525746.770 7      1108.729    24457636.860   128525746.772 4      1108.729    24457657.900   100149982.462 4       863.945    24457659.160   100150012.414 6       863.945
R16  21208603.140   113292552.042 6      3867.643    21208605.280   113292552.077 6      3867.643    21208615.180    88116476.532 6      3008.167
> 2025 04 04 15 42 39.0000000  0 13
G02  21211243.480   111465831.515 7      1767.837    21211241.200   111465831.520 6      1767.837    21211245.520    86856499.528 6      1377.535
G03  21651560.000   113779713.343 7      5797.862    21651558.440   113779713.348 6      5797.862    21651569.720    88659562.212 7      4517.814    21651570.200    88659564.221 8      4517.814
G08  20436310.080   107393527.672 8      2419.229    20436309.040   107393527.672 8      2419.229    20436316.560    83683297.547 8      1885.113    20436317.420    83683299.549 8      1885.113
G01  20933946.040   110008624.899 7      3237.050    20933944.660   110008624.906 6      3237.050    20933950.040    85721025.777 6      2522.377    20933950.480    85721025.788 8      2522.377
R15  20544505.420   109783597.923 7        55.762    20544505.340   109783597.927 7        55.762    20544517.420    85387294.156 7        43.370    20544517.360    85387295.160 8        43.370
R17  20802132.940   111316417.181 6      1895.850    20802136.040   111316417.201 6      1895.850    20802143.340    86579485.342 6      1474.550    20802144.980    86579483.355 6      1474.550
G27  22317675.360   117280167.540 7       653.613    22317673.980   117280167.542 7       653.613    22317684.820    91387183.495 7       509.309    22317685.420    91387185.499 7       509.309
R02  21217315.880   113219660.825 8      3851.870    21217315.220   113219660.831 7      3851.870    21217327.020    88059783.942 7      2995.899    21217327.720    88059786.942 7      2995.899
R18  21237873.580   113369210.512 5      3529.762    21237875.720   113369210.471 5      3529.762    21237883.160    88176095.106 5      2745.370    21237884.340    88176102.129 5      2745.370
R03  22282236.840   119278566.738 6      6466.615    22282234.960   119278566.761 6      6466.615    22282257.720    92772309.650 7      5029.590    22282258.260    92772309.651 7      5029.590
G32  24652613.020   129550356.081 7      3246.570    24652612.080   129550356.089 6      3246.570    24652627.080   100948392.775 6      2529.795    24652627.360   100948393.779 6      2529.795
G07  24457427.740   128524637.831 7      1109.223    24457425.820   128524637.831 4      1109.223    24457446.900   100149118.340 4       864.329    24457448.240   100149148.294 6       864.329
R16  21207879.120   113288684.462 6      3867.431    21207881.160   113288684.493 6      3867.431    21207890.840    88113468.425 6      3008.002    21207888.920    88113460.920 6      3008.002
> 2025 04 04 15 42 40.0000000  0 13
G02  21210907.060   111464063.548 7      1768.063    21210904.800   111464063.552 6      1768.063    21210909.040    86855121.899 6      1377.711
G03  21650456.380   113773915.407 7      5797.820    21650455.160   113773915.415 6      5797.820    21650466.420    88655044.359 7      4517.782    21650467.100    88655046.367 8      4517.782
G08  20435849.600   107391108.411 8      2419.278    20435848.600   107391108.411 8      2419.278    20435856.180    83681412.417 8      1885.152    20435856.940    83681414.419 8      1885.152
G01  20933329.880   110005387.689 7      3237.244    20933328.660   110005387.697 6      3237.244    20933333.980    85718503.286 6      2522.528    20933334.520    85718503.295 8      2522.528
R15  20544494.780   109783542.239 8        55.570    20544494.720   109783542.243 7        55.570    20544507.000    85387250.850 8        43.221    20544506.740    85387251.852 8        43.221
R17  20801778.860   111314521.020 6      1896.277    20801781.540   111314521.035 6      1896.277    20801789.080    86578010.550 6      1474.882    20801790.140    86578008.565 6      1474.882
G27  22317551.100   117279513.787 7       653.852    22317549.560   117279513.786 7       653.852    22317560.500    91386674.081 7       509.495    22317561.380    91386676.084 7       509.495
R02  21216594.020   113215809.168 8      3851.360    21216593.260   113215809.174 7      3851.360    21216605.360    88056788.229 8      2995.502    21216605.900    88056791.227 7      2995.502
R18  21237212.120   113365680.365 5      3530.265    21237214.180   113365680.377 5      3530.265    21237222.280    88173349.496 5      2745.762    21237223.100    88173356.507 5      2745.762
R03  22281028.260   119272100.086 6      6466.572    22281027.380   119272100.084 6      6466.572    22281049.900    92767280.046 7      5029.556    22281050.120    92767280.043 7      5029.556
G32  24651995.020   129547109.602 7      3246.460    24651994.280   129547109.604 6      3246.460    24652009.480   100945863.059 6      2529.709    24652010.000   100945864.065 6      2529.709
G07  24457216.340   128523528.509 7      1109.392    24457214.820   128523528.509 4      1109.392    24457235.940   100148253.924 4       864.461    24457236.660   100148283.878 6       864.461
R16  21207155.000   113284817.182 6      3867.007    21207157.000   113284817.217 6      3867.007    21207167.000    88110460.550 6      3007.672    21207165.100    88110453.048 6      3007.672
> 2025 04 04 15 42 41.0000000  0 13
G02  21210570.580   111462295.031 7      1768.790    21210568.360   111462295.039 6      1768.790    21210572.480    86853743.847 6      1378.278
G03  21649352.680   113768117.169 7      5798.306    21649351.820   113768117.174 6      5798.306    21649363.100    88650526.270 6      4518.161    21649363.580    88650528.280 8      4518.161
G08  20435389.300   107388688.822 8      2419.788    20435388.200   107388688.819 8      2419.788    20435395.780    83679527.031 8      1885.549    20435396.680    83679529.034 8      1885.549
G01  20932713.880   110002150.125 7      3237.769    20932712.580   110002150.132 6      3237.769    20932717.920    85715980.517 6      2522.937    20932718.260    85715980.528 8      2522.937
R15  20544484.480   109783486.510 7        55.704    20544484.300   109783486.514 7        55.704    20544496.480    85387207.509 7        43.326    20544496.420    85387208.511 7        43.326
R17  20801424.660   111312624.225 6      1897.106    20801427.320   111312624.240 6      1897.106    20801434.500    86576535.276 6      1475.527    20801435.920    86576533.293 6      1475.527
G27  22317426.520   117278859.658 7       654.325    22317425.260   117278859.663 7       654.325    22317436.060    91386164.373 7       509.864    22317436.580    91386166.375 7       509.864
R02  21215872.480   113211957.624 8      3851.467    21215871.560   113211957.636 7      3851.467    21215883.660    88053792.591 8      2995.586    21215884.020    88053795.588 7      2995.586
R18  21236550.880   113362149.725 5      3531.101    21236552.700   113362149.683 5      3531.101    21236560.880    88170603.407 5      2746.412    21236561.700    88170610.428 5      2746.412
R03  22279820.680   119265632.866 6      6467.418    22279818.600   119265632.854 6      6467.418    22279841.660    92762250.010 7      5030.214    22279841.800    92762250.012 7      5030.214
G32  24651377.160   129543862.857 7      3246.804    24651376.340   129543862.856 6      3246.804    24651391.540   100943333.144 6      2529.977    24651392.240   100943334.150 6      2529.977
G07  24457005.360   128522418.667 7      1110.097    24457003.600   128522418.669 4      1110.097    24457024.640   100147389.102 4       865.011    24457026.220   100147419.054 6       865.011
R16  21206430.940   113280950.091 6      3866.943    21206432.860   113280950.129 6      3866.943    21206443.040    88107452.834 6      3007.623    21206441.180    88107445.834 7      3007.623
> 2025 04 04 15 42 42.0000000  0 13
G02  21210233.960   111460526.042 7      1769.277    21210231.680   111460526.047 6      1769.277    21210235.880    86852365.421 6      1378.658
G03  21648249.440   113762318.708 7      5798.568    21648248.300   113762318.710 6      5798.568    21648259.640    88646008.000 7      4518.365    21648260.000    88646010.013 8      4518.365
G08  20434928.840   107386268.968 8      2420.068    20434927.800   107386268.967 8      2420.068    20434935.220    83677641.438 8      1885.767    20434936.220    83677643.441 8      1885.767
G01  20932097.900   109998912.251 7      3238.089    20932096.420   109998912.258 6      3238.089    20932101.780    85713457.511 6      2523.187    20932102.240    85713457.523 8      2523.187
R15  20544474.220   109783430.764 7        55.725    20544473.920   109783430.763 7        55.725    20544486.160    85387164.151 8        43.341    20544486.080    85387165.154 8        43.341
R17  20801070.020   111310726.860 6      1897.656    20801072.520   111310726.867 6      1897.656    20801080.120    86575059.539 6      1475.954    20801081.000    86575057.562 6      1475.954
G27  22317301.880   117278205.178 7       654.765    22317300.560   117278205.183 7       654.765    22317311.520    91385654.388 7       510.206    22317312.020    91385656.392 7       510.206
R02  21215150.660   113208106.279 8      3851.250    21215149.720   113208106.290 7      3851.250    21215161.780    88050797.119 8      2995.417    21215162.180    88050800.122 7      2995.417
R18  21235889.300   113358618.550 5      3531.372    21235891.320   113358618.521 5      3531.372    21235899.360    88167856.950 5      2746.623    21235900.460    88167863.984 5      2746.623
R03  22278612.740   119259165.183 6      6467.878    22278610.520   119259165.187 6      6467.878    22278633.540    92757219.631 7      5030.572    22278634.000    92757219.635 7      5030.572
G32  24650759.400   129540615.939 7      3247.039    24650758.480   129540615.935 6      3247.039    24650773.580   100940803.089 6      2530.160    24650774.880   100940804.086 6      2530.160
G07  24456794.040   128521308.375 7      1110.520    24456792.360   128521308.380 4      1110.520    24456813.320   100146523.929 4       865.341    24456814.300   100146553.889 6       865.341
R16  21205706.680   113277083.246 6      3866.722    21205709.080   113277083.295 6      3866.722    21205719.200    88104445.298 6      3007.450    21205717.780    88104438.300 7      3007.450
> 2025 04 04 15 42 43.0000000  0 13
G02  21209897.200   111458756.545 7      1769.837    21209895.080   111458756.553 6      1769.837    21209899.220    86850986.603 6      1379.094
G03  21647146.060   113756520.008 7      5798.858    21647144.820   113756520.007 6      5798.858    21647156.220    88641489.549 7      4518.590    21647156.700    88641491.556 8      4518.590
G08  20434468.260   107383848.822 8      2420.328    20434467.200   107383848.821 8      2420.328    20434474.760    83675755.618 8      1885.970    20434475.460    83675757.625 8      1885.970
G01  20931481.560   109995674.050 7      3238.457    20931480.180   109995674.058 6      3238.457    20931485.400    85710934.250 6      2523.473    20931486.160    85710934.256 8      2523.473
R15  20544463.740   109783375.003 8        55.801    20544463.500   109783374.996 7        55.801    20544475.520    85387120.786 7        43.401    20544475.780    85387121.786 8        43.401
R17  20800715.320   111308828.896 6      1898.312    20800717.460   111308828.895 6      1898.312    20800725.700    86573583.357 6      1476.465    20800726.600    86573581.378 6      1476.465
G27  22317177.320   117277550.353 7       655.172    22317176.080   117277550.350 7       655.172    22317186.940    91385144.135 7       510.524    22317187.400    91385146.137 7       510.524
R02  21214428.860   113204255.075 8      3851.244    21214428.140   113204255.083 7      3851.244    21214440.360    88047801.752 7      2995.412    21214440.800    88047804.750 7      2995.412
R18  21235227.120   113355086.791 5      3531.996    21235229.880   113355086.773 5      3531.996    21235237.900    88165110.049 5      2747.108    21235238.780    88165117.064 6      2747.108
R03  22277404.080   119252697.026 6      6468.492    22277402.200   119252697.028 6      6468.492    22277425.300    92752188.880 7      5031.050    22277425.420    92752188.878 7      5031.050
G32  24650141.520   129537368.813 7      3247.261    24650140.740   129537368.810 6      3247.261    24650155.740   100938272.879 6      2530.333    24650156.920   100938273.887 6      2530.333
G07  24456582.460   128520197.600 6      1111.123    24456581.040   128520197.602 4      1111.123    24456601.940   100145658.382 4       865.810    24456602.880   100145688.346 6       865.810
R16  21204982.740   113273216.665 6      3866.410    21204985.600   113273216.704 6      3866.410    21204995.300    88101437.966 6      3007.208    21204994.160    88101430.966 7      3007.208
> 2025 04 04 15 42 44.0000000  0 13
G02  21209560.320   111456986.494 7      1770.235    21209558.320   111456986.502 6      1770.235    21209562.520    86849607.349 6      1379.404
G03  21646042.520   113750721.002 7      5799.063    21646041.480   113750721.002 6      5799.063    21646052.740    88636970.858 7      4518.750    21646053.080    88636972.869 8      4518.750
G08  20434007.540   107381428.316 8      2420.595    20434006.660   107381428.318 8      2420.595    20434014.200    83673869.520 8      1886.178    20434014.760    83673871.524 8      1886.178
G01  20930864.980   109992435.472 7      3238.668    20930863.920   109992435.479 6      3238.668    20930869.200    85708410.693 6      2523.637    20930869.780    85708410.701 8      2523.637
R15  20544453.380   109783319.175 7        55.851    20544452.940   109783319.176 7        55.851    20544465.280    85387077.366 7        43.440    20544465.440    85387078.368 7        43.440
R17  20800360.640   111306930.262 6      1898.968    20800362.020   111306930.269 6      1898.968    20800370.720    86572106.653 6      1476.975    20800371.700    86572104.668 6      1476.975
G27  22317052.480   117276895.100 7       655.440    22317051.320   117276895.108 7       655.440    22317062.260    91384633.562 7       510.732    22317062.680    91384635.563 7       510.732
R02  21213707.160   113200403.905 8      3851.163    21213706.400   113200403.914 7      3851.163    21213718.400    88044806.408 7      2995.349    21213718.960    88044809.410 7      2995.349
R18  21234565.980   113351554.410 5      3532.721    21234567.440   113351554.381 5      3532.721    21234577.140    88162362.644 6      2747.672    21234577.240    88162369.663 6      2747.672
R03  22276195.420   119246228.321 6      6468.978    22276193.700   119246228.328 6      6468.978    22276216.880    92747157.700 7      5031.427    22276217.080    92747157.705 7      5031.427
G32  24649523.580   129534121.395 7      3247.474    24649522.740   129534121.395 6      3247.474    24649537.740   100935742.442 6      2530.499    24649538.480   100935743.456 6      2530.499
G07  24456370.980   128519086.296 7      1111.579    24456369.780   128519086.296 4      1111.579    24456390.600   100144792.415 4       866.165    24456391.060   100144822.373 6       866.165
R16  21204258.980   113269350.165 6      3866.502    21204261.080   113269350.209 6      3866.502    21204271.740    88098430.704 6      3007.280    21204270.320    88098423.702 7      3007.280
> 2025 04 04 15 42 45.0000000  0 13
G02  21209223.380   111455215.747 7      1771.075    21209221.260   111455215.754 6      1771.075    21209225.620    86848227.556 6      1380.059
G03  21644938.920   113744921.550 7      5799.600    21644937.820   113744921.555 7      5799.600    21644949.000    88632451.825 7      4519.169    21644949.680    88632453.840 8      4519.169
G08  20433547.080   107379007.336 8      2421.132    20433545.900   107379007.341 8      2421.132    20433553.440    83671983.051 8      1886.597    20433554.060    83671985.053 8      1886.597
G01  20930248.800   109989196.363 7      3239.401    20930247.600   109989196.370 6      3239.401    20930252.720    85705886.722 6      2524.209    20930253.240    85705886.732 8      2524.209
R15  20544442.800   109783263.197 8        56.033    20544442.680   109783263.198 7        56.033    20544454.640    85387033.834 8        43.582    20544454.820    85387034.832 8        43.582
R17  20800005.520   111305030.891 6      1899.710    20800007.620   111305030.906 6      1899.710    20800016.300    86570629.384 6      1477.552    20800016.980    86570627.397 6      1477.552
G27  22316927.800   117276239.316 7       655.986    22316926.480   117276239.327 7       655.986    22316937.460    91384122.570 7       511.158    22316937.940    91384124.573 7       511.158
R02  21212985.240   113196552.632 8      3851.337    21212984.300   113196552.640 7      3851.337    21212996.600    88041810.994 7      2995.485    21212997.160    88041813.996 7      2995.485
R18  21233903.960   113348021.332 5      3533.254    21233904.660   113348021.306 5      3533.254    21233914.960    88159614.696 6      2748.086    21233915.340    88159621.716 6      2748.086
R03  22274986.400   119239758.936 6      6469.667    22274984.600   119239758.972 6      6469.667    22275008.400    92742126.008 7      5031.963    22275008.600    92742126.013 7      5031.963
G32  24648905.420   129530873.615 7      3247.970    24648904.600   129530873.612 6      3247.970    24648919.840   100933211.719 6      2530.886    24648920.180   100933212.726 6      2530.886
G07  24456159.540   128517974.336 7      1112.235    24456158.160   128517974.338 4      1112.235    24456179.100   100143925.940 4       866.677    24456179.500   100143955.912 6       866.677
R16  21203535.260   113265483.758 6      3866.366    21203537.060   113265483.796 6      3866.366    21203547.780    88095423.507 6      3007.173    21203546.440    88095416.503 7      3007.173
> 2025 04 04 15 42 46.0000000  0 13
G02  21208886.240   111453444.382 7      1771.406    21208884.280   111453444.387 6      1771.406    21208888.380    86846847.280 6      1380.316
G03  21643835.240   113739121.731 7      5799.761    21643834.180   113739121.733 6      5799.761    21643845.420    88627932.503 7      4519.294    21643845.820    88627934.512 8      4519.294
G08  20433086.180   107376585.945 8      2421.311    20433085.100   107376585.950 8      2421.311    20433092.580    83670096.262 8      1886.736    20433093.400    83670098.265 8      1886.736
G01  20929632.480   109985956.812 7      3239.568    20929631.020   109985956.820 6      3239.568    20929636.260    85703362.407 6      2524.339    20929636.700    85703362.417 8      2524.339
R15  20544432.440   109783207.101 7        55.835    20544431.920   109783207.100 7        55.835    20544444.100    85386990.206 8        43.427    20544444.380    85386991.206 8        43.427
R17  20799650.440   111303130.762 6      1900.243    20799652.460   111303130.769 6      1900.243    20799660.720    86569151.496 6      1477.966    20799661.960    86569149.515 6      1477.966
G27  22316803.080   117275583.039 7       656.225    22316801.680   117275583.041 7       656.225    22316812.520    91383611.187 7       511.344    22316812.780    91383613.188 7       511.344
R02  21212263.520   113192701.337 8      3850.966    21212262.660   113192701.343 7      3850.966    21212274.980    88038815.551 7      2995.196    21212275.460    88038818.548 7      2995.196
R18  21233242.040   113344487.534 5      3533.952    21233243.600   113344487.471 5      3533.952    21233252.640    88156866.164 6      2748.629    21233253.680    88156873.181 6      2748.629
R03  22273777.780   119233288.970 6      6470.065    22273777.440   119233288.990 6      6470.065    22273799.520    92737093.831 7      5032.273    22273799.720    92737093.831 7      5032.273
G32  24648287.580   129527625.499 7      3247.987    24648286.400   129527625.493 6      3247.987    24648301.740   100930680.733 6      2530.899    24648301.700   100930681.737 6      2530.899
G07  24455947.720   128516861.774 7      1112.591    24455946.500   128516861.776 4      1112.591    24455967.500   100143058.996 4       866.954    24455967.980   100143088.965 6       866.954
R16  21202811.340   113261617.380 6      3865.977    21202813.280   113261617.405 6      3865.977    21202824.160    88092416.327 6      3006.871    21202822.660    88092409.327 7      3006.871
> 2025 04 04 15 42 47.0000000  0 13
G02  21208549.100   111451672.581 7      1772.019    21208547.100   111451672.583 6      1772.019    21208551.280    86845466.662 6      1380.794
G03  21642731.560   113733321.730 7      5800.131    21642730.460   113733321.737 7      5800.131    21642741.820    88623413.042 7      4519.583    21642742.320    88623415.055 8      4519.583
G08  20432625.420   107374164.330 7      2421.748    20432624.300   107374164.332 8      2421.748    20432631.820    83668209.294 8      1887.076    20432632.680    83668211.298 8      1887.076
G01  20929015.960   109982717.014 7      3239.960    20929014.620   109982717.017 6      3239.960    20929019.800    85700837.899 6      2524.644    20929020.180    85700837.903 8      2524.644
R15  20544421.720   109783151.062 7        56.027    20544421.600   109783151.071 7        56.027    20544433.480    85386946.628 7        43.577    20544433.600    85386947.630 8        43.577
R17  20799295.200   111301230.114 6      1900.958    20799297.120   111301230.121 6      1900.958    20799305.560    86567673.233 6      1478.523    20799306.420    86567671.244 6      1478.523
G27  22316677.980   117274926.482 7       656.743    22316676.760   117274926.485 7       656.743    22316687.520    91383099.587 7       511.748    22316687.840    91383101.585 7       511.748
R02  21211542.000   113188850.186 8      3851.029    21211541.080   113188850.184 7      3851.029    21211553.360    88035820.224 8      2995.245    21211553.660    88035823.221 7      2995.245
R18  21232579.700   113340953.322 5      3534.234    21232580.680   113340953.259 5      3534.234    21232590.380    88154117.343 6      2748.849    21232591.360    88154124.352 6      2748.849
R03  22272569.560   119226818.600 6      6470.566    22272568.100   119226818.620 6      6470.566    22272590.920    92732061.361 7      5032.663    22272591.040    92732061.359 7      5032.663
G32  24647669.560   129524377.248 7      3248.333    24647668.280   129524377.248 6      3248.333    24647683.480   100928149.642 6      2531.169    24647684.240   100928150.643 6      2531.169
G07  24455735.820   128515748.805 7      1113.136    24455734.800   128515748.804 4      1113.136    24455755.700   100142191.739 4       867.378    24455756.860   100142221.702 6       867.378
R16  21202087.620   113257751.213 6      3866.136    21202089.580   113257751.236 6      3866.136    21202100.400    88089409.310 6      3006.995    21202098.920    88089402.312 7      3006.995
> 2025 04 04 15 42 48.0000000  0 13
G02  21208212.000   111449900.281 7      1772.676    21208209.840   111449900.283 6      1772.676    21208214.020    86844085.659 6      1381.306
G03  21641627.520   113727521.503 7      5800.625    21641626.740   113727521.505 6      5800.625    21641637.980    88618893.397 7      4519.967    21641638.660    88618895.402 8      4519.967
G08  20432164.520   107371742.434 8      2422.229    20432163.340   107371742.436 8      2422.229    20432170.980    83666322.110 8      1887.451    20432171.880    83666324.113 8      1887.451
G01  20928399.220   109979476.862 7      3240.542    20928397.900   109979476.869 6      3240.542    20928403.160    85698313.119 6      2525.098    20928403.500    85698313.134 8      2525.098
R15  20544411.240   109783095.039 7        56.227    20544411.100   109783095.048 7        56.227    20544423.080    85386903.054 7        43.732    20544423.320    85386904.057 7        43.732
R17  20798939.520   111299328.875 6      1901.693    20798941.880   111299328.900 6      1901.693    20798950.300    86566194.510 6      1479.094    20798951.540    86566192.527 6      1479.094
G27  22316553.040   117274269.577 7       657.239    22316551.680   117274269.582 7       657.239    22316562.500    91382587.716 7       512.134    22316562.980    91382589.717 7       512.134
R02  21210820.120   113184999.182 8      3851.055    21210819.400   113184999.188 7      3851.055    21210831.540    88032825.013 8      2995.265    21210832.040    88032828.012 7      2995.265
R18  21231917.600   113337418.448 5      3535.273    21231919.100   113337418.446 5      3535.273    21231928.600    88151368.046 6      2749.657    21231928.920    88151375.059 6      2749.657
R03  22271360.540   119220347.756 6      6471.514    22271358.840   119220347.768 6      6471.514    22271382.320    92727028.499 7      5033.400    22271382.340    92727028.497 7      5033.400
G32  24647051.420   129521128.780 7      3248.778    24647050.140   129521128.782 6      3248.778    24647065.340   100925618.382 6      2531.515    24647066.460   100925619.397 7      2531.515
G07  24455523.940   128514635.355 7      1113.906    24455522.980   128514635.352 4      1113.906    24455543.840   100141324.104 4       867.978    24455544.800   100141354.070 6       867.978
R16  21201363.880   113253885.250 6      3866.053    21201365.600   113253885.294 6      3866.053    21201376.640    88086402.481 6      3006.930    21201375.120    88086395.483 7      3006.930
> 2025 04 04 15 42 49.0000000  0 13
G02  21207874.460   111448127.211 7      1773.383    21207872.540   111448127.219 6      1773.383    21207876.480    86842704.059 6      1381.857
G03  21640523.860   113721720.766 7      5800.907    21640522.880   113721720.773 7      5800.907    21640534.180    88614373.361 7      4520.187    21640535.020    88614375.374 8      4520.187
G08  20431703.400   107369319.978 7      2422.671    20431702.340   107369319.980 8      2422.671    20431710.020    83664434.493 8      1887.795    20431710.900    83664436.497 8      1887.795
G01  20927782.460   109976236.155 7      3240.914    20927781.260   109976236.168 6      3240.914    20927786.440    85695787.906 6      2525.387    20927786.860    85695787.916 8      2525.387
R15  20544400.380   109783038.703 7        56.399    20544400.680   109783038.717 7        56.399    20544412.440    85386859.250 7        43.866    20544412.440    85386860.252 7        43.866
R17  20798584.420   111297426.744 6      1902.677    20798586.440   111297426.762 6      1902.677    20798594.800    86564715.073 6      1479.860    20798595.900    86564713.088 6      1479.860
G27  22316427.820   117273612.067 7       657.678    22316426.620   117273612.069 7       657.678    22316437.360    91382075.371 7       512.476    22316437.640    91382077.376 7       512.476
R02  21210098.540   113181148.095 8      3851.068    21210097.400   113181148.098 7      3851.068    21210109.980    88029829.738 7      2995.275    21210110.260    88029832.735 7      2995.275
R18  21231255.000   113333882.835 5      3535.822    21231256.420   113333882.822 5      3535.822    21231266.580    88148618.127 6      2750.084    21231266.700    88148625.140 6      2750.084
R03  22270151.240   119213876.203 6      6471.973    22270150.300   119213876.223 6      6471.973    22270173.320    92721995.116 7      5033.757    22270173.360    92721995.119 7      5033.757
G32  24646433.340   129517879.852 7      3249.115    24646431.880   129517879.848 6      3249.115    24646447.060   100923086.770 6      2531.778    24646447.840   100923087.779 7      2531.778
G07  24455311.740   128513521.206 6      1114.474    24455310.940   128513521.203 4      1114.474    24455332.040   100140455.915 4       868.421    24455332.900   100140485.869 6       868.421
R16  21200640.380   113250019.270 6      3865.782    21200642.380   113250019.311 6      3865.782    21200652.540    88083395.616 6      3006.719    21200651.600    88083388.622 7      3006.719
> 2025 04 04 15 42 50.0000000  0 13
G02  21207537.000   111446353.634 7      1773.833    21207535.080   111446353.642 6      1773.833    21207539.140    86841322.059 6      1382.208
G03  21639419.820   113715919.745 7      5801.275    21639419.060   113715919.753 6      5801.275    21639430.360    88609853.102 7      4520.474    21639430.980    88609855.106 8      4520.474
G08  20431242.480   107366897.199 7      2423.046    20431241.340   107366897.209 8      2423.046    20431248.880    83662546.625 8      1888.088    20431249.720    83662548.628 8      1888.088
G01  20927165.960   109972995.091 7      3241.269    20927164.540   109972995.096 6      3241.269    20927169.800    85693262.403 6      2525.664    20927170.220    85693262.411 8      2525.664
R15  20544390.020   109782982.343 7        56.365    20544390.020   109782982.349 7        56.365    20544402.080    85386815.421 7        43.839    20544402.060    85386816.419 7        43.839
R17  20798229.160   111295524.039 6      1903.085    20798230.980   111295524.043 6      1903.085    20798239.560    86563235.183 6      1480.177    20798240.500    86563233.200 6      1480.177
G27  22316302.720   117272954.149 7       658.064    22316301.400   117272954.146 7       658.064    22316312.100    91381562.710 7       512.777    22316312.500    91381564.715 7       512.777
R02  21209376.820   113177297.182 8      3850.935    21209376.060   113177297.180 7      3850.935    21209388.280    88026834.589 7      2995.172    21209388.700    88026837.587 7      2995.172
R18  21230592.780   113330346.648 5      3536.728    21230593.240   113330346.608 5      3536.728    21230603.660    88145867.755 6      2750.789    21230604.280    88145874.764 6      2750.789
R03  22268942.240   119207404.130 6      6472.347    22268941.340   119207404.161 6      6472.347    22268964.160    92716961.332 7      5034.048    22268964.400    92716961.333 7      5034.048
G32  24645814.580   129514630.716 7      3249.263    24645813.460   129514630.710 6      3249.263    24645828.820   100920554.990 6      2531.893    24645829.200   100920555.997 6      2531.893
G07  24455099.820   128512406.513 6      1114.991    24455098.800   128512406.510 4      1114.991    24455120.000   100139587.313 4       868.824    24455120.340   100139617.294 6       868.824
R16  21199916.480   113246153.451 6      3865.665    21199918.560   113246153.484 6      3865.665    21199929.180    88080388.874 6      3006.628    21199927.860    88080381.870 7      3006.628
> 2025 04 04 15 42 51.0000000  0 13
G02  21207199.520   111444579.563 7      1774.254    21207197.540   111444579.565 6      1774.254    21207201.520    86839939.668 6      1382.536
G03  21638316.260   113710118.520 7      5801.363    21638315.180   113710118.525 6      5801.363    21638326.240    88605332.677 7      4520.542    21638326.860    88605334.683 8      4520.542
G08  20430781.400   107364474.168 7      2423.185    20430780.220   107364474.170 8      2423.185    20430787.920    83660658.551 8      1888.196    20430788.660    83660660.554 8      1888.196
G01  20926549.000   109969753.693 7      3241.592    20926547.700   109969753.703 6      3241.592    20926552.860    85690736.651 6      2525.916    20926553.140    85690736.663 8      2525.916
R15  20544379.240   109782925.972 7        56.354    20544379.680   109782925.979 7        56.354    20544391.540    85386771.573 7        43.831    20544391.500    85386772.575 7        43.831
R17  20797873.560   111293620.715 6      1903.613    20797874.380   111293620.730 6      1903.613    20797883.500    86561754.833 6      1480.588    20797884.960    86561752.844 6      1480.588
G27  22316177.480   117272295.875 7       658.470    22316176.220   117272295.877 7       658.470    22316186.980    91381049.775 7       513.094    22316187.340    91381051.782 7       513.094
R02  21208655.360   113173446.423 8      3850.708    21208654.220   113173446.424 7      3850.708    21208666.600    88023839.569 7      2994.995    21208666.860    88023842.571 7      2994.995
R18  21229930.200   113326809.951 5      3536.924    21229930.580   113326809.920 5      3536.924    21229940.780    88143116.993 6      2750.941    21229941.640    88143124.008 6      2750.941
R03  22267732.820   119200931.592 6      6472.773    22267731.760   119200931.631 6      6472.773    22267755.040    92711927.169 7      5034.379    22267755.140    92711927.167 7      5034.379
G32  24645196.360   129511381.349 7      3249.501    24645195.080   129511381.348 6      3249.501    24645210.480   100918023.028 6      2532.078    24645210.240   100918024.033 6      2532.078
G07  24454887.880   128511291.365 6      1115.404    24454886.560   128511291.365 4      1115.404    24454907.840   100138718.357 4       869.146    24454908.260   100138748.333 6       869.146
R16  21199192.460   113242287.898 6      3865.332    21199194.600   113242287.929 6      3865.332    21199205.460    88077382.342 6      3006.369    21199204.400    88077375.337 7      3006.369
> 2025 04 04 15 42 52.0000000  0 13
G02  21206861.880   111442804.885 7      1774.786    21206859.800   111442804.890 6      1774.786    21206863.940    86838556.814 6      1382.950
G03  21637212.060   113704316.940 7      5801.570    21637211.080   113704316.947 7      5801.570    21637222.400    88600811.985 7      4520.704    21637222.820    88600813.994 8      4520.704
G08  20430320.320   107362050.748 7      2423.444    20430319.160   107362050.748 8      2423.444    20430326.760    83658770.178 8      1888.398    20430327.480    83658772.181 8      1888.398
G01  20925932.120   109966511.891 7      3241.936    20925930.820   109966511.901 6      3241.936    20925935.980    85688210.581 6      2526.184    20925936.420    85688210.594 8      2526.184
R15  20544369.040   109782869.513 7        56.364    20544368.960   109782869.525 7        56.364    20544380.960    85386727.671 7        43.839    20544381.060    85386728.673 8        43.839
R17  20797518.200   111291716.734 6      1904.260    20797518.600   111291716.746 6      1904.260    20797527.960    86560273.964 6      1481.091    20797528.860    86560271.975 6      1481.091
G27  22316052.320   117271637.185 7       658.798    22316050.860   117271637.187 7       658.798    22316061.640    91380536.516 7       513.349    22316062.000    91380538.519 7       513.349
R02  21207933.840   113169595.694 8      3850.572    21207932.520   113169595.697 7      3850.572    21207945.020    88020844.572 7      2994.889    21207945.200    88020847.576 7      2994.889
R18  21229268.140   113323272.515 5      3537.435    21229268.200   113323272.515 5      3537.435    21229277.820    88140365.697 6      2751.338    21229278.960    88140372.708 6      2751.338
R03  22266523.600   119194458.527 6      6473.164    22266523.260   119194458.542 6      6473.164    22266546.120    92706892.578 7      5034.683    22266545.980    92706892.576 7      5034.683
G32  24644577.960   129508131.706 7      3249.659    24644576.780   129508131.708 6      3249.659    24644592.280   100915490.857 6      2532.202    24644592.520   100915491.871 6      2532.202
G07  24454676.040   128510175.672 7      1115.831    24454674.200   128510175.671 4      1115.831    24454695.660   100137848.977 4       869.479    24454696.140   100137878.951 6       869.479
R16  21198468.940   113238422.474 6      3865.229    21198470.720   113238422.491 6      3865.229    21198481.760    88074375.901 6      3006.289    21198480.800    88074368.901 7      3006.289
> 2025 04 04 15 42 53.0000000  0 13
G02  21206524.000   111441029.616 7      1775.505    21206521.880   111441029.623 6      1775.505    21206526.000    86837173.497 6      1383.511
G03  21636108.120   113698515.008 7      5802.210    21636107.120   113698515.010 6      5802.210    21636118.180    88596291.017 7      4521.203    21636118.760    88596293.026 8      4521.203
G08  20429859.140   107359626.939 7      2423.914    20429857.800   107359626.941 8      2423.914    20429865.520    83656881.506 8      1888.764    20429866.340    83656883.509 8      1888.764
G01  20925315.200   109963269.670 7      3242.396    20925314.000   109963269.683 6      3242.396    20925319.020    85685684.188 6      2526.543    20925319.360    85685684.201 8      2526.543
R15  20544358.440   109782812.980 7        56.494    20544358.440   109782812.989 7        56.494    20544370.340    85386683.704 7        43.939    20544370.300    85386684.704 8        43.939
R17  20797162.120   111289812.064 6      1905.015    20797163.140   111289812.074 6      1905.015    20797172.180    86558792.567 6      1481.678    20797173.100    86558790.584 6      1481.678
G27  22315926.720   117270978.041 7       659.317    22315925.500   117270978.040 7       659.317    22315936.240    91380022.897 7       513.754    22315936.640    91380024.904 7       513.754
R02  21207211.980   113165744.951 8      3850.688    21207211.040   113165744.952 7      3850.688    21207223.560    88017849.567 7      2994.980    21207223.700    88017852.566 7      2994.980
R18  21228604.180   113319734.489 5      3538.168    21228604.840   113319734.495 5      3538.168    21228614.740    88137613.897 6      2751.908    21228616.380    88137620.904 6      2751.908
R03  22265314.080   119187984.835 6      6473.808    22265313.680   119187984.850 6      6473.808    22265336.540    92701857.526 7      5035.184    22265336.680    92701857.524 7      5035.184
G32  24643959.540   129504881.752 7      3250.178    24643958.280   129504881.752 6      3250.178    24643973.720   100912958.444 6      2532.606    24643974.240   100912959.454 6      2532.606
G07  24454463.760   128509059.413 7      1116.465    24454461.800   128509059.415 4      1116.465    24454483.360   100136979.152 4       869.973    24454483.220   100137009.110 6       869.973
R16  21197745.460   113234557.186 6      3865.138    21197746.480   113234557.201 6      3865.138    21197758.240    88071369.576 6      3006.219    21197757.180    88071362.584 7      3006.219
> 2025 04 04 15 42 54.0000000  0 13
G02  21206186.100   111439253.669 7      1776.296    21206184.060   111439253.679 6      1776.296    21206188.060    86835789.653 6      1384.126
G03  21635004.040   113692712.673 7      5802.603    21635002.880   113692712.678 6      5802.603    21635013.980    88591769.732 7      4521.509    21635014.560    88591771.739 8      4521.509
G08  20429397.740   107357202.652 8      2424.578    20429396.580   107357202.652 8      2424.578    20429404.180    83654992.455 8      1889.282    20429404.880    83654994.456 8      1889.282
G01  20924698.140   109960026.951 7      3242.952    20924696.800   109960026.956 6      3242.952    20924702.000    85683157.402 6      2526.976    20924702.240    85683157.408 8      2526.976
R15  20544347.760   109782756.272 8        56.807    20544348.060   109782756.279 7        56.807    20544359.620    85386639.596 7        44.183    20544359.760    85386640.601 7        44.183
R17  20796806.320   111287906.608 6      1905.934    20796806.680   111287906.612 6      1905.934    20796816.080    86557310.544 6      1482.393    20796817.160    86557308.557 6      1482.393
G27  22315801.160   117270318.360 7       659.907    22315799.940   117270318.360 7       659.907    22315810.780    91379508.863 7       514.213    22315811.220    91379510.871 7       514.213
R02  21206490.480   113161894.110 8      3850.910    21206489.180   113161894.111 7      3850.910    21206501.820    88014854.474 7      2995.152    21206502.060    88014857.474 7      2995.152
R18  21227941.060   113316195.763 5      3538.859    21227942.220   113316195.751 5      3538.859    21227951.900    88134861.567 6      2752.446    21227953.460    88134868.572 6      2752.446
R03  22264104.780   119181510.538 6      6474.551    22264103.680   119181510.567 6      6474.551    22264127.260    92696821.989 7      5035.762    22264127.400    92696821.989 7      5035.762
G32  24643340.900   129501631.424 7      3250.614    24643339.920   129501631.429 6      3250.614    24643355.100   100910425.737 6      2532.946    24643355.500   100910426.736 6      2532.946
G07  24454251.400   128507942.486 6      1117.143    24454249.340   128507942.491 4      1117.143    24454270.780   100136108.812 4       870.501    24454270.760   100136138.786 6       870.501
R16  21197021.620   113230691.912 6      3865.249    21197023.080   113230691.921 6      3865.249    21197034.640    88068363.247 6      3006.305    21197033.540    88068356.249 7      3006.305
> 2025 04 04 15 42 55.0000000  0 13
G02  21205848.020   111437477.317 7      1776.565    21205846.160   111437477.327 6      1776.565    21205850.100    86834405.489 6      1384.336
G03  21633899.980   113686910.179 7      5802.636    21633898.760   113686910.184 7      5802.636    21633909.880    88587248.329 7      4521.534    21633910.500    88587250.339 8      4521.534
G08  20428936.280   107354778.186 8      2424.576    20428935.220   107354778.191 8      2424.576    20428942.820    83653103.273 8      1889.280    20428943.460    83653105.276 8      1889.280
G01  20924081.000   109956783.979 7      3243.102    20924079.740   109956783.987 6      3243.102    20924084.880    85680630.423 6      2527.092    20924085.160    85680630.438 8      2527.092
R15  20544336.940   109782699.653 8        56.626    20544336.960   109782699.660 7        56.626    20544348.980    85386595.563 7        44.043    20544349.120    85386596.568 8        44.043
R17  20796449.580   111286000.641 6      1906.326    20796450.500   111286000.635 6      1906.326    20796459.740    86555828.131 6      1482.698    20796460.920    86555826.142 6      1482.698
G27  22315675.400   117269658.409 7       660.156    22315674.300   117269658.411 7       660.156    22315685.220    91378994.619 7       514.408    22315685.580    91378996.626 7       514.408
R02  21205768.860   113158043.479 7      3850.558    21205767.600   113158043.480 7      3850.558    21205780.300    88011859.558 7      2994.878    21205780.520    88011862.559 7      2994.878
R18  21227277.000   113312656.496 5      3539.652    21227278.840   113312656.462 5      3539.652    21227289.060    88132108.783 6      2753.063    21227290.320    88132115.793 6      2753.063
R03  22262894.960   119175035.894 6      6474.840    22262895.000   119175035.912 6      6474.840    22262917.760    92691786.185 7      5035.987    22262917.760    92691786.185 7      5035.987
G32  24642722.340   129498380.998 7      3250.492    24642721.360   129498381.000 6      3250.492    24642736.580   100907892.948 6      2532.851    24642736.900   100907893.957 6      2532.851
G07  24454038.700   128506825.161 7      1117.531    24454037.020   128506825.168 4      1117.531    24454058.100   100135238.158 4       870.803    24454058.480   100135268.141 6       870.803
R16  21196298.400   113226826.912 6      3864.909    21196299.460   113226826.924 6      3864.909    21196310.420    88065357.153 6      3006.041    21196309.860    88065350.153 7      3006.041
> 2025 04 04 15 42 56.0000000  0 13
G02  21205509.880   111435700.340 7      1777.213    21205508.080   111435700.347 6      1777.213    21205512.020    86833020.837 6      1384.841
G03  21632795.640   113681107.308 7      5803.063    21632794.440   113681107.311 7      5803.063    21632805.700    88582726.626 7      4521.867    21632806.220    88582728.637 8      4521.867
G08  20428474.880   107352353.295 8      2425.044    20428473.840   107352353.300 8      2425.044    20428481.360    83651213.756 8      1889.645    20428482.020    83651215.756 8      1889.645
G01  20923463.940   109953540.556 7      3243.609    20923462.360   109953540.566 6      3243.609    20923467.460    85678103.092 6      2527.488    20923468.100    85678103.103 8      2527.488
R15  20544326.480   109782642.887 7        56.762    20544326.400   109782642.894 7        56.762    20544338.560    85386551.418 7        44.148    20544338.420    85386552.418 8        44.148
R17  20796093.160   111284093.906 6      1906.960    20796094.320   111284093.921 6      1906.960    20796103.240    86554345.140 6      1483.191    20796104.500    86554343.153 6      1483.191
G27  22315549.720   117268997.983 7       660.576    22315548.700   117268997.985 7       660.576    22315559.520    91378480.005 7       514.734    22315559.980    91378482.008 7       514.734
R02  21205046.700   113154192.843 8      3850.586    21205046.120   113154192.849 7      3850.586    21205058.740    88008864.637 7      2994.900    21205058.920    88008867.635 7      2994.900
R18  21226613.700   113309116.586 5      3540.206    21226614.740   113309116.571 5      3540.206    21226625.120    88129355.553 6      2753.493    21226627.220    88129362.556 6      2753.493
R03  22261684.960   119168560.695 6      6475.346    22261685.460   119168560.710 6      6475.346    22261707.760    92686749.955 7      5036.380    22261708.240    92686749.959 7      5036.380
G32  24642103.920   129495130.230 7      3250.822    24642102.640   129495130.232 6      3250.822    24642117.940   100905359.901 6      2533.108    24642118.060   100905360.900 6      2533.108
G07  24453825.840   128505707.244 7      1118.200    24453824.240   128505707.249 4      1118.200    24453845.600   100134367.044 4       871.325    24453845.980   100134397.008 6       871.325
R16  21195574.520   113222961.980 6      3864.869    21195575.680   113222962.008 6      3864.869    21195587.360    88062351.117 6      3006.009    21195586.060    88062344.119 7      3006.009
> 2025 04 04 15 42 57.0000000  0 13
G02  21205171.620   111433922.761 7      1777.854    21205169.860   111433922.763 6      1777.854    21205173.760    86831635.719 6      1385.341
G03  21631691.320   113675304.097 7      5803.450    21631690.200   113675304.101 6      5803.450    21631701.340    88578204.665 7      4522.168    21631702.020    88578206.676 8      4522.168
G08  20428013.460   107349928.025 8      2425.461    20428012.280   107349928.030 8      2425.461    20428019.820    83649323.941 8      1889.970    20428020.560    83649325.942 8      1889.970
G01  20922846.420   109950296.727 7      3244.077    20922845.140   109950296.732 6      3244.077    20922850.240    85675575.436 6      2527.852    20922850.900    85675575.449 8      2527.852
R15  20544315.860   109782585.998 7        56.993    20544316.000   109782586.005 7        56.993    20544327.840    85386507.175 8        44.328    20544327.720    85386508.176 8        44.328
R17  20795736.880   111282186.489 6      1907.746    20795738.280   111282186.509 6      1907.746    20795746.840    86552861.602 6      1483.802    20795747.900    86552859.611 6      1483.802
G27  22315423.840   117268337.099 7       661.128    22315422.900   117268337.104 7       661.128    22315433.780    91377965.037 7       515.164    22315434.100    91377967.040 7       515.164
R02  21204325.360   113150342.271 7      3850.591    21204324.500   113150342.275 7      3850.591    21204337.060    88005869.763 7      2994.904    21204337.460    88005872.758 7      2994.904
R18  21225950.780   113305576.093 5      3540.712    21225951.260   113305576.070 5      3540.712    21225961.400    88126601.818 6      2753.887    21225963.620    88126608.823 6      2753.887
R03  22260475.720   119162084.892 6      6476.082    22260475.340   119162084.923 6      6476.082    22260498.220    92681713.265 7      5036.952    22260498.400    92681713.263 7      5036.952
G32  24641485.080   129491879.145 7      3251.302    24641483.980   129491879.150 6      3251.302    24641499.360   100902826.597 6      2533.482    24641499.640   100902827.605 6      2533.482
G07  24453612.720   128504588.770 7      1118.819    24453611.320   128504588.772 4      1118.819    24453632.880   100133495.494 4       871.807    24453633.320   100133525.460 6       871.807
R16  21194850.520   113219097.181 6      3864.669    21194851.840   113219097.216 6      3864.669    21194863.720    88059345.189 7      3005.854    21194862.540    88059338.187 7      3005.854
> 2025 04 04 15 42 58.0000000  0 13
G02  21204833.220   111432144.633 7      1778.390    21204831.400   111432144.635 6      1778.390    21204835.500    86830250.173 6      1385.758
G03  21630586.820   113669500.619 7      5803.624    21630585.760   113669500.627 7      5803.624    21630597.040    88573682.493 7      4522.304    21630597.660    88573684.500 8      4522.304
G08  20427551.860   107347502.424 8      2425.757    20427550.680   107347502.424 8      2425.757    20427558.240    83647433.865 8      1890.200    20427559.200    83647435.865 8      1890.200
G01  20922229.040   109947052.523 7      3244.433    20922227.700   109947052.528 6      3244.433    20922233.020    85673047.491 6      2528.130    20922233.280    85673047.503 8      2528.130
R15  20544305.420   109782529.064 8        56.994    20544305.340   109782529.062 7        56.994    20544317.240    85386462.885 7        44.329    20544317.300    85386463.887 8        44.329
R17  20795380.420   111280278.435 6      1908.477    20795381.280   111280278.453 6      1908.477    20795390.640    86551377.566 6      1484.371    20795391.780    86551375.579 6      1484.371
G27  22315298.460   117267675.824 7       661.464    22315297.040   117267675.834 7       661.464    22315307.820    91377449.768 7       515.426    22315308.440    91377451.772 7       515.426
R02  21203603.940   113146491.828 8      3850.345    21203602.660   113146491.828 8      3850.345    21203615.480    88002874.990 7      2994.712    21203615.660    88002877.985 7      2994.712
R18  21225287.540   113302034.913 5      3541.653    21225288.240   113302034.879 5      3541.653    21225298.980    88123847.577 6      2754.619    21225299.920    88123854.571 6      2754.619
R03  22259265.440   119155608.615 6      6476.425    22259265.420   119155608.646 6      6476.425    22259288.240    92676676.191 7      5037.219    22259288.600    92676676.192 7      5037.219
G32  24640866.340   129488627.841 7      3251.441    24640865.280   129488627.846 6      3251.441    24640880.640   100900293.124 6      2533.590    24640881.480   100900294.126 7      2533.590
G07  24453400.100   128503469.781 6      1119.313    24453398.320   128503469.783 4      1119.313    24453419.920   100132623.538 4       872.192    24453420.480   100132653.496 6       872.192
R16  21194127.200   113215232.523 6      3864.748    21194128.840   113215232.548 6      3864.748    21194140.420    88056339.342 6      3005.915    21194139.180    88056332.347 7      3005.915
> 2025 04 04 15 42 59.0000000  0 13
G02  21204494.800   111430365.940 7      1778.947    21204493.100   111430365.945 6      1778.947    21204496.880    86828864.187 6      1386.193
G03  21629482.300   113663696.811 7      5803.988    21629481.260   113663696.818 7      5803.988    21629492.580    88569160.060 7      4522.588    21629493.260    88569162.070 8      4522.588
G08  20427090.280   107345076.458 8      2426.108    20427089.040   107345076.460 8      2426.108    20427096.580    83645543.512 8      1890.474    20427097.440    83645545.514 8      1890.474
G01  20921611.800   109943807.915 7      3244.824    20921610.240   109943807.922 6      3244.824    20921615.580    85670519.239 6      2528.434    20921615.900    85670519.251 8      2528.434
R15  20544294.820   109782472.025 8        57.094    20544294.600   109782472.023 8        57.094    20544306.720    85386418.521 8        44.407    20544306.520    85386419.526 7        44.407
R17  20795023.660   111278369.771 6      1909.084    20795024.820   111278369.783 6      1909.084    20795034.360    86549893.054 7      1484.843    20795035.080    86549891.075 6      1484.843
G27  22315172.400   117267014.115 7       661.906    22315171.260   117267014.122 7       661.906    22315181.960    91376934.151 7       515.771    22315182.540    91376936.155 7       515.771
R02  21202882.300   113142641.424 8      3850.367    21202881.240   113142641.425 8      3850.367    21202893.780    87999880.244 7      2994.730    21202894.080    87999883.241 7      2994.730
R18  21224623.520   113298493.174 5      3542.005    21224624.880   113298493.156 5      3542.005    21224634.960    88121092.908 6      2754.893    21224636.400    88121099.906 6      2754.893
R03  22258055.680   119149131.719 6      6477.124    22258054.980   119149131.745 6      6477.124    22258078.400    92671638.635 7      5037.763    22258078.620    92671638.640 7      5037.763
G32  24640247.440   129485376.241 7      3251.804    24640246.540   129485376.243 6      3251.804    24640261.940   100897759.422 6      2533.873    24640262.540   100897760.427 7      2533.873
G07  24453186.840   128502350.241 7      1119.794    24453185.240   128502350.243 4      1119.794    24453206.980   100131751.154 4       872.567    24453207.760   100131781.121 6       872.567
R16  21193404.020   113211368.044 7      3864.543    21193404.800   113211368.072 6      3864.543    21193416.960    88053333.651 7      3005.756    21193415.780    88053326.651 7      3005.756
> 2025 04 04 15 43  0.0000000  0 13
G02  21204156.520   111428586.769 7      1779.347    21204154.380   111428586.769 6      1779.347    21204158.180    86827477.828 6      1386.504
G03  21628377.700   113657892.798 7      5804.036    21628376.800   113657892.805 7      5804.036    21628387.960    88564637.466 7      4522.626    21628388.820    88564639.473 8      4522.626
G08  20426628.380   107342650.229 8      2426.301    20426627.360   107342650.231 8      2426.301    20426634.960    83643652.954 8      1890.624    20426635.840    83643654.955 8      1890.624
G01  20920994.260   109940563.019 7      3244.949    20920992.860   109940563.024 6      3244.949    20920998.020    85667990.763 6      2528.532    20920998.360    85667990.770 8      2528.532
R15  20544284.160   109782415.013 8        56.895    20544283.920   109782415.014 8        56.895    20544295.980    85386374.183 7        44.252    20544295.840    85386375.183 8        44.252
R17  20794666.740   111276460.529 6      1909.485    20794667.680   111276460.547 6      1909.485    20794677.560    86548408.098 7      1485.155    20794678.180    86548406.109 6      1485.155
G27  22315046.220   117266352.085 7       662.074    22315045.260   117266352.093 7       662.074    22315056.060    91376418.290 7       515.902    22315056.640    91376420.292 7       515.902
R02  21202160.880   113138791.170 8      3850.151    21202159.840   113138791.165 8      3850.151    21202172.420    87996885.614 7      2994.562    21202172.640    87996888.611 7      2994.562
R18  21223961.060   113294950.851 5      3542.647    21223960.920   113294950.836 5      3542.647    21223971.100    88118337.784 6      2755.392    21223972.120    88118344.785 6      2755.392
R03  22256845.300   119142654.358 6      6477.637    22256845.780   119142654.370 6      6477.637    22256868.440    92666600.713 7      5038.162    22256868.520    92666600.713 7      5038.162
G32  24639628.840   129482124.485 7      3251.770    24639627.860   129482124.487 6      3251.770    24639643.180   100895225.603 6      2533.847    24639643.680   100895226.608 7      2533.847
G07  24452973.220   128501230.237 6      1120.208    24452972.100   128501230.237 4      1120.208    24452993.940   100130878.417 4       872.890    24452994.740   100130908.389 6       872.890
R16  21192680.640   113207503.825 7      3863.844    21192680.740   113207503.858 6      3863.844    21192693.340    88050328.164 7      3005.212    21192692.120    88050321.172 7      3005.212
> 2025 04 04 15 43  1.0000000  0 13
G02  21203817.720   111426807.185 7      1779.951    21203815.800   111426807.188 6      1779.951    21203819.700    86826091.146 6      1386.975
G03  21627273.260   113652088.603 7      5804.537    21627272.320   113652088.608 7      5804.537    21627283.500    88560114.732 7      4523.016    21627284.140    88560116.744 8      4523.016
G08  20426166.820   107340223.801 8      2426.717    20426165.620   107340223.803 8      2426.717    20426173.180    83641762.235 8      1890.948    20426174.060    83641764.237 8      1890.948
G01  20920376.800   109937317.877 7      3245.418    20920375.240   109937317.880 6      3245.418    20920380.540    85665462.087 6      2528.897    20920380.900    85665462.094 8      2528.897
R15  20544273.400   109782358.103 7        57.024    20544273.240   109782358.107 7        57.024    20544285.520    85386329.921 8        44.352    20544285.220    85386330.926 8        44.352
R17  20794309.780   111274550.797 6      1910.267    20794310.880   111274550.804 6      1910.267    20794320.340    86546922.751 6      1485.763    20794321.200    86546920.764 6      1485.763
G27  22314920.480   117265689.793 7       662.545    22314919.200   117265689.793 7       662.545    22314930.040    91375902.216 7       516.269    22314930.460    91375904.218 7       516.269
R02  21201439.240   113134941.137 7      3850.086    21201438.100   113134941.140 7      3850.086    21201451.060    87993891.158 7      2994.511    21201451.440    87993894.158 7      2994.511
R18  21223296.600   113291408.189 5      3542.357    21223297.400   113291408.184 5      3542.357    21223308.240    88115582.388 6      2755.167    21223308.980    88115589.387 6      2755.167
R03  22255635.880   119136176.659 6      6478.083    22255635.640   119136176.672 6      6478.083    22255658.160    92661562.532 7      5038.509    22255658.200    92661562.530 7      5038.509
G32  24639010.100   129478872.601 7      3252.087    24639008.880   129478872.600 6      3252.087    24639024.500   100892691.683 6      2534.093    24639024.740   100892692.687 7      2534.093
G07  24452760.300   128500109.888 6      1120.606    24452758.860   128500109.887 4      1120.606    24452780.500   100130005.406 4       873.199    24452781.260   100130035.385 6       873.199
R16  21191957.300   113203639.886 6      3863.987    21191958.040   113203639.908 6      3863.987    21191970.240    88047322.878 7      3005.323    21191968.980    88047315.886 7      3005.323
> 2025 04 04 15 43  2.0000000  0 13
G02  21203478.980   111425027.055 7      1780.341    21203477.200   111425027.057 6      1780.341    21203480.920    86824704.039 6      1387.279
G03  21626168.540   113646284.148 7      5804.577    21626167.840   113646284.153 7      5804.577    21626178.960    88555591.796 7      4523.047    21626179.660    88555593.805 8      4523.047
G08  20425704.920   107337797.025 8      2426.955    20425703.780   107337797.033 8      2426.955    20425711.420    83639871.249 8      1891.134    20425712.220    83639873.249 8      1891.134
G01  20919759.060   109934072.352 7      3245.738    20919757.700   109934072.357 6      3245.738    20919762.840    85662933.117 6      2529.147    20919763.320    85662933.125 8      2529.147
R15  20544262.780   109782301.147 7        56.927    20544262.420   109782301.151 7        56.927    20544274.900    85386285.629 8        44.277    20544274.720    85386286.633 8        44.277
R17  20793952.840   111272640.408 6      1910.810    20793953.900   111272640.420 6      1910.810    20793963.540    86545436.899 6      1486.186    20793964.420    86545434.914 6      1486.186
G27  22314794.380   117265027.086 7       662.909    22314792.980   117265027.083 7       662.909    22314803.900    91375385.819 7       516.552    22314804.360    91375387.819 7       516.552
R02  21200717.800   113131091.168 8      3849.871    21200716.640   113131091.169 7      3849.871    21200729.320    87990896.751 7      2994.344    21200729.860    87990899.746 7      2994.344
R18  21222633.280   113287864.811 5      3543.492    21222633.080   113287864.769 5      3543.492    21222644.800    88112825.399 6      2756.050    21222644.460    88112825.389 6      2756.050
R03  22254425.320   119129698.401 6      6478.465    22254424.860   119129698.424 6      6478.465    22254448.140    92656523.928 7      5038.806    22254448.240    92656523.929 7      5038.806
G32  24638390.900   129475620.449 7      3252.312    24638389.960   129475620.451 6      3252.312    24638405.520   100890157.555 6      2534.269    24638405.860   100890158.555 6      2534.269
G07  24452547.020   128498988.975 6      1121.135    24452545.320   128498988.975 4      1121.135    24452567.320   100129131.952 4       873.611    24452568.520   100129161.924 6       873.611
R16  21191233.480   113199776.120 6      3863.667    21191234.040   113199776.148 6      3863.667    21191246.260    88044317.742 7      3005.074    21191245.580    88044310.744 7      3005.074
> 2025 04 04 15 43  3.0000000  0 13
G02  21203140.040   111423246.292 7      1780.949    21203138.320   111423246.294 6      1780.949    21203142.040    86823316.440 6      1387.753
G03  21625064.240   113640479.294 7      5804.943    21625063.180   113640479.302 6      5804.943    21625074.240    88551068.550 7      4523.332    21625075.020    88551070.558 8      4523.332
G08  20425243.160   107335369.861 8      2427.237    20425241.900   107335369.866 8      2427.237    20425249.500    83637979.956 8      1891.353    20425250.400    83637981.959 8      1891.353
G01  20919141.380   109930826.379 7      3246.138    20919139.940   109930826.384 6      3246.138    20919145.040    85660403.796 6      2529.458    20919145.680    85660403.808 8      2529.458
R15  20544252.100   109782244.068 8        57.039    20544252.100   109782244.067 7        57.039    20544263.980    85386241.236 7        44.363    20544263.960    85386242.236 8        44.363
R17  20793595.780   111270729.274 6      1911.538    20793597.540   111270729.281 6      1911.538    20793606.580    86543950.459 7      1486.752    20793607.300    86543948.474 6      1486.752
G27  22314667.880   117264363.895 7       663.323    22314666.880   117264363.898 7       663.323    22314677.820    91374869.053 7       516.875    22314678.420    91374871.055 7       516.875
R02  21199996.400   113127241.196 8      3849.804    21199995.160   113127241.194 7      3849.804    21200007.960    87987902.341 7      2994.292    21200008.280    87987905.338 7      2994.292
R18  21221970.320   113284320.692 5      3544.555    21221969.420   113284320.674 5      3544.555    21221980.520    88110066.910 6      2756.876    21221981.180    88110068.904 6      2756.876
R03  22253215.580   119123219.579 6      6479.130    22253215.660   119123219.594 6      6479.130    22253237.940    92651484.861 7      5039.323    22253238.080    92651484.867 7      5039.323
G32  24637771.980   129472367.994 7      3252.531    24637771.100   129472367.994 6      3252.531    24637786.620   100887623.181 6      2534.440    24637787.000   100887624.179 7      2534.440
G07  24452333.860   128497867.461 6      1121.691    24452331.880   128497867.461 4      1121.691    24452353.920   100128258.035 4       874.045    24452354.740   100128288.003 6       874.045
R16  21190510.160   113195912.435 6      3863.425    21190510.980   113195912.465 6      3863.425    21190523.240    88041312.663 7      3004.886    21190522.160    88041305.659 7      3004.886
> 2025 04 04 15 43  4.0000000  0 13
G02  21202800.900   111421465.158 7      1781.351    21202799.380   111421465.163 6      1781.351    21202803.260    86821928.554 6      1388.066
G03  21623959.360   113634674.341 7      5805.128    21623958.580   113634674.343 7      5805.128    21623969.620    88546545.223 7      4523.477    21623970.540    88546547.230 8      4523.477
G08  20424781.240   107332942.507 8      2427.550    20424780.040   107332942.512 8      2427.550    20424787.600    83636088.522 8      1891.598    20424788.560    83636090.525 8      1891.598
G01  20918523.500   109927580.218 7      3246.313    20918522.240   109927580.225 6      3246.313    20918527.440    85657874.332 6      2529.595    20918527.960    85657874.340 8      2529.595
R15  20544241.160   109782187.107 7        56.972    20544241.180   109782187.106 7        56.972    20544253.500    85386196.929 8        44.312    20544252.920    85386197.933 8        44.312
R17  20793237.980   111268817.669 6      1911.992    20793239.520   111268817.679 6      1911.992    20793249.500    86542463.666 7      1487.105    20793249.540    86542461.685 6      1487.105
G27  22314541.840   117263700.486 7       663.568    22314540.640   117263700.486 7       663.568    22314551.580    91374352.111 7       517.066    22314552.460    91374354.111 7       517.066
R02  21199275.060   113123391.492 8      3849.692    21199273.520   113123391.492 7      3849.692    21199286.480    87984908.142 7      2994.205    21199286.720    87984911.142 7      2994.205
R18  21221306.460   113280776.252 5      3544.800    21221305.440   113280776.264 5      3544.800    21221315.340    88107310.163 6      2757.067    21221317.060    88107312.161 5      2757.067
R03  22252004.480   119116740.432 6      6479.367    22252004.800   119116740.439 6      6479.367    22252027.560    92646445.562 7      5039.508    22252027.600    92646445.562 7      5039.508
G32  24637153.060   129469115.427 7      3252.732    24637152.140   129469115.424 6      3252.732    24637167.660   100885088.730 6      2534.596    24637167.980   100885089.758 7      2534.596
G07  24452120.520   128496745.630 6      1122.047    24452118.360   128496745.629 4      1122.047    24452140.500   100127383.868 4       874.323    24452140.900   100127413.834 6       874.323
R16  21189786.340   113192049.062 6      3863.201    21189787.460   113192049.095 6      3863.201    21189799.780    88038307.828 7      3004.712    21189798.860    88038300.830 7      3004.712
> 2025 04 04 15 43  5.0000000  0 12
G02  21202461.540   111419683.436 7      1782.030    21202460.440   111419683.435 6      1782.030    21202464.180    86820540.200 6      1388.595
G03  21622854.600   113628869.077 7      5805.338    21622853.940   113628869.081 6      5805.338    21622864.920    88542021.662 7      4523.640    21622865.820    88542023.668 8      4523.640
G08  20424319.060   107330514.794 8      2427.916    20424318.040   107330514.796 8      2427.916    20424325.480    83634196.806 8      1891.883    20424326.400    83634198.808 8      1891.883
G01  20917905.780   109924333.641 7      3246.737    20917904.420   109924333.649 6      3246.737    20917909.560    85655344.544 6      2529.925    20917909.960    85655344.550 8      2529.925
R15  20544231.000   109782130.050 8        57.017    20544230.480   109782130.046 7        57.017    20544243.080    85386152.557 8        44.347    20544242.740    85386153.560 8        44.347
R17  20792880.340   111266905.393 6      1912.621    20792882.120   111266905.408 6      1912.621    20792891.840    86540976.347 7      1487.594    20792892.580    86540974.355 7      1487.594
G27  22314415.720   117263036.628 7       663.983    22314414.360   117263036.633 7       663.983    22314425.440    91373834.833 7       517.389    22314426.280    91373836.838 7       517.389
R02  21198553.580   113119541.899 7      3849.530    21198552.100   113119541.902 7      3849.530    21198565.360    87981914.034 7      2994.079    21198565.440    87981917.033 7      2994.079
R03  22250794.560   119110260.708 6      6479.949    22250794.620   119110260.733 6      6479.949    22250816.820    92641405.820 7      5039.961    22250817.020    92641405.824 7      5039.961
G32  24636534.600   129465862.604 7      3252.978    24636533.240   129465862.601 6      3252.978    24636548.440   100882554.098 6      2534.788    24636549.100   100882555.115 7      2534.788
G07  24451906.360   128495623.193 6      1122.799    24451904.680   128495623.193 4      1122.799    24451926.880   100126509.230 4       874.908    24451927.540   100126539.196 6       874.908
R16  21189063.500   113188185.847 6      3863.079    21189064.420   113188185.861 6      3863.079    21189076.720    88035303.101 7      3004.617    21189076.080    88035296.103 7      3004.617
> 2025 04 04 15 43  6.0000000  0 12
G02  21202122.660   111417901.398 7      1782.313    21202121.300   111417901.398 6      1782.313    21202124.880    86819151.608 6      1388.816
G03  21621750.060   113623063.702 7      5805.600    21621749.200   113623063.704 7      5805.600    21621760.220    88537498.008 7      4523.844    21621761.120    88537500.008 8      4523.844
G08  20423857.300   107328086.970 8      2428.054    20423856.220   107328086.970 8      2428.054    20423863.580    83632305.001 8      1891.990    20423864.600    83632307.004 8      1891.990
G01  20917288.000   109921086.912 7      3246.939    20917286.460   109921086.920 6      3246.939    20917291.800    85652814.631 6      2530.083    20917292.480    85652814.644 8      2530.083
R15  20544220.340   109782073.161 8        56.907    20544219.960   109782073.157 7        56.907    20544232.320    85386108.304 7        44.261    20544232.200    85386109.308 7        44.261
R17  20792523.320   111264992.721 6      1913.029    20792524.420   111264992.720 6      1913.029    20792534.300    86539488.719 7      1487.912    20792535.220    86539486.728 7      1487.912
G27  22314289.500   117262372.586 7       664.287    22314287.980   117262372.594 7       664.287    22314299.120    91373317.402 7       517.626    22314299.800    91373319.402 7       517.626
R02  21197832.320   113115692.605 7      3849.262    21197830.760   113115692.595 7      3849.262    21197843.860    87978920.157 8      2993.870    21197844.000    87978923.159 7      2993.870
R03  22249584.120   119103780.721 6      6480.123    22249583.660   119103780.757 6      6480.123    22249606.700    92636365.878 7      5040.095    22249606.360    92636365.884 7      5040.095
G32  24635915.540   129462609.777 7      3252.960    24635914.260   129462609.769 6      3252.960    24635929.320   100880019.431 6      2534.774    24635929.700   100880020.420 7      2534.774
G07  24451693.180   128494500.500 6      1122.900    24451691.180   128494500.499 4      1122.900    24451713.200   100125634.393 4       874.987    24451713.620   100125664.370 6       874.987
R16  21188341.020   113184323.014 6      3862.710    21188341.300   113184323.033 6      3862.710    21188353.360    88032298.681 7      3004.330    21188353.000    88032291.685 7      3004.330
> 2025 04 04 15 43  7.0000000  0 13
G02  21201783.440   111416118.858 7      1782.563    21201782.220   111416118.861 6      1782.563    21201785.560    86817762.624 6      1389.010
G03  21620645.340   113617258.123 7      5805.469    21620644.340   113617258.128 6      5805.469    21620655.460    88532974.192 7      4523.742    21620656.200    88532976.196 8      4523.742
G08  20423395.080   107325658.873 8      2427.987    20423394.060   107325658.873 8      2427.987    20423401.540    83630412.979 8      1891.938    20423402.480    83630414.980 8      1891.938
G01  20916670.200   109917839.849 7      3247.080    20916668.560   109917839.854 6      3247.080    20916674.060    85650284.465 6      2530.192    20916674.460    85650284.473 8      2530.192
R15  20544209.780   109782016.266 7        56.646    20544209.220   109782016.270 7        56.646    20544221.700    85386064.063 7        44.058    20544221.520    85386065.066 8        44.058
R17  20792165.140   111263079.452 6      1913.303    20792167.220   111263079.462 6      1913.303    20792177.420    86538000.627 7      1488.125    20792177.620    86537998.642 7      1488.125
G27  22314162.900   117261708.197 7       664.384    22314161.580   117261708.202 7       664.384    22314172.720    91372799.702 7       517.702    22314173.000    91372801.707 7       517.702
R02  21197111.100   113111843.413 7      3848.888    21197109.720   113111843.408 7      3848.888    21197122.520    87975926.355 8      2993.579    21197122.760    87975929.357 7      2993.579
R18  21219313.460   113270139.711 5      3546.052    21219310.520   113270139.715 5      3546.052    21219324.580    88099041.329 5      2758.040    21219324.760    88099042.331 5      2758.040
R03  22248373.880   119097300.233 6      6480.627    22248373.640   119097300.254 6      6480.627    22248395.860    92631325.524 7      5040.488    22248396.020    92631325.516 7      5040.488
G32  24635296.380   129459356.713 7      3252.912    24635295.320   129459356.712 6      3252.912    24635310.360   100877484.584 6      2534.736    24635310.840   100877485.581 6      2534.736
G07  24451479.660   128493377.307 6      1123.279    24451477.500   128493377.301 4      1123.279    24451499.380   100124759.166 4       875.282    24451500.040   100124789.136 6       875.282
R16  21187617.860   113180460.383 6      3862.303    21187617.660   113180460.387 6      3862.303    21187629.940    88029294.411 7      3004.013    21187629.740    88029287.413 7      3004.013
> 2025 04 04 15 43  8.0000000  0 13
G02  21201444.240   111414335.961 7      1783.317    21201442.980   111414335.969 6      1783.317    21201446.460    86816373.364 6      1389.598
G03  21619540.600   113611452.423 7      5806.151    21619539.600   113611452.428 6      5806.151    21619550.820    88528450.292 7      4524.273    21619551.180    88528452.301 8      4524.273
G08  20422933.100   107323230.621 8      2428.643    20422931.940   107323230.626 8      2428.643    20422939.460    83628520.847 8      1892.449    20422940.220    83628522.850 8      1892.449
G01  20916052.240   109914592.639 7      3247.588    20916050.580   109914592.644 6      3247.588    20916055.920    85647754.177 6      2530.588    20916056.560    85647754.182 8      2530.588
R15  20544199.440   109781959.514 7        57.010    20544198.560   109781959.518 7        57.010    20544211.140    85386019.922 7        44.341    20544211.160    85386020.927 8        44.341
R17  20791807.340   111261165.707 6      1914.264    20791809.180   111261165.736 6      1914.264    20791819.620    86536512.172 7      1488.872    20791820.000    86536510.184 7      1488.872
G27  22314036.480   117261043.601 7       665.084    22314035.160   117261043.606 7       665.084    22314046.260    91372281.841 7       518.247    22314046.800    91372283.842 7       518.247
R02  21196389.820   113107994.460 7      3849.176    21196388.280   113107994.458 7      3849.176    21196401.280    87972932.738 7      2993.804    21196401.460    87972935.740 7      2993.804
R18  21218649.780   113266593.355 5      3546.508    21218646.360   113266593.321 5      3546.508    21218660.280    88096282.978 5      2758.395    21218660.520    88096283.965 5      2758.395
R03  22247163.780   119090819.494 6      6481.133    22247163.300   119090819.512 6      6481.133    22247184.960    92626284.970 7      5040.882    22247185.120    92626284.974 7      5040.882
G32  24634677.320   129456103.596 7      3253.400    24634676.220   129456103.599 6      3253.400    24634691.540   100874949.698 6      2535.117    24634691.780   100874950.704 6      2535.117
G07  24451265.740   128492253.791 6      1124.011    24451263.720   128492253.790 4      1124.011    24451285.440   100123883.693 4       875.852    24451286.220   100123913.661 6       875.852
R16  21186894.840   113176598.081 6      3862.490    21186894.620   113176598.090 6      3862.490    21186906.980    88026290.413 7      3004.159    21186906.800    88026283.415 7      3004.159
> 2025 04 04 15 43  9.0000000  0 12
G02  21201104.880   111412552.353 7      1783.734    21201103.360   111412552.360 6      1783.734    21201106.840    86814983.551 6      1389.922
G03  21618435.580   113605646.310 7      5806.089    21618434.840   113605646.318 6      5806.089    21618445.820    88523926.067 7      4524.225    21618446.440    88523928.074 8      4524.225
G08  20422470.960   107320801.883 8      2428.665    20422469.740   107320801.888 8      2428.665    20422477.440    83626628.330 8      1892.466    20422477.980    83626630.333 8      1892.466
G01  20915434.100   109911344.888 7      3247.728    20915432.720   109911344.891 6      3247.728    20915437.880    85645223.464 6      2530.697    20915438.540    85645223.475 8      2530.697
R15  20544188.400   109781902.529 7        56.829    20544187.880   109781902.535 7        56.829    20544200.360    85385975.601 7        44.200    20544200.400    85385976.603 7        44.200
R17  20791449.920   111259251.194 6      1914.599    20791452.040   111259251.220 6      1914.599    20791462.500    86535023.110 6      1489.133    20791462.520    86535021.125 7      1489.133
G27  22313910.020   117260378.458 7       665.202    22313908.580   117260378.466 7       665.202    22313919.580    91371763.550 7       518.339    22313920.020    91371765.555 7       518.339
R02  21195668.440   113104145.425 7      3848.859    21195667.120   113104145.423 7      3848.859    21195679.880    87969939.055 8      2993.557    21195680.400    87969942.058 8      2993.557
R03  22245953.200   119084338.017 6      6481.525    22245952.960   119084338.040 6      6481.525    22245974.220    92621243.850 7      5041.186    22245974.520    92621243.852 7      5041.186
G32  24634058.060   129452850.070 7      3253.520    24634057.160   129452850.067 6      3253.520    24634072.340   100872414.503 6      2535.210    24634072.600   100872415.501 6      2535.210
G07  24451051.300   128491129.600 6      1124.354    24451049.900   128491129.594 4      1124.354    24451071.680   100123007.679 4       876.120    24451072.940   100123037.662 6       876.120
R16  21186171.280   113172735.844 6      3861.815    21186171.080   113172735.845 6      3861.815    21186184.500    88023286.438 7      3003.634    21186183.660    88023279.436 7      3003.634
> 2025 04 04 15 43 10.0000000  0 13
G02  21200765.520   111410768.281 7      1784.416    21200763.800   111410768.283 6      1784.416    21200767.380    86813593.370 6      1390.454
G03  21617330.700   113599839.945 7      5806.591    21617329.800   113599839.955 7      5806.591    21617341.000    88519401.639 7      4524.616    21617341.700    88519403.652 8      4524.616
G08  20422008.620   107318372.864 8      2429.225    20422007.560   107318372.869 8      2429.225    20422015.120    83624735.596 8      1892.902    20422015.880    83624737.601 8      1892.902
G01  20914816.040   109908096.811 7      3248.222    20914814.600   109908096.811 6      3248.222    20914819.800    85642692.512 6      2531.082    20914820.440    85642692.522 8      2531.082
R15  20544177.900   109781845.562 7        57.027    20544177.560   109781845.566 7        57.027    20544189.780    85385931.297 8        44.354    20544189.820    85385932.300 8        44.354
R17  20791092.120   111257336.085 6      1915.521    20791093.660   111257336.092 6      1915.521    20791104.300    86533533.576 7      1489.850    20791104.880    86533531.593 7      1489.850
G27  22313783.240   117259712.992 7       665.691    22313781.980   117259712.989 7       665.691    22313792.960    91371244.995 7       518.721    22313793.440    91371246.999 7       518.721
R02  21194946.860   113100296.550 7      3848.914    21194945.660   113100296.551 7      3848.914    21194958.740    87966945.506 8      2993.600    21194959.220    87966948.501 7      2993.600
R18  21217320.300   113259498.502 5      3547.900    21217318.600   113259498.469 5      3547.900    21217330.540    88090761.817 5      2759.478    21217331.100    88090764.826 5      2759.478
R03  22244741.800   119077856.054 6      6482.244    22244741.160   119077856.088 6      6482.244    22244763.360    92616202.367 7      5041.746    22244763.380    92616202.372 7      5041.746
G32  24633439.100   129449596.370 7      3253.835    24633438.140   129449596.370 6      3253.835    24633453.220   100869879.171 6      2535.456    24633453.760   100869880.171 6      2535.456
G07  24450837.440   128490004.969 6      1124.866    24450835.820   128490004.966 4      1124.866    24450857.660   100122131.338 4       876.519    24450859.020   100122161.308 6       876.519
R16  21185448.380   113168873.793 6      3861.979    21185447.520   113168873.791 6      3861.979    21185461.500    88020282.621 7      3003.761    21185460.720    88020275.625 7      3003.761
> 2025 04 04 15 43 11.0000000  0 12
G02  21200425.760   111408983.661 7      1784.775    21200424.260   111408983.665 6      1784.775    21200427.880    86812202.765 6      1390.733
G03  21616225.860   113594033.323 7      5806.687    21616224.880   113594033.328 7      5806.687    21616235.960    88514877.011 7      4524.691    21616236.880    88514879.019 8      4524.691
G08  20421546.280   107315943.519 8      2429.425    20421545.300   107315943.524 8      2429.425    20421552.920    83622842.606 8      1893.059    20421553.700    83622844.611 8      1893.059
G01  20914197.880   109904848.374 7      3248.482    20914196.520   109904848.379 6      3248.482    20914201.620    85640161.274 6      2531.285    20914202.480    85640161.283 8      2531.285
R15  20544167.140   109781788.561 7        56.870    20544166.720   109781788.562 7        56.870    20544179.220    85385886.963 7        44.232    20544179.120    85385887.967 8        44.232
R17  20790734.720   111255420.376 6      1915.927    20790736.080   111255420.386 6      1915.927    20790746.660    86532043.589 7      1490.165    20790746.640    86532041.604 7      1490.165
G27  22313656.460   117259047.100 7       665.928    22313655.260   117259047.108 7       665.928    22313666.320    91370726.134 7       518.905    22313667.000    91370728.137 7       518.905
R02  21194225.740   113096447.822 7      3848.469    21194224.420   113096447.826 7      3848.469    21194237.260    87963952.069 8      2993.253    21194237.900    87963955.069 7      2993.253
R03  22243530.500   119071373.637 6      6482.494    22243530.680   119071373.663 6      6482.494    22243552.120    92611160.516 7      5041.940    22243552.420    92611160.523 7      5041.940
G32  24632820.040   129446342.415 7      3254.028    24632818.880   129446342.415 6      3254.028    24632834.060   100867343.630 6      2535.607    24632834.900   100867344.634 6      2535.607
G07  24450623.380   128488879.798 6      1125.341    24450621.600   128488879.795 4      1125.341    24450643.620   100121254.568 4       876.889    24450644.720   100121284.551 6       876.889
R16  21184725.360   113165011.966 6      3861.618    21184724.420   113165011.957 6      3861.618    21184738.460    88017278.978 7      3003.481    21184737.620    88017271.980 7      3003.481
> 2025 04 04 15 43 12.0000000  0 13
G02  21200086.040   111407198.546 7      1785.370    21200084.500   111407198.551 6      1785.370    21200088.240    86810811.770 6      1391.197
G03  21615120.720   113588226.456 7      5807.009    21615119.760   113588226.464 7      5807.009    21615131.120    88510352.198 7      4524.942    21615131.740    88510354.206 8      4524.942
G08  20421084.000   107313513.919 8      2429.704    20421082.980   107313513.921 8      2429.704    20421090.560    83620949.413 8      1893.276    20421091.300    83620951.414 8      1893.276
G01  20913579.760   109901599.627 7      3248.852    20913578.400   109901599.632 6      3248.852    20913583.540    85637629.797 6      2531.573    20913583.960    85637629.804 8      2531.573
R15  20544156.920   109781731.573 7        56.912    20544155.920   109781731.579 7        56.912    20544168.560    85385842.645 7        44.265    20544168.480    85385843.644 8        44.265
R17  20790377.020   111253504.049 6      1916.599    20790378.420   111253504.061 6      1916.599    20790388.360    86530553.121 7      1490.688    20790388.660    86530551.133 7      1490.688
G27  22313529.620   117258380.877 7       666.417    22313528.400   117258380.879 7       666.417    22313539.680    91370207.002 7       519.286    22313539.980    91370209.008 7       519.286
R02  21193504.320   113092599.233 7      3848.485    21193503.320   113092599.239 7      3848.485    21193516.120    87960958.730 7      2993.266    21193516.640    87960961.730 7      2993.266
R18  21215992.480   113252401.381 5      3549.202    21215989.060   113252401.307 5      3549.202    21216000.500    88085242.841 5      2760.491    21216001.680    88085246.856 5      2760.491
R03  22242319.560   119064890.738 6      6483.014    22242318.900   119064890.769 6      6483.014    22242341.060    92606118.293 7      5042.344    22242341.400    92606118.297 7      5042.344
G32  24632200.620   129443088.282 7      3254.236    24632199.520   129443088.281 6      3254.236    24632214.920   100864807.956 6      2535.769    24632215.420   100864808.958 6      2535.769
G07  24450409.460   128487754.190 6      1125.841    24450407.480   128487754.185 4      1125.841    24450429.320   100120377.463 4       877.278    24450430.440   100120407.432 6       877.278
R16  21184002.640   113161150.351 6      3861.358    21184001.920   113161150.357 6      3861.358    21184015.040    88014275.518 7      3003.278    21184014.600    88014268.524 7      3003.278
> 2025 04 04 15 43 13.0000000  0 13
G02  21199746.200   111405413.072 7      1785.741    21199744.740   111405413.076 6      1785.741    21199748.540    86809420.500 6      1391.486
G03  21614015.820   113582419.466 7      5807.260    21614014.820   113582419.476 7      5807.260    21614025.920    88505827.289 7      4525.137    21614026.620    88505829.295 8      4525.137
G08  20420621.620   107311084.132 8      2430.047    20420620.580   107311084.132 8      2430.047    20420628.160    83619056.083 8      1893.543    20420628.640    83619058.084 8      1893.543
G01  20912961.540   109898350.683 7      3249.196    20912960.160   109898350.686 6      3249.196    20912965.420    85635098.157 6      2531.841    20912965.620    85635098.165 8      2531.841
R15  20544146.120   109781674.705 8        56.924    20544145.420   109781674.706 7        56.924    20544157.920    85385798.413 8        44.274    20544157.900    85385799.419 7        44.274
R17  20790018.880   111251587.195 6      1917.424    20790019.640   111251587.215 6      1917.424    20790029.540    86529062.247 7      1491.329    20790030.280    86529060.266 7      1491.329
G27  22313402.940   117257714.431 7       666.719    22313401.700   117257714.433 7       666.719    22313412.860    91369687.693 7       519.521    22313413.420    91369689.695 7       519.521
R02  21192783.280   113088750.915 7      3848.329    21192782.020   113088750.919 7      3848.329    21192794.920    87957965.611 8      2993.145    21192795.260    87957968.609 7      2993.145
R18  21215328.180   113248852.201 5      3549.622    21215325.300   113248852.133 5      3549.622    21215336.420    88082482.376 5      2760.817    21215336.880    88082482.393 5      2760.817
R03  22241108.820   119058407.499 6      6483.512    22241108.040   119058407.528 6      6483.512    22241130.240    92601075.809 7      5042.732    22241130.340    92601075.811 7      5042.732
G32  24631581.540   129439834.080 7      3254.346    24631580.460   129439834.080 6      3254.346    24631595.580   100862272.227 6      2535.854    24631596.140   100862273.230 6      2535.854
G07  24450194.920   128486628.228 6      1126.280    24450193.320   128486628.225 4      1126.280    24450214.840   100119500.084 4       877.621    24450216.320   100119530.046 6       877.621
R16  21183279.420   113157289.059 6      3861.378    21183278.680   113157289.055 6      3861.378    21183292.120    88011272.297 7      3003.294    21183291.800    88011265.301 7      3003.294
> 2025 04 04 15 43 14.0000000  0 13
G02  21199406.580   111403627.108 7      1785.971    21199404.860   111403627.113 6      1785.971    21199408.660    86808028.848 6      1391.666
G03  21612910.620   113576612.287 7      5807.191    21612909.680   113576612.289 7      5807.191    21612920.780    88501302.224 7      4525.084    21612921.340    88501304.229 8      4525.084
G08  20420159.260   107308654.104 8      2429.978    20420158.040   107308654.106 8      2429.978    20420165.780    83617162.563 8      1893.490    20420166.280    83617164.566 8      1893.490
G01  20912343.180   109895101.442 7      3249.257    20912341.800   109895101.445 6      3249.257    20912347.040    85632566.289 6      2531.889    20912347.340    85632566.293 8      2531.889
R15  20544135.460   109781617.851 7        56.623    20544134.740   109781617.855 7        56.623    20544147.260    85385754.199 8        44.040    20544147.320    85385755.204 8        44.040
R17  20789660.440   111249669.830 6      1917.574    20789661.320   111249669.863 6      1917.574    20789671.940    86527570.981 7      1491.447    20789672.220    86527568.998 7      1491.447
G27  22313276.080   117257047.659 7       666.751    22313274.820   117257047.661 7       666.751    22313286.020    91369168.130 7       519.546    22313286.400    91369170.137 7       519.546
R02  21192061.920   113084902.739 7      3847.969    21192060.820   113084902.743 7      3847.969    21192073.660    87954972.598 7      2992.865    21192074.000    87954975.598 7      2992.865
R18  21214663.100   113245302.519 5      3549.471    21214659.840   113245302.454 5      3549.471    21214671.320    88079721.523 5      2760.700    21214671.900    88079724.527 5      2760.700
R03  22239897.520   119051923.813 6      6483.582    22239896.280   119051923.852 6      6483.582    22239919.040    92596032.988 7      5042.786    22239919.040    92596032.992 7      5042.786
G32  24630962.200   129436579.700 7      3254.283    24630961.100   129436579.697 6      3254.283    24630976.420   100859736.358 6      2535.805    24630977.080   100859737.358 6      2535.805
G07  24449980.500   128485501.801 6      1126.455    24449978.820   128485501.798 4      1126.455    24450000.640   100118622.340 4       877.757    24450001.920   100118652.315 6       877.757
R16  21182556.200   113153428.028 6      3860.869    21182555.700   113153428.021 6      3860.869    21182569.440    88008269.286 7      3002.898    21182568.920    88008262.288 7      3002.898
> 2025 04 04 15 43 15.0000000  0 13
G02  21199066.460   111401840.838 7      1786.485    21199064.960   111401840.840 6      1786.485    21199068.680    86806636.953 6      1392.067
G03  21611805.520   113570805.044 7      5807.287    21611804.660   113570805.049 6      5807.287    21611815.780    88496777.123 7      4525.159    21611816.220    88496779.131 8      4525.159
G08  20419696.980   107306223.973 8      2430.233    20419695.700   107306223.978 8      2430.233    20419703.340    83615268.965 8      1893.688    20419704.180    83615270.968 8      1893.688
G01  20911724.860   109891852.073 7      3249.468    20911723.580   109891852.077 6      3249.468    20911728.760    85630034.321 6      2532.053    20911729.240    85630034.329 8      2532.053
R15  20544124.800   109781561.162 7        56.688    20544124.340   109781561.164 7        56.688    20544136.400    85385710.112 7        44.090    20544136.580    85385711.110 8        44.090
R17  20789301.740   111247752.149 6      1917.908    20789302.640   111247752.167 6      1917.908    20789313.320    86526079.441 7      1491.706    20789313.900    86526077.454 7      1491.706
G27  22313149.020   117256380.706 7       667.179    22313147.960   117256380.708 7       667.179    22313159.120    91368648.437 7       519.880    22313159.440    91368650.441 7       519.880
R02  21191340.920   113081054.857 7      3847.876    21191339.960   113081054.866 7      3847.876    21191352.560    87951979.811 7      2992.792    21191353.080    87951982.815 7      2992.792
R18  21213996.640   113241752.312 5      3550.534    21213996.880   113241752.281 5      3550.534    21214006.080    88076960.275 6      2761.527    21214007.020    88076963.300 5      2761.527
R03  22238685.780   119045439.822 6      6484.241    22238685.620   119045439.853 6      6484.241    22238707.840    92590989.911 7      5043.299    22238707.660    92590989.913 7      5043.299
G32  24630342.740   129433325.298 7      3254.525    24630341.880   129433325.293 6      3254.525    24630357.000   100857200.475 6      2535.993    24630358.120   100857201.479 6      2535.993
G07  24449766.120   128484375.113 6      1126.923    24449764.520   128484375.108 4      1126.923    24449786.320   100117744.390 4       878.122    24449787.280   100117774.352 6       878.122
R16  21181833.480   113149567.415 6      3860.472    21181832.820   113149567.381 6      3860.472    21181846.520    88005266.592 7      3002.589    21181846.280    88005259.601 7      3002.589
> 2025 04 04 15 43 16.0000000  0 13
G02  21198726.540   111400054.078 7      1787.007    21198725.160   111400054.078 6      1787.007    21198728.740    86805244.681 6      1392.473
G03  21610700.380   113564997.578 7      5807.558    21610699.540   113564997.586 7      5807.558    21610710.460    88492251.837 7      4525.370    21610711.340    88492253.839 8      4525.370
G08  20419234.400   107303793.567 8      2430.588    20419233.280   107303793.572 8      2430.588    20419240.800    83613375.146 8      1893.965    20419241.680    83613377.148 8      1893.965
G01  20911106.360   109888602.361 7      3249.894    20911105.080   109888602.369 6      3249.894    20911110.180    85627502.090 6      2532.385    20911110.820    85627502.101 8      2532.385
R15  20544114.140   109781504.498 8        56.688    20544113.660   109781504.496 7        56.688    20544126.100    85385666.034 8        44.090    20544125.880    85385667.034 7        44.090
R17  20788943.420   111245833.858 6      1918.604    20788944.420   111245833.865 6      1918.604    20788955.040    86524587.437 7      1492.247    20788955.640    86524585.450 7      1492.247
G27  22313022.140   117255713.429 7       667.551    22313021.000   117255713.434 7       667.551    22313032.020    91368128.479 7       520.169    22313032.500    91368130.479 7       520.169
R02  21190619.700   113077207.108 7      3847.753    21190619.180   113077207.114 7      3847.753    21190631.540    87948987.132 8      2992.696    21190631.960    87948990.131 7      2992.696
R18  21213331.960   113238201.733 5      3550.561    21213331.860   113238201.676 5      3550.561    21213341.060    88074198.662 6      2761.548    21213341.860    88074201.673 5      2761.548
R03  22237474.280   119038955.416 6      6484.597    22237473.800   119038955.445 6      6484.597    22237496.160    92585946.515 7      5043.575    22237496.400    92585946.516 7      5043.575
G32  24629723.480   129430070.715 7      3254.655    24629722.580   129430070.715 6      3254.655    24629737.600   100854664.453 6      2536.095    24629738.140   100854665.459 6      2536.095
G07  24449552.000   128483247.969 6      1127.162    24449550.220   128483247.966 4      1127.162    24449571.920   100116866.079 4       878.308    24449573.180   100116896.025 6       878.308
R16  21181111.480   113145706.972 6      3860.213    21181110.160   113145706.967 6      3860.213    21181123.520    88002264.063 7      3002.388    21181123.600    88002257.071 7      3002.388
> 2025 04 04 15 43 17.0000000  0 13
G02  21198386.320   111398266.775 7      1787.489    21198384.940   111398266.777 6      1787.489    21198388.740    86803851.984 6      1392.849
G03  21609595.240   113559189.810 7      5807.791    21609594.400   113559189.815 7      5807.791    21609605.460    88487726.312 7      4525.551    21609606.140    88487728.322 8      4525.551
G08  20418771.740   107301362.829 8      2430.845    20418770.740   107301362.831 8      2430.845    20418778.180    83611481.071 8      1894.165    20418779.120    83611483.069 8      1894.165
G01  20910488.040   109885352.314 7      3250.209    20910486.800   109885352.318 6      3250.209    20910491.880    85624969.588 6      2532.630    20910492.180    85624969.594 8      2532.630
R15  20544103.160   109781447.772 7        56.606    20544102.840   109781447.776 7        56.606    20544115.360    85385621.922 7        44.027    20544115.180    85385622.922 8        44.027
R17  20788585.520   111243914.917 6      1919.176    20788585.720   111243914.913 6      1919.176    20788596.340    86523094.917 7      1492.692    20788596.880    86523092.932 7      1492.692
G27  22312894.900   117255045.756 7       667.842    22312893.780   117255045.753 7       667.842    22312905.120    91367608.212 7       520.397    22312905.640    91367610.216 7       520.397
R02  21189898.820   113073359.479 7      3847.463    21189898.040   113073359.480 7      3847.463    21189910.520    87945994.548 7      2992.471    21189910.860    87945997.552 7      2992.471
R18  21212665.800   113234650.335 5      3551.567    21212665.220   113234650.339 5      3551.567    21212676.060    88071437.556 6      2762.330    21212676.840    88071440.566 5      2762.330
R03  22236263.000   119032470.494 6      6485.070    22236262.660   119032470.522 6      6485.070    22236285.080    92580902.737 7      5043.944    22236284.900    92580902.741 7      5043.944
G32  24629103.980   129426815.881 7      3254.924    24629103.060   129426815.875 6      3254.924    24629118.280   100852128.231 6      2536.304    24629119.140   100852129.236 6      2536.304
G07  24449338.120   128482120.290 6      1128.015    24449335.660   128482120.290 4      1128.015    24449357.440   100115987.360 4       878.972    24449358.880   100116017.333 6       878.972
R16  21180388.720   113141846.705 6      3859.992    21180387.760   113141846.682 6      3859.992    21180400.700    87999261.638 7      3002.216    21180401.020    87999254.642 7      3002.216
> 2025 04 04 15 43 18.0000000  0 13
G02  21198046.360   111396479.104 7      1787.920    21198044.820   111396479.109 6      1787.920    21198048.680    86802458.997 6      1393.184
G03  21608490.040   113553381.927 7      5808.086    21608489.360   113553381.932 7      5808.086    21608500.320    88483200.704 7      4525.782    21608501.020    88483202.715 8      4525.782
G08  20418309.060   107298931.942 8      2431.034    20418308.140   107298931.944 8      2431.034    20418315.620    83609586.875 8      1894.312    20418316.500    83609588.875 8      1894.312
G01  20909869.540   109882102.043 7      3250.517    20909868.220   109882102.050 6      3250.517    20909873.360    85622436.917 6      2532.871    20909873.700    85622436.926 8      2532.871
R15  20544092.520   109781391.169 7        56.577    20544092.580   109781391.178 7        56.577    20544104.840    85385577.899 8        44.005    20544104.440    85385578.899 8        44.005
R17  20788226.980   111241995.452 6      1919.712    20788226.780   111241995.445 6      1919.712    20788237.880    86521602.000 7      1493.109    20788238.280    86521600.017 7      1493.109
G27  22312768.040   117254377.841 7       668.172    22312766.880   117254377.840 7       668.172    22312777.900    91367087.763 7       520.654    22312778.420    91367089.771 7       520.654
R02  21189177.920   113069512.133 7      3847.339    21189176.960   113069512.134 7      3847.339    21189189.340    87943002.172 7      2992.375    21189189.900    87943005.174 7      2992.375
R18  21211999.140   113231098.735 5      3551.685    21211999.060   113231098.736 5      3551.685    21212011.600    88068678.182 6      2762.422    21212011.720    88068679.203 5      2762.422
R03  22235051.940   119025985.320 6      6485.230    22235051.340   119025985.337 6      6485.230    22235073.360    92575858.725 7      5044.068    22235073.340    92575858.725 7      5044.068
G32  24628484.500   129423560.972 7      3255.037    24628483.600   129423560.972 6      3255.037    24628498.920   100849591.946 6      2536.392    24628499.520   100849592.950 6      2536.392
G07  24449122.620   128480992.281 6      1128.286    24449120.940   128480992.276 4      1128.286    24449142.800   100115108.380 4       879.184    24449144.180   100115138.336 6       879.184
R16  21179666.280   113137986.807 6      3859.854    21179664.780   113137986.779 6      3859.854    21179678.700    87996259.493 6      3002.108    21179678.440    87996252.493 7      3002.108
> 2025 04 04 15 43 19.0000000  0 12
G02  21197706.060   111394690.913 7      1788.496    21197704.680   111394690.915 6      1788.496    21197708.320    86801065.608 6      1393.633
G03  21607384.700   113547573.814 7      5808.330    21607384.120   113547573.814 7      5808.330    21607395.100    88478674.917 7      4525.972    21607395.860    88478676.926 8      4525.972
G08  20417846.580   107296500.741 8      2431.414    20417845.520   107296500.741 8      2431.414    20417852.940    83607692.441 8      1894.608    20417853.800    83607694.442 8      1894.608
G01  20909250.880   109878851.462 7      3250.837    20909249.640   109878851.464 6      3250.837    20909254.700    85619904.005 6      2533.120    20909255.100    85619904.012 8      2533.120
R15  20544082.200   109781334.576 8        56.636    20544082.200   109781334.583 7        56.636    20544094.180    85385533.883 8        44.051    20544094.140    85385534.883 8        44.051
R17  20787867.960   111240075.355 6      1920.432    20787868.220   111240075.364 6      1920.432    20787878.940    86520108.616 7      1493.669    20787879.340    86520106.623 7      1493.669
G27  22312640.900   117253709.576 7       668.500    22312639.720   117253709.579 7       668.500    22312650.780    91366567.045 7       520.909    22312651.180    91366569.054 7       520.909
R02  21188457.020   113065664.958 7      3847.173    21188455.840   113065664.958 7      3847.173    21188468.600    87940009.945 7      2992.246    21188468.880    87940012.945 7      2992.246
R03  22233840.260   119019499.616 6      6485.998    22233839.720   119019499.631 6      6485.998    22233861.460    92570814.322 7      5044.665    22233861.580    92570814.320 7      5044.665
G32  24627865.180   129420305.864 7      3255.225    24627864.240   129420305.861 6      3255.225    24627879.560   100847055.513 6      2536.539    24627880.280   100847056.516 6      2536.539
G07  24448907.780   128479863.739 6      1128.998    24448906.020   128479863.736 4      1128.998    24448928.000   100114228.984 4       879.739    24448930.140   100114258.928 6       879.739
R16  21178944.120   113134127.147 6      3859.630    21178941.660   113134127.124 6      3859.630    21178955.680    87993257.547 7      3001.935    21178955.920    87993250.551 7      3001.935
> 2025 04 04 15 43 20.0000000  0 12
G02  21197365.620   111392902.233 7      1788.884    21197364.380   111392902.237 6      1788.884    21197367.980    86799671.839 6      1393.935
G03  21606279.500   113541765.461 7      5808.484    21606278.720   113541765.463 6      5808.484    21606289.760    88474148.945 7      4526.092    21606290.420    88474150.950 8      4526.092
G08  20417383.940   107294069.268 8      2431.610    20417382.800   107294069.270 8      2431.610    20417390.320    83605797.791 8      1894.761    20417391.020    83605799.793 8      1894.761
G01  20908632.420   109875600.547 7      3251.088    20908631.040   109875600.552 6      3251.088    20908636.140    85617370.831 6      2533.316    20908636.400    85617370.837 8      2533.316
R15  20544071.580   109781277.997 8        56.568    20544071.440   109781277.998 7        56.568    20544083.700    85385489.873 8        43.997    20544083.480    85385490.875 8        43.997
R17  20787508.880   111238154.749 6      1920.848    20787509.220   111238154.759 6      1920.848    20787520.180    86518614.808 7      1493.993    20787520.440    86518612.819 7      1493.993
G27  22312513.620   117253040.952 7       668.770    22312512.460   117253040.957 7       668.770    22312523.660    91366046.041 7       521.120    22312523.740    91366048.044 7       521.120
R02  21187736.240   113061817.932 7      3846.947    21187734.880   113061817.932 7      3846.947    21187747.540    87937017.822 7      2992.070    21187747.960    87937020.824 7      2992.070
R03  22232629.300   119013013.486 6      6486.350    22232628.720   119013013.509 6      6486.350    22232650.080    92565769.590 7      5044.939    22232650.060    92565769.592 7      5044.939
G32  24627245.840   129417050.540 7      3255.415    24627244.860   129417050.534 6      3255.415    24627260.180   100844518.907 6      2536.687    24627260.420   100844519.915 6      2536.687
G07  24448693.480   128478734.779 6      1129.236    24448691.080   128478734.776 4      1129.236    24448713.320   100113349.260 4       879.924    24448715.400   100113379.216 6       879.924
R16  21178220.980   113130267.767 6      3859.141    21178219.520   113130267.733 6      3859.141    21178233.320    87990255.805 6      3001.554    21178233.480    87990248.809 7      3001.554
> 2025 04 04 15 43 21.0000000  0 12
G02  21197025.280   111391112.967 7      1789.426    21197023.920   111391112.971 6      1789.426    21197027.600    86798277.616 6      1394.358
G03  21605174.340   113535956.778 7      5808.730    21605173.360   113535956.783 6      5808.730    21605184.340    88469622.716 7      4526.283    21605185.160    88469624.720 8      4526.283
G08  20416921.080   107291637.432 8      2431.920    20416920.140   107291637.432 8      2431.920    20416927.540    83603902.864 8      1895.003    20416928.440    83603904.864 8      1895.003
G01  20908013.620   109872349.209 7      3251.488    20908012.240   109872349.217 6      3251.488    20908017.380    85614837.340 6      2533.627    20908017.680    85614837.350 8      2533.627
R15  20544060.920   109781221.319 8        56.575    20544060.880   109781221.323 7        56.575    20544072.960    85385445.800 8        44.003    20544072.900    85385446.798 8        44.003
R17  20787149.940   111236233.459 6      1921.601    20787150.420   111236233.458 6      1921.601    20787161.060    86517120.479 7      1494.579    20787161.320    86517118.494 7      1494.579
G27  22312386.400   117252371.902 7       669.149    22312385.200   117252371.909 7       669.149    22312396.380    91365524.710 7       521.415    22312396.540    91365526.712 7       521.415
R02  21187014.960   113057970.922 7      3846.821    21187014.240   113057970.925 7      3846.821    21187026.660    87934025.712 8      2991.972    21187026.960    87934028.711 7      2991.972
R03  22231417.360   119006526.781 6      6487.051    22231416.240   119006526.804 6      6487.051    22231438.120    92560724.402 7      5045.484    22231438.240    92560724.402 7      5045.484
G32  24626626.100   129413794.935 7      3255.780    24626625.380   129413794.930 6      3255.780    24626640.600   100841982.086 6      2536.972    24626641.540   100841983.086 6      2536.972
G07  24448478.420   128477605.198 6      1129.822    24448476.140   128477605.193 3      1129.822    24448498.440   100112469.055 4       880.380    24448500.760   100112498.999 6       880.380
R16  21177498.300   113126408.446 6      3859.130    21177497.040   113126408.434 6      3859.130    21177510.500    87987254.130 6      3001.546    21177510.600    87987247.136 7      3001.546
> 2025 04 04 15 43 22.0000000  0 12
G02  21196684.640   111389323.259 7      1789.942    21196683.280   111389323.261 6      1789.942    21196686.900    86796883.043 6      1394.760
G03  21604068.740   113530147.912 7      5808.902    21604067.940   113530147.917 7      5808.902    21604078.900    88465096.341 7      4526.417    21604079.860    88465098.349 8      4526.417
G08  20416458.340   107289205.360 8      2432.134    20416457.280   107289205.364 8      2432.134    20416464.680    83602007.751 8      1895.169    20416465.620    83602009.751 8      1895.169
G01  20907394.760   109869097.630 7      3251.705    20907393.620   109869097.637 6      3251.705    20907398.680    85612303.651 6      2533.796    20907399.100    85612303.658 8      2533.796
R15  20544050.260   109781164.668 8        56.599    20544050.040   109781164.669 7        56.599    20544062.380    85385401.738 7        44.022    20544062.160    85385402.741 8        44.022
R17  20786791.020   111234311.666 6      1922.023    20786791.260   111234311.660 6      1922.023    20786802.160    86515625.755 7      1494.907    20786802.060    86515623.766 7      1494.907
G27  22312258.800   117251702.563 7       669.397    22312257.820   117251702.565 7       669.397    22312268.980    91365003.143 7       521.608    22312269.260    91365005.145 7       521.608
R02  21186294.200   113054124.040 7      3846.756    21186292.820   113054124.051 7      3846.756    21186305.720    87931033.719 8      2991.922    21186306.220    87931036.719 7      2991.922
R03  22230205.240   119000039.661 6      6487.419    22230204.720   119000039.679 6      6487.419    22230226.460    92555678.889 7      5045.770    22230226.680    92555678.891 7      5045.770
G32  24626006.460   129410539.189 7      3255.828    24626005.780   129410539.186 6      3255.828    24626021.040   100839445.161 6      2537.009    24626021.860   100839446.169 6      2537.009
G07  24448263.160   128476475.297 6      1129.982    24448261.300   128476475.294 3      1129.982    24448283.280   100111588.597 4       880.506    24448285.540   100111618.561 6       880.506
R16  21176776.220   113122549.421 6      3858.686    21176775.640   113122549.398 6      3858.686    21176788.420    87984252.652 7      3001.200    21176788.400    87984245.658 7      3001.200
> 2025 04 04 15 43 23.0000000  0 12
G02  21196343.900   111387533.134 7      1790.239    21196342.560   111387533.139 6      1790.239    21196346.180    86795488.150 6      1394.992
G03  21602963.560   113524338.901 7      5808.911    21602962.660   113524338.909 7      5808.911    21602973.640    88460569.853 7      4526.425    21602974.260    88460571.862 8      4526.425
G08  20415995.260   107286773.093 8      2432.196    20415994.540   107286773.095 8      2432.196    20416001.840    83600112.484 8      1895.218    20416002.700    83600114.484 8      1895.218
G01  20906776.000   109865845.811 7      3251.764    20906774.680   109865845.816 6      3251.764    20906779.960    85609769.771 6      2533.842    20906780.300    85609769.779 8      2533.842
R15  20544039.560   109781108.094 7        56.346    20544039.300   109781108.093 7        56.346    20544051.820    85385357.743 7        43.825    20544051.780    85385358.743 8        43.825
R17  20786431.420   111232389.316 6      1922.433    20786431.520   111232389.312 6      1922.433    20786442.960    86514130.603 7      1495.226    20786443.120    86514128.614 7      1495.226
G27  22312131.580   117251032.948 7       669.557    22312130.400   117251032.950 7       669.557    22312141.640    91364481.365 7       521.733    22312141.420    91364483.367 7       521.733
R02  21185573.420   113050277.369 8      3846.422    21185572.260   113050277.375 7      3846.422    21185584.880    87928041.866 7      2991.662    21185585.140    87928044.866 7      2991.662
R03  22228993.320   118993552.137 6      6487.504    22228992.760   118993552.160 6      6487.504    22229014.560    92550633.089 7      5045.836    22229014.480    92550633.089 7      5045.836
G32  24625386.800   129407283.342 7      3255.826    24625386.240   129407283.339 6      3255.826    24625401.520   100836908.148 6      2537.007    24625401.700   100836909.140 6      2537.007
G07  24448048.600   128475344.913 6      1130.415    24448046.080   128475344.915 3      1130.415    24448068.240   100110707.763 4       880.843    24448069.920   100110737.732 6       880.843
R16  21176053.280   113118690.610 6      3858.482    21176052.580   113118690.595 6      3858.482    21176065.820    87981251.377 6      3001.041    21176065.840    87981244.383 7      3001.041
> 2025 04 04 15 43 24.0000000  0 12
G02  21196003.340   111385742.709 7      1790.643    21196001.880   111385742.717 6      1790.643    21196005.300    86794093.022 6      1395.306
G03  21601858.120   113518529.843 7      5809.018    21601857.240   113518529.851 7      5809.018    21601868.080    88456043.333 7      4526.508    21601868.520    88456045.339 8      4526.508
G08  20415532.660   107284340.726 8      2432.454    20415531.700   107284340.731 8      2432.454    20415538.980    83598217.139 8      1895.419    20415539.840    83598219.140 8      1895.419
G01  20906157.040   109862593.848 7      3252.042    20906155.960   109862593.853 6      3252.042    20906161.160    85607235.786 6      2534.059    20906161.320    85607235.794 8      2534.059
R15  20544029.000   109781051.724 7        56.305    20544028.660   109781051.725 7        56.305    20544041.380    85385313.901 8        43.793    20544041.320    85385314.903 8        43.793
R17  20786072.200   111230466.541 6      1923.123    20786072.200   111230466.532 6      1923.123    20786083.860    86512635.117 7      1495.762    20786083.620    86512633.128 7      1495.762
G27  22312004.200   117250363.180 7       669.816    22312003.120   117250363.182 7       669.816    22312014.260    91363959.470 7       521.935    22312014.280    91363961.475 7       521.935
R02  21184852.680   113046430.975 8      3846.297    21184851.420   113046430.973 7      3846.297    21184864.060    87925050.235 7      2991.565    21184864.380    87925053.232 7      2991.565
R03  22227781.200   118987064.337 6      6487.920    22227780.920   118987064.369 6      6487.920    22227802.660    92545587.041 7      5046.160    22227802.700    92545587.046 7      5046.160
G32  24624767.360   129404027.480 7      3255.960    24624766.600   129404027.479 6      3255.960    24624781.880   100834371.113 6      2537.112    24624781.820   100834372.114 6      2537.112
G07  24447833.580   128474214.305 6      1130.826    24447830.900   128474214.310 3      1130.826    24447853.120   100109826.758 4       881.163    24447854.320   100109856.718 6       881.163
R16  21175331.320   113114832.243 6      3858.070    21175330.300   113114832.225 6      3858.070    21175343.640    87978250.431 6      3000.721    21175343.820    87978243.441 7      3000.721
> 2025 04 04 15 43 25.0000000  0 12
G02  21195662.400   111383951.851 7      1791.090    21195661.180   111383951.856 6      1791.090    21195664.660    86792697.557 6      1395.655
G03  21600752.320   113512720.604 7      5809.348    21600751.760   113512720.609 7      5809.348    21600762.720    88451516.667 7      4526.765    21600763.240    88451518.672 8      4526.765
G08  20415069.680   107281908.152 8      2432.709    20415068.820   107281908.154 8      2432.709    20415076.120    83596321.631 8      1895.617    20415076.860    83596323.631 8      1895.617
G01  20905538.340   109859341.627 7      3252.374    20905537.200   109859341.635 6      3252.374    20905542.140    85604701.596 6      2534.317    20905542.500    85604701.603 8      2534.317
R15  20544018.360   109780995.431 7        56.240    20544018.440   109780995.426 7        56.240    20544030.800    85385270.117 8        43.743    20544030.620    85385271.115 8        43.743
R17  20785712.900   111228543.274 6      1923.577    20785713.060   111228543.254 6      1923.577    20785724.780    86511139.234 7      1496.115    20785724.320    86511137.243 7      1496.115
G27  22311876.580   117249693.118 7       670.205    22311875.460   117249693.118 7       670.205    22311886.720    91363437.342 7       522.238    22311887.020    91363439.347 7       522.238
R02  21184131.860   113042584.835 8      3846.066    21184130.680   113042584.833 7      3846.066    21184143.200    87922058.801 7      2991.385    21184143.480    87922061.800 7      2991.385
R03  22226568.880   118980576.155 6      6488.368    22226568.680   118980576.178 6      6488.368    22226590.500    92540540.713 7      5046.509    22226590.520    92540540.717 7      5046.509
G32  24624147.840   129400771.481 7      3256.100    24624147.120   129400771.486 6      3256.100    24624162.380   100831833.991 6      2537.221    24624162.600   100831835.001 6      2537.221
G07  24447617.960   128473083.269 6      1131.317    24447615.700   128473083.271 3      1131.317    24447638.040   100108945.417 3       881.546    24447638.900   100108975.377 6       881.546
R16  21174608.760   113110974.108 6      3858.042    21174607.840   113110974.095 6      3858.042    21174621.400    87975249.676 6      3000.699    21174621.760    87975242.678 7      3000.699
> 2025 04 04 15 43 26.0000000  0 12
G02  21195321.540   111382160.583 7      1791.400    21195320.280   111382160.585 6      1791.400    21195323.820    86791301.769 6      1395.896
G03  21599647.120   113506911.225 7      5809.450    21599646.200   113506911.225 7      5809.450    21599657.140    88446989.887 7      4526.844    21599657.680    88446991.895 8      4526.844
G08  20414606.700   107279475.365 8      2432.854    20414605.900   107279475.369 8      2432.854    20414613.200    83594425.963 8      1895.731    20414613.980    83594427.965 8      1895.731
G01  20904919.460   109856089.184 7      3252.431    20904918.340   109856089.188 6      3252.431    20904923.300    85602167.233 6      2534.362    20904923.620    85602167.237 8      2534.362
R15  20544008.140   109780939.199 8        56.015    20544007.880   109780939.203 7        56.015    20544020.240    85385226.386 8        43.567    20544020.260    85385227.388 8        43.567
R17  20785352.620   111226619.503 6      1923.926    20785353.840   111226619.499 6      1923.926    20785365.240    86509642.987 7      1496.387    20785364.880    86509641.002 7      1496.387
G27  22311749.260   117249022.799 7       670.281    22311747.860   117249022.802 7       670.281    22311759.140    91362915.019 7       522.297    22311759.860    91362917.024 7       522.297
R02  21183411.200   113038738.972 8      3845.660    21183410.160   113038738.976 7      3845.660    21183422.640    87919067.591 7      2991.069    21183422.840    87919070.593 7      2991.069
R03  22225357.000   118974087.630 6      6488.528    22225356.720   118974087.658 6      6488.528    22225378.460    92535494.109 7      5046.633    22225378.240    92535494.111 7      5046.633
G32  24623527.880   129397515.395 7      3256.073    24623527.440   129397515.392 6      3256.073    24623542.740   100829296.792 6      2537.200    24623542.840   100829297.795 6      2537.200
G07  24447402.980   128471951.826 6      1131.551    24447400.440   128471951.828 3      1131.551    24447422.860   100108063.769 3       881.728    24447423.460   100108093.735 6       881.728
R16  21173886.360   113107116.336 6      3857.608    21173886.040   113107116.305 6      3857.608    21173898.500    87972249.176 6      3000.362    21173899.180    87972242.186 7      3000.362
> 2025 04 04 15 43 27.0000000  0 12
G02  21194980.600   111380369.062 7      1791.715    21194979.400   111380369.065 6      1791.715    21194982.820    86789905.788 6      1396.142
G03  21598541.820   113501101.862 7      5809.370    21598540.840   113501101.867 7      5809.370    21598551.700    88442463.131 7      4526.782    21598552.380    88442465.142 8      4526.782
G08  20414143.560   107277042.567 8      2432.921    20414142.940   107277042.567 8      2432.921    20414150.180    83592530.276 8      1895.783    20414151.040    83592532.277 8      1895.783
G01  20904300.400   109852836.656 7      3252.552    20904299.340   109852836.660 6      3252.552    20904304.400    85599632.803 6      2534.456    20904304.700    85599632.812 8      2534.456
R15  20543997.860   109780883.202 7        55.923    20543997.420   109780883.195 7        55.923    20544009.600    85385182.827 8        43.495    20544009.840    85385183.829 8        43.495
R17  20784993.760   111224695.425 6      1924.237    20784994.040   111224695.426 6      1924.237    20785005.720    86508146.494 7      1496.629    20785005.280    86508144.503 7      1496.629
G27  22311621.560   117248352.367 7       670.520    22311620.280   117248352.367 7       670.520    22311631.580    91362392.603 7       522.483    22311632.480    91362394.605 7       522.483
R02  21182690.200   113034893.566 7      3845.218    21182689.420   113034893.569 7      3845.218    21182701.980    87916076.732 7      2990.725    21182702.120    87916079.733 7      2990.725
R03  22224144.640   118967598.893 6      6488.953    22224144.600   118967598.908 6      6488.953    22224166.040    92530447.326 7      5046.964    22224166.100    92530447.327 7      5046.964
G32  24622908.680   129394259.330 7      3256.176    24622907.760   129394259.322 6      3256.176    24622923.180   100826759.611 6      2537.280    24622923.500   100826760.612 6      2537.280
G07  24447187.700   128470820.201 6      1131.730    24447185.180   128470820.201 3      1131.730    24447207.420   100107181.969 3       881.867    24447208.220   100107211.929 6       881.867
R16  21173164.260   113103259.042 6      3857.092    21173164.260   113103259.011 6      3857.092    21173177.040    87969249.073 6      2999.961    21173177.180    87969242.075 7      2999.961
> 2025 04 04 15 43 28.0000000  0 12
G02  21194639.680   111378577.027 7      1792.189    21194638.500   111378577.034 6      1792.189    21194641.980    86788509.405 6      1396.511
G03  21597436.180   113495292.239 7      5809.613    21597435.220   113495292.244 6      5809.613    21597446.260    88437936.170 7      4526.971    21597446.940    88437938.177 8      4526.971
G08  20413680.820   107274609.462 8      2433.167    20413679.880   107274609.461 8      2433.167    20413687.260    83590634.357 8      1895.974    20413687.940    83590636.357 8      1895.974
G01  20903681.200   109849583.791 7      3252.957    20903680.300   109849583.796 6      3252.957    20903685.340    85597098.110 6      2534.772    20903685.600    85597098.119 8      2534.772
R15  20543987.100   109780827.176 7        55.895    20543986.820   109780827.183 7        55.895    20543999.120    85385139.263 8        43.474    20543999.060    85385140.266 8        43.474
R17  20784633.880   111222770.699 6      1924.927    20784634.900   111222770.701 6      1924.927    20784645.780    86506649.489 7      1497.166    20784645.520    86506647.496 7      1497.166
G27  22311493.940   117247681.575 7       670.846    22311492.700   117247681.577 7       670.846    22311504.020    91361869.912 7       522.737    22311504.600    91361871.916 7       522.737
R02  21181969.500   113031048.269 8      3845.154    21181968.700   113031048.272 7      3845.154    21181981.280    87913085.958 7      2990.675    21181981.920    87913088.959 7      2990.675
R03  22222932.600   118961109.691 6      6489.412    22222932.320   118961109.698 6      6489.412    22222954.100    92525400.200 7      5047.320    22222954.020    92525400.201 7      5047.320
G32  24622288.920   129391003.063 7      3256.257    24622288.160   129391003.060 6      3256.257    24622303.480   100824222.268 6      2537.343    24622303.800   100824223.274 6      2537.343
G07  24446971.940   128469688.085 6      1132.079    24446969.660   128469688.085 3      1132.079    24446992.140   100106299.789 3       882.140    24446993.420   100106329.742 6       882.140
R16  21172442.600   113099401.954 6      3857.008    21172442.500   113099401.925 6      3857.008    21172455.140    87966249.118 7      2999.895    21172455.320    87966242.126 7      2999.895
> 2025 04 04 15 43 29.0000000  0 12
G02  21194298.720   111376784.508 7      1792.835    21194297.400   111376784.510 6      1792.835    21194300.820    86787112.639 6      1397.015
G03  21596330.520   113489482.401 7      5810.026    21596329.560   113489482.403 7      5810.026    21596340.640    88433409.034 7      4527.293    21596341.400    88433411.038 8      4527.293
G08  20413217.740   107272176.086 8      2433.577    20413216.900   107272176.088 8      2433.577    20413224.120    83588738.228 8      1896.294    20413224.760    83588740.230 8      1896.294
G01  20903062.120   109846330.604 7      3253.426    20903061.280   109846330.609 6      3253.426    20903066.320    85594563.173 6      2535.137    20903066.760    85594563.182 8      2535.137
R15  20543976.620   109780771.177 7        56.054    20543976.560   109780771.173 7        56.054    20543988.680    85385095.702 8        43.598    20543988.700    85385096.702 8        43.598
R17  20784273.800   111220845.380 6      1925.639    20784274.680   111220845.389 6      1925.639    20784286.360    86505152.035 7      1497.719    20784286.000    86505150.044 7      1497.719
G27  22311366.380   117247010.454 7       671.269    22311364.980   117247010.454 7       671.269    22311376.240    91361346.963 7       523.067    22311376.540    91361348.965 7       523.067
R02  21181249.080   113027203.097 7      3845.149    21181248.120   113027203.103 7      3845.149    21181260.600    87910095.287 7      2990.671    21181261.100    87910098.283 7      2990.671
R03  22221720.180   118954620.012 6      6490.033    22221719.020   118954620.054 6      6490.033    22221741.680    92520352.720 7      5047.803    22221741.560    92520352.723 7      5047.803
G32  24621669.100   129387746.589 7      3256.704    24621668.380   129387746.588 6      3256.704    24621683.880   100821684.776 6      2537.691    24621684.160   100821685.792 6      2537.691
G07  24446756.280   128468555.460 6      1132.907    24446754.320   128468555.457 3      1132.907    24446776.640   100105417.215 3       882.785    24446778.220   100105447.163 6       882.785
R16  21171720.380   113095545.151 6      3856.620    21171720.300   113095545.120 6      3856.620    21171733.000    87963249.391 7      2999.593    21171733.080    87963242.397 7      2999.593
> 2025 04 04 15 43 30.0000000  0 12
G02  21193957.260   111374991.487 7      1793.133    21193956.260   111374991.492 6      1793.133    21193959.780    86785715.488 6      1397.246
G03  21595225.040   113483672.331 7      5810.006    21595223.900   113483672.336 7      5810.006    21595235.000    88428881.723 7      4527.277    21595235.960    88428883.730 8      4527.277
G08  20412754.800   107269742.432 8      2433.713    20412753.860   107269742.437 8      2433.713    20412761.120    83586841.882 8      1896.399    20412761.860    83586843.881 8      1896.399
G01  20902443.060   109843077.125 7      3253.476    20902442.160   109843077.129 6      3253.476    20902447.300    85592028.005 6      2535.176    20902447.980    85592028.011 8      2535.176
R15  20543965.780   109780715.194 7        55.876    20543965.860   109780715.195 7        55.876    20543978.240    85385052.162 8        43.459    20543978.360    85385053.164 8        43.459
R17  20783913.680   111218919.506 6      1925.916    20783914.900   111218919.508 6      1925.916    20783926.080    86503654.123 7      1497.935    20783926.480    86503652.132 7      1497.935
G27  22311238.960   117246338.974 7       671.495    22311237.220   117246338.973 7       671.495    22311248.520    91360823.731 7       523.243    22311248.680    91360825.736 7       523.243
R02  21180528.640   113023358.019 7      3844.905    21180527.440   113023358.017 7      3844.905    21180540.120    87907104.677 7      2990.482    21180540.060    87907107.679 7      2990.482
R03  22220507.560   118948129.889 6      6490.323    22220506.620   118948129.931 6      6490.323    22220528.980    92515304.882 7      5048.029    22220529.440    92515304.891 7      5048.029
G32  24621049.660   129384489.957 7      3256.641    24621048.680   129384489.962 6      3256.641    24621064.140   100819147.159 6      2537.642    24621065.020   100819148.169 7      2537.642
G07  24446540.840   128467422.419 6      1133.160    24446538.840   128467422.418 3      1133.160    24446560.900   100104534.310 3       882.982    24446562.820   100104564.249 6       882.982
R16  21170998.400   113091688.530 6      3856.344    21170998.400   113091688.489 6      3856.344    21171010.640    87960249.790 7      2999.378    21171011.040    87960242.801 7      2999.378
> 2025 04 04 15 43 31.0000000  0 12
G02  21193615.980   111373198.248 7      1793.333    21193615.020   111373198.253 6      1793.333    21193618.360    86784318.165 6      1397.402
G03  21594118.940   113477862.290 7      5809.973    21594118.240   113477862.292 7      5809.973    21594129.400    88424354.433 7      4527.252    21594130.280    88424356.440 8      4527.252
G08  20412291.700   107267308.770 8      2433.678    20412290.840   107267308.772 8      2433.678    20412297.900    83584945.526 8      1896.372    20412298.540    83584947.527 8      1896.372
G01  20901824.140   109839823.582 7      3253.493    20901823.060   109839823.592 6      3253.493    20901828.220    85589492.785 6      2535.189    20901828.620    85589492.794 8      2535.189
R15  20543955.640   109780659.488 7        55.469    20543955.280   109780659.487 7        55.469    20543967.820    85385008.841 8        43.142    20543967.780    85385009.842 8        43.142
R17  20783554.000   111216993.287 6      1926.274    20783554.760   111216993.300 6      1926.274    20783566.620    86502155.968 7      1498.213    20783566.000    86502153.974 7      1498.213
G27  22311110.640   117245667.409 7       671.688    22311109.380   117245667.406 7       671.688    22311120.700    91360300.434 7       523.393    22311120.980    91360302.434 7       523.393
R02  21179808.020   113019513.288 7      3844.483    21179807.060   113019513.291 7      3844.483    21179819.680    87904114.343 7      2990.154    21179820.080    87904117.345 7      2990.154
R03  22219294.800   118941639.606 6      6490.267    22219294.640   118941639.648 6      6490.267    22219316.840    92510256.917 7      5047.985    22219316.600    92510256.926 7      5047.985
G32  24620429.820   129381233.401 7      3256.473    24620428.980   129381233.400 6      3256.473    24620444.580   100816609.593 6      2537.511    24620445.280   100816610.605 7      2537.511
G07  24446324.980   128466289.160 6      1133.304    24446323.180   128466289.159 3      1133.304    24446345.260   100103651.234 3       883.094    24446347.420   100103681.178 6       883.094
R16  21170276.260   113087832.366 6      3855.773    21170276.520   113087832.341 6      3855.773    21170288.800    87957250.581 7      2998.934    21170289.120    87957243.585 7      2998.934
> 2025 04 04 15 43 32.0000000  0 12
G02  21193274.900   111371404.786 7      1793.602    21193273.780   111371404.789 6      1793.602    21193276.980    86782920.668 6      1397.612
G03  21593013.400   113472052.276 7      5810.073    21593012.800   113472052.278 7      5810.073    21593023.860    88419827.165 7      4527.330    21593024.380    88419829.176 8      4527.330
G08  20411828.640   107264875.100 8      2433.656    20411827.720   107264875.102 8      2433.656    20411834.780    83583049.170 8      1896.355    20411835.660    83583051.173 8      1896.355
G01  20901204.960   109836569.998 7      3253.570    20901204.060   109836570.003 6      3253.570    20901209.140    85586957.533 6      2535.249    20901209.600    85586957.537 8      2535.249
R15  20543945.340   109780604.042 7        55.266    20543944.980   109780604.043 7        55.266    20543957.340    85384965.719 7        42.985    20543957.420    85384966.723 8        42.985
R17  20783194.380   111215066.793 6      1926.557    20783195.200   111215066.800 6      1926.557    20783206.440    86500657.592 7      1498.433    20783206.080    86500655.600 7      1498.433
G27  22310982.920   117244995.789 7       671.688    22310981.800   117244995.792 7       671.688    22310993.040    91359777.106 7       523.393    22310993.440    91359779.111 7       523.393
R02  21179087.480   113015668.970 7      3844.136    21179086.580   113015668.968 7      3844.136    21179099.140    87901124.328 8      2989.884    21179099.660    87901127.328 7      2989.884
R03  22218082.340   118935149.138 6      6490.630    22218082.500   118935149.155 6      6490.630    22218104.120    92505208.788 7      5048.267    22218104.260    92505208.796 7      5048.267
G32  24619810.360   129377976.910 7      3256.404    24619809.380   129377976.915 6      3256.404    24619824.980   100814072.085 6      2537.458    24619825.040   100814073.096 7      2537.458
G07  24446109.000   128465155.701 6      1133.483    24446107.480   128465155.701 3      1133.483    24446129.440   100102768.007 3       883.234    24446131.600   100102797.951 6       883.234
R16  21169554.720   113083976.728 6      3855.286    21169554.620   113083976.695 6      3855.286    21169567.200    87954251.745 7      2998.556    21169567.200    87954244.745 7      2998.556
> 2025 04 04 15 43 33.0000000  0 12
G02  21192933.660   111369610.793 7      1794.281    21192932.360   111369610.793 6      1794.281    21192935.700    86781522.760 6      1398.141
G03  21591907.860   113466242.009 7      5810.590    21591907.100   113466242.011 7      5810.590    21591918.180    88415299.697 7      4527.732    21591918.700    88415301.702 8      4527.732
G08  20411365.280   107262441.091 8      2434.319    20411364.520   107262441.088 8      2434.319    20411371.640    83581152.544 8      1896.872    20411372.700    83581154.546 8      1896.872
G01  20900585.740   109833316.038 7      3254.167    20900584.720   109833316.046 6      3254.167    20900589.880    85584421.992 6      2535.715    20900590.520    85584422.003 8      2535.715
R15  20543935.060   109780548.529 7        55.626    20543934.720   109780548.525 7        55.626    20543947.120    85384922.534 8        43.265    20543946.980    85384923.536 8        43.265
R17  20782834.400   111213139.622 6      1927.532    20782834.700   111213139.632 6      1927.532    20782846.060    86499158.687 7      1499.192    20782845.680    86499156.694 7      1499.192
G27  22310855.220   117244323.768 7       672.322    22310853.840   117244323.770 7       672.322    22310865.120    91359253.455 7       523.887    22310865.600    91359255.457 7       523.887
R02  21178366.800   113011824.793 7      3844.205    21178366.420   113011824.791 7      3844.205    21178379.040    87898134.422 7      2989.937    21178379.300    87898137.419 7      2989.937
R03  22216869.920   118928658.180 6      6491.278    22216869.660   118928658.189 6      6491.278    22216891.820    92500160.309 7      5048.772    22216891.780    92500160.311 7      5048.772
G32  24619190.660   129374720.186 7      3256.929    24619189.800   129374720.183 6      3256.929    24619204.840   100811534.382 6      2537.867    24619205.720   100811535.377 7      2537.867
G07  24445893.380   128464021.722 6      1134.229    24445891.780   128464021.725 3      1134.229    24445913.820   100101884.373 3       883.815    24445915.260   100101914.323 6       883.815
R16  21168833.700   113080121.248 6      3855.629    21168832.500   113080121.198 6      3855.629    21168845.100    87951253.022 7      2998.823    21168845.440    87951246.026 7      2998.823
> 2025 04 04 15 43 34.0000000  0 12
G02  21192592.180   111367816.296 7      1794.835    21192590.820   111367816.298 6      1794.835    21192594.200    86780124.456 6      1398.573
G03  21590802.300   113460431.519 7      5810.709    21590801.260   113460431.524 7      5810.709    21590812.440    88410772.059 7      4527.825    21590812.960    88410774.063 8      4527.825
G08  20410902.100   107260006.822 8      2434.574    20410901.400   107260006.824 8      2434.574    20410908.400    83579255.723 8      1897.070    20410909.300    83579257.726 8      1897.070
G01  20899966.420   109830061.765 7      3254.563    20899965.500   109830061.773 6      3254.563    20899970.560    85581886.203 6      2536.023    20899971.120    85581886.212 8      2536.023
R15  20543924.720   109780493.035 8        55.566    20543924.420   109780493.039 7        55.566    20543936.820    85384879.380 7        43.218    20543936.600    85384880.384 8        43.218
R17  20782474.280   111211211.926 6      1928.126    20782474.820   111211211.923 6      1928.126    20782486.080    86497659.354 7      1499.654    20782485.660    86497657.356 7      1499.654
G27  22310726.980   117243651.417 7       672.661    22310725.860   117243651.414 7       672.661    22310737.200    91358729.543 7       524.151    22310737.640    91358731.540 7       524.151
R02  21177646.940   113007980.814 7      3843.946    21177646.180   113007980.812 7      3843.946    21177658.800    87895144.679 7      2989.736    21177658.980    87895147.674 7      2989.736
R03  22215657.440   118922166.753 6      6491.809    22215657.020   118922166.781 6      6491.809    22215679.000    92495111.438 7      5049.185    22215679.060    92495111.442 7      5049.185
G32  24618571.000   129371463.268 7      3257.056    24618570.140   129371463.267 6      3257.056    24618584.860   100808996.539 6      2537.965    24618585.640   100808997.543 6      2537.965
G07  24445676.920   128462887.265 6      1134.806    24445675.800   128462887.262 3      1134.806    24445697.960   100101000.358 3       884.265    24445698.820   100101030.279 6       884.265
R16  21168111.920   113076266.027 6      3855.052    21168111.280   113076265.982 6      3855.052    21168123.980    87948254.531 7      2998.374    21168123.980    87948247.529 7      2998.374
> 2025 04 04 15 43 35.0000000  0 12
G02  21192250.540   111366021.368 7      1795.192    21192249.240   111366021.370 6      1795.192    21192252.520    86778725.815 6      1398.851
G03  21589696.500   113454620.850 7      5810.733    21589695.540   113454620.858 7      5810.733    21589706.580    88406244.277 7      4527.844    21589707.220    88406246.284 8      4527.844
G08  20410438.840   107257572.350 8      2434.568    20410437.960   107257572.353 8      2434.568    20410445.100    83577358.734 8      1897.066    20410445.880    83577360.739 8      1897.066
G01  20899347.360   109826807.254 7      3254.658    20899346.060   109826807.253 6      3254.658    20899351.320    85579350.226 6      2536.097    20899351.900    85579350.237 8      2536.097
R15  20543914.180   109780437.621 8        55.377    20543914.020   109780437.625 7        55.377    20543926.480    85384836.284 8        43.071    20543926.360    85384837.288 8        43.071
R17  20782114.640   111209283.696 6      1928.554    20782114.180   111209283.694 6      1928.554    20782126.160    86496159.625 7      1499.987    20782125.600    86496157.629 7      1499.987
G27  22310598.940   117242978.757 7       672.857    22310597.940   117242978.759 7       672.857    22310609.200    91358205.399 7       524.304    22310609.700    91358207.399 7       524.304
R02  21176926.680   113004137.051 7      3843.664    21176925.540   113004137.047 7      3843.664    21176938.420    87892155.098 8      2989.516    21176938.580    87892158.095 7      2989.516
R03  22214444.460   118915674.957 6      6491.886    22214444.500   118915674.980 6      6491.886    22214466.460    92490062.295 7      5049.245    22214466.360    92490062.299 7      5049.245
G32  24617951.240   129368206.239 7      3257.021    24617950.380   129368206.241 6      3257.021    24617964.840   100806458.605 6      2537.938    24617965.880   100806459.606 6      2537.938
G07  24445461.060   128461752.427 6      1134.957    24445460.120   128461752.424 3      1134.957    24445482.060   100100116.048 3       884.382    24445483.640   100100146.006 6       884.382
R16  21167390.080   113072411.097 6      3854.788    21167389.340   113072411.068 6      3854.788    21167402.440    87945256.241 7      2998.168    21167402.260    87945249.239 7      2998.168
> 2025 04 04 15 43 36.0000000  0 12
G02  21191908.960   111364226.108 7      1795.456    21191907.560   111364226.111 6      1795.456    21191910.920    86777326.916 6      1399.057
G03  21588590.780   113448810.084 7      5810.744    21588589.800   113448810.094 7      5810.744    21588600.840    88401716.426 7      4527.853    21588601.400    88401718.433 8      4527.853
G08  20409975.620   107255137.721 8      2434.694    20409974.680   107255137.729 8      2434.694    20409981.760    83575461.629 8      1897.164    20409982.720    83575463.636 8      1897.164
G01  20898727.840   109823552.560 7      3254.741    20898726.740   109823552.565 6      3254.741    20898732.020    85576814.106 6      2536.162    20898732.600    85576814.120 8      2536.162
R15  20543903.680   109780382.362 8        55.158    20543903.760   109780382.365 7        55.158    20543916.120    85384793.294 8        42.901    20543916.000    85384794.299 8        42.901
R17  20781754.240   111207355.018 6      1928.842    20781753.060   111207355.033 6      1928.842    20781766.020    86494659.559 7      1500.211    20781765.460    86494657.561 7      1500.211
G27  22310470.740   117242305.929 7       672.905    22310469.840   117242305.931 7       672.905    22310481.120    91357681.115 7       524.342    22310481.720    91357683.119 7       524.342
R02  21176206.260   113000293.579 8      3843.249    21176205.540   113000293.580 7      3843.249    21176218.160    87889165.743 8      2989.194    21176218.400    87889168.741 7      2989.194
R03  22213232.040   118909182.832 6      6492.259    22213231.240   118909182.850 6      6492.259    22213253.520    92485012.891 7      5049.535    22213253.700    92485012.893 7      5049.535
G32  24617331.100   129364949.134 7      3257.008    24617330.680   129364949.133 6      3257.008    24617345.000   100803920.628 6      2537.928    24617346.200   100803921.641 6      2537.928
G07  24445246.040   128460617.235 6      1135.480    24445243.980   128460617.231 3      1135.480    24445266.060   100099231.466 3       884.789    24445268.120   100099261.412 7       884.789
R16  21166668.440   113068556.511 6      3854.525    21166668.780   113068556.488 6      3854.525    21166680.560    87942258.235 7      2997.964    21166680.220    87942251.241 7      2997.964
> 2025 04 04 15 43 37.0000000  0 12
G02  21191567.200   111362430.565 7      1795.619    21191565.920   111362430.567 6      1795.619    21191569.180    86775927.797 6      1399.183
G03  21587484.940   113442999.308 7      5810.815    21587484.060   113442999.312 7      5810.815    21587495.100    88397188.561 7      4527.908    21587495.820    88397190.565 8      4527.908
G08  20409512.260   107252703.042 8      2434.645    20409511.500   107252703.050 8      2434.645    20409518.580    83573564.485 8      1897.126    20409519.120    83573566.487 8      1897.126
G01  20898108.560   109820297.754 7      3254.858    20898107.320   109820297.759 6      3254.858    20898112.560    85574277.902 6      2536.253    20898113.060    85574277.912 8      2536.253
R15  20543893.300   109780327.284 7        54.964    20543893.540   109780327.285 7        54.964    20543905.740    85384750.456 8        42.749    20543905.920    85384751.461 8        42.749
R17  20781393.960   111205425.953 6      1929.252    20781393.160   111205425.962 6      1929.252    20781405.420    86493159.168 7      1500.530    20781405.140    86493157.171 7      1500.530
G27  22310342.820   117241632.945 7       673.024    22310341.800   117241632.942 7       673.024    22310353.160    91357156.714 7       524.434    22310353.720    91357158.717 7       524.434
R02  21175486.060   112996450.417 8      3842.944    21175485.280   112996450.415 7      3842.944    21175497.920    87886176.623 8      2988.957    21175498.100    87886179.623 7      2988.957
R03  22212019.100   118902690.442 6      6492.494    22212018.860   118902690.476 6      6492.494    22212040.920    92479963.292 7      5049.718    22212040.720    92479963.294 7      5049.718
G32  24616711.320   129361692.073 7      3256.904    24616710.940   129361692.075 6      3256.904    24616725.240   100801382.665 6      2537.847    24616725.920   100801383.680 6      2537.847
G07  24445029.540   128459481.821 6      1135.519    24445027.960   128459481.818 3      1135.519    24445050.020   100098346.712 3       884.820    24445051.780   100098376.660 7       884.820
R16  21165946.640   113064702.393 6      3853.902    21165947.300   113064702.375 6      3853.902    21165958.880    87939260.600 7      2997.479    21165958.880    87939253.600 7      2997.479
> 2025 04 04 15 43 38.0000000  0 12
G02  21191225.340   111360634.712 7      1796.011    21191224.200   111360634.717 6      1796.011    21191227.380    86774528.437 6      1399.489
G03  21586379.220   113437188.492 7      5810.876    21586378.280   113437188.497 7      5810.876    21586389.400    88392660.666 7      4527.955    21586390.060    88392662.673 8      4527.955
G08  20409049.000   107250268.264 8      2434.815    20409048.080   107250268.269 8      2434.815    20409055.200    83571667.259 8      1897.258    20409055.880    83571669.263 8      1897.258
G01  20897489.360   109817042.835 7      3254.964    20897487.940   109817042.843 6      3254.964    20897493.140    85571741.613 6      2536.336    20897493.740    85571741.624 8      2536.336
R15  20543883.180   109780272.394 7        54.866    20543883.200   109780272.400 7        54.866    20543895.620    85384707.770 8        42.674    20543895.600    85384708.774 8        42.674
R17  20781032.160   111203496.504 6      1929.661    20781032.220   111203496.525 6      1929.661    20781044.980    86491658.497 7      1500.847    20781044.620    86491656.501 7      1500.847
G27  22310214.640   117240959.812 7       673.205    22310213.700   117240959.817 7       673.205    22310225.060    91356632.201 7       524.575    22310225.800    91356634.203 7       524.575
R02  21174765.920   112992607.601 8      3842.685    21174765.160   112992607.597 7      3842.685    21174777.720    87883187.779 8      2988.755    21174778.060    87883190.778 7      2988.755
R03  22210806.440   118896197.779 6      6493.048    22210805.780   118896197.797 6      6493.048    22210827.960    92474913.468 7      5050.148    22210828.060    92474913.476 7      5050.148
G32  24616091.800   129358434.986 7      3257.149    24616091.020   129358434.981 6      3257.149    24616105.540   100798844.687 6      2538.038    24616105.580   100798845.678 6      2538.038
G07  24444814.060   128458346.129 6      1135.761    24444811.800   128458346.129 3      1135.761    24444833.980   100097461.745 3       885.009    24444835.800   100097491.678 7       885.009
R16  21165224.900   113060848.651 6      3853.568    21165226.240   113060848.634 6      3853.568    21165237.440    87936263.253 7      2997.219    21165237.220    87936256.255 7      2997.219
> 2025 04 04 15 43 39.0000000  0 12
G02  21190883.820   111358838.530 7      1796.287    21190882.340   111358838.535 6      1796.287    21190885.660    86773128.826 6      1399.704
G03  21585273.480   113431377.623 7      5810.806    21585272.500   113431377.628 7      5810.806    21585283.600    88388132.735 7      4527.900    21585284.200    88388134.742 8      4527.900
G08  20408585.720   107247833.380 8      2434.863    20408584.920   107247833.382 8      2434.863    20408591.740    83569769.951 8      1897.296    20408592.540    83569771.957 8      1897.296
G01  20896869.800   109813787.756 7      3255.071    20896868.660   109813787.761 6      3255.071    20896873.780    85569205.196 6      2536.419    20896874.280    85569205.204 8      2536.419
R15  20543872.640   109780217.682 8        54.535    20543873.100   109780217.691 7        54.535    20543885.480    85384665.221 8        42.416    20543885.140    85384666.223 8        42.416
R17  20780671.800   111201566.650 6      1930.098    20780671.640   111201566.643 6      1930.098    20780684.480    86490157.495 7      1501.187    20780683.700    86490155.497 7      1501.187
G27  22310086.680   117240286.492 7       673.366    22310085.620   117240286.500 7       673.366    22310097.020    91356107.538 7       524.701    22310097.700    91356109.541 7       524.701
R02  21174045.940   112988765.092 8      3842.366    21174044.980   112988765.085 7      3842.366    21174057.680    87880199.171 8      2988.507    21174057.840    87880202.167 7      2988.507
R03  22209593.400   118889704.894 6      6492.680    22209593.300   118889704.912 6      6492.680    22209615.020    92469863.471 7      5049.862    22209614.880    92469863.471 7      5049.862
G32  24615471.780   129355177.879 7      3256.998    24615471.200   129355177.876 6      3256.998    24615485.600   100796306.685 6      2537.921    24615486.260   100796307.693 6      2537.921
G07  24444597.620   128457210.116 6      1136.107    24444595.640   128457210.116 3      1136.107    24444617.960   100096576.520 3       885.278    24444619.540   100096606.453 7       885.278
R16  21164503.760   113056995.300 6      3853.012    21164505.180   113056995.290 6      3853.012    21164515.660    87933266.215 7      2996.787    21164515.760    87933259.214 7      2996.787
> 2025 04 04 15 43 40.0000000  0 12
G02  21190541.800   111357041.894 7      1796.924    21190540.460   111357041.902 6      1796.924    21190543.800    86771728.857 6      1400.200
G03  21584167.540   113425566.529 7      5811.330    21584166.740   113425566.531 7      5811.330    21584177.740    88383604.620 7      4528.309    21584178.300    88383606.625 8      4528.309
G08  20408122.280   107245398.249 8      2435.301    20408121.500   107245398.254 8      2435.301    20408128.460    83567872.452 8      1897.637    20408129.220    83567874.459 8      1897.637
G01  20896250.340   109810532.377 7      3255.622    20896249.160   109810532.387 6      3255.622    20896254.280    85566668.545 6      2536.848    20896254.800    85566668.556 8      2536.848
R15  20543862.720   109780162.984 8        54.822    20543862.680   109780162.985 7        54.822    20543875.180    85384622.671 8        42.640    20543875.060    85384623.676 8        42.640
R17  20780310.980   111199636.241 6      1930.851    20780310.900   111199636.237 6      1930.851    20780323.320    86488656.072 7      1501.773    20780322.960    86488654.074 7      1501.773
G27  22309958.640   117239612.870 7       673.846    22309957.300   117239612.878 7       673.846    22309968.820    91355582.640 7       525.075    22309969.460    91355584.642 7       525.075
R02  21173325.660   112984922.775 8      3842.344    21173325.160   112984922.771 7      3842.344    21173337.700    87877210.715 8      2988.490    21173337.720    87877213.715 7      2988.490
R03  22208380.400   118883211.471 6      6493.740    22208379.920   118883211.489 6      6493.740    22208401.860    92464813.066 7      5050.687    22208401.760    92464813.075 7      5050.687
G32  24614851.900   129351920.613 7      3257.441    24614851.360   129351920.608 6      3257.441    24614865.980   100793768.571 6      2538.266    24614866.520   100793769.566 6      2538.266
G07  24444381.220   128456073.649 6      1136.940    24444379.360   128456073.649 3      1136.940    24444401.700   100095690.945 4       885.928    24444402.840   100095720.884 7       885.928
R16  21163782.260   113053142.213 6      3852.993    21163784.020   113053142.195 6      3852.993    21163794.440    87930269.369 6      2996.772    21163794.480    87930262.363 7      2996.772
> 2025 04 04 15 43 41.0000000  0 12
G02  21190199.840   111355244.772 7      1797.213    21190198.340   111355244.777 6      1797.213    21190201.940    86770328.509 6      1400.426
G03  21583061.800   113419755.237 7      5811.354    21583060.720   113419755.242 7      5811.354    21583071.740    88379076.355 7      4528.328    21583072.520    88379078.360 8      4528.328
G08  20407658.760   107242962.853 8      2435.425    20407658.100   107242962.855 8      2435.425    20407665.100    83565974.747 8      1897.734    20407665.660    83565976.754 8      1897.734
G01  20895630.700   109807276.704 7      3255.809    20895629.740   109807276.709 6      3255.809    20895634.800    85564131.665 6      2536.994    20895635.380    85564131.672 8      2536.994
R15  20543852.400   109780108.313 8        54.589    20543852.360   109780108.322 7        54.589    20543864.980    85384580.164 8        42.458    20543864.700    85384581.166 7        42.458
R17  20779949.920   111197705.287 6      1931.127    20779950.480   111197705.261 6      1931.127    20779962.700    86487154.204 7      1501.988    20779962.340    86487152.210 7      1501.988
G27  22309830.340   117238938.888 7       674.191    22309829.080   117238938.890 7       674.191    22309840.640    91355057.459 7       525.344    22309841.100    91355059.462 7       525.344
R02  21172605.660   112981080.619 8      3842.042    21172604.900   112981080.620 7      3842.042    21172617.560    87874222.387 7      2988.255    21172617.900    87874225.387 7      2988.255
R03  22207167.080   118876717.694 6      6493.861    22207166.960   118876717.723 6      6493.861    22207188.920    92459762.397 7      5050.781    22207188.920    92459762.399 7      5050.781
G32  24614231.900   129348663.177 7      3257.434    24614231.560   129348663.177 6      3257.434    24614245.940   100791230.317 6      2538.260    24614246.620   100791231.324 6      2538.260
G07  24444164.700   128454936.772 6      1137.056    24444162.880   128454936.769 3      1137.056    24444185.300   100094805.048 4       886.018    24444186.580   100094834.988 7       886.018
R16  21163061.080   113049289.355 6      3852.598    21163062.800   113049289.345 6      3852.598    21163073.660    87927272.719 6      2996.465    21163073.240    87927265.714 7      2996.465
> 2025 04 04 15 43 42.0000000  0 12
G02  21189857.820   111353447.258 7      1797.680    21189856.320   111353447.263 6      1797.680    21189859.820    86768927.851 6      1400.789
G03  21581955.920   113413943.825 7      5811.369    21581954.880   113413943.827 7      5811.369    21581965.880    88374547.998 7      4528.339    21581966.700    88374550.001 8      4528.339
G08  20407195.160   107240527.278 8      2435.609    20407194.540   107240527.285 8      2435.609    20407201.580    83564076.907 8      1897.878    20407202.440    83564078.909 8      1897.878
G01  20895011.100   109804020.823 7      3255.982    20895010.180   109804020.828 6      3255.982    20895015.120    85561594.620 6      2537.129    20895015.780    85561594.630 8      2537.129
R15  20543842.240   109780053.746 7        54.551    20543842.360   109780053.744 7        54.551    20543854.840    85384537.710 7        42.428    20543854.660    85384538.715 8        42.428
R17  20779589.320   111195773.797 6      1931.730    20779589.020   111195773.772 6      1931.730    20779601.760    86485651.942 7      1502.457    20779601.300    86485649.945 7      1502.457
G27  22309702.180   117238264.706 7       674.285    22309700.860   117238264.711 7       674.285    22309712.260    91354532.121 7       525.417    22309712.780    91354534.121 7       525.417
R02  21171885.880   112977238.737 8      3841.746    21171885.160   112977238.738 7      3841.746    21171897.640    87871234.270 8      2988.025    21171897.820    87871237.269 7      2988.025
R03  22205953.600   118870223.594 6      6494.225    22205953.900   118870223.628 6      6494.225    22205975.960    92454711.453 7      5051.064    22205975.520    92454711.464 7      5051.064
G32  24613611.880   129345405.644 7      3257.459    24613611.720   129345405.646 6      3257.459    24613626.280   100788692.006 6      2538.280    24613626.800   100788693.007 6      2538.280
G07  24443948.700   128453799.485 6      1137.534    24443946.460   128453799.482 3      1137.534    24443968.960   100093918.832 4       886.390    24443970.300   100093948.788 7       886.390
R16  21162339.760   113045436.845 6      3852.423    21162340.580   113045436.814 6      3852.423    21162351.980    87924276.311 6      2996.329    21162351.780    87924269.307 7      2996.329
> 2025 04 04 15 43 43.0000000  0 12
G02  21189515.660   111351649.447 7      1798.046    21189514.360   111351649.455 6      1798.046    21189517.660    86767526.965 6      1401.075
G03  21580850.020   113408132.355 7      5811.517    21580848.980   113408132.360 7      5811.517    21580860.080    88370019.594 7      4528.455    21580860.800    88370021.597 8      4528.455
G08  20406731.680   107238091.629 8      2435.733    20406731.140   107238091.634 8      2435.733    20406738.080    83562179.005 8      1897.974    20406739.220    83562181.007 8      1897.974
G01  20894391.500   109800764.816 7      3256.133    20894390.560   109800764.821 6      3256.133    20894395.700    85559057.480 6      2537.247    20894396.000    85559057.492 8      2537.247
R15  20543832.120   109779999.371 7        54.352    20543831.880   109779999.375 7        54.352    20543844.640    85384495.423 8        42.274    20543844.480    85384496.429 8        42.274
R17  20779228.880   111193841.943 6      1932.081    20779227.740   111193841.937 6      1932.081    20779240.760    86484149.413 7      1502.730    20779240.500    86484147.413 7      1502.730
G27  22309573.680   117237590.359 7       674.406    22309572.540   117237590.359 7       674.406    22309584.000    91354006.655 7       525.511    22309584.540    91354008.656 7       525.511
R02  21171165.980   112973397.191 7      3841.436    21171165.180   112973397.192 7      3841.436    21171177.660    87868246.411 8      2987.783    21171178.040    87868249.413 7      2987.783
R03  22204739.980   118863729.288 6      6494.471    22204740.780   118863729.308 6      6494.471    22204762.460    92449660.342 7      5051.255    22204762.300    92449660.351 7      5051.255
G32  24612992.280   129342148.105 7      3257.507    24612991.920   129342148.104 6      3257.507    24613006.280   100786153.678 6      2538.317    24613006.600   100786154.696 6      2538.317
G07  24443732.660   128452661.965 6      1137.687    24443730.100   128452661.964 3      1137.687    24443752.560   100093032.442 4       886.509    24443753.560   100093062.394 7       886.509
R16  21161618.940   113041584.794 6      3851.839    21161619.860   113041584.768 6      3851.839    21161630.600    87921280.278 6      2995.875    21161630.960    87921273.276 7      2995.875
> 2025 04 04 15 43 44.0000000  0 12
G02  21189173.440   111349851.261 7      1798.489    21189172.160   111349851.266 6      1798.489    21189175.560    86766125.791 6      1401.420
G03  21579744.240   113402320.769 7      5811.801    21579743.160   113402320.774 6      5811.801    21579754.100    88365491.102 7      4528.676    21579754.760    88365493.105 8      4528.676
G08  20406268.360   107235655.810 8      2435.985    20406267.580   107235655.812 8      2435.985    20406274.540    83560280.968 8      1898.170    20406275.460    83560282.973 8      1898.170
G01  20893771.880   109797508.592 7      3256.459    20893770.920   109797508.594 6      3256.459    20893776.060    85556520.174 6      2537.501    20893776.440    85556520.184 8      2537.501
R15  20543821.860   109779945.098 7        54.288    20543821.940   109779945.107 7        54.288    20543834.360    85384453.217 8        42.224    20543834.220    85384454.219 8        42.224
R17  20778868.260   111191909.606 6      1932.747    20778866.940   111191909.607 6      1932.747    20778879.880    86482646.489 7      1503.248    20778879.580    86482644.488 7      1503.248
G27  22309445.180   117236915.760 7       674.796    22309444.200   117236915.765 7       674.796    22309455.560    91353481.002 7       525.815    22309455.880    91353483.006 7       525.815
R02  21170445.900   112969555.886 7      3841.275    21170445.340   112969555.886 7      3841.275    21170457.920    87865258.739 8      2987.659    21170458.200    87865261.741 7      2987.659
R03  22203526.380   118857234.617 6      6494.783    22203527.000   118857234.656 6      6494.783    22203549.100    92444608.982 7      5051.498    22203549.200    92444608.989 7      5051.498
G32  24612372.520   129338890.511 7      3257.743    24612371.860   129338890.511 6      3257.743    24612386.340   100783615.291 6      2538.501    24612386.980   100783616.285 6      2538.501
G07  24443516.100   128451524.066 6      1138.033    24443513.560   128451524.068 4      1138.033    24443535.840   100092145.749 4       886.779    24443537.120   100092175.715 7       886.779
R16  21160897.100   113037732.997 6      3851.675    21160898.940   113037732.985 6      3851.675    21160910.140    87918284.452 6      2995.747    21160909.560    87918277.446 7      2995.747
> 2025 04 04 15 43 45.0000000  0 12
G02  21188831.200   111348052.652 7      1798.680    21188829.820   111348052.656 6      1798.680    21188833.340    86764724.281 6      1401.569
G03  21578638.380   113396509.057 7      5811.571    21578637.300   113396509.065 7      5811.571    21578648.240    88360962.508 7      4528.497    21578649.080    88360964.515 8      4528.497
G08  20405804.940   107233219.794 8      2435.948    20405804.000   107233219.796 8      2435.948    20405811.040    83558382.777 8      1898.142    20405812.100    83558384.782 8      1898.142
G01  20893152.020   109794252.143 7      3256.381    20893151.140   109794252.146 6      3256.381    20893156.300    85553982.690 6      2537.440    20893156.840    85553982.698 8      2537.440
R15  20543811.780   109779890.934 7        53.917    20543811.880   109779890.935 7        53.917    20543824.380    85384411.089 8        41.936    20543824.100    85384412.089 8        41.936
R17  20778506.600   111189976.821 6      1932.928    20778506.620   111189976.831 6      1932.928    20778518.740    86481143.217 7      1503.389    20778518.440    86481141.217 7      1503.389
G27  22309316.680   117236240.908 7       674.784    22309315.900   117236240.913 7       674.784    22309327.180    91352955.145 7       525.805    22309327.520    91352957.148 7       525.805
R02  21169725.820   112965714.818 7      3840.865    21169725.480   112965714.813 7      3840.865    21169738.120    87862271.244 8      2987.340    21169738.440    87862274.248 8      2987.340
R03  22202314.040   118850739.564 6      6495.055    22202314.380   118850739.598 6      6495.055    22202336.060    92439557.291 7      5051.710    22202335.400    92439557.297 7      5051.710
G32  24611752.380   129335632.778 7      3257.550    24611751.940   129335632.783 6      3257.550    24611766.300   100781076.804 6      2538.351    24611767.480   100781077.812 6      2538.351
G07  24443299.240   128450385.765 6      1138.219    24443296.920   128450385.767 4      1138.219    24443319.280   100091258.747 4       886.924    24443320.440   100091288.709 7       886.924
R16  21160176.080   113033881.526 6      3850.955    21160178.000   113033881.519 6      3850.955    21160189.340    87915288.880 6      2995.187    21160188.560    87915281.870 7      2995.187
> 2025 04 04 15 43 46.0000000  0 12
G02  21188489.020   111346253.866 7      1798.908    21188487.680   111346253.871 6      1798.908    21188490.960    86763322.639 6      1401.746
G03  21577532.220   113390697.416 7      5811.663    21577531.420   113390697.413 7      5811.663    21577542.300    88356433.965 7      4528.569    21577543.000    88356435.967 8      4528.569
G08  20405341.280   107230783.822 8      2436.005    20405340.400   107230783.821 8      2436.005    20405347.420    83556484.624 8      1898.186    20405348.480    83556486.626 8      1898.186
G01  20892532.200   109790995.677 8      3256.547    20892531.420   109790995.682 6      3256.547    20892536.600    85551445.189 6      2537.569    20892537.280    85551445.202 8      2537.569
R15  20543801.920   109779837.115 7        53.688    20543801.780   109779837.119 7        53.688    20543814.240    85384369.224 8        41.757    20543814.040    85384370.228 8        41.757
R17  20778144.960   111188043.737 6      1933.355    20778145.080   111188043.746 6      1933.355    20778157.480    86479639.711 7      1503.721    20778157.040    86479637.707 7      1503.721
G27  22309188.360   117235566.038 7       674.865    22309187.380   117235566.038 7       674.865    22309198.860    91352429.268 7       525.869    22309199.280    91352431.271 7       525.869
R02  21169006.580   112961874.227 7      3840.388    21169005.800   112961874.222 7      3840.388    21169018.500    87859284.128 8      2986.969    21169018.640    87859287.128 7      2986.969
R03  22201100.640   118844244.348 6      6495.307    22201099.840   118844244.389 6      6495.307    22201122.320    92434505.487 7      5051.906    22201122.180    92434505.500 7      5051.906
G32  24611133.020   129332375.210 7      3257.608    24611131.920   129332375.207 6      3257.608    24611146.620   100778538.450 6      2538.396    24611147.480   100778539.460 6      2538.396
G07  24443082.320   128449247.316 6      1138.494    24443080.340   128449247.316 4      1138.494    24443102.660   100090371.628 4       887.138    24443103.820   100090401.590 7       887.138
R16  21159456.280   113030030.586 6      3850.638    21159456.620   113030030.565 6      3850.638    21159468.160    87912293.695 7      2994.941    21159467.920    87912286.692 7      2994.941
> 2025 04 04 15 43 47.0000000  0 12
G02  21188146.700   111344454.676 7      1799.281    21188145.280   111344454.681 6      1799.281    21188148.600    86761920.680 6      1402.037
G03  21576426.160   113384885.615 7      5811.843    21576425.500   113384885.617 6      5811.843    21576436.320    88351905.307 7      4528.709    21576437.100    88351907.310 8      4528.709
G08  20404877.500   107228347.645 8      2436.199    20404876.800   107228347.647 8      2436.199    20404883.900    83554586.313 8      1898.337    20404884.840    83554588.315 8      1898.337
G01  20891912.840   109787738.979 8      3256.724    20891911.640   109787738.986 6      3256.724    20891917.040    85548907.515 6      2537.707    20891917.580    85548907.528 8      2537.707
R15  20543791.940   109779783.365 7        53.683    20543792.080   109779783.361 7        53.683    20543804.240    85384327.419 8        41.753    20543803.940    85384328.423 8        41.753
R17  20777783.620   111186110.123 6      1933.744    20777783.960   111186110.140 6      1933.744    20777796.040    86478135.803 7      1504.023    20777795.780    86478133.804 7      1504.023
G27  22309059.800   117234890.882 7       675.203    22309058.960   117234890.884 7       675.203    22309070.420    91351903.173 7       526.132    22309070.840    91351905.173 7       526.132
R02  21168286.540   112958033.831 7      3840.203    21168286.120   112958033.829 7      3840.203    21168298.900    87856297.175 7      2986.825    21168299.000    87856300.174 8      2986.825
R03  22199886.740   118837748.741 6      6495.678    22199887.000   118837748.774 6      6495.678    22199909.040    92429453.386 7      5052.194    22199908.980    92429453.392 7      5052.194
G32  24610513.020   129329117.530 7      3257.558    24610511.920   129329117.524 6      3257.558    24610526.600   100776000.020 6      2538.357    24610527.400   100776001.020 6      2538.357
G07  24442865.800   128448108.469 6      1138.851    24442863.800   128448108.471 4      1138.851    24442886.060   100089484.204 4       887.416    24442886.820   100089514.176 7       887.416
R16  21158735.320   113026179.991 6      3850.239    21158735.780   113026179.968 6      3850.239    21158747.120    87909298.789 7      2994.630    21158747.040    87909291.783 7      2994.630
> 2025 04 04 15 43 48.0000000  0 12
G02  21187803.920   111342655.029 7      1799.821    21187802.900   111342655.036 6      1799.821    21187806.120    86760518.362 6      1402.458
G03  21575320.160   113379073.664 7      5811.940    21575319.500   113379073.664 7      5811.940    21575330.280    88347376.526 7      4528.784    21575331.360    88347378.533 8      4528.784
G08  20404414.080   107225911.243 8      2436.452    20404413.300   107225911.245 8      2436.452    20404420.180    83552687.823 8      1898.534    20404421.180    83552689.824 8      1898.534
G01  20891293.140   109784482.010 7      3256.979    20891291.900   109784482.018 6      3256.979    20891297.320    85546369.632 6      2537.905    20891297.700    85546369.644 8      2537.905
R15  20543781.820   109779729.637 8        53.628    20543781.820   109779729.636 7        53.628    20543794.360    85384285.636 8        41.710    20543793.920    85384286.641 8        41.710
R17  20777421.860   111184175.968 6      1934.233    20777422.360   111184175.986 6      1934.233    20777434.640    86476631.459 7      1504.404    20777433.940    86476629.459 7      1504.404
G27  22308931.360   117234215.428 7       675.556    22308930.560   117234215.436 7       675.556    22308941.900    91351376.847 7       526.407    22308942.380    91351378.850 7       526.407
R02  21167567.080   112954193.649 8      3840.036    21167566.480   112954193.644 7      3840.036    21167579.120    87853310.379 7      2986.695    21167579.260    87853313.380 7      2986.695
R03  22198673.360   118831252.708 6      6496.270    22198673.300   118831252.741 6      6496.270    22198695.580    92424400.938 7      5052.655    22198695.360    92424400.945 7      5052.655
G32  24609893.180   129325859.660 7      3257.910    24609891.840   129325859.665 6      3257.910    24609906.360   100773461.429 6      2538.631    24609906.620   100773462.434 6      2538.631
G07  24442648.940   128446969.185 6      1139.364    24442647.000   128446969.182 4      1139.364    24442669.440   100088596.438 4       887.816    24442670.380   100088626.410 7       887.816
R16  21158014.320   113022329.604 6      3850.385    21158014.180   113022329.575 6      3850.385    21158026.000    87906304.046 7      2994.744    21158026.220    87906297.040 7      2994.744
> 2025 04 04 15 43 49.0000000  0 12
G02  21187461.480   111340855.042 7      1800.107    21187460.360   111340855.050 6      1800.107    21187463.580    86759115.777 6      1402.681
G03  21574214.180   113373261.611 7      5812.005    21574213.540   113373261.615 7      5812.005    21574224.360    88342847.670 7      4528.835    21574224.880    88342849.672 8      4528.835
G08  20403950.260   107223474.711 8      2436.480    20403949.580   107223474.716 8      2436.480    20403956.520    83550789.231 8      1898.556    20403957.860    83550791.230 8      1898.556
G01  20890673.140   109781224.876 7      3257.148    20890672.040   109781224.878 6      3257.148    20890677.500    85543831.607 6      2538.038    20890677.760    85543831.616 8      2538.038
R15  20543772.220   109779676.051 8        53.392    20543771.780   109779676.052 7        53.392    20543784.280    85384243.958 8        41.527    20543784.040    85384244.962 8        41.527
R17  20777059.660   111182241.364 6      1934.679    20777061.340   111182241.379 6      1934.679    20777073.380    86475126.779 7      1504.750    20777072.660    86475124.774 7      1504.750
G27  22308802.760   117233539.796 7       675.619    22308801.900   117233539.799 7       675.619    22308813.460    91350850.373 7       526.456    22308813.620    91350852.375 7       526.456
R02  21166847.800   112950353.760 7      3839.677    21166846.900   112950353.758 7      3839.677    21166859.460    87850323.811 8      2986.416    21166859.820    87850326.813 7      2986.416
R03  22197459.980   118824756.378 6      6496.499    22197459.760   118824756.406 6      6496.499    22197482.120    92419348.267 7      5052.832    22197481.800    92419348.267 7      5052.832
G32  24609272.880   129322601.782 7      3257.774    24609271.920   129322601.787 6      3257.774    24609286.480   100770922.841 6      2538.525    24609287.020   100770923.863 6      2538.525
G07  24442432.320   128445829.601 6      1139.674    24442429.940   128445829.598 4      1139.674    24442452.700   100087708.439 4       888.058    24442454.080   100087738.405 7       888.058
R16  21157294.160   113018479.692 6      3849.673    21157293.260   113018479.648 6      3849.673    21157305.620    87903309.664 7      2994.190    21157305.700    87903302.658 7      2994.190
