     3.05           OBSERVATION DATA    MIXED               RINEX VERSION / TYPE
TPS2RIN 1.0.28.3459 TPS-USER            20250407 105814 UTC PGM / RUN BY / DATE
Win64 build Jun 01, 2022 (c) Topcon Positioning Systems     COMMENT
SRC: 20250404_grav_20250404_171153.tps                      COMMENT
Observer            Agency                                  OBSERVER / AGENCY
O0M3X53SBGM         TPS HIPER_SR        4.8 HSR Jul,08,2022 REC # / TYPE / VERS
FW: 4.8 HSR Jul,08,2022 p3                                  COMMENT
SN: HiPer SR 1212-12575                                     COMMENT
000                 TPSHIPER_SR     NONE                    ANT # / TYPE
        1.8000        0.0000        0.0000                  ANTENNA: DELTA H/E/N
DELTA H stands for **SLANT** height here!                   COMMENT
Oro05                                                       MARKER NAME
  5383975.2812 -1598138.2400  3013976.0366                  APPROX POSITION XYZ
  2025     4     4    15    12   16.0000000     GPS         TIME OF FIRST OBS
  2025     4     4    15    29   18.0000000     GPS         TIME OF LAST OBS
     1.000                                                  INTERVAL
  1023 EPOCHS                                               COMMENT
G   12 C1C L1C D1C C1W L1W D1W C2W L2W D2W C2X L2X D2X      SYS / # / OBS TYPES
R   12 C1C L1C D1C C1P L1P D1P C2P L2P D2P C2C L2C D2C      SYS / # / OBS TYPES
    19                                                      # OF SATELLITES
   G01  1023  1023  1023  1023  1023  1023  1023  1023  1023PRN / # OF OBS
        1023  1023  1023                                    PRN / # OF OBS
   G02  1023  1023  1023  1023  1023  1023  1023  1023  1023PRN / # OF OBS
           0     0     0                                    PRN / # OF OBS
   G03   269   269   269   255   255   255   256   256   256PRN / # OF OBS
         235   235   235                                    PRN / # OF OBS
   G07   739   739   739   735   735   735   737   737   737PRN / # OF OBS
         739   739   739                                    PRN / # OF OBS
   G08  1023  1023  1023  1023  1023  1023  1023  1023  1023PRN / # OF OBS
        1023  1023  1023                                    PRN / # OF OBS
   G10  1023  1023  1023  1023  1023  1023  1023  1023  1023PRN / # OF OBS
        1023  1023  1023                                    PRN / # OF OBS
   G14   491   491   491   491   491   491   491   491   491PRN / # OF OBS
         491   491   491                                    PRN / # OF OBS
   G16  1023  1023  1023  1023  1023  1023  1023  1023  1023PRN / # OF OBS
           0     0     0                                    PRN / # OF OBS
   G27  1023  1023  1023  1023  1023  1023  1023  1023  1023PRN / # OF OBS
        1023  1023  1023                                    PRN / # OF OBS
   G32   217   217   217   215   215   215   215   215   215PRN / # OF OBS
         211   211   211                                    PRN / # OF OBS
   R01  1023  1023  1023  1023  1023  1023  1023  1023  1023PRN / # OF OBS
        1023  1023  1023                                    PRN / # OF OBS
   R02  1023  1023  1023  1023  1023  1023  1023  1023  1023PRN / # OF OBS
        1023  1023  1023                                    PRN / # OF OBS
   R03   231   231   231   225   225   225   225   225   225PRN / # OF OBS
         224   224   224                                    PRN / # OF OBS
   R14  1021  1021  1021  1021  1021  1021  1021  1021  1021PRN / # OF OBS
        1021  1021  1021                                    PRN / # OF OBS
   R15  1023  1023  1023  1023  1023  1023  1023  1023  1023PRN / # OF OBS
        1023  1023  1023                                    PRN / # OF OBS
   R16  1023  1023  1023  1023  1023  1023  1023  1023  1023PRN / # OF OBS
        1023  1023  1023                                    PRN / # OF OBS
   R17  1023  1023  1023  1023  1023  1023  1023  1023  1023PRN / # OF OBS
        1023  1023  1023                                    PRN / # OF OBS
   R18  1023  1023  1023  1023  1023  1023  1023  1023  1023PRN / # OF OBS
        1023  1023  1023                                    PRN / # OF OBS
   R24  1023  1023  1023  1023  1023  1023  1023  1023  1023PRN / # OF OBS
        1023  1023  1023                                    PRN / # OF OBS
G L1C                                                       SYS / PHASE SHIFT
G L1W -0.25000                                              SYS / PHASE SHIFT
G L2W  0.00000                                              SYS / PHASE SHIFT
G L2X  0.25000                                              SYS / PHASE SHIFT
R L1C                                                       SYS / PHASE SHIFT
R L1P -0.25000                                              SYS / PHASE SHIFT
R L2P -0.25000                                              SYS / PHASE SHIFT
R L2C                                                       SYS / PHASE SHIFT
  9 R01  1 R02 -4 R03  5 R14 -7 R15  0 R16 -1 R17  4 R18 -3 GLONASS SLOT / FRQ #
    R24  2                                                  GLONASS SLOT / FRQ #
                                                            GLONASS COD/PHS/BIS
    18                  GPS                                 LEAP SECONDS
                                                            END OF HEADER
> 2025 04 04 15 12 16.0000000  0 15
R01  22616138.000   120896213.769 6      1917.306    22616138.800   120896213.776 6      1917.306    22616153.620    94030392.297 6      1491.238    22616151.200    94030392.547 6      1491.238
G02  21123007.380   111002147.903 8      2066.965    21123006.480   111002147.911 6      2066.965    21123008.740    86495183.331 6      1610.622
R24  23056199.680   123291854.682 6       525.128    23056197.920   123291854.684 6       525.128    23056213.180    95893720.194 6       408.433    23056214.100    95893736.201 7       408.433
G08  20623189.580   108375589.005 8      2951.993    20623189.020   108375589.005 8      2951.993    20623196.020    84448538.066 8      2300.254    20623196.800    84448543.070 8      2300.254
R15  20035142.800   107061721.380 7      1412.697    20035142.140   107061721.367 7      1412.697    20035153.760    83270272.838 8      1098.765    20035153.760    83270273.842 8      1098.765
G01  21407435.260   112496828.490 7      3822.724    21407434.300   112496828.497 6      3822.724    21407440.100    87659888.640 6      2978.746    21407440.680    87659890.649 8      2978.746
G27  21876962.560   114964209.849 7      1120.411    21876961.360   114964209.843 7      1120.411    21876970.940    89582536.366 7       873.047    21876971.360    89582531.374 8       873.047
R17  20713407.420   110841630.277 8      1988.757    20713408.800   110841630.298 7      1988.757    20713418.560    86210198.927 8      1546.811    20713418.120    86210197.933 8      1546.811
R18  21727320.580   115981895.046 7      3740.054    21727320.280   115981895.034 7      3740.054    21727333.540    90208217.123 8      2908.931    21727333.500    90208209.128 8      2908.931
G07  24158844.600   126955575.181 6      1535.542    24158843.640   126955575.189 3      1535.542    24158857.280    98926446.545 3      1196.527    24158859.140    98926464.562 6      1196.527
G10  23614071.000   124092764.364 7        28.947    23614069.000   124092764.366 6        28.947    23614078.960    96695707.077 6        22.556    23614079.440    96695710.068 7        22.556
R02  21997134.880   117380934.870 7      5029.012    21997127.320   117380934.863 7      5029.012    21997143.840    91296308.537 7      3911.453    21997143.720    91296310.542 7      3911.453
R16  22027821.080   117668637.274 7      5271.327    22027820.420   117668637.280 7      5271.327    22027833.620    91520141.131 7      4099.921    22027833.400    91520115.132 7      4099.921
G16  23402293.620   122979877.467 6      -790.512    23402291.760   122979877.467 4      -790.512    23402306.840    95828511.102 4      -615.983
R14  22117130.640   117896744.814 6     -1464.985    22117131.100   117896744.831 5     -1464.985    22117150.100    91697552.494 7     -1139.433    22117150.340    91697552.493 7     -1139.433
> 2025 04 04 15 12 17.0000000  0 15
R01  22615779.480   120894296.264 6      1917.542    22615780.320   120894296.278 6      1917.542    22615794.180    94028901.690 6      1491.422    22615793.100    94028901.940 6      1491.422
G02  21122613.920   111000080.491 8      2067.905    21122612.900   111000080.498 6      2067.905    21122615.440    86493572.371 6      1611.354
R24  23056101.820   123291328.988 6       526.471    23056100.040   123291328.987 6       526.471    23056114.980    95893311.316 7       409.477    23056115.920    95893327.319 7       409.477
G08  20622627.940   108372636.550 8      2952.881    20622627.200   108372636.553 8      2952.881    20622634.240    84446237.466 8      2300.947    20622635.040    84446242.470 8      2300.947
R15  20034878.520   107060308.490 7      1413.054    20034877.680   107060308.475 7      1413.054    20034889.340    83269173.930 8      1099.042    20034889.340    83269174.933 8      1099.042
G01  21406707.860   112493005.423 7      3823.405    21406706.920   112493005.428 6      3823.405    21406712.540    87656909.635 6      2979.277    21406713.200    87656911.641 8      2979.277
G27  21876749.240   114963089.021 7      1121.240    21876748.000   114963089.015 7      1121.240    21876757.580    89581663.001 7       873.693    21876758.100    89581658.010 8       873.693
R17  20713035.580   110839640.915 8      1989.884    20713037.100   110839640.935 7      1989.884    20713046.860    86208651.653 8      1547.688    20713046.480    86208650.657 8      1547.688
R18  21726619.580   115978154.382 7      3741.144    21726619.460   115978154.375 7      3741.144    21726632.640    90205307.736 8      2909.779    21726632.820    90205299.739 8      2909.779
G07  24158552.180   126954039.242 6      1536.426    24158551.420   126954039.247 3      1536.426    24158565.100    98925249.711 3      1197.215    24158566.240    98925267.718 6      1197.215
G10  23614065.420   124092735.022 7        29.728    23614063.500   124092735.025 6        29.728    23614073.380    96695684.222 6        23.165    23614073.280    96695687.209 7        23.165
R02  21996192.460   117375905.528 7      5029.580    21996184.920   117375905.521 7      5029.580    21996200.840    91292396.843 7      3911.895    21996200.980    91292398.845 7      3911.895
R16  22026834.500   117663365.746 7      5271.703    22026833.640   117663365.747 7      5271.703    22026846.860    91516041.063 7      4100.213    22026846.760    91516015.065 7      4100.213
G16  23402444.120   122980667.514 6      -789.596    23402442.080   122980667.514 4      -789.596    23402457.180    95829126.724 4      -615.270
R14  22117406.100   117898209.296 6     -1464.171    22117405.240   117898209.293 5     -1464.171    22117424.480    91698691.504 7     -1138.800    22117425.180    91698691.497 7     -1138.800
> 2025 04 04 15 12 18.0000000  0 15
R01  22615420.400   120892378.740 6      1917.510    22615421.380   120892378.744 6      1917.510    22615435.940    94027408.754 6      1491.397    22615434.240    94027409.004 6      1491.397
G02  21122220.420   110998012.513 8      2068.228    21122219.280   110998012.518 6      2068.228    21122221.820    86491960.960 6      1611.606
R24  23056002.920   123290802.403 6       527.156    23056001.300   123290802.402 6       527.156    23056016.000    95892901.746 7       410.010    23056017.380    95892917.751 6       410.010
G08  20622066.040   108369683.565 8      2953.232    20622065.180   108369683.567 8      2953.232    20622072.180    84443936.449 8      2301.220    20622072.960    84443941.453 8      2301.220
R15  20034614.120   107058895.579 7      1412.953    20034613.220   107058895.572 7      1412.953    20034625.020    83268075.016 8      1098.964    20034625.040    83268076.021 8      1098.964
G01  21405980.220   112489181.875 7      3823.759    21405979.160   112489181.882 6      3823.759    21405984.900    87653930.263 6      2979.553    21405985.460    87653932.268 8      2979.553
G27  21876535.760   114961967.630 7      1121.756    21876534.560   114961967.627 7      1121.756    21876544.220    89580789.197 7       874.095    21876544.700    89580784.205 8       874.095
R17  20712663.680   110837650.837 8      1990.470    20712665.440   110837650.858 8      1990.470    20712675.280    86207103.818 8      1548.143    20712674.440    86207102.819 8      1548.143
R18  21725918.880   115974413.074 7      3741.644    21725918.820   115974413.048 7      3741.644    21725931.900    90202397.835 8      2910.167    21725931.740    90202389.841 8      2910.167
G07  24158259.880   126952502.835 6      1536.702    24158259.060   126952502.840 3      1536.702    24158272.800    98924052.509 3      1197.430    24158275.100    98924070.518 6      1197.430
G10  23614059.880   124092705.250 6        30.100    23614057.760   124092705.244 6        30.100    23614067.700    96695661.029 6        23.454    23614067.860    96695664.022 7        23.454
R02  21995249.920   117370875.912 7      5029.723    21995242.560   117370875.902 7      5029.723    21995258.140    91288484.933 7      3912.007    21995258.600    91288486.937 7      3912.007
R16  22025847.400   117658094.093 7      5271.678    22025846.980   117658094.097 7      5271.678    22025859.900    91511940.894 7      4100.194    22025859.680    91511914.899 7      4100.194
G16  23402594.260   122981456.949 6      -789.095    23402592.220   122981456.946 4      -789.095    23402607.360    95829741.860 4      -614.880
R14  22117680.780   117899673.121 6     -1463.442    22117679.680   117899673.093 6     -1463.442    22117699.160    91699829.990 7     -1138.233    22117699.600    91699829.985 7     -1138.233
> 2025 04 04 15 12 19.0000000  0 15
R01  22615062.040   120890461.446 6      1917.185    22615062.340   120890461.455 6      1917.185    22615076.600    94025918.813 6      1491.144    22615075.960    94025919.063 6      1491.144
G02  21121826.620   110995944.181 7      2068.505    21121825.700   110995944.189 6      2068.505    21121828.300    86490349.283 6      1611.822
R24  23055904.300   123290275.257 6       527.463    23055902.800   123290275.242 6       527.463    23055916.840    95892491.725 7       410.249    23055918.600    95892507.732 6       410.249
G08  20621504.040   108366730.277 8      2953.515    20621503.180   108366730.282 8      2953.515    20621510.160    84441635.191 8      2301.440    20621510.880    84441640.193 8      2301.440
R15  20034349.720   107057482.952 7      1412.535    20034348.860   107057482.958 7      1412.535    20034360.800    83266976.320 8      1098.638    20034360.700    83266977.323 8      1098.638
G01  21405252.520   112485358.156 7      3823.879    21405251.660   112485358.163 6      3823.879    21405257.320    87650950.752 6      2979.646    21405257.680    87650952.748 8      2979.646
G27  21876322.440   114960845.969 7      1121.870    21876321.060   114960845.969 7      1121.870    21876330.760    89579915.177 7       874.184    21876331.300    89579910.186 8       874.184
R17  20712291.860   110835660.241 8      1990.989    20712293.540   110835660.259 7      1990.989    20712303.060    86205555.578 8      1548.547    20712302.360    86205554.579 8      1548.547
R18  21725217.880   115970671.382 7      3741.882    21725217.980   115970671.364 7      3741.882    21725230.920    90199487.644 7      2910.353    21725231.020    90199479.647 8      2910.353
G07  24157967.140   126950966.216 6      1536.720    24157966.640   126950966.218 3      1536.720    24157980.400    98922855.145 3      1197.444    24157982.140    98922873.150 6      1197.444
G10  23614054.300   124092675.325 7        30.104    23614052.200   124092675.317 6        30.104    23614062.100    96695637.715 6        23.458    23614061.860    96695640.706 7        23.458
R02  21994307.600   117365846.276 7      5029.807    21994299.500   117365846.269 7      5029.807    21994315.460    91284573.005 7      3912.072    21994315.820    91284575.000 7      3912.072
R16  22024860.840   117652822.555 7      5271.518    22024860.040   117652822.567 7      5271.518    22024873.340    91507840.834 7      4100.069    22024872.940    91507814.838 8      4100.069
G16  23402744.160   122982246.022 6      -788.834    23402742.420   122982246.019 4      -788.834    23402757.320    95830356.715 4      -614.676
R14  22117955.720   117901136.582 6     -1463.155    22117954.360   117901136.572 6     -1463.155    22117973.300    91700968.254 7     -1138.010    22117974.080    91700968.257 7     -1138.010
> 2025 04 04 15 12 20.0000000  0 15
R01  22614703.560   120888544.347 7      1916.797    22614703.400   120888544.359 6      1916.797    22614718.140    94024428.372 6      1490.842    22614717.420    94024428.622 6      1490.842
G02  21121433.140   110993875.492 8      2068.697    21121432.040   110993875.500 6      2068.697    21121434.640    86488737.327 6      1611.972
R24  23055805.560   123289747.343 6       528.028    23055803.740   123289747.339 6       528.028    23055818.120    95892081.138 6       410.689    23055819.940    95892097.143 6       410.689
G08  20620942.020   108363776.676 8      2953.597    20620941.160   108363776.678 8      2953.597    20620948.180    84439333.695 8      2301.504    20620948.840    84439338.699 8      2301.504
R15  20034085.620   107056070.591 7      1412.094    20034084.700   107056070.587 7      1412.094    20034096.580    83265877.818 8      1098.295    20034096.200    83265878.820 8      1098.295
G01  21404524.820   112481534.190 7      3823.921    21404523.960   112481534.197 6      3823.921    21404529.640    87647971.044 6      2979.679    21404530.420    87647973.049 8      2979.679
G27  21876109.220   114959723.964 7      1122.007    21876107.580   114959723.958 7      1122.007    21876117.140    89579040.892 7       874.291    21876117.620    89579035.896 8       874.291
R17  20711919.620   110833669.088 7      1991.199    20711921.200   110833669.114 8      1991.199    20711931.120    86204006.914 8      1548.710    20711930.460    86204005.913 8      1548.710
R18  21724516.480   115966929.271 7      3742.094    21724517.420   115966929.261 7      3742.094    21724530.200    90196577.128 7      2910.517    21724530.100    90196569.135 8      2910.517
G07  24157674.640   126949429.302 6      1536.747    24157674.340   126949429.304 3      1536.747    24157688.020    98921657.548 3      1197.465    24157689.960    98921675.547 6      1197.465
G10  23614048.220   124092645.198 7        29.927    23614046.560   124092645.198 6        29.927    23614056.380    96695614.241 6        23.319    23614056.520    96695617.237 7        23.319
R02  21993365.000   117360816.550 7      5029.606    21993357.360   117360816.535 7      5029.606    21993372.780    91280661.019 7      3911.916    21993373.260    91280663.024 7      3911.916
R16  22023874.140   117647551.124 7      5271.201    22023873.340   117647551.127 7      5271.201    22023886.540    91503740.828 7      4099.823    22023885.880    91503714.830 7      4099.823
G16  23402894.420   122983034.729 6      -788.723    23402892.540   122983034.729 4      -788.723    23402907.440    95830971.286 4      -614.589
R14  22118230.720   117902599.667 6     -1462.973    22118229.840   117902599.630 6     -1462.973    22118247.780    91702106.173 7     -1137.868    22118248.320    91702106.168 7     -1137.868
> 2025 04 04 15 12 21.0000000  0 15
R01  22614344.920   120886627.601 7      1916.582    22614344.800   120886627.608 6      1916.582    22614359.360    94022937.266 6      1490.675    22614358.840    94022937.516 6      1490.675
G02  21121039.420   110991806.585 8      2069.149    21121038.240   110991806.592 6      2069.149    21121040.900    86487125.200 6      1612.324
R24  23055707.160   123289218.903 6       528.860    23055705.080   123289218.910 6       528.860    23055720.120    95891670.137 6       411.335    23055721.180    95891686.140 6       411.335
G08  20620380.200   108360822.886 8      2954.050    20620378.960   108360822.886 8      2954.050    20620385.960    84437032.040 8      2301.857    20620386.460    84437037.044 8      2301.857
R15  20033820.860   107054658.632 8      1411.968    20033820.440   107054658.630 7      1411.968    20033832.300    83264779.633 8      1098.198    20033832.240    83264780.636 8      1098.198
G01  21403797.100   112477710.148 7      3824.179    21403796.240   112477710.155 6      3824.179    21403801.900    87644991.284 6      2979.880    21403802.560    87644993.282 8      2979.880
G27  21875895.620   114958601.759 7      1122.433    21875894.060   114958601.753 7      1122.433    21875903.440    89578166.450 7       874.623    21875903.700    89578161.459 8       874.623
R17  20711547.640   110831677.547 8      1991.885    20711549.240   110831677.570 8      1991.885    20711558.880    86202457.950 8      1549.244    20711558.180    86202456.950 8      1549.244
R18  21723815.020   115963186.869 7      3742.602    21723816.520   115963186.854 7      3742.602    21723828.820    90193666.385 7      2910.913    21723828.800    90193658.390 8      2910.913
G07  24157382.100   126947892.259 6      1537.327    24157381.940   126947892.259 3      1537.327    24157395.580    98920459.846 3      1197.918    24157396.680    98920477.849 6      1197.918
G10  23614042.380   124092614.955 7        30.450    23614040.820   124092614.958 6        30.450    23614050.700    96695590.685 6        23.727    23614051.020    96695593.673 7        23.727
R02  21992422.020   117355786.851 7      5029.815    21992414.940   117355786.843 7      5029.815    21992429.780    91276749.057 7      3912.079    21992430.760    91276751.061 7      3912.079
R16  22022887.000   117642279.927 7      5271.177    22022886.340   117642279.926 7      5271.177    22022899.940    91499641.015 8      4099.804    22022899.320    91499615.017 8      4099.804
G16  23403044.420   122983823.174 7      -788.274    23403042.780   122983823.176 4      -788.274    23403057.480    95831585.654 4      -614.239
R14  22118504.880   117904062.419 6     -1462.693    22118504.480   117904062.414 6     -1462.693    22118522.220    91703243.898 7     -1137.650    22118522.740    91703243.899 7     -1137.650
> 2025 04 04 15 12 22.0000000  0 15
R01  22613986.560   120884710.943 7      1916.864    22613986.360   120884710.952 6      1916.864    22614000.580    94021447.324 6      1490.894    22614000.200    94021447.574 6      1490.894
G02  21120645.560   110989737.230 8      2069.871    21120644.520   110989737.235 6      2069.871    21120647.140    86485512.724 6      1612.886
R24  23055608.320   123288689.752 6       529.775    23055606.520   123288689.769 6       529.775    23055621.040    95891258.591 6       412.047    23055622.040    95891274.590 6       412.047
G08  20619817.940   108357868.710 8      2954.604    20619816.820   108357868.710 8      2954.604    20619823.920    84434730.097 8      2302.289    20619824.480    84434735.101 8      2302.289
R15  20033556.860   107053246.918 7      1411.882    20033556.200   107053246.922 7      1411.882    20033567.860    83263681.642 8      1098.131    20033568.040    83263682.644 8      1098.131
G01  21403069.200   112473885.772 7      3824.764    21403068.520   112473885.780 6      3824.764    21403074.140    87642011.259 6      2980.335    21403074.680    87642013.262 8      2980.335
G27  21875681.800   114957479.147 7      1123.014    21875680.300   114957479.149 7      1123.014    21875689.980    89577291.702 7       875.076    21875689.920    89577286.710 8       875.076
R17  20711175.240   110829685.477 8      1992.629    20711176.700   110829685.500 7      1992.629    20711186.740    86200908.568 8      1549.822    20711186.200    86200907.566 8      1549.822
R18  21723113.940   115959443.947 7      3743.438    21723115.880   115959443.937 7      3743.438    21723127.780    90190755.234 7      2911.563    21723127.840    90190747.238 8      2911.563
G07  24157089.080   126946354.901 6      1537.816    24157089.400   126946354.903 3      1537.816    24157103.060    98919261.898 3      1198.298    24157104.860    98919279.916 6      1198.298
G10  23614036.720   124092584.479 7        30.821    23614034.840   124092584.478 6        30.821    23614044.940    96695566.935 6        24.017    23614045.040    96695569.931 7        24.017
R02  21991479.760   117350757.031 7      5030.270    21991472.340   117350757.024 7      5030.270    21991486.980    91272836.990 7      3912.432    21991487.860    91272838.996 7      3912.432
R16  22021900.280   117637008.731 7      5271.528    22021899.600   117637008.727 7      5271.528    22021913.280    91495541.204 7      4100.077    22021912.620    91495515.208 8      4100.077
G16  23403194.740   122984611.135 7      -787.443    23403192.760   122984611.137 4      -787.443    23403207.460    95832199.648 4      -613.592
R14  22118780.080   117905524.728 6     -1461.657    22118778.600   117905524.720 6     -1461.657    22118796.260    91704381.241 7     -1136.844    22118797.080    91704381.239 7     -1136.844
> 2025 04 04 15 12 23.0000000  0 15
R01  22613628.460   120882794.464 6      1916.270    22613627.920   120882794.465 6      1916.270    22613641.740    94019958.463 6      1490.433    22613641.740    94019958.713 6      1490.433
G02  21120251.740   110987667.469 8      2069.896    21120250.620   110987667.479 6      2069.896    21120253.280    86483899.931 6      1612.906
R24  23055509.060   123288159.884 6       530.166    23055507.620   123288159.888 6       530.166    23055521.440    95890846.459 6       412.351    23055522.820    95890862.452 7       412.351
G08  20619255.560   108354914.148 8      2954.601    20619254.460   108354914.148 8      2954.601    20619261.700    84432427.851 8      2302.287    20619262.440    84432432.857 8      2302.287
R15  20033292.860   107051835.436 8      1411.240    20033292.360   107051835.432 7      1411.240    20033303.800    83262583.819 8      1097.631    20033303.800    83262584.823 8      1097.631
G01  21402341.300   112470061.139 7      3824.610    21402340.660   112470061.144 6      3824.610    21402346.340    87639031.035 6      2980.216    21402347.080    87639033.034 8      2980.216
G27  21875468.160   114956356.133 7      1123.162    21875466.540   114956356.132 7      1123.162    21875476.120    89576416.632 7       875.191    21875476.300    89576411.639 8       875.191
R17  20710802.860   110827692.855 8      1992.796    20710804.160   110827692.878 8      1992.796    20710814.380    86199358.756 8      1549.953    20710813.780    86199357.755 8      1549.953
R18  21722412.720   115955700.536 7      3743.569    21722414.620   115955700.529 7      3743.569    21722426.740    90187843.711 8      2911.665    21722426.620    90187835.717 8      2911.665
G07  24156796.740   126944817.199 6      1538.038    24156796.840   126944817.204 3      1538.038    24156810.660    98918063.691 3      1198.471    24156812.340    98918081.704 6      1198.471
G10  23614031.120   124092553.708 7        30.774    23614029.040   124092553.702 6        30.774    23614039.080    96695542.964 6        23.980    23614039.400    96695545.954 7        23.980
R02  21990536.960   117345727.118 7      5029.902    21990529.940   117345727.111 7      5029.902    21990544.240    91268924.858 7      3912.146    21990545.040    91268926.864 7      3912.146
R16  22020913.620   117631737.569 7      5271.102    22020912.980   117631737.568 7      5271.102    22020926.420    91491441.422 7      4099.746    22020926.000    91491415.426 8      4099.746
G16  23403344.620   122985398.665 6      -787.335    23403342.700   122985398.670 4      -787.335    23403357.180    95832813.310 4      -613.508
R14  22119053.760   117906986.744 6     -1462.086    22119052.600   117906986.758 6     -1462.086    22119070.920    91705518.373 7     -1137.178    22119071.180    91705518.377 7     -1137.178
> 2025 04 04 15 12 24.0000000  0 15
R01  22613270.040   120880878.031 6      1916.387    22613269.960   120880878.037 6      1916.387    22613283.800    94018468.272 6      1490.524    22613283.040    94018468.522 6      1490.524
G02  21119857.780   110985597.206 8      2070.475    21119856.460   110985597.211 6      2070.475    21119859.380    86482286.745 6      1613.357
R24  23055409.800   123287629.155 6       531.131    23055407.920   123287629.159 6       531.131    23055422.560    95890433.685 6       413.102    23055423.780    95890449.683 7       413.102
G08  20618693.060   108351959.129 8      2955.167    20618692.200   108351959.131 8      2955.167    20618699.380    84430125.245 8      2302.728    20618700.180    84430130.251 8      2302.728
R15  20033028.760   107050424.038 8      1411.303    20033028.340   107050424.042 7      1411.303    20033039.540    83261486.077 8      1097.680    20033039.680    83261487.083 8      1097.680
G01  21401613.600   112466236.112 7      3825.162    21401612.760   112466236.117 6      3825.162    21401618.400    87636050.501 6      2980.646    21401618.900    87636052.503 8      2980.646
G27  21875254.560   114955232.674 7      1123.674    21875252.740   114955232.677 7      1123.674    21875262.420    89575541.210 7       875.590    21875263.060    89575536.219 8       875.590
R17  20710430.400   110825699.573 8      1993.553    20710431.500   110825699.595 8      1993.553    20710441.760    86197808.433 8      1550.541    20710441.100    86197807.434 8      1550.541
R18  21721711.720   115951956.549 7      3744.248    21721713.340   115951956.536 7      3744.248    21721725.100    90184931.727 7      2912.193    21721725.080    90184923.736 8      2912.193
G07  24156504.340   126943279.163 6      1538.256    24156504.220   126943279.168 3      1538.256    24156517.900    98916865.219 3      1198.641    24156519.300    98916883.216 6      1198.641
G10  23614025.100   124092522.614 7        31.158    23614023.120   124092522.616 6        31.158    23614033.060    96695518.739 6        24.279    23614033.440    96695521.739 7        24.279
R02  21989594.200   117340697.016 7      5030.166    21989587.140   117340697.003 7      5030.166    21989601.580    91265012.561 7      3912.352    21989602.180    91265014.562 7      3912.352
R16  22019926.880   117626466.354 7      5271.184    22019926.160   117626466.350 7      5271.184    22019939.480    91487341.596 7      4099.810    22019939.280    91487315.598 8      4099.810
G16  23403494.560   122986185.701 6      -786.864    23403492.520   122986185.701 4      -786.864    23403506.980    95833426.577 4      -613.141
R14  22119328.220   117908448.232 6     -1461.177    22119327.500   117908448.233 6     -1461.177    22119345.240    91706655.049 7     -1136.471    22119345.460    91706655.044 7     -1136.471
> 2025 04 04 15 12 25.0000000  0 15
R01  22612911.220   120878961.627 6      1916.433    22612911.460   120878961.633 6      1916.433    22612924.700    94016976.417 6      1490.559    22612924.460    94016976.667 6      1490.559
G02  21119463.520   110983526.393 8      2071.077    21119462.480   110983526.398 6      2071.077    21119465.200    86480673.137 6      1613.826
R24  23055310.540   123287097.549 6       532.033    23055308.540   123287097.555 6       532.033    23055323.120    95890020.226 6       413.803    23055324.100    95890036.233 7       413.803
G08  20618130.420   108349003.592 8      2955.808    20618129.780   108349003.589 8      2955.808    20618137.000    84427822.235 8      2303.227    20618137.920    84427827.243 8      2303.227
R15  20032764.180   107049012.674 8      1411.328    20032764.360   107049012.683 7      1411.328    20032775.580    83260388.358 8      1097.700    20032775.160    83260389.362 8      1097.700
G01  21400885.900   112462410.685 7      3825.606    21400884.800   112462410.690 6      3825.606    21400890.520    87633069.661 6      2980.992    21400891.280    87633071.662 8      2980.992
G27  21875040.700   114954108.701 7      1124.213    21875038.860   114954108.698 7      1124.213    21875048.380    89574665.391 7       876.010    21875049.100    89574660.401 8       876.010
R17  20710057.820   110823705.562 8      1994.293    20710058.600   110823705.585 8      1994.293    20710069.300    86196257.549 8      1551.117    20710068.980    86196256.546 8      1551.117
R18  21721009.860   115948211.971 7      3744.879    21721011.780   115948211.970 7      3744.879    21721023.800    90182019.286 8      2912.684    21721023.880    90182011.293 8      2912.684
G07  24156212.300   126941740.652 6      1538.809    24156211.380   126941740.654 3      1538.809    24156225.160    98915666.377 3      1199.072    24156226.480    98915684.366 6      1199.072
G10  23614019.200   124092491.081 7        31.949    23614017.100   124092491.083 6        31.949    23614027.000    96695494.180 6        24.895    23614027.040    96695497.176 7        24.895
R02  21988651.420   117335666.607 7      5030.539    21988644.940   117335666.605 7      5030.539    21988658.720    91261100.037 7      3912.641    21988659.400    91261102.038 7      3912.641
R16  22018940.180   117621195.043 7      5271.250    22018939.360   117621195.044 7      5271.250    22018952.860    91483241.706 7      4099.861    22018952.640    91483215.706 8      4099.861
G16  23403644.280   122986972.120 6      -786.129    23403642.260   122986972.119 4      -786.129    23403656.640    95834039.368 4      -612.568
R14  22119602.460   117909909.204 6     -1460.789    22119602.160   117909909.199 6     -1460.789    22119618.680    91707791.348 7     -1136.169    22119619.180    91707791.339 7     -1136.169
> 2025 04 04 15 12 26.0000000  0 15
R01  22612552.600   120877045.399 6      1916.198    22612552.480   120877045.395 6      1916.198    22612566.280    94015485.394 6      1490.376    22612565.120    94015485.644 6      1490.376
G02  21119069.560   110981455.179 8      2071.507    21119068.460   110981455.184 6      2071.507    21119071.360    86479059.206 6      1614.161
R24  23055210.480   123286565.261 6       532.583    23055208.880   123286565.276 6       532.583    23055224.020    95889606.230 6       414.231    23055224.980    95889622.225 7       414.231
G08  20617568.300   108346047.684 8      2956.151    20617567.280   108346047.689 8      2956.151    20617574.500    84425518.943 8      2303.495    20617575.160    84425523.951 8      2303.495
R15  20032500.680   107047601.497 8      1411.121    20032500.360   107047601.501 7      1411.121    20032511.440    83259290.780 8      1097.539    20032511.360    83259291.784 8      1097.539
G01  21400157.680   112458584.988 7      3825.884    21400156.940   112458584.990 6      3825.884    21400162.400    87630088.609 6      2981.208    21400163.040    87630090.605 8      2981.208
G27  21874826.560   114952984.339 7      1124.691    21874824.980   114952984.333 7      1124.691    21874834.560    89573789.271 7       876.382    21874835.060    89573784.279 8       876.382
R17  20709685.300   110821710.966 8      1994.949    20709685.860   110821710.991 8      1994.949    20709696.600    86194706.206 8      1551.627    20709695.760    86194705.208 8      1551.627
R18  21720308.700   115944466.935 7      3745.279    21720310.260   115944466.931 7      3745.279    21720322.120    90179106.497 7      2912.995    21720321.920    90179098.503 8      2912.995
G07  24155919.360   126940201.851 6      1538.914    24155918.720   126940201.856 3      1538.914    24155932.320    98914467.308 3      1199.154    24155934.080    98914485.299 6      1199.154
G10  23614012.880   124092459.351 7        31.939    23614011.160   124092459.356 6        31.939    23614021.040    96695469.464 6        24.887    23614020.740    96695472.458 7        24.887
R02  21987708.820   117330636.070 7      5030.730    21987702.060   117330636.065 7      5030.730    21987715.680    91257187.409 7      3912.790    21987716.560    91257189.413 7      3912.790
R16  22017953.260   117615923.812 7      5271.170    22017952.960   117615923.816 7      5271.170    22017966.080    91479141.868 8      4099.799    22017966.040    91479115.868 8      4099.799
G16  23403794.280   122987758.136 6      -785.814    23403791.920   122987758.136 4      -785.814    23403806.180    95834651.847 4      -612.323
R14  22119876.040   117911369.650 6     -1460.067    22119875.900   117911369.659 6     -1460.067    22119893.040    91708927.259 7     -1135.608    22119893.260    91708927.252 7     -1135.608
> 2025 04 04 15 12 27.0000000  0 15
R01  22612194.540   120875129.375 6      1915.699    22612193.940   120875129.389 6      1915.699    22612207.740    94013996.700 6      1489.988    22612206.900    94013996.950 6      1489.988
G02  21118675.300   110979383.607 7      2071.704    21118674.300   110979383.615 6      2071.704    21118677.060    86477445.013 6      1614.315
R24  23055110.720   123286032.286 6       533.148    23055109.460   123286032.298 6       533.148    23055124.180    95889191.696 6       414.670    23055125.600    95889207.697 7       414.670
G08  20617005.680   108343091.493 8      2956.252    20617004.620   108343091.495 8      2956.252    20617011.860    84423215.425 8      2303.573    20617012.880    84423220.433 8      2303.573
R15  20032236.580   107046190.571 8      1410.649    20032236.340   107046190.581 7      1410.649    20032247.520    83258193.400 8      1097.171    20032247.460    83258194.404 8      1097.171
G01  21399429.560   112454759.062 7      3825.952    21399428.640   112454759.064 6      3825.952    21399434.440    87627107.374 6      2981.262    21399434.920    87627109.378 8      2981.262
G27  21874612.600   114951859.683 7      1124.726    21874610.880   114951859.677 7      1124.726    21874620.400    89572912.915 7       876.410    21874620.880    89572907.923 8       876.410
R17  20709312.380   110819715.920 8      1995.169    20709313.000   110819715.943 7      1995.169    20709323.760    86193154.506 8      1551.798    20709323.160    86193153.507 8      1551.798
R18  21719606.980   115940721.458 7      3745.526    21719608.100   115940721.456 7      3745.526    21719620.520    90176193.357 8      2913.187    21719620.520    90176185.361 8      2913.187
G07  24155626.220   126938662.785 6      1538.990    24155625.700   126938662.790 3      1538.990    24155639.440    98913268.029 3      1199.213    24155641.540    98913286.024 6      1199.213
G10  23614006.740   124092427.432 7        31.889    23614005.260   124092427.432 6        31.889    23614015.080    96695444.592 6        24.849    23614014.900    96695447.579 7        24.849
R02  21986765.880   117325605.511 7      5030.418    21986759.300   117325605.514 7      5030.418    21986772.700    91253274.780 7      3912.547    21986773.660    91253276.779 7      3912.547
R16  22016966.260   117610652.691 7      5270.973    22016966.000   117610652.697 7      5270.973    22016979.420    91475042.117 8      4099.645    22016979.020    91475016.120 8      4099.645
G16  23403943.280   122988543.780 6      -785.583    23403941.440   122988543.785 4      -785.583    23403955.600    95835264.029 4      -612.143
R14  22120148.720   117912829.800 6     -1460.090    22120149.440   117912829.825 6     -1460.090    22120166.900    91710062.923 7     -1135.625    22120167.180    91710062.916 7     -1135.625
> 2025 04 04 15 12 28.0000000  0 15
R01  22611836.140   120873213.484 6      1916.087    22611835.520   120873213.480 6      1916.087    22611849.580    94012506.591 6      1490.290    22611848.340    94012506.841 6      1490.290
G02  21118281.060   110977311.652 7      2072.361    21118280.140   110977311.659 6      2072.361    21118282.900    86475830.510 6      1614.827
R24  23055011.020   123285498.637 6       534.175    23055009.780   123285498.639 6       534.175    23055024.800    95888776.640 6       415.469    23055025.820    95888792.631 7       415.469
G08  20616443.220   108340134.921 8      2956.981    20616441.960   108340134.923 8      2956.981    20616449.240    84420911.613 8      2304.141    20616450.140    84420916.619 8      2304.141
R15  20031972.380   107044779.865 8      1410.806    20031972.440   107044779.874 7      1410.806    20031983.560    83257096.188 8      1097.294    20031983.320    83257097.192 8      1097.294
G01  21398701.680   112450932.857 7      3826.562    21398700.540   112450932.859 6      3826.562    21398706.200    87624125.930 6      2981.737    21398706.800    87624127.935 8      2981.737
G27  21874398.400   114950734.619 7      1125.486    21874396.880   114950734.619 7      1125.486    21874406.240    89572036.250 7       877.002    21874406.580    89572031.259 8       877.002
R17  20708939.760   110817720.344 8      1996.019    20708939.980   110817720.365 7      1996.019    20708950.860    86191602.402 8      1552.459    20708950.360    86191601.401 8      1552.459
R18  21718904.920   115936975.474 7      3746.438    21718906.500   115936975.478 7      3746.438    21718918.780    90173279.830 8      2913.896    21718918.780    90173271.841 8      2913.896
G07  24155333.460   126937123.396 6      1539.969    24155332.680   126937123.398 3      1539.969    24155346.640    98912068.501 3      1199.976    24155347.080    98912086.488 6      1199.976
G10  23614000.480   124092395.216 7        32.629    23613999.140   124092395.213 6        32.629    23614008.920    96695419.491 6        25.425    23614008.680    96695422.482 7        25.425
R02  21985823.160   117320574.859 7      5030.953    21985816.560   117320574.854 7      5030.953    21985829.900    91249362.057 7      3912.963    21985830.900    91249364.058 7      3912.963
R16  22015979.400   117605381.628 7      5271.316    22015979.520   117605381.632 7      5271.316    22015992.420    91470942.408 8      4099.913    22015992.160    91470916.408 8      4099.913
G16  23404092.440   122989328.982 7      -784.785    23404090.800   122989328.987 4      -784.785    23404105.200    95835875.864 4      -611.520
R14  22120423.000   117914289.543 6     -1459.237    22120424.160   117914289.541 6     -1459.237    22120441.400    91711198.247 7     -1134.962    22120440.880    91711198.249 7     -1134.962
> 2025 04 04 15 12 29.0000000  0 15
R01  22611477.820   120871297.580 6      1915.939    22611476.640   120871297.584 6      1915.939    22611491.340    94011016.816 6      1490.175    22611490.180    94011017.066 6      1490.175
G02  21117886.680   110975239.084 7      2072.824    21117885.680   110975239.092 6      2072.824    21117888.440    86474215.529 6      1615.187
R24  23054911.040   123284964.106 6       534.995    23054910.480   123284964.105 6       534.995    23054924.620    95888360.879 6       416.107    23054926.140    95888376.868 7       416.107
G08  20615880.440   108337177.796 7      2957.433    20615879.260   108337177.801 8      2957.433    20615886.620    84418607.365 8      2304.493    20615887.400    84418612.373 8      2304.493
R15  20031708.700   107043369.214 8      1410.614    20031708.580   107043369.216 7      1410.614    20031719.560    83255999.017 8      1097.145    20031719.600    83256000.017 8      1097.145
G01  21397973.400   112447106.193 7      3826.867    21397972.220   112447106.195 6      3826.867    21397978.100    87621144.128 6      2981.974    21397978.640    87621146.133 8      2981.974
G27  21874184.300   114949609.001 7      1125.975    21874182.600   114949609.000 7      1125.975    21874191.960    89571159.153 7       877.383    21874192.900    89571154.158 8       877.383
R17  20708566.520   110815724.001 8      1996.723    20708566.860   110815724.024 7      1996.723    20708577.740    86190049.697 8      1553.007    20708577.160    86190048.702 8      1553.007
R18  21718202.960   115933228.885 7      3746.972    21718204.460   115933228.886 7      3746.972    21718216.920    90170365.824 7      2914.312    21718217.180    90170357.833 8      2914.312
G07  24155040.340   126935583.558 6      1540.117    24155039.680   126935583.560 3      1540.117    24155053.680    98910868.621 3      1200.091    24155054.280    98910886.610 6      1200.091
G10  23613994.020   124092362.601 7        32.839    23613993.020   124092362.590 6        32.839    23614002.620    96695394.080 6        25.589    23614002.500    96695397.068 7        25.589
R02  21984880.460   117315543.922 7      5031.034    21984873.580   117315543.920 7      5031.034    21984887.360    91245449.126 7      3913.027    21984887.760    91245451.127 7      3913.027
R16  22014992.920   117600110.405 7      5271.246    22014992.960   117600110.409 7      5271.246    22015005.840    91466842.584 8      4099.858    22015005.440    91466816.585 8      4099.858
G16  23404241.920   122990113.561 7      -784.202    23404240.140   122990113.566 4      -784.202    23404254.580    95836487.214 4      -611.067
R14  22120696.760   117915748.697 6     -1458.873    22120697.980   117915748.676 6     -1458.873    22120714.820    91712333.132 7     -1134.679    22120715.140    91712333.117 7     -1134.679
> 2025 04 04 15 12 30.0000000  0 15
R01  22611119.160   120869381.766 6      1915.699    22611118.380   120869381.784 6      1915.699    22611133.460    94009525.627 6      1489.988    22611131.380    94009525.877 6      1489.988
G02  21117492.300   110973166.075 7      2073.113    21117491.140   110973166.083 6      2073.113    21117494.020    86472600.207 6      1615.413
R24  23054810.900   123284428.794 6       535.518    23054810.140   123284428.801 6       535.518    23054824.500    95887944.538 7       416.514    23054825.640    95887960.529 7       416.514
G08  20615317.720   108334220.278 8      2957.603    20615316.420   108334220.283 8      2957.603    20615323.720    84416302.813 8      2304.626    20615324.380    84416307.821 8      2304.626
R15  20031444.680   107041958.754 8      1410.276    20031444.820   107041958.757 7      1410.276    20031455.720    83254901.998 8      1096.882    20031455.600    83254903.003 8      1096.882
G01  21397245.100   112443279.219 7      3827.036    21397243.860   112443279.223 6      3827.036    21397249.900    87618162.080 6      2982.106    21397250.460    87618164.085 8      2982.106
G27  21873969.980   114948482.975 7      1126.191    21873968.360   114948482.972 7      1126.191    21873977.720    89570281.731 7       877.552    21873978.180    89570276.740 8       877.552
R17  20708193.300   110813727.082 8      1997.021    20708193.880   110813727.116 7      1997.021    20708204.800    86188496.558 8      1553.239    20708203.860    86188495.562 8      1553.239
R18  21717501.080   115929481.751 7      3747.360    21717502.560   115929481.749 7      3747.360    21717514.980    90167451.397 8      2914.613    21717515.060    90167443.410 8      2914.613
G07  24154746.940   126934043.365 6      1540.240    24154746.580   126934043.367 3      1540.240    24154760.480    98909668.467 3      1200.187    24154760.700    98909686.472 6      1200.187
G10  23613988.120   124092329.652 7        33.047    23613986.820   124092329.649 6        33.047    23613996.500    96695368.414 6        25.751    23613996.280    96695371.416 7        25.751
R02  21983937.580   117310512.827 7      5031.087    21983930.660   117310512.822 7      5031.087    21983944.520    91241536.069 7      3913.068    21983945.260    91241538.066 7      3913.068
R16  22014006.120   117594839.161 7      5271.146    22014006.000   117594839.167 7      5271.146    22014018.800    91462742.732 8      4099.780    22014018.660    91462716.732 8      4099.780
G16  23404390.940   122990897.681 6      -783.936    23404389.420   122990897.683 4      -783.936    23404403.700    95837098.209 4      -610.859
R14  22120970.500   117917207.397 6     -1458.636    22120970.760   117917207.390 6     -1458.636    22120988.420    91713467.677 7     -1134.495    22120988.640    91713467.666 7     -1134.495
> 2025 04 04 15 12 31.0000000  0 15
R01  22610760.880   120867466.065 6      1915.646    22610759.680   120867466.085 6      1915.646    22610774.820    94008036.017 6      1489.947    22610773.340    94008036.267 6      1489.947
G02  21117097.580   110971092.575 8      2073.680    21117096.600   110971092.580 6      2073.680    21117099.420    86470984.497 6      1615.854
R24  23054710.760   123283892.651 7       536.486    23054710.040   123283892.658 6       536.486    23054724.360    95887527.546 6       417.267    23054725.560    95887543.539 7       417.267
G08  20614754.580   108331262.287 8      2958.227    20614753.600   108331262.284 8      2958.227    20614760.880    84413997.891 8      2305.112    20614761.760    84414002.899 8      2305.112
R15  20031181.020   107040548.416 8      1410.200    20031180.660   107040548.420 7      1410.200    20031191.800    83253805.071 8      1096.822    20031191.720    83253806.073 8      1096.822
G01  21396516.640   112439451.876 7      3827.480    21396515.520   112439451.881 6      3827.480    21396521.600    87615179.748 6      2982.452    21396522.080    87615181.755 8      2982.452
G27  21873755.580   114947356.501 7      1126.562    21873754.120   114947356.495 7      1126.562    21873763.460    89569403.969 7       877.840    21873763.820    89569398.975 8       877.840
R17  20707820.080   110811729.500 8      1997.881    20707820.260   110811729.523 8      1997.881    20707831.340    86186942.885 8      1553.907    20707830.860    86186941.885 8      1553.907
R18  21716799.060   115925734.061 7      3747.955    21716800.820   115925734.057 7      3747.955    21716812.780    90164536.534 8      2915.076    21716812.940    90164528.542 8      2915.076
G07  24154453.600   126932502.777 6      1540.694    24154453.500   126932502.782 3      1540.694    24154467.420    98908468.009 3      1200.541    24154468.020    98908486.016 6      1200.541
G10  23613982.160   124092296.400 7        33.393    23613980.420   124092296.397 6        33.393    23613990.400    96695342.512 6        26.020    23613989.920    96695345.501 7        26.020
R02  21982994.540   117305481.529 7      5031.250    21982988.080   117305481.519 7      5031.250    21983001.460    91237622.862 7      3913.194    21983002.200    91237624.859 7      3913.194
R16  22013019.360   117589567.868 7      5271.285    22013019.280   117589567.872 7      5271.285    22013032.100    91458642.846 8      4099.888    22013031.920    91458616.846 8      4099.888
G16  23404540.380   122991681.278 7      -783.358    23404538.460   122991681.275 4      -783.358    23404552.840    95837708.791 4      -610.409
R14  22121244.580   117918665.607 6     -1457.948    22121244.020   117918665.608 6     -1457.948    22121262.020    91714601.838 7     -1133.959    22121262.100    91714601.831 7     -1133.959
> 2025 04 04 15 12 32.0000000  0 15
R01  22610402.560   120865550.669 6      1915.362    22610401.540   120865550.662 6      1915.362    22610416.160    94006546.242 6      1489.726    22610415.260    94006546.492 6      1489.726
G02  21116702.980   110969018.796 8      2073.912    21116701.860   110969018.798 6      2073.912    21116704.880    86469368.573 6      1616.036
R24  23054610.420   123283355.949 7       536.920    23054609.660   123283355.956 6       536.920    23054623.780    95887110.120 7       417.604    23054624.820    95887126.108 7       417.604
G08  20614191.660   108328304.081 8      2958.363    20614190.600   108328304.080 8      2958.363    20614197.840    84411692.805 8      2305.218    20614198.680    84411697.815 8      2305.218
R15  20030916.580   107039138.404 8      1409.787    20030916.960   107039138.408 7      1409.787    20030927.860    83252708.403 8      1096.501    20030927.840    83252709.406 8      1096.501
G01  21395788.300   112435624.411 7      3827.519    21395787.300   112435624.413 6      3827.519    21395793.180    87612197.315 6      2982.482    21395793.740    87612199.324 8      2982.482
G27  21873541.020   114946229.763 7      1126.863    21873539.440   114946229.760 7      1126.863    21873548.940    89568525.996 7       878.075    21873549.460    89568521.002 8       878.075
R17  20707446.480   110809731.516 7      1998.224    20707446.960   110809731.539 7      1998.224    20707457.780    86185388.902 8      1554.174    20707457.460    86185387.902 8      1554.174
R18  21716097.180   115921986.020 7      3748.146    21716097.920   115921986.012 7      3748.146    21716110.840    90161621.407 8      2915.225    21716110.900    90161613.418 8      2915.225
G07  24154160.060   126930962.046 6      1540.601    24154160.280   126930962.051 3      1540.601    24154174.260    98907267.435 3      1200.468    24154174.540    98907285.442 6      1200.468
G10  23613975.560   124092263.033 7        33.392    23613974.200   124092263.036 6        33.392    23613984.080    96695316.518 6        26.020    23613984.180    96695319.509 7        26.020
R02  21982051.560   117300450.205 7      5031.336    21982045.380   117300450.203 7      5031.336    21982058.640    91233709.618 7      3913.262    21982059.140    91233711.624 7      3913.262
R16  22012032.620   117584296.800 7      5270.909    22012033.000   117584296.806 7      5270.909    22012045.420    91454543.139 8      4099.596    22012045.140    91454517.143 8      4099.596
G16  23404689.460   122992464.578 7      -783.180    23404687.560   122992464.577 5      -783.180    23404701.780    95838319.151 4      -610.270
R14  22121518.080   117920123.572 6     -1457.751    22121517.440   117920123.589 6     -1457.751    22121535.760    91715735.801 7     -1133.806    22121535.320    91715735.791 7     -1133.806
> 2025 04 04 15 12 33.0000000  0 15
R01  22610044.020   120863635.251 6      1915.489    22610043.020   120863635.245 6      1915.489    22610058.560    94005055.552 6      1489.824    22610056.640    94005055.802 6      1489.824
G02  21116308.260   110966944.421 7      2074.865    21116307.200   110966944.423 6      2074.865    21116310.040    86467752.181 6      1616.778
R24  23054509.900   123282818.292 7       538.314    23054509.240   123282818.296 6       538.314    23054523.440    95886691.938 7       418.689    23054524.520    95886707.926 7       418.689
G08  20613628.560   108325345.330 7      2959.109    20613627.620   108325345.332 8      2959.109    20613635.020    84409387.298 8      2305.799    20613635.480    84409392.308 8      2305.799
R15  20030653.100   107037728.357 8      1410.191    20030652.880   107037728.364 7      1410.191    20030664.160    83251611.709 8      1096.815    20030663.860    83251612.711 8      1096.815
G01  21395060.000   112431796.467 7      3828.306    21395058.800   112431796.469 6      3828.306    21395064.620    87609214.510 6      2983.096    21395065.080    87609216.515 8      2983.096
G27  21873326.400   114945102.477 7      1127.690    21873325.060   114945102.479 7      1127.690    21873334.680    89567647.586 7       878.720    21873334.860    89567642.591 8       878.720
R17  20707072.900   110807732.759 8      1999.235    20707072.920   110807732.785 7      1999.235    20707084.480    86183834.326 8      1554.960    20707083.820    86183833.323 8      1554.960
R18  21715394.880   115918237.337 7      3749.196    21715395.940   115918237.325 7      3749.196    21715408.960    90158705.763 8      2916.041    21715408.760    90158697.774 8      2916.041
G07  24153867.060   126929420.781 6      1541.560    24153867.100   126929420.785 3      1541.560    24153880.800    98906066.449 3      1201.215    24153880.820    98906084.446 6      1201.215
G10  23613969.000   124092229.215 7        34.181    23613967.840   124092229.212 6        34.181    23613977.640    96695290.164 6        26.635    23613977.600    96695293.143 7        26.635
R02  21981108.760   117295418.587 7      5031.865    21981102.340   117295418.582 7      5031.865    21981116.000    91229796.148 7      3913.673    21981116.600    91229798.143 7      3913.673
R16  22011045.860   117579025.593 7      5271.334    22011046.080   117579025.602 7      5271.334    22011058.380    91450443.322 8      4099.926    22011058.300    91450417.326 7      4099.926
G16  23404838.460   122993247.255 6      -782.237    23404836.620   122993247.254 5      -782.237    23404850.740    95838929.023 4      -609.535
R14  22121791.360   117921580.908 6     -1457.051    22121791.380   117921580.927 6     -1457.051    22121809.320    91716869.276 7     -1133.262    22121808.540    91716869.262 7     -1133.262
> 2025 04 04 15 12 34.0000000  0 15
R01  22609685.420   120861719.703 6      1915.509    22609684.580   120861719.707 6      1915.509    22609699.740    94003564.612 6      1489.840    22609698.480    94003564.862 6      1489.840
G02  21115913.380   110964869.425 8      2075.237    21115912.260   110964869.433 6      2075.237    21115915.240    86466135.312 6      1617.068
R24  23054409.300   123282279.737 7       538.957    23054408.460   123282279.744 6       538.957    23054422.360    95886273.083 7       419.189    23054423.800    95886289.071 7       419.189
G08  20613065.640   108322385.975 7      2959.560    20613064.440   108322385.977 8      2959.560    20613071.880    84407081.313 8      2306.150    20613072.300    84407086.321 8      2306.150
R15  20030389.180   107036318.343 8      1409.903    20030389.280   107036318.349 7      1409.903    20030400.260    83250515.035 8      1096.591    20030399.960    83250516.035 8      1096.591
G01  21394331.540   112427968.047 7      3828.578    21394330.220   112427968.052 6      3828.578    21394335.980    87606231.334 6      2983.308    21394336.820    87606233.341 8      2983.308
G27  21873111.820   114943974.610 7      1127.990    21873110.400   114943974.604 7      1127.990    21873119.880    89566768.735 7       878.953    21873120.240    89566763.744 8       878.953
R17  20706699.040   110805733.224 7      1999.801    20706699.260   110805733.241 8      1999.801    20706710.720    86182279.132 8      1555.401    20706710.180    86182278.131 8      1555.401
R18  21714692.660   115914487.977 7      3749.641    21714694.020   115914487.967 7      3749.641    21714706.540    90155789.615 8      2916.388    21714706.260    90155781.623 8      2916.388
G07  24153573.860   126927879.035 6      1541.850    24153573.800   126927879.042 3      1541.850    24153587.400    98904865.082 3      1201.442    24153587.640    98904883.081 6      1201.442
G10  23613962.420   124092194.939 7        34.563    23613961.260   124092194.928 6        34.563    23613971.260    96695263.453 6        26.932    23613971.160    96695266.436 7        26.932
R02  21980165.680   117290386.673 7      5031.939    21980159.020   117290386.660 7      5031.939    21980173.040    91225882.452 7      3913.730    21980173.420    91225884.453 7      3913.730
R16  22010058.880   117573754.234 7      5271.411    22010059.420   117573754.240 7      5271.411    22010071.680    91446343.384 8      4099.986    22010071.220    91446317.388 8      4099.986
G16  23404986.940   122994029.283 6      -781.886    23404985.300   122994029.285 5      -781.886    23404999.580    95839538.393 4      -609.261
R14  22122064.900   117923037.620 6     -1456.628    22122064.340   117923037.618 6     -1456.628    22122082.260    91718002.241 7     -1132.933    22122082.320    91718002.226 7     -1132.933
> 2025 04 04 15 12 35.0000000  0 15
R01  22609327.200   120859804.525 6      1915.228    22609327.120   120859804.527 6      1915.228    22609341.620    94002075.252 6      1489.622    22609340.320    94002075.502 6      1489.622
G02  21115518.520   110962794.177 7      2075.610    21115517.460   110962794.182 6      2075.610    21115520.320    86464518.240 6      1617.358
R24  23054308.420   123281740.656 7       539.550    23054307.720   123281740.660 7       539.550    23054321.760    95885853.795 7       419.650    23054322.680    95885869.781 7       419.650
G08  20612502.400   108319426.426 8      2959.884    20612501.280   108319426.431 8      2959.884    20612508.700    84404775.173 8      2306.403    20612509.140    84404780.179 8      2306.403
R15  20030125.360   107034908.692 8      1409.666    20030125.440   107034908.695 8      1409.666    20030136.500    83249418.642 8      1096.407    20030136.200    83249419.644 8      1096.407
G01  21393602.880   112424139.486 7      3828.832    21393601.740   112424139.491 6      3828.832    21393607.600    87603248.056 6      2983.505    21393608.220    87603250.065 8      2983.505
G27  21872897.460   114942846.495 7      1128.394    21872895.800   114942846.492 7      1128.394    21872905.280    89565889.693 7       879.268    21872905.420    89565884.700 8       879.268
R17  20706325.460   110803733.295 8      2000.362    20706325.540   110803733.318 7      2000.362    20706337.040    86180723.642 8      1555.837    20706336.500    86180722.643 8      1555.837
R18  21713990.300   115910738.283 7      3750.109    21713991.100   115910738.268 7      3750.109    21714003.880    90152873.186 8      2916.752    21714003.640    90152865.191 8      2916.752
G07  24153280.220   126926337.113 6      1542.222    24153280.360   126926337.123 3      1542.222    24153293.860    98903663.583 3      1201.731    24153293.720    98903681.555 6      1201.731
G10  23613955.880   124092160.566 7        34.629    23613954.640   124092160.565 6        34.629    23613964.580    96695236.685 6        26.984    23613964.280    96695239.677 7        26.984
R02  21979222.700   117285354.834 7      5031.969    21979216.240   117285354.824 7      5031.969    21979229.920    91221968.822 7      3913.753    21979230.420    91221970.821 7      3913.753
R16  22009072.160   117568483.080 8      5271.295    22009072.480   117568483.089 7      5271.295    22009084.800    91442243.616 8      4099.896    22009084.520    91442217.619 8      4099.896
G16  23405135.800   122994811.032 7      -781.358    23405134.140   122994811.035 5      -781.358    23405148.260    95840147.538 5      -608.850
R14  22122338.040   117924494.044 6     -1456.099    22122337.560   117924494.032 6     -1456.099    22122355.540    91719134.997 7     -1132.521    22122355.700    91719134.979 7     -1132.521
> 2025 04 04 15 12 36.0000000  0 15
R01  22608969.120   120857889.450 6      1914.975    22608968.540   120857889.454 6      1914.975    22608984.020    94000586.474 6      1489.425    22608982.020    94000586.724 6      1489.425
G02  21115123.800   110960718.504 8      2075.751    21115122.400   110960718.509 6      2075.751    21115125.320    86462900.842 6      1617.468
R24  23054207.280   123281200.855 7       540.148    23054206.980   123281200.859 7       540.148    23054220.980    95885433.952 7       420.115    23054221.800    95885449.940 6       420.115
G08  20611939.060   108316466.490 8      2959.981    20611938.080   108316466.495 8      2959.981    20611945.360    84402468.738 8      2306.479    20611945.580    84402473.744 8      2306.479
R15  20029861.540   107033499.233 8      1409.241    20029861.720   107033499.242 8      1409.241    20029872.840    83248322.404 8      1096.076    20029872.360    83248323.408 8      1096.076
G01  21392874.420   112420310.651 7      3828.839    21392873.200   112420310.654 6      3828.839    21392878.980    87600264.559 6      2983.511    21392879.620    87600266.566 8      2983.511
G27  21872682.580   114941717.987 7      1128.590    21872681.020   114941717.987 7      1128.590    21872690.520    89565010.340 7       879.421    21872690.680    89565005.351 8       879.421
R17  20705951.520   110801732.799 8      2000.678    20705951.980   110801732.822 8      2000.678    20705963.220    86179167.709 8      1556.083    20705962.420    86179166.708 8      1556.083
R18  21713287.760   115906988.056 7      3750.376    21713288.320   115906988.049 7      3750.376    21713301.420    90149956.353 7      2916.959    21713301.240    90149948.353 8      2916.959
G07  24152986.460   126924794.891 6      1542.144    24152986.800   126924794.904 3      1542.144    24153000.280    98902461.845 3      1201.670    24153000.240    98902479.820 6      1201.670
G10  23613949.280   124092125.914 7        34.760    23613948.040   124092125.908 6        34.760    23613958.080    96695209.680 6        27.086    23613958.040    96695212.663 7        27.086
R02  21978279.800   117280322.896 7      5031.814    21978273.100   117280322.886 7      5031.814    21978286.820    91218055.109 7      3913.633    21978287.520    91218057.110 7      3913.633
R16  22008085.420   117563211.948 8      5270.982    22008085.900   117563211.955 7      5270.982    22008098.240    91438143.851 8      4099.652    22008097.860    91438117.856 7      4099.652
G16  23405284.380   122995592.320 7      -781.168    23405282.900   122995592.322 5      -781.168    23405297.060    95840756.330 5      -608.702
R14  22122611.440   117925950.029 6     -1456.062    22122611.300   117925950.019 6     -1456.062    22122628.720    91720267.425 7     -1132.493    22122628.740    91720267.412 7     -1132.493
> 2025 04 04 15 12 37.0000000  0 15
R01  22608610.900   120855974.802 7      1914.607    22608610.620   120855974.808 6      1914.607    22608625.360    93999097.114 6      1489.139    22608624.300    93999097.364 6      1489.139
G02  21114728.720   110958642.644 8      2076.108    21114727.200   110958642.649 6      2076.108    21114730.280    86461283.295 6      1617.747
R24  23054106.220   123280660.591 7       540.688    23054105.900   123280660.598 7       540.688    23054119.880    95885013.747 7       420.535    23054120.720    95885029.739 7       420.535
G08  20611375.880   108313506.402 8      2960.309    20611374.620   108313506.407 8      2960.309    20611382.080    84400162.188 8      2306.734    20611382.500    84400167.194 8      2306.734
R15  20029597.880   107032090.228 8      1408.931    20029598.000   107032090.235 8      1408.931    20029609.180    83247226.514 8      1095.836    20029608.740    83247227.518 8      1095.836
G01  21392145.780   112416481.759 7      3829.112    21392144.420   112416481.761 6      3829.112    21392150.380    87597281.011 6      2983.723    21392151.020    87597283.015 8      2983.723
G27  21872467.640   114940589.355 7      1128.797    21872466.380   114940589.355 7      1128.797    21872475.860    89564130.891 7       879.582    21872476.060    89564125.895 8       879.582
R17  20705577.920   110799731.985 8      2001.141    20705577.940   110799732.007 8      2001.141    20705589.500    86177611.530 8      1556.443    20705588.640    86177610.528 8      1556.443
R18  21712584.960   115903237.623 7      3750.724    21712585.840   115903237.613 7      3750.724    21712598.700    90147039.358 8      2917.230    21712598.540    90147031.360 8      2917.230
G07  24152693.220   126923252.538 6      1542.685    24152693.400   126923252.548 3      1542.685    24152706.740    98901260.008 3      1202.092    24152706.180    98901277.987 5      1202.092
G10  23613942.720   124092091.241 7        34.948    23613941.260   124092091.233 6        34.948    23613951.380    96695182.662 6        27.232    23613951.780    96695185.639 7        27.232
R02  21977336.960   117275291.086 7      5031.892    21977330.020   117275291.073 7      5031.892    21977343.820    91214141.489 7      3913.694    21977344.600    91214143.489 7      3913.694
R16  22007098.780   117557941.086 8      5270.853    22007099.180   117557941.087 8      5270.853    22007111.100    91434044.298 8      4099.552    22007111.100    91434018.302 7      4099.552
G16  23405433.000   122996373.410 6      -780.800    23405431.720   122996373.412 5      -780.800    23405445.700    95841364.965 5      -608.415
R14  22122884.180   117927405.819 6     -1455.564    22122883.920   117927405.822 6     -1455.564    22122902.160    91721399.708 7     -1132.106    22122901.940    91721399.693 7     -1132.106
> 2025 04 04 15 12 38.0000000  0 15
R01  22608252.660   120854060.349 7      1914.093    22608252.520   120854060.348 7      1914.093    22608268.000    93997607.671 6      1488.739    22608266.280    93997607.921 6      1488.739
G02  21114333.600   110956566.409 8      2076.225    21114332.200   110956566.411 6      2076.225    21114335.240    86459665.455 6      1617.838
R24  23054005.040   123280119.616 7       541.131    23054004.500   123280119.618 7       541.131    23054018.700    95884592.995 7       420.879    23054019.720    95884608.987 7       420.879
G08  20610812.560   108310545.991 8      2960.381    20610811.380   108310545.994 8      2960.381    20610818.760    84397855.378 8      2306.790    20610819.420    84397860.389 8      2306.790
R15  20029334.180   107030681.445 8      1408.502    20029334.400   107030681.444 7      1408.502    20029345.640    83246130.794 8      1095.501    20029345.200    83246131.794 8      1095.501
G01  21391416.980   112412652.617 7      3829.128    21391415.900   112412652.617 6      3829.128    21391421.720    87594297.272 6      2983.736    21391422.320    87594299.282 8      2983.736
G27  21872252.780   114939460.348 7      1128.996    21872251.580   114939460.350 8      1128.996    21872260.900    89563251.151 7       879.737    21872261.300    89563246.157 8       879.737
R17  20705203.900   110797730.654 8      2001.396    20705203.820   110797730.679 8      2001.396    20705215.400    86176054.944 8      1556.641    20705214.780    86176053.945 8      1556.641
R18  21711882.280   115899486.728 7      3750.919    21711883.040   115899486.732 7      3750.919    21711896.140    90144122.022 8      2917.381    21711895.840    90144114.025 8      2917.381
G07  24152399.680   126921709.962 6      1542.635    24152399.720   126921709.967 3      1542.635    24152413.140    98900057.994 3      1202.053    24152412.280    98900076.008 5      1202.053
G10  23613936.280   124092056.358 7        34.707    23613934.640   124092056.358 6        34.707    23613944.740    96695155.491 6        27.044    23613945.200    96695158.480 7        27.044
R02  21976394.040   117270259.164 7      5031.838    21976387.040   117270259.151 7      5031.838    21976400.860    91210227.793 7      3913.652    21976401.740    91210229.790 7      3913.652
R16  22006112.080   117552670.298 7      5270.589    22006112.720   117552670.296 7      5270.589    22006124.440    91429944.798 8      4099.347    22006124.440    91429918.801 7      4099.347
G16  23405581.500   122997154.100 6      -780.652    23405580.260   122997154.100 5      -780.652    23405594.140    95841973.289 5      -608.300
R14  22123157.360   117928861.337 6     -1455.624    22123156.540   117928861.324 6     -1455.624    22123175.080    91722531.745 7     -1132.152    22123174.980    91722531.727 7     -1132.152
> 2025 04 04 15 12 39.0000000  0 15
R01  22607894.340   120852146.107 6      1913.987    22607894.380   120852146.119 7      1913.987    22607908.860    93996117.896 6      1488.656    22607908.580    93996118.146 6      1488.656
G02  21113938.320   110954489.850 8      2076.589    21113937.080   110954489.855 6      2076.589    21113940.060    86458047.372 6      1618.122
R24  23053903.540   123279577.981 7       541.840    23053902.680   123279577.983 6       541.840    23053917.940    95884171.696 7       421.431    23053918.360    95884187.693 7       421.431
G08  20610249.120   108307585.304 8      2960.717    20610247.840   108307585.301 8      2960.717    20610255.400    84395548.343 8      2307.053    20610256.000    84395553.354 8      2307.053
R15  20029070.700   107029272.927 8      1408.260    20029070.700   107029272.928 7      1408.260    20029082.080    83245035.288 8      1095.313    20029081.680    83245036.292 8      1095.313
G01  21390688.280   112408823.283 7      3829.379    21390687.160   112408823.288 6      3829.379    21390692.960    87591313.392 6      2983.932    21390693.580    87591315.409 8      2983.932
G27  21872038.120   114938331.072 7      1129.328    21872036.820   114938331.072 7      1129.328    21872046.180    89562371.198 7       879.996    21872046.300    89562366.204 8       879.996
R17  20704829.900   110795728.844 7      2001.919    20704830.020   110795728.870 7      2001.919    20704841.320    86174497.993 8      1557.048    20704840.520    86174496.993 8      1557.048
R18  21711179.680   115895735.473 7      3751.381    21711180.400   115895735.476 7      3751.381    21711193.500    90141204.388 7      2917.741    21711193.180    90141196.392 8      2917.741
G07  24152106.100   126920167.154 6      1542.925    24152106.020   126920167.159 3      1542.925    24152119.540    98898855.809 3      1202.279    24152118.320    98898873.806 5      1202.279
G10  23613929.860   124092021.289 7        35.063    23613927.840   124092021.288 6        35.063    23613938.140    96695128.176 6        27.322    23613938.400    96695131.153 7        27.322
R02  21975451.160   117265227.221 7      5031.883    21975443.840   117265227.211 7      5031.883    21975457.700    91206314.076 7      3913.687    21975458.740    91206316.077 7      3913.687
R16  22005125.280   117547399.673 7      5270.436    22005125.840   117547399.672 7      5270.436    22005137.780    91425845.438 7      4099.228    22005137.620    91425819.445 7      4099.228
G16  23405730.340   122997934.405 6      -780.113    23405728.820   122997934.407 5      -780.113    23405742.640    95842581.308 5      -607.880
R14  22123430.200   117930316.453 6     -1455.117    22123429.660   117930316.445 6     -1455.117    22123448.440    91723663.520 7     -1131.758    22123447.720    91723663.501 7     -1131.758
> 2025 04 04 15 12 40.0000000  0 15
R01  22607536.200   120850232.071 6      1913.974    22607536.620   120850232.075 6      1913.974    22607550.980    93994628.869 6      1488.646    22607550.440    93994629.119 6      1488.646
G02  21113543.000   110952412.892 8      2077.186    21113541.880   110952412.894 6      2077.186    21113544.740    86456428.967 6      1618.587
R24  23053802.740   123279035.670 7       542.567    23053801.340   123279035.674 6       542.567    23053816.520    95883749.917 7       421.997    23053817.040    95883765.913 7       421.997
G08  20609685.740   108304624.255 8      2961.178    20609684.380   108304624.257 8      2961.178    20609692.000    84393241.050 8      2307.411    20609692.540    84393246.059 8      2307.411
R15  20028807.100   107027864.638 8      1408.106    20028807.060   107027864.645 7      1408.106    20028818.660    83243939.961 8      1095.194    20028818.140    83243940.963 8      1095.194
G01  21389959.560   112404993.710 7      3829.686    21389958.440   112404993.715 6      3829.686    21389964.220    87588329.319 6      2984.171    21389964.840    87588331.324 8      2984.171
G27  21871823.000   114937201.436 7      1129.831    21871821.920   114937201.428 7      1129.831    21871831.080    89561490.964 7       880.388    21871831.200    89561485.969 8       880.388
R17  20704455.720   110793726.521 7      2002.569    20704455.820   110793726.538 7      2002.569    20704467.160    86172940.626 8      1557.553    20704466.700    86172939.626 8      1557.553
R18  21710476.720   115891983.721 7      3752.143    21710477.820   115891983.725 7      3752.143    21710490.620    90138286.361 7      2918.334    21710490.260    90138278.361 8      2918.334
G07  24151812.520   126918624.066 6      1543.271    24151812.460   126918624.071 3      1543.271    24151825.660    98897653.396 3      1202.549    24151824.520    98897671.370 5      1202.549
G10  23613922.700   124091985.985 7        35.425    23613920.880   124091985.988 6        35.425    23613931.260    96695100.669 6        27.604    23613931.500    96695103.650 7        27.604
R02  21974508.140   117260195.173 7      5031.995    21974500.820   117260195.155 7      5031.995    21974514.560    91202400.261 7      3913.774    21974515.760    91202402.257 7      3913.774
R16  22004139.220   117542129.097 7      5270.565    22004139.120   117542129.103 7      5270.565    22004151.140    91421746.111 7      4099.328    22004151.180    91421720.118 7      4099.328
G16  23405878.560   122998714.347 6      -779.746    23405877.240   122998714.352 5      -779.746    23405891.080    95843189.049 5      -607.594
R14  22123703.140   117931771.155 6     -1454.497    22123702.800   117931771.143 6     -1454.497    22123721.160    91724794.949 7     -1131.276    22123721.100    91724794.921 6     -1131.276
> 2025 04 04 15 12 41.0000000  0 15
R01  22607178.680   120848318.193 6      1914.079    22607179.040   120848318.202 6      1914.079    22607192.760    93993142.419 6      1488.728    22607191.900    93993142.669 6      1488.728
G02  21113147.680   110950335.547 7      2077.804    21113146.520   110950335.550 6      2077.804    21113149.500    86454810.265 6      1619.068
R24  23053701.420   123278492.676 7       543.473    23053699.600   123278492.675 7       543.473    23053714.780    95883327.583 7       422.701    23053715.700    95883343.573 7       422.701
G08  20609122.060   108301662.866 7      2961.707    20609120.820   108301662.869 8      2961.707    20609128.500    84390933.485 8      2307.824    20609129.060    84390938.495 8      2307.824
R15  20028543.700   107026456.604 8      1408.137    20028543.600   107026456.610 7      1408.137    20028555.040    83242844.829 8      1095.218    20028554.800    83242845.831 8      1095.218
G01  21389230.700   112401163.846 7      3830.266    21389229.600   112401163.851 6      3830.266    21389235.360    87585345.019 6      2984.623    21389236.060    87585347.030 8      2984.623
G27  21871608.000   114936071.438 7      1130.352    21871606.860   114936071.433 7      1130.352    21871616.260    89560610.454 7       880.794    21871616.400    89560605.455 8       880.794
R17  20704081.520   110791723.638 7      2003.343    20704081.380   110791723.658 8      2003.343    20704092.900    86171382.839 8      1558.156    20704092.320    86171381.839 8      1558.156
R18  21709773.780   115888231.540 7      3752.660    21709774.920   115888231.535 7      3752.660    21709787.800    90135368.004 7      2918.736    21709787.340    90135360.008 8      2918.736
G07  24151518.460   126917080.678 6      1543.880    24151518.800   126917080.680 3      1543.880    24151531.900    98896450.750 3      1203.023    24151531.220    98896468.753 5      1203.023
G10  23613915.820   124091950.453 6        35.848    23613914.180   124091950.450 6        35.848    23613924.800    96695072.976 6        27.934    23613924.820    96695075.953 7        27.934
R02  21973565.120   117255163.035 7      5032.375    21973557.240   117255163.017 7      5032.375    21973571.560    91198486.389 7      3914.069    21973572.600    91198488.394 7      3914.069
R16  22003152.280   117536858.619 7      5270.632    22003152.240   117536858.625 7      5270.632    22003164.580    91417646.865 8      4099.380    22003164.440    91417620.872 8      4099.380
G16  23406027.080   122999493.858 7      -779.066    23406025.460   122999493.862 5      -779.066    23406039.420    95843796.456 5      -607.065
R14  22123975.560   117933225.437 6     -1453.561    22123975.480   117933225.427 6     -1453.561    22123994.620    91725926.034 6     -1130.548    22123993.880    91725926.019 6     -1130.548
> 2025 04 04 15 12 42.0000000  0 15
R01  22606820.940   120846404.259 6      1913.814    22606820.860   120846404.271 6      1913.814    22606834.420    93991655.055 6      1488.522    22606833.800    93991655.305 6      1488.522
G02  21112752.460   110948257.596 8      2078.007    21112751.000   110948257.598 6      2078.007    21112754.140    86453191.091 6      1619.226
R24  23053599.480   123277948.750 6       544.169    23053598.040   123277948.746 6       544.169    23053613.000    95882904.529 7       423.243    23053614.100    95882920.521 7       423.243
G08  20608558.360   108298700.902 8      2962.000    20608557.340   108298700.905 8      2962.000    20608564.780    84388625.465 8      2308.052    20608565.360    84388630.478 8      2308.052
R15  20028280.160   107025048.598 8      1407.705    20028280.400   107025048.600 8      1407.705    20028291.580    83241749.711 8      1094.882    20028291.300    83241750.716 8      1094.882
G01  21388502.080   112397333.537 7      3830.336    21388500.740   112397333.542 6      3830.336    21388506.620    87582360.377 6      2984.678    21388506.980    87582362.384 8      2984.678
G27  21871392.940   114934940.852 7      1130.657    21871391.760   114934940.851 7      1130.657    21871401.020    89559729.486 7       881.032    21871401.160    89559724.490 8       881.032
R17  20703707.040   110789719.990 7      2003.778    20703707.080   110789720.013 8      2003.778    20703718.320    86169824.453 8      1558.494    20703717.940    86169823.452 8      1558.494
R18  21709070.860   115884478.619 7      3753.170    21709072.120   115884478.617 7      3753.170    21709084.820    90132449.080 8      2919.132    21709084.120    90132441.080 8      2919.132
G07  24151224.640   126915536.801 6      1543.877    24151225.240   126915536.808 3      1543.877    24151237.960    98895247.727 3      1203.021    24151238.060    98895265.756 5      1203.021
G10  23613908.860   124091914.477 7        35.859    23613907.580   124091914.474 6        35.859    23613918.300    96695044.947 6        27.942    23613917.840    96695047.934 7        27.942
R02  21972621.840   117250130.569 7      5032.526    21972614.200   117250130.556 7      5032.526    21972628.300    91194572.273 7      3914.187    21972629.040    91194574.272 7      3914.187
R16  22002165.680   117531587.954 7      5270.504    22002165.900   117531587.955 7      5270.504    22002177.800    91413547.465 7      4099.281    22002177.780    91413521.470 7      4099.281
G16  23406175.000   123000272.722 6      -778.679    23406173.620   123000272.722 5      -778.679    23406187.820    95844403.351 5      -606.763
R14  22124248.480   117934679.105 6     -1453.673    22124247.580   117934679.103 6     -1453.673    22124267.300    91727056.673 7     -1130.635    22124266.780    91727056.658 7     -1130.635
> 2025 04 04 15 12 43.0000000  0 15
R01  22606462.620   120844490.581 6      1913.567    22606462.100   120844490.609 6      1913.567    22606477.000    93990165.280 6      1488.330    22606476.100    93990165.530 6      1488.330
G02  21112356.940   110946179.308 8      2078.568    21112355.700   110946179.310 6      2078.568    21112358.640    86451571.652 6      1619.663
R24  23053497.720   123277404.179 6       545.065    23053495.940   123277404.191 6       545.065    23053511.680    95882480.998 7       423.939    23053512.220    95882496.995 7       423.939
G08  20607994.600   108295738.655 8      2962.512    20607993.540   108295738.657 8      2962.512    20608001.200    84386317.233 8      2308.451    20608001.580    84386322.245 8      2308.451
R15  20028016.820   107023640.847 8      1407.803    20028016.680   107023640.843 7      1407.803    20028028.180    83240654.798 8      1094.958    20028027.680    83240655.802 8      1094.958
G01  21387773.040   112393503.013 7      3830.761    21387771.720   112393503.018 6      3830.761    21387777.860    87579375.564 6      2985.008    21387778.280    87579377.572 8      2985.008
G27  21871177.820   114933809.976 7      1131.146    21871176.660   114933809.978 7      1131.146    21871185.820    89558848.288 7       881.412    21871186.060    89558843.291 8       881.412
R17  20703332.360   110787715.858 8      2004.517    20703332.780   110787715.881 7      2004.517    20703343.740    86168265.692 8      1559.068    20703343.340    86168264.695 8      1559.068
R18  21708367.800   115880725.336 7      3753.688    21708369.060   115880725.331 7      3753.688    21708381.600    90129529.874 7      2919.535    21708381.240    90129521.878 8      2919.535
G07  24150931.160   126913992.685 6      1544.294    24150931.420   126913992.695 3      1544.294    24150944.080    98894044.519 3      1203.346    24150943.460    98894062.551 5      1203.346
G10  23613902.160   124091878.289 7        36.483    23613900.540   124091878.286 6        36.483    23613911.580    96695016.752 6        28.428    23613911.760    96695019.735 7        28.428
R02  21971678.620   117245098.113 7      5032.616    21971671.520   117245098.098 7      5032.616    21971685.360    91190658.153 7      3914.257    21971685.880    91190660.147 7      3914.257
R16  22001178.900   117526317.404 7      5270.666    22001179.360   117526317.408 7      5270.666    22001191.000    91409448.155 8      4099.407    22001190.880    91409422.161 7      4099.407
G16  23406323.140   123001051.253 6      -778.195    23406321.920   123001051.258 5      -778.195    23406335.980    95845009.993 4      -606.386
R14  22124521.580   117936132.427 6     -1453.028    22124519.640   117936132.433 6     -1453.028    22124539.880    91728187.025 7     -1130.133    22124539.560    91728187.007 7     -1130.133
> 2025 04 04 15 12 44.0000000  0 15
R01  22606104.380   120842577.069 6      1913.279    22606103.960   120842577.084 6      1913.279    22606119.320    93988675.837 6      1488.106    22606117.980    93988676.087 6      1488.106
G02  21111961.380   110944100.645 8      2078.842    21111960.120   110944100.647 6      2078.842    21111963.220    86449951.918 6      1619.877
R24  23053395.800   123276858.924 6       545.561    23053395.180   123276858.930 6       545.561    23053409.500    95882056.911 7       424.326    23053410.660    95882072.903 7       424.326
G08  20607430.840   108292776.068 8      2962.678    20607429.760   108292776.068 8      2962.678    20607437.420    84384008.726 8      2308.581    20607437.920    84384013.738 8      2308.581
R15  20027753.680   107022233.341 8      1407.306    20027753.180   107022233.337 7      1407.306    20027764.820    83239560.075 8      1094.572    20027764.580    83239561.077 8      1094.572
G01  21387044.000   112389672.255 7      3830.805    21387042.680   112389672.257 6      3830.805    21387048.780    87576390.566 6      2985.043    21387049.100    87576392.576 8      2985.043
G27  21870962.440   114932678.769 7      1131.267    21870961.340   114932678.774 7      1131.267    21870970.500    89557966.834 7       881.507    21870970.900    89557961.839 8       881.507
R17  20702957.820   110785711.207 8      2004.802    20702957.840   110785711.229 7      2004.802    20702969.420    86166706.525 8      1559.291    20702968.440    86166705.524 8      1559.291
R18  21707664.440   115876971.633 7      3753.871    21707665.880   115876971.629 7      3753.871    21707678.500    90126610.325 8      2919.678    21707678.020    90126602.330 8      2919.678
G07  24150637.160   126912448.256 6      1544.738    24150637.500   126912448.269 3      1544.738    24150650.300    98892841.066 3      1203.692    24150650.400    98892859.068 5      1203.692
G10  23613895.060   124091841.908 7        36.479    23613893.860   124091841.908 6        36.479    23613904.400    96694988.409 6        28.425    23613904.460    96694991.393 7        28.425
R02  21970735.800   117240065.572 7      5032.483    21970728.460   117240065.552 7      5032.483    21970742.240    91186743.961 7      3914.154    21970742.780    91186745.960 7      3914.154
R16  22000192.320   117521046.956 7      5270.361    22000192.460   117521046.959 7      5270.361    22000204.460    91405348.928 7      4099.170    22000204.500    91405322.936 7      4099.170
G16  23406471.320   123001829.342 7      -777.931    23406470.140   123001829.339 4      -777.931    23406483.920    95845616.288 4      -606.180
R14  22124794.040   117937585.467 6     -1452.983    22124792.660   117937585.449 6     -1452.983    22124812.740    91729317.127 7     -1130.098    22124812.540    91729317.103 7     -1130.098
> 2025 04 04 15 12 45.0000000  0 15
R01  22605746.740   120840663.886 6      1913.080    22605746.620   120840663.914 6      1913.080    22605761.060    93987188.888 6      1487.951    22605760.220    93987189.138 6      1487.951
G02  21111565.860   110942021.747 8      2078.986    21111564.340   110942021.750 6      2078.986    21111567.480    86448332.009 6      1619.989
R24  23053293.440   123276313.150 7       546.000    23053292.840   123276313.156 7       546.000    23053307.640    95881632.420 7       424.667    23053308.520    95881648.414 7       424.667
G08  20606867.320   108289813.284 8      2962.966    20606866.000   108289813.284 8      2962.966    20606873.640    84381700.067 8      2308.804    20606873.920    84381705.079 8      2308.804
R15  20027490.120   107020826.186 8      1406.924    20027489.740   107020826.187 7      1406.924    20027501.520    83238465.627 8      1094.274    20027501.160    83238466.629 8      1094.274
G01  21386314.920   112385841.381 7      3830.903    21386313.640   112385841.386 6      3830.903    21386319.760    87573405.480 6      2985.120    21386320.400    87573407.490 8      2985.120
G27  21870747.260   114931547.334 7      1131.569    21870746.200   114931547.333 7      1131.569    21870755.120    89557085.198 7       881.742    21870755.600    89557080.201 8       881.742
R17  20702583.040   110783706.170 8      2005.180    20702583.160   110783706.201 7      2005.180    20702594.520    86165147.068 8      1559.584    20702593.860    86165146.068 8      1559.584
R18  21706961.460   115873217.629 7      3754.158    21706962.760   115873217.616 7      3754.158    21706975.080    90123690.559 8      2919.901    21706974.800    90123682.565 8      2919.901
G07  24150343.020   126910903.772 6      1544.558    24150343.540   126910903.782 3      1544.558    24150356.380    98891637.566 3      1203.552    24150356.760    98891655.570 5      1203.552
G10  23613888.480   124091805.438 6        36.473    23613886.660   124091805.438 6        36.473    23613897.100    96694960.003 6        28.420    23613897.080    96694962.987 7        28.420
R02  21969792.740   117235033.093 7      5032.396    21969785.200   117235033.075 7      5032.396    21969799.340    91182829.831 7      3914.086    21969800.020    91182831.830 7      3914.086
R16  21999205.620   117515776.718 7      5270.126    21999205.520   117515776.725 7      5270.126    21999217.660    91401249.864 7      4098.987    21999217.900    91401223.869 7      4098.987
G16  23406619.540   123002607.222 7      -777.742    23406618.180   123002607.221 4      -777.742    23406631.980    95846222.422 4      -606.033
R14  22125066.400   117939038.264 6     -1452.808    22125065.420   117939038.222 6     -1452.808    22125085.060    91730447.051 7     -1129.962    22125085.080    91730447.023 7     -1129.962
> 2025 04 04 15 12 46.0000000  0 15
R01  22605388.800   120838750.964 6      1912.820    22605388.740   120838750.979 6      1912.820    22605403.500    93985700.692 6      1487.749    22605402.500    93985700.942 6      1487.749
G02  21111170.120   110939942.498 7      2079.452    21111168.760   110939942.500 6      2079.452    21111171.980    86446711.822 6      1620.352
R24  23053191.180   123275766.744 7       546.711    23053191.120   123275766.743 7       546.711    23053205.520    95881207.434 7       425.220    23053206.120    95881223.429 7       425.220
G08  20606303.520   108286850.227 8      2963.270    20606302.040   108286850.227 8      2963.270    20606309.800    84379391.196 8      2309.042    20606310.120    84379396.206 8      2309.042
R15  20027226.860   107019419.302 8      1406.848    20027226.720   107019419.304 7      1406.848    20027238.140    83237371.385 8      1094.215    20027237.800    83237372.391 8      1094.215
G01  21385585.820   112382010.313 7      3831.148    21385584.520   112382010.318 6      3831.148    21385590.680    87570420.240 6      2985.310    21385591.380    87570422.251 8      2985.310
G27  21870531.980   114930415.614 7      1131.900    21870530.640   114930415.614 7      1131.900    21870539.840    89556203.335 7       882.000    21870540.260    89556198.344 8       882.000
R17  20702208.180   110781700.639 7      2005.845    20702208.280   110781700.664 8      2005.845    20702219.740    86163587.211 8      1560.102    20702219.180    86163586.212 8      1560.102
R18  21706257.960   115869463.208 7      3754.667    21706258.820   115869463.204 7      3754.667    21706271.980    90120770.456 8      2920.296    21706271.380    90120762.462 8      2920.296
G07  24150049.760   126909359.018 6      1544.772    24150049.440   126909359.028 3      1544.772    24150062.500    98890433.860 3      1203.718    24150062.780    98890451.871 5      1203.718
G10  23613881.780   124091768.766 6        36.908    23613879.920   124091768.765 6        36.908    23613890.020    96694931.426 6        28.760    23613890.440    96694934.405 7        28.760
R02  21968849.540   117230000.589 7      5032.586    21968842.120   117230000.566 7      5032.586    21968856.080    91178915.666 7      3914.234    21968857.220    91178917.669 7      3914.234
R16  21998219.100   117510506.574 7      5270.132    21998218.960   117510506.581 7      5270.132    21998231.200    91397150.870 7      4098.992    21998231.340    91397124.876 7      4098.992
G16  23406767.740   123003384.699 7      -777.300    23406766.160   123003384.701 4      -777.300    23406780.020    95846828.244 4      -605.688
R14  22125338.640   117940490.594 6     -1451.994    22125337.260   117940490.581 6     -1451.994    22125357.740    91731576.658 7     -1129.329    22125357.380    91731576.639 7     -1129.329
> 2025 04 04 15 12 47.0000000  0 15
R01  22605030.540   120836838.094 6      1912.963    22605030.320   120836838.106 6      1912.963    22605045.280    93984211.166 6      1487.860    22605044.560    93984211.416 6      1487.860
G02  21110774.240   110937862.763 8      2079.960    21110772.940   110937862.770 6      2079.960    21110776.220    86445091.257 6      1620.748
R24  23053089.100   123275219.529 7       547.678    23053088.920   123275219.533 6       547.678    23053103.040    95880781.822 7       425.972    23053103.980    95880797.813 7       425.972
G08  20605739.560   108283886.700 8      2963.768    20605738.180   108283886.702 8      2963.768    20605745.820    84377081.958 8      2309.430    20605746.480    84377086.970 8      2309.430
R15  20026963.500   107018012.588 7      1406.622    20026963.340   107018012.602 8      1406.622    20026974.820    83236277.290 8      1094.039    20026974.440    83236278.294 8      1094.039
G01  21384856.740   112378178.859 7      3831.696    21384855.500   112378178.859 6      3831.696    21384861.620    87567434.699 6      2985.737    21384862.340    87567436.712 8      2985.737
G27  21870316.520   114929283.430 7      1132.393    21870315.400   114929283.430 7      1132.393    21870324.400    89555321.118 7       882.384    21870324.960    89555316.122 8       882.384
R17  20701833.440   110779694.494 8      2006.486    20701833.220   110779694.509 7      2006.486    20701844.860    86162026.880 8      1560.600    20701844.060    86162025.884 8      1560.600
R18  21705554.680   115865708.222 7      3755.387    21705555.540   115865708.214 7      3755.387    21705568.300    90117849.923 7      2920.857    21705568.320    90117841.923 8      2920.857
G07  24149755.400   126907813.869 6      1545.321    24149755.460   126907813.882 3      1545.321    24149768.480    98889229.842 3      1204.147    24149769.100    98889247.834 5      1204.147
G10  23613874.800   124091731.797 7        37.092    23613872.920   124091731.796 6        37.092    23613883.180    96694902.616 6        28.903    23613883.320    96694905.606 7        28.903
R02  21967906.500   117224967.880 7      5032.788    21967899.000   117224967.870 7      5032.788    21967913.000    91175001.357 7      3914.391    21967913.940    91175003.359 7      3914.391
R16  21997232.480   117505236.404 7      5270.213    21997232.040   117505236.410 7      5270.213    21997244.240    91393051.859 7      4099.055    21997244.520    91393025.867 7      4099.055
G16  23406915.500   123004161.669 7      -776.737    23406913.980   123004161.671 4      -776.737    23406927.840    95847433.667 4      -605.249
R14  22125611.980   117941942.493 6     -1451.587    22125610.420   117941942.485 6     -1451.587    22125630.840    91732705.904 7     -1129.012    22125630.180    91732705.885 7     -1129.012
> 2025 04 04 15 12 48.0000000  0 15
R01  22604672.920   120834925.474 6      1912.346    22604672.640   120834925.489 6      1912.346    22604687.460    93982724.301 6      1487.380    22604686.400    93982724.551 6      1487.380
G02  21110378.500   110935782.722 7      2079.886    21110377.200   110935782.730 7      2079.886    21110380.440    86443470.455 6      1620.691
R24  23052986.240   123274671.699 7       547.841    23052986.900   123274671.717 7       547.841    23053000.920    95880355.745 7       426.099    23053001.560    95880371.747 7       426.099
G08  20605175.520   108280922.923 8      2963.615    20605174.200   108280922.928 8      2963.615    20605181.920    84374772.533 8      2309.311    20605182.600    84374777.544 8      2309.311
R15  20026700.400   107016606.212 8      1405.897    20026700.020   107016606.216 8      1405.897    20026711.400    83235183.438 8      1093.476    20026711.420    83235184.444 8      1093.476
G01  21384127.600   112374347.258 7      3831.467    21384126.500   112374347.265 6      3831.467    21384132.760    87564449.048 6      2985.559    21384133.140    87564451.063 8      2985.559
G27  21870100.960   114928150.975 7      1132.344    21870100.100   114928150.975 7      1132.344    21870108.820    89554438.690 7       882.346    21870109.160    89554433.690 8       882.346
R17  20701458.480   110777687.890 8      2006.529    20701458.360   110777687.907 7      2006.529    20701470.080    86160466.196 8      1560.633    20701469.280    86160465.200 8      1560.633
R18  21704851.180   115861952.891 7      3755.303    21704852.380   115861952.886 7      3755.303    21704864.900    90114929.125 8      2920.791    21704864.800    90114921.125 8      2920.791
G07  24149461.560   126906268.511 6      1545.172    24149461.280   126906268.521 3      1545.172    24149474.440    98888025.662 3      1204.030    24149475.340    98888043.657 5      1204.030
G10  23613867.860   124091694.644 7        37.066    23613865.900   124091694.641 6        37.066    23613876.180    96694873.664 6        28.883    23613876.660    96694876.643 7        28.883
R02  21966963.720   117219935.168 7      5032.360    21966956.100   117219935.153 7      5032.360    21966969.960    91171087.045 7      3914.058    21966970.560    91171089.048 7      3914.058
R16  21996246.020   117499966.399 7      5269.597    21996245.780   117499966.405 7      5269.597    21996257.840    91388952.976 7      4098.575    21996258.080    91388926.983 7      4098.575
G16  23407063.460   123004938.303 6      -776.754    23407061.880   123004938.303 4      -776.754    23407075.640    95848038.832 4      -605.263
R14  22125884.180   117943394.072 6     -1451.633    22125882.620   117943394.051 6     -1451.633    22125903.040    91733834.879 7     -1129.048    22125902.480    91733834.868 7     -1129.048
> 2025 04 04 15 12 49.0000000  0 15
R01  22604314.940   120833013.171 6      1912.277    22604314.560   120833013.185 6      1912.277    22604329.920    93981235.939 6      1487.326    22604328.860    93981236.189 6      1487.326
G02  21109982.720   110933702.390 7      2080.516    21109981.240   110933702.401 6      2080.516    21109984.480    86441849.425 6      1621.181
R24  23052883.600   123274123.265 7       548.757    23052884.140   123274123.266 7       548.757    23052898.260    95879929.180 7       426.811    23052898.860    95879945.177 7       426.811
G08  20604611.560   108277958.902 8      2964.168    20604610.140   108277958.906 8      2964.168    20604617.980    84372462.910 8      2309.742    20604618.640    84372467.925 8      2309.742
R15  20026437.160   107015200.149 7      1405.941    20026437.020   107015200.150 7      1405.941    20026448.300    83234089.840 8      1093.509    20026448.300    83234090.842 8      1093.509
G01  21383398.420   112370515.504 7      3831.890    21383397.340   112370515.506 6      3831.890    21383403.460    87561463.274 6      2985.888    21383404.060    87561465.287 8      2985.888
G27  21869885.380   114927018.255 7      1132.926    21869884.420   114927018.255 7      1132.926    21869893.200    89553556.050 7       882.800    21869893.380    89553551.055 8       882.800
R17  20701083.500   110775680.820 7      2007.244    20701083.140   110775680.835 7      2007.244    20701095.100    86158905.150 8      1561.190    20701094.400    86158904.154 8      1561.190
R18  21704147.320   115858197.205 7      3755.867    21704148.660   115858197.209 7      3755.867    21704161.260    90112008.044 8      2921.230    21704160.980    90112000.047 8      2921.230
G07  24149167.100   126904722.997 6      1545.694    24149167.220   126904723.004 3      1545.694    24149180.300    98886821.359 3      1204.437    24149181.100    98886839.336 5      1204.437
G10  23613860.480   124091657.375 6        37.480    23613858.780   124091657.367 6        37.480    23613869.080    96694844.623 6        29.205    23613869.700    96694847.607 7        29.205
R02  21966020.700   117214902.486 7      5032.688    21966012.520   117214902.471 7      5032.688    21966026.900    91167172.744 7      3914.313    21966027.600    91167174.748 7      3914.313
R16  21995259.620   117494696.567 7      5269.771    21995259.260   117494696.576 7      5269.771    21995271.340    91384854.227 7      4098.711    21995271.660    91384828.231 7      4098.711
G16  23407211.200   123005714.624 6      -776.109    23407209.620   123005714.626 4      -776.109    23407223.260    95848643.751 4      -604.760
R14  22126156.360   117944845.312 6     -1450.793    22126154.560   117944845.297 6     -1450.793    22126175.060    91734963.607 7     -1128.395    22126174.800    91734963.590 7     -1128.395
> 2025 04 04 15 12 50.0000000  0 15
R01  22603957.540   120831101.054 6      1911.996    22603957.500   120831101.060 6      1911.996    22603972.360    93979749.989 6      1487.108    22603970.900    93979750.239 6      1487.108
G02  21109586.680   110931621.704 7      2080.786    21109585.160   110931621.709 6      2080.786    21109588.540    86440228.115 6      1621.392
R24  23052781.100   123273574.132 7       549.303    23052781.240   123273574.139 7       549.303    23052795.240    95879502.090 7       427.236    23052796.380    95879518.093 7       427.236
G08  20604047.300   108274994.544 8      2964.478    20604046.000   108274994.549 8      2964.478    20604053.780    84370153.030 8      2309.983    20604054.700    84370158.044 8      2309.983
R15  20026174.200   107013794.319 8      1405.628    20026173.940   107013794.317 7      1405.628    20026185.180    83232996.416 8      1093.266    20026185.040    83232997.420 8      1093.266
G01  21382669.260   112366683.503 7      3832.115    21382668.080   112366683.505 6      3832.115    21382674.360    87558477.310 6      2986.064    21382675.000    87558479.323 8      2986.064
G27  21869669.800   114925885.219 7      1133.112    21869668.800   114925885.222 7      1133.112    21869677.600    89552673.176 7       882.944    21869677.860    89552668.176 8       882.944
R17  20700708.740   110773673.242 8      2007.708    20700708.000   110773673.256 7      2007.708    20700720.100    86157343.711 8      1561.551    20700719.040    86157342.714 8      1561.551
R18  21703443.720   115854441.058 7      3756.304    21703445.020   115854441.061 7      3756.304    21703457.580    90109086.607 8      2921.570    21703457.520    90109078.611 8      2921.570
G07  24148873.300   126903177.173 6      1545.845    24148873.060   126903177.180 3      1545.845    24148885.860    98885616.821 3      1204.554    24148887.180    98885634.834 5      1204.554
G10  23613853.280   124091619.872 6        37.578    23613851.820   124091619.875 6        37.578    23613861.980    96694815.413 6        29.282    23613862.340    96694818.410 7        29.282
R02  21965077.620   117209869.726 7      5032.707    21965069.440   117209869.722 7      5032.707    21965083.380    91163258.411 7      3914.328    21965084.320    91163260.416 7      3914.328
R16  21994272.800   117489426.850 7      5269.632    21994272.760   117489426.854 7      5269.632    21994284.980    91380755.564 7      4098.603    21994284.880    91380729.569 7      4098.603
G16  23407358.900   123006490.572 7      -775.956    23407357.440   123006490.574 4      -775.956    23407370.940    95849248.382 4      -604.641
R14  22126428.680   117946296.225 6     -1450.742    22126426.820   117946296.217 6     -1450.742    22126447.480    91736092.095 7     -1128.355    22126446.800    91736092.071 7     -1128.355
> 2025 04 04 15 12 51.0000000  0 15
R01  22603599.380   120829189.308 6      1911.814    22603599.920   120829189.326 6      1911.814    22603614.320    93978260.878 6      1486.966    22603613.980    93978261.128 6      1486.966
G02  21109190.960   110929540.825 7      2081.095    21109189.160   110929540.830 6      2081.095    21109192.480    86438606.662 6      1621.632
R24  23052677.820   123273024.540 7       550.038    23052678.980   123273024.552 7       550.038    23052692.660    95879074.638 7       427.808    23052693.160    95879090.647 7       427.808
G08  20603483.120   108272030.044 8      2964.798    20603481.820   108272030.049 8      2964.798    20603489.640    84367843.040 8      2310.233    20603490.500    84367848.052 8      2310.233
R15  20025910.780   107012388.900 8      1405.371    20025911.100   107012388.904 7      1405.371    20025922.100    83231903.323 8      1093.066    20025922.280    83231904.329 8      1093.066
G01  21381940.460   112362851.458 7      3832.239    21381938.820   112362851.463 6      3832.239    21381945.140    87555491.315 6      2986.160    21381945.400    87555493.332 8      2986.160
G27  21869454.360   114924752.010 7      1133.558    21869453.140   114924752.010 7      1133.558    21869461.940    89551790.156 7       883.292    21869462.280    89551785.158 8       883.292
R17  20700333.700   110771665.353 7      2008.295    20700333.160   110771665.362 7      2008.295    20700344.920    86155782.026 8      1562.007    20700343.700    86155781.031 8      1562.007
R18  21702740.320   115850684.675 7      3756.729    21702741.180   115850684.681 7      3756.729    21702753.880    90106164.995 7      2921.901    21702753.960    90106156.995 8      2921.901
G07  24148579.380   126901631.286 6      1546.205    24148578.700   126901631.296 3      1546.205    24148591.900    98884412.230 3      1204.835    24148593.080    98884430.237 5      1204.835
G10  23613846.100   124091582.349 7        37.848    23613844.640   124091582.348 6        37.848    23613854.980    96694786.184 6        29.492    23613854.740    96694789.177 7        29.492
R02  21964134.080   117204837.143 7      5032.659    21964126.320   117204837.127 7      5032.659    21964140.560    91159344.187 7      3914.290    21964141.360    91159346.187 7      3914.290
R16  21993286.540   117484157.430 7      5269.461    21993286.240   117484157.431 7      5269.461    21993298.580    91376657.139 7      4098.469    21993298.860    91376631.143 8      4098.469
G16  23407506.560   123007266.278 7      -775.487    23407505.020   123007266.281 4      -775.487    23407518.860    95849852.820 4      -604.276
R14  22126701.100   117947746.985 6     -1450.458    22126699.340   117947746.975 6     -1450.458    22126719.680    91737220.443 7     -1128.134    22126719.020    91737220.426 7     -1128.134
> 2025 04 04 15 12 52.0000000  0 15
R01  22603241.840   120827277.758 6      1911.779    22603243.080   120827277.775 6      1911.779    22603257.160    93976774.346 6      1486.940    22603255.900    93976774.596 6      1486.940
G02  21108794.860   110927459.569 7      2081.566    21108793.100   110927459.573 6      2081.566    21108796.580    86436984.903 6      1622.000
R24  23052575.120   123272474.288 7       550.666    23052575.300   123272474.305 7       550.666    23052590.280    95878646.664 7       428.296    23052591.120    95878662.673 7       428.296
G08  20602919.040   108269065.222 8      2965.205    20602917.620   108269065.229 8      2965.205    20602925.480    84365532.793 8      2310.549    20602926.360    84365537.809 8      2310.549
R15  20025648.080   107010983.727 8      1405.230    20025647.880   107010983.728 8      1405.230    20025659.120    83230810.412 8      1092.957    20025658.940    83230811.419 8      1092.957
G01  21381210.880   112359019.165 7      3832.600    21381209.620   112359019.170 6      3832.600    21381215.860    87552505.121 6      2986.442    21381216.420    87552507.134 8      2986.442
G27  21869238.600   114923618.473 7      1133.865    21869237.480   114923618.478 7      1133.865    21869246.200    89550906.890 7       883.531    21869246.420    89550901.888 8       883.531
R17  20699958.240   110769656.932 8      2008.854    20699957.700   110769656.949 8      2008.854    20699969.700    86154219.933 8      1562.442    20699968.620    86154218.938 8      1562.442
R18  21702036.420   115846927.868 7      3757.200    21702037.400   115846927.877 7      3757.200    21702050.160    90103243.040 7      2922.266    21702049.720    90103235.040 8      2922.266
G07  24148285.060   126900085.149 6      1546.443    24148284.520   126900085.160 3      1546.443    24148297.560    98883207.446 3      1205.020    24148299.300    98883225.421 5      1205.020
G10  23613838.840   124091544.631 7        37.973    23613837.380   124091544.628 6        37.973    23613847.820    96694756.793 6        29.589    23613848.040    96694759.789 7        29.589
R02  21963191.040   117199804.420 7      5032.988    21963183.360   117199804.408 7      5032.988    21963197.240    91155429.864 7      3914.546    21963198.040    91155431.862 7      3914.546
R16  21992299.940   117478888.112 7      5269.430    21992299.600   117478888.115 7      5269.430    21992312.200    91372558.786 7      4098.445    21992312.420    91372532.791 8      4098.445
G16  23407653.920   123008041.601 7      -774.950    23407652.660   123008041.601 5      -774.950    23407666.480    95850456.960 4      -603.857
R14  22126972.840   117949197.335 6     -1449.869    22126970.880   117949197.312 6     -1449.869    22126991.440    91738348.479 7     -1127.676    22126992.020    91738348.457 7     -1127.676
> 2025 04 04 15 12 53.0000000  0 15
R01  22602884.480   120825366.323 6      1911.506    22602885.180   120825366.345 6      1911.506    22602899.060    93975288.561 6      1486.727    22602898.500    93975288.811 6      1486.727
G02  21108398.740   110925377.820 7      2082.157    21108397.000   110925377.823 6      2082.157    21108400.380    86435362.766 6      1622.460
R24  23052472.400   123271923.233 7       551.534    23052472.100   123271923.240 7       551.534    23052487.280    95878218.057 7       428.971    23052487.920    95878234.064 7       428.971
G08  20602354.980   108266099.973 8      2965.519    20602353.460   108266099.973 8      2965.519    20602361.240    84363222.216 8      2310.794    20602362.060    84363227.230 8      2310.794
R15  20025385.200   107009578.700 8      1405.113    20025384.860   107009578.702 7      1405.113    20025396.100    83229717.618 8      1092.865    20025396.140    83229718.625 8      1092.865
G01  21380481.780   112355186.529 7      3832.911    21380480.300   112355186.536 6      3832.911    21380486.540    87549518.661 6      2986.684    21380487.080    87549520.672 8      2986.684
G27  21869022.740   114922484.476 7      1134.394    21869021.600   114922484.475 7      1134.394    21869030.480    89550023.258 7       883.944    21869030.720    89550018.258 8       883.944
R17  20699582.420   110767647.895 8      2009.429    20699582.240   110767647.918 8      2009.429    20699594.240    86152657.361 8      1562.889    20699593.380    86152656.363 8      1562.889
R18  21701332.620   115843170.507 7      3757.746    21701333.320   115843170.507 7      3757.746    21701346.140    90100320.649 7      2922.692    21701346.060    90100312.650 8      2922.692
G07  24147990.880   126898538.621 6      1546.731    24147990.360   126898538.629 3      1546.731    24148003.380    98882002.357 3      1205.245    24148004.260    98882020.350 5      1205.245
G10  23613831.880   124091506.590 7        38.135    23613830.040   124091506.586 6        38.135    23613840.320    96694727.153 6        29.716    23613840.420    96694730.148 7        29.716
R02  21962247.980   117194771.511 7      5033.065    21962240.000   117194771.501 7      5033.065    21962254.140    91151515.396 7      3914.606    21962254.760    91151517.393 7      3914.606
R16  21991313.360   117473618.790 7      5269.370    21991313.440   117473618.791 7      5269.370    21991325.820    91368460.429 8      4098.399    21991326.020    91368434.442 8      4098.399
G16  23407801.280   123008816.411 7      -774.408    23407800.140   123008816.411 5      -774.408    23407813.800    95851060.700 4      -603.434
R14  22127244.260   117950647.174 6     -1449.455    22127242.820   117950647.156 6     -1449.455    22127263.920    91739476.131 6     -1127.354    22127263.640    91739476.113 7     -1127.354
> 2025 04 04 15 12 54.0000000  0 15
R01  22602526.660   120823455.029 6      1911.220    22602527.860   120823455.055 6      1911.220    22602541.520    93973800.865 6      1486.505    22602540.500    93973801.115 6      1486.505
G02  21108002.100   110923295.686 7      2082.304    21108000.820   110923295.688 6      2082.304    21108004.240    86433740.336 6      1622.574
R24  23052369.840   123271371.443 7       552.142    23052369.140   123271371.447 7       552.142    23052384.080    95877788.889 7       429.444    23052384.800    95877804.890 7       429.444
G08  20601790.560   108263134.344 8      2965.764    20601789.100   108263134.349 8      2965.764    20601796.940    84360911.346 8      2310.985    20601797.760    84360916.360 8      2310.985
R15  20025122.120   107008173.896 8      1404.683    20025121.900   107008173.897 7      1404.683    20025133.100    83228625.003 8      1092.531    20025133.020    83228626.009 8      1092.531
G01  21379752.360   112351353.611 7      3833.102    21379750.860   112351353.616 6      3833.102    21379757.140    87546531.982 6      2986.832    21379757.740    87546533.993 8      2986.832
G27  21868807.080   114921350.121 7      1134.492    21868805.720   114921350.123 7      1134.492    21868814.580    89549139.353 7       884.019    21868814.880    89549134.354 8       884.019
R17  20699206.800   110765638.313 8      2009.865    20699206.740   110765638.333 7      2009.865    20699218.620    86151094.351 8      1563.228    20699217.700    86151093.354 8      1563.228
R18  21700628.640   115839412.651 7      3758.088    21700629.200   115839412.654 7      3758.088    21700642.060    90097397.891 7      2922.957    21700641.980    90097389.894 8      2922.957
G07  24147696.140   126896991.781 6      1546.865    24147696.160   126896991.788 3      1546.865    24147708.940    98880797.023 3      1205.350    24147710.620    98880814.999 5      1205.350
G10  23613824.480   124091468.238 6        38.554    23613822.720   124091468.241 6        38.554    23613833.180    96694697.275 6        30.042    23613833.340    96694700.274 7        30.042
R02  21961304.660   117189738.463 7      5033.096    21961297.140   117189738.453 7      5033.096    21961310.840    91147600.820 7      3914.630    21961311.480    91147602.817 7      3914.630
R16  21990327.060   117468349.504 7      5269.222    21990327.060   117468349.502 7      5269.222    21990339.580    91364362.106 7      4098.284    21990339.600    91364336.116 7      4098.284
G16  23407948.520   123009590.791 7      -774.190    23407947.560   123009590.790 5      -774.190    23407961.200    95851664.104 4      -603.265
R14  22127516.140   117952096.615 6     -1449.135    22127515.220   117952096.597 6     -1449.135    22127535.840    91740603.439 7     -1127.105    22127535.460    91740603.419 7     -1127.105
> 2025 04 04 15 12 55.0000000  0 15
R01  22602169.380   120821543.947 6      1910.912    22602170.320   120821543.975 6      1910.912    22602183.320    93972315.413 6      1486.265    22602182.940    93972315.663 6      1486.265
G02  21107606.020   110921213.171 7      2082.545    21107604.600   110921213.173 6      2082.545    21107607.920    86432117.605 6      1622.762
R24  23052266.400   123270818.982 7       552.668    23052265.800   123270818.984 7       552.668    23052281.260    95877359.189 7       429.853    23052281.400    95877375.186 7       429.853
G08  20601226.320   108260168.386 8      2965.990    20601224.640   108260168.394 8      2965.990    20601232.540    84358600.220 8      2311.161    20601233.520    84358605.235 8      2311.161
R15  20024859.260   107006769.319 7      1404.366    20024859.120   107006769.325 7      1404.366    20024870.520    83227532.562 8      1092.284    20024870.380    83227533.567 8      1092.284
G01  21379022.940   112347520.494 7      3832.993    21379021.480   112347520.498 6      3832.993    21379027.860    87543545.144 6      2986.748    21379028.320    87543547.148 8      2986.748
G27  21868591.100   114920215.425 7      1134.750    21868589.760   114920215.425 7      1134.750    21868598.560    89548255.173 7       884.221    21868598.820    89548250.171 8       884.221
R17  20698831.160   110763628.198 7      2010.274    20698831.080   110763628.216 7      2010.274    20698843.160    86149530.943 8      1563.546    20698841.920    86149529.944 8      1563.546
R18  21699924.840   115835654.389 7      3758.299    21699925.260   115835654.388 7      3758.299    21699938.120    90094474.803 8      2923.122    21699937.760    90094466.806 8      2923.122
G07  24147402.300   126895444.661 6      1547.037    24147401.620   126895444.672 3      1547.037    24147414.280    98879591.475 3      1205.484    24147416.460    98879609.501 5      1205.484
G10  23613817.120   124091429.703 7        38.737    23613815.520   124091429.708 6        38.737    23613825.940    96694667.247 6        30.185    23613826.260    96694670.231 7        30.185
R02  21960361.660   117184705.383 7      5032.979    21960353.980   117184705.371 7      5032.979    21960367.700    91143686.200 7      3914.539    21960368.620    91143688.199 7      3914.539
R16  21989340.840   117463080.281 7      5269.069    21989340.840   117463080.280 7      5269.069    21989353.120    91360263.830 7      4098.165    21989353.200    91360237.839 8      4098.165
G16  23408096.200   123010364.781 7      -773.834    23408095.000   123010364.781 5      -773.834    23408108.540    95852267.204 4      -602.987
R14  22127787.580   117953545.729 6     -1449.294    22127786.360   117953545.718 6     -1449.294    22127807.900    91741730.546 7     -1127.229    22127807.520    91741730.520 7     -1127.229
> 2025 04 04 15 12 56.0000000  0 15
R01  22601812.140   120819633.188 6      1910.769    22601813.140   120819633.208 6      1910.769    22601825.720    93970830.128 6      1486.154    22601825.180    93970830.378 6      1486.154
G02  21107209.740   110919130.387 8      2083.048    21107208.260   110919130.392 6      2083.048    21107211.560    86430494.665 6      1623.154
R24  23052162.740   123270265.922 7       553.463    23052162.360   123270265.934 7       553.463    23052178.040    95876929.042 7       430.471    23052178.200    95876945.040 7       430.471
G08  20600661.700   108257202.221 8      2966.331    20600660.380   108257202.226 8      2966.331    20600668.140    84356288.927 8      2311.427    20600668.980    84356293.941 8      2311.427
R15  20024596.800   107005365.113 7      1404.106    20024596.340   107005365.116 7      1404.106    20024607.560    83226440.402 8      1092.082    20024607.500    83226441.409 8      1092.082
G01  21378293.240   112343687.200 7      3833.437    21378292.080   112343687.208 6      3833.437    21378298.340    87540558.172 6      2987.094    21378298.880    87540560.185 8      2987.094
G27  21868375.020   114919080.492 7      1135.188    21868373.840   114919080.492 7      1135.188    21868382.700    89547370.814 7       884.562    21868382.920    89547365.814 8       884.562
R17  20698455.480   110761617.674 8      2010.864    20698455.540   110761617.686 7      2010.864    20698467.300    86147967.204 8      1564.005    20698466.480    86147966.205 8      1564.005
R18  21699220.580   115831895.760 7      3758.892    21699221.220   115831895.766 7      3758.892    21699233.900    90091551.441 8      2923.583    21699233.720    90091543.446 8      2923.583
G07  24147107.720   126893897.395 6      1547.369    24147106.940   126893897.408 3      1547.369    24147119.780    98878385.811 3      1205.742    24147121.600    98878403.820 5      1205.742
G10  23613809.940   124091391.086 6        38.771    23613808.180   124091391.089 6        38.771    23613818.880    96694637.154 6        30.211    23613818.800    96694640.154 7        30.211
R02  21959418.300   117179672.373 7      5033.096    21959410.720   117179672.360 7      5033.096    21959424.840    91139771.647 7      3914.630    21959425.380    91139773.640 7      3914.630
R16  21988354.560   117457811.259 7      5268.995    21988354.700   117457811.257 7      5268.995    21988366.780    91356165.706 8      4098.107    21988366.760    91356139.712 8      4098.107
G16  23408243.320   123011138.496 7      -773.411    23408242.120   123011138.498 4      -773.411    23408255.840    95852870.090 4      -602.658
R14  22128059.440   117954994.573 6     -1448.748    22128058.560   117954994.579 6     -1448.748    22128079.400    91742857.402 6     -1126.804    22128079.220    91742857.380 7     -1126.804
> 2025 04 04 15 12 57.0000000  0 15
R01  22601454.640   120817722.683 6      1910.404    22601455.420   120817722.705 6      1910.404    22601468.940    93969343.761 6      1485.870    22601468.320    93969344.011 6      1485.870
G02  21106813.340   110917047.328 8      2083.259    21106811.700   110917047.328 6      2083.259    21106815.140    86428871.504 6      1623.319
R24  23052058.940   123269712.301 7       553.983    23052058.720   123269712.307 6       553.983    23052074.480    95876498.447 7       430.876    23052074.520    95876514.446 7       430.876
G08  20600097.040   108254235.795 8      2966.620    20600095.660   108254235.798 8      2966.620    20600103.700    84353977.430 8      2311.652    20600104.560    84353982.441 8      2311.652
R15  20024334.160   107003961.217 8      1403.700    20024333.660   107003961.223 7      1403.700    20024344.840    83225348.491 8      1091.767    20024344.860    83225349.498 8      1091.767
G01  21377563.900   112339853.751 7      3833.547    21377562.620   112339853.756 6      3833.547    21377568.960    87537571.082 6      2987.180    21377569.580    87537573.096 8      2987.180
G27  21868159.080   114917945.321 7      1135.280    21868157.660   114917945.323 7      1135.280    21868166.760    89546486.270 7       884.634    21868167.100    89546481.271 8       884.634
R17  20698079.860   110759606.713 8      2011.202    20698079.660   110759606.723 7      2011.202    20698091.660    86146403.128 8      1564.268    20698090.740    86146402.127 8      1564.268
R18  21698516.500   115828136.810 7      3759.119    21698516.820   115828136.816 7      3759.119    21698529.680    90088627.812 8      2923.760    21698529.700    90088619.816 8      2923.760
G07  24146813.360   126892349.937 6      1547.569    24146812.560   126892349.950 3      1547.569    24146825.380    98877179.993 3      1205.898    24146827.060    98877197.970 5      1205.898
G10  23613802.280   124091352.333 7        38.690    23613800.860   124091352.333 6        38.690    23613811.460    96694606.965 6        30.148    23613811.120    96694609.959 7        30.148
R02  21958475.000   117174639.421 7      5032.927    21958467.680   117174639.408 7      5032.927    21958481.720    91135857.145 7      3914.499    21958482.280    91135859.151 7      3914.499
R16  21987368.160   117452542.405 7      5268.710    21987368.340   117452542.417 7      5268.710    21987380.620    91352067.721 7      4097.885    21987380.140    91352041.729 7      4097.885
G16  23408390.340   123011911.874 7      -773.114    23408389.460   123011911.874 4      -773.114    23408402.900    95853472.714 4      -602.426
R14  22128331.180   117956443.071 6     -1448.315    22128330.880   117956443.090 6     -1448.315    22128352.000    91743984.005 6     -1126.468    22128351.060    91743983.986 7     -1126.468
> 2025 04 04 15 12 58.0000000  0 15
R01  22601096.940   120815812.509 6      1909.929    22601098.000   120815812.526 6      1909.929    22601111.400    93967856.564 6      1485.500    22601110.960    93967856.814 6      1485.500
G02  21106416.940   110914964.006 8      2083.351    21106415.300   110914964.006 6      2083.351    21106418.840    86427248.144 6      1623.390
R24  23051955.300   123269158.158 7       554.278    23051955.320   123269158.165 6       554.278    23051970.600    95876067.454 7       431.105    23051970.640    95876083.456 7       431.105
G08  20599532.540   108251269.181 8      2966.608    20599531.260   108251269.178 8      2966.608    20599539.100    84351665.787 8      2311.643    20599539.960    84351670.799 8      2311.643
R15  20024071.340   107002557.687 8      1403.214    20024071.080   107002557.690 8      1403.214    20024082.200    83224256.859 8      1091.389    20024082.220    83224257.863 8      1091.389
G01  21376834.140   112336020.211 7      3833.473    21376833.160   112336020.216 6      3833.473    21376839.480    87534583.913 6      2987.122    21376840.060    87534585.922 8      2987.122
G27  21867942.840   114916809.918 7      1135.308    21867941.600   114916809.920 7      1135.308    21867950.660    89545601.543 7       884.656    21867950.900    89545596.547 7       884.656
R17  20697703.580   110757595.363 8      2011.387    20697703.680   110757595.372 8      2011.387    20697715.580    86144838.748 8      1564.412    20697714.840    86144837.749 8      1564.412
R18  21697812.000   115824377.537 7      3759.199    21697812.540   115824377.548 7      3759.199    21697825.360    90085703.955 8      2923.821    21697825.160    90085695.960 8      2923.821
G07  24146519.260   126890802.347 6      1547.412    24146518.120   126890802.357 3      1547.412    24146530.940    98875974.075 3      1205.775    24146532.800    98875992.066 5      1205.775
G10  23613795.080   124091313.446 7        38.790    23613793.540   124091313.446 6        38.790    23613803.960    96694576.668 6        30.226    23613803.960    96694579.661 7        30.226
R02  21957532.220   117169606.512 7      5032.792    21957523.780   117169606.502 7      5032.792    21957538.740    91131942.689 7      3914.394    21957538.900    91131944.687 7      3914.394
R16  21986381.960   117447273.765 7      5268.528    21986382.040   117447273.769 7      5268.528    21986394.100    91347969.891 7      4097.744    21986393.940    91347943.896 7      4097.744
G16  23408537.780   123012684.977 7      -773.083    23408536.680   123012684.974 4      -773.083    23408550.040    95854075.127 4      -602.402
R14  22128603.160   117957891.323 6     -1448.186    22128602.460   117957891.337 6     -1448.186    22128623.620    91745110.413 6     -1126.367    22128622.900    91745110.394 7     -1126.367
> 2025 04 04 15 12 59.0000000  0 15
R01  22600739.240   120813902.616 6      1909.766    22600741.360   120813902.633 6      1909.766    22600754.120    93966369.366 6      1485.373    22600753.920    93966369.616 6      1485.373
G02  21106020.400   110912880.382 7      2083.783    21106018.720   110912880.387 6      2083.783    21106022.340    86425624.553 6      1623.727
R24  23051851.600   123268603.422 7       555.155    23051851.340   123268603.418 7       555.155    23051867.200    95875635.984 7       431.787    23051867.180    95875651.982 7       431.787
G08  20598968.080   108248302.293 8      2967.067    20598966.660   108248302.298 8      2967.067    20598974.660    84349353.936 8      2312.000    20598975.700    84349358.949 8      2312.000
R15  20023808.760   107001154.453 8      1403.113    20023808.480   107001154.460 7      1403.113    20023819.360    83223165.463 8      1091.310    20023819.420    83223166.470 8      1091.310
G01  21376104.780   112332186.481 7      3833.858    21376103.520   112332186.486 6      3833.858    21376110.040    87531596.598 6      2987.422    21376110.500    87531598.606 8      2987.422
G27  21867726.660   114915674.244 7      1135.848    21867725.500   114915674.246 7      1135.848    21867734.680    89544716.600 7       885.076    21867734.520    89544711.597 7       885.076
R17  20697327.460   110755583.525 8      2012.109    20697327.500   110755583.540 7      2012.109    20697339.660    86143273.998 8      1564.974    20697338.860    86143273.001 8      1564.974
R18  21697107.820   115820617.890 7      3759.840    21697108.360   115820617.899 7      3759.840    21697121.180    90082779.786 7      2924.320    21697120.720    90082771.788 8      2924.320
G07  24146224.400   126889254.550 6      1547.915    24146223.600   126889254.563 3      1547.915    24146236.520    98874767.998 3      1206.167    24146238.660    98874785.970 5      1206.167
G10  23613787.440   124091274.417 7        39.104    23613786.360   124091274.419 6        39.104    23613796.440    96694546.261 6        30.470    23613796.960    96694549.255 7        30.470
R02  21956588.900   117164573.586 7      5033.023    21956580.860   117164573.577 7      5033.023    21956595.620    91128028.207 7      3914.573    21956596.080    91128030.202 7      3914.573
R16  21985395.720   117442005.317 7      5268.423    21985395.660   117442005.323 7      5268.423    21985408.040    91343872.222 8      4097.663    21985407.840    91343846.225 8      4097.663
G16  23408684.540   123013457.753 7      -772.555    23408683.680   123013457.753 4      -772.555    23408696.940    95854677.289 4      -601.991
R14  22128874.900   117959339.296 6     -1447.771    22128874.040   117959339.291 6     -1447.771    22128895.280    91746236.592 6     -1126.044    22128894.780    91746236.574 7     -1126.044
> 2025 04 04 15 13  0.0000000  0 15
R01  22600381.900   120811992.939 6      1909.667    22600383.280   120811992.959 6      1909.667    22600397.180    93964883.665 6      1485.296    22600396.840    93964883.915 6      1485.296
G02  21105623.880   110910796.406 8      2084.247    21105622.140   110910796.410 6      2084.247    21105625.700    86424000.682 6      1624.089
R24  23051747.420   123268047.961 7       556.035    23051747.260   123268047.959 7       556.035    23051762.940    95875203.965 7       432.472    23051763.240    95875219.963 7       432.472
G08  20598403.380   108245335.108 7      2967.383    20598402.200   108245335.113 8      2967.383    20598410.060    84347041.852 8      2312.246    20598411.320    84347046.865 8      2312.246
R15  20023546.160   106999751.511 8      1402.919    20023545.800   106999751.512 8      1402.919    20023556.740    83222074.284 8      1091.159    20023556.900    83222075.293 8      1091.159
G01  21375375.400   112328352.536 7      3834.203    21375374.000   112328352.541 6      3834.203    21375380.380    87528609.114 6      2987.691    21375381.020    87528611.125 8      2987.691
G27  21867510.600   114914538.245 7      1136.303    21867509.480   114914538.244 7      1136.303    21867518.480    89543831.412 7       885.431    21867518.640    89543826.415 8       885.431
R17  20696951.680   110753571.216 8      2012.631    20696951.340   110753571.231 8      2012.631    20696963.960    86141708.877 8      1565.380    20696962.680    86141707.878 8      1565.380
R18  21696403.520   115816857.811 7      3760.393    21696403.940   115816857.820 7      3760.393    21696416.460    90079855.284 8      2924.750    21696416.300    90079847.291 7      2924.750
G07  24145930.240   126887706.482 6      1548.300    24145929.000   126887706.493 3      1548.300    24145941.820    98873561.705 3      1206.467    24145944.580    98873579.690 5      1206.467
G10  23613780.060   124091235.206 7        39.505    23613778.940   124091235.198 6        39.505    23613788.880    96694515.702 6        30.783    23613789.400    96694518.687 7        30.783
R02  21955645.580   117159540.616 7      5033.092    21955637.580   117159540.611 7      5033.092    21955652.400    91124113.695 7      3914.627    21955652.900    91124115.692 7      3914.627
R16  21984409.220   117436736.995 7      5268.306    21984409.320   117436737.001 7      5268.306    21984421.660    91339774.646 8      4097.571    21984421.560    91339748.653 7      4097.571
G16  23408831.660   123014230.170 6      -772.069    23408830.820   123014230.167 4      -772.069    23408843.980    95855279.166 4      -601.612
R14  22129146.360   117960786.888 6     -1447.274    22129145.880   117960786.875 6     -1447.274    22129167.120    91747362.453 6     -1125.658    22129166.600    91747362.439 7     -1125.658
> 2025 04 04 15 13  1.0000000  0 15
R01  22600024.720   120810083.490 7      1909.263    22600026.400   120810083.518 6      1909.263    22600039.240    93963398.629 6      1484.982    22600039.600    93963398.879 6      1484.982
G02  21105227.320   110908712.127 8      2084.363    21105225.380   110908712.132 6      2084.363    21105229.220    86422376.573 6      1624.179
R24  23051643.520   123267491.919 7       556.349    23051642.940   123267491.921 7       556.349    23051658.920    95874771.492 7       432.716    23051659.220    95874787.491 7       432.716
G08  20597838.760   108242367.637 8      2967.550    20597837.360   108242367.642 8      2967.550    20597845.300    84344729.541 8      2312.377    20597846.580    84344734.549 8      2312.377
R15  20023283.960   106998348.887 8      1402.414    20023283.760   106998348.883 8      1402.414    20023294.480    83220983.354 8      1090.767    20023294.500    83220984.361 8      1090.767
G01  21374645.780   112324518.420 7      3834.162    21374644.400   112324518.425 6      3834.162    21374650.780    87525621.504 6      2987.659    21374651.560    87525623.512 8      2987.659
G27  21867294.360   114913401.980 7      1136.381    21867293.020   114913401.982 7      1136.381    21867302.220    89542946.013 7       885.492    21867302.360    89542941.015 7       885.492
R17  20696575.520   110751558.466 8      2012.945    20696575.380   110751558.478 8      2012.945    20696587.740    86140143.409 8      1565.624    20696586.700    86140142.406 8      1565.624
R18  21695699.320   115813097.369 7      3760.630    21695699.420   115813097.378 7      3760.630    21695712.140    90076930.504 7      2924.935    21695711.980    90076922.511 7      2924.935
G07  24145635.380   126886158.194 6      1548.440    24145634.300   126886158.207 3      1548.440    24145646.920    98872355.244 3      1206.576    24145649.500    98872373.227 5      1206.576
G10  23613772.620   124091195.841 7        39.346    23613771.600   124091195.840 6        39.346    23613781.460    96694485.038 6        30.659    23613781.700    96694488.037 7        30.659
R02  21954702.580   117154507.664 7      5032.726    21954694.360   117154507.660 7      5032.726    21954709.380    91120199.187 7      3914.343    21954709.600    91120201.186 7      3914.343
R16  21983422.920   117431468.811 7      5268.047    21983423.240   117431468.812 7      5268.047    21983435.440    91335677.172 7      4097.370    21983435.320    91335651.181 7      4097.370
G16  23408978.520   123015002.216 7      -771.913    23408977.640   123015002.216 4      -771.913    23408990.920    95855880.754 4      -601.491
R14  22129417.940   117962234.175 6     -1447.174    22129416.940   117962234.152 6     -1447.174    22129439.000    91748488.119 6     -1125.580    22129437.940    91748488.093 7     -1125.580
> 2025 04 04 15 13  2.0000000  0 15
R01  22599667.740   120808174.628 7      1908.496    22599669.380   120808174.643 6      1908.496    22599682.460    93961914.425 6      1484.386    22599682.240    93961914.675 6      1484.386
G02  21104830.660   110906627.809 7      2084.255    21104828.780   110906627.814 6      2084.255    21104832.580    86420752.433 6      1624.095
R24  23051539.740   123266935.539 7       556.434    23051539.040   123266935.545 6       556.434    23051554.760    95874338.748 7       432.782    23051554.880    95874354.744 7       432.782
G08  20597274.180   108239400.202 8      2967.364    20597272.720   108239400.202 8      2967.364    20597280.700    84342417.257 8      2312.231    20597281.600    84342422.269 8      2312.231
R15  20023021.520   106996946.832 8      1401.621    20023021.300   106996946.835 7      1401.621    20023032.140    83219892.877 8      1090.150    20023032.160    83219893.884 8      1090.150
G01  21373916.180   112320684.412 7      3833.852    21373914.900   112320684.414 6      3833.852    21373921.300    87522633.973 6      2987.417    21373921.900    87522635.984 8      2987.417
G27  21867078.260   114912265.723 7      1136.121    21867076.880   114912265.730 7      1136.121    21867085.960    89542060.628 7       885.289    21867086.300    89542055.629 8       885.289
R17  20696199.260   110749545.584 8      2012.772    20696199.200   110749545.594 8      2012.772    20696211.580    86138577.838 8      1565.489    20696210.440    86138576.838 8      1565.489
R18  21694994.860   115809336.866 7      3760.349    21694995.260   115809336.872 7      3760.349    21695007.560    90074005.672 7      2924.716    21695007.240    90073997.681 8      2924.716
G07  24145340.440   126884610.053 6      1547.888    24145339.680   126884610.065 3      1547.888    24145352.520    98871148.896 3      1206.146    24145355.420    98871166.863 5      1206.146
G10  23613765.260   124091156.615 7        38.971    23613764.060   124091156.604 6        38.971    23613773.920    96694454.470 6        30.367    23613774.080    96694457.463 7        30.367
R02  21953759.560   117149474.955 7      5032.450    21953751.240   117149474.950 7      5032.450    21953766.260    91116284.870 7      3914.127    21953766.400    91116286.874 7      3914.127
R16  21982436.780   117426201.076 7      5267.399    21982437.180   117426201.080 7      5267.399    21982449.180    91331580.056 7      4096.866    21982448.960    91331554.058 8      4096.866
G16  23409125.400   123015774.262 7      -772.170    23409124.580   123015774.262 4      -772.170    23409137.760    95856482.336 4      -601.691
R14  22129689.880   117963681.428 6     -1447.272    22129689.180   117963681.410 6     -1447.272    22129710.380    91749613.729 6     -1125.656    22129709.560    91749613.699 7     -1125.656
> 2025 04 04 15 13  3.0000000  0 15
R01  22599310.520   120806266.227 7      1908.161    22599312.180   120806266.247 6      1908.161    22599326.000    93960429.222 6      1484.126    22599324.940    93960429.472 6      1484.126
G02  21104434.100   110904543.428 7      2084.415    21104432.180   110904543.431 6      2084.415    21104435.960    86419128.246 6      1624.219
R24  23051435.340   123266378.818 7       556.849    23051435.080   123266378.830 6       556.849    23051451.100    95873905.751 7       433.105    23051450.980    95873921.746 7       433.105
G08  20596709.180   108236432.736 7      2967.509    20596707.900   108236432.736 8      2967.509    20596716.140    84340104.952 8      2312.344    20596717.040    84340109.960 8      2312.344
R15  20022759.000   106995545.308 8      1401.277    20022759.100   106995545.312 8      1401.277    20022769.900    83218802.808 8      1089.882    20022769.940    83218803.814 8      1089.882
G01  21373186.480   112316850.454 7      3833.975    21373185.260   112316850.459 6      3833.975    21373191.640    87519646.481 6      2987.513    21373192.460    87519648.486 8      2987.513
G27  21866861.800   114911129.429 7      1136.309    21866860.480   114911129.437 7      1136.309    21866869.720    89541175.203 7       885.436    21866870.020    89541170.203 8       885.436
R17  20695823.260   110747532.441 8      2013.230    20695823.160   110747532.453 7      2013.230    20695835.360    86137012.072 8      1565.846    20695834.220    86137011.072 8      1565.846
R18  21694290.140   115805576.192 7      3760.684    21694290.740   115805576.206 7      3760.684    21694303.340    90071080.718 8      2924.976    21694303.040    90071072.727 8      2924.976
G07  24145045.700   126883061.901 6      1548.011    24145044.940   126883061.916 3      1548.011    24145058.020    98869942.542 3      1206.242    24145060.080    98869960.529 5      1206.242
G10  23613757.820   124091117.430 6        39.170    23613756.660   124091117.427 6        39.170    23613766.660    96694423.939 6        30.522    23613766.580    96694426.934 7        30.522
R02  21952816.000   117144442.489 7      5032.267    21952808.460   117144442.482 7      5032.267    21952823.380    91112370.740 7      3913.985    21952823.480    91112372.742 7      3913.985
R16  21981450.880   117420933.731 7      5267.148    21981451.320   117420933.741 7      5267.148    21981463.060    91327483.242 7      4096.671    21981463.080    91327457.245 7      4096.671
G16  23409272.580   123016546.140 6      -771.742    23409271.520   123016546.140 4      -771.742    23409284.540    95857083.796 4      -601.357
R14  22129961.680   117965128.588 6     -1447.082    22129961.340   117965128.581 6     -1447.082    22129981.140    91750739.296 6     -1125.508    22129980.980    91750739.278 7     -1125.508
> 2025 04 04 15 13  4.0000000  0 15
R01  22598953.840   120804358.103 6      1907.984    22598955.160   120804358.126 6      1907.984    22598968.240    93958946.265 6      1483.988    22598967.880    93958946.515 6      1483.988
G02  21104037.280   110902458.745 8      2084.770    21104035.540   110902458.747 6      2084.770    21104039.200    86417503.826 6      1624.496
R24  23051331.060   123265821.526 7       557.490    23051331.000   123265821.530 6       557.490    23051346.700    95873472.293 7       433.604    23051346.640    95873488.294 7       433.604
G08  20596144.600   108233465.018 8      2967.789    20596143.300   108233465.026 8      2967.789    20596151.320    84337792.456 8      2312.563    20596152.320    84337797.462 8      2312.563
R15  20022496.840   106994144.124 8      1400.980    20022496.960   106994144.123 8      1400.980    20022507.780    83217712.998 8      1089.651    20022507.720    83217714.002 8      1089.651
G01  21372456.980   112313016.348 7      3834.224    21372455.680   112313016.351 6      3834.224    21372462.180    87516658.877 6      2987.707    21372462.640    87516660.881 8      2987.707
G27  21866645.620   114909992.870 7      1136.689    21866644.360   114909992.878 7      1136.689    21866653.540    89540289.576 7       885.732    21866653.840    89540284.579 8       885.732
R17  20695446.920   110745518.866 7      2013.789    20695446.680   110745518.878 8      2013.789    20695458.980    86135445.959 8      1566.280    20695458.020    86135444.960 8      1566.280
R18  21693585.480   115801815.208 7      3761.059    21693586.540   115801815.211 7      3761.059    21693598.700    90068155.506 8      2925.268    21693598.360    90068147.513 8      2925.268
G07  24144750.500   126881513.552 6      1548.372    24144750.320   126881513.562 3      1548.372    24144763.120    98868736.032 3      1206.523    24144764.580    98868754.013 5      1206.523
G10  23613750.260   124091078.136 7        39.396    23613749.260   124091078.133 6        39.396    23613759.240    96694393.319 6        30.698    23613758.780    96694396.313 7        30.698
R02  21951873.240   117139410.020 7      5032.373    21951864.860   117139410.005 7      5032.373    21951880.540    91108456.606 7      3914.068    21951880.600    91108458.605 7      3914.068
R16  21980464.540   117415666.566 7      5267.038    21980465.120   117415666.577 7      5267.038    21980477.140    91323386.574 7      4096.585    21980476.880    91323360.581 7      4096.585
G16  23409419.540   123017317.732 7      -771.403    23409418.500   123017317.731 4      -771.403    23409431.380    95857685.026 4      -601.093
R14  22130232.760   117966575.442 6     -1446.799    22130231.760   117966575.442 6     -1446.799    22130252.420    91751864.649 6     -1125.288    22130252.080    91751864.638 7     -1125.288
> 2025 04 04 15 13  5.0000000  0 15
R01  22598596.960   120802450.204 6      1907.875    22598598.780   120802450.234 6      1907.875    22598611.560    93957462.477 6      1483.902    22598610.800    93957462.727 6      1483.902
G02  21103640.560   110900373.713 8      2085.331    21103638.680   110900373.715 6      2085.331    21103642.540    86415879.128 6      1624.934
R24  23051226.720   123265263.568 7       558.289    23051226.280   123265263.566 6       558.289    23051242.180    95873038.324 7       434.225    23051242.240    95873054.329 7       434.225
G08  20595579.880   108230496.998 8      2968.314    20595578.500   108230497.003 8      2968.314    20595586.580    84335479.713 8      2312.972    20595587.540    84335484.721 8      2312.972
R15  20022234.560   106992743.213 8      1400.848    20022234.720   106992743.216 8      1400.848    20022245.540    83216623.408 8      1089.548    20022245.640    83216624.413 8      1089.548
G01  21371727.300   112309182.014 7      3834.642    21371725.820   112309182.014 6      3834.642    21371732.620    87513671.088 6      2988.032    21371733.260    87513673.095 8      2988.032
G27  21866429.380   114908856.014 7      1137.080    21866427.940   114908856.016 7      1137.080    21866437.260    89539403.716 7       886.036    21866437.520    89539398.715 8       886.036
R17  20695070.820   110743504.765 8      2014.487    20695070.200   110743504.774 7      2014.487    20695082.700    86133879.442 8      1566.823    20695081.500    86133878.443 8      1566.823
R18  21692880.580   115798053.762 7      3761.727    21692881.620   115798053.769 7      3761.727    21692894.200    90065229.942 8      2925.788    21692893.820    90065221.950 8      2925.788
G07  24144455.800   126879964.966 6      1548.806    24144455.820   126879964.974 2      1548.806    24144468.440    98867529.338 3      1206.862    24144470.780    98867547.301 5      1206.862
G10  23613742.760   124091038.644 7        39.738    23613741.760   124091038.639 6        39.738    23613751.880    96694362.547 6        30.965    23613751.480    96694365.542 7        30.965
R02  21950930.160   117134377.527 7      5032.616    21950921.840   117134377.509 7      5032.616    21950937.400    91104542.457 7      3914.257    21950937.480    91104544.454 7      3914.257
R16  21979478.560   117410399.477 7      5267.132    21979479.240   117410399.489 7      5267.132    21979491.000    91319289.950 7      4096.658    21979491.000    91319263.952 7      4096.658
G16  23409566.240   123018088.958 7      -770.921    23409565.300   123018088.960 4      -770.921    23409578.260    95858285.975 4      -600.718
R14  22130504.540   117968021.948 6     -1446.110    22130503.620   117968021.938 6     -1446.110    22130524.480    91752989.664 6     -1124.753    22130523.560    91752989.653 7     -1124.753
> 2025 04 04 15 13  6.0000000  0 15
R01  22598240.100   120800542.545 7      1907.492    22598241.660   120800542.565 6      1907.492    22598254.960    93955978.771 6      1483.605    22598253.680    93955979.021 6      1483.605
G02  21103243.820   110898288.370 8      2085.374    21103241.900   110898288.375 6      2085.374    21103245.660    86414254.193 6      1624.967
R24  23051122.300   123264704.933 7       558.795    23051122.380   123264704.945 6       558.795    23051137.340    95872603.849 7       434.619    23051137.860    95872619.860 7       434.619
G08  20595014.940   108227528.704 8      2968.369    20595013.560   108227528.706 8      2968.369    20595021.760    84333166.763 8      2313.015    20595022.620    84333171.771 8      2313.015
R15  20021972.260   106991342.627 8      1400.373    20021972.680   106991342.631 7      1400.373    20021983.400    83215534.062 8      1089.179    20021983.540    83215535.070 8      1089.179
G01  21370997.480   112305347.512 7      3834.535    21370996.040   112305347.517 6      3834.535    21371002.920    87510683.175 6      2987.949    21371003.620    87510685.179 8      2987.949
G27  21866212.940   114907718.853 7      1137.215    21866211.540   114907718.853 7      1137.215    21866220.780    89538517.619 7       886.141    21866220.860    89538512.618 7       886.141
R17  20694694.200   110741490.208 8      2014.712    20694693.840   110741490.218 8      2014.712    20694706.280    86132312.567 8      1566.999    20694705.340    86132311.568 8      1566.999
R18  21692175.940   115794291.938 7      3761.987    21692177.060   115794291.941 7      3761.987    21692189.560    90062304.085 8      2925.990    21692189.220    90062296.095 8      2925.990
G07  24144161.220   126878416.145 6      1548.942    24144161.020   126878416.152 2      1548.942    24144173.780    98866322.460 3      1206.968    24144176.100    98866340.424 5      1206.968
G10  23613735.180   124090998.985 7        39.636    23613734.280   124090998.982 6        39.636    23613744.300    96694331.653 6        30.885    23613744.140    96694334.661 7        30.885
R02  21949986.740   117129345.015 7      5032.421    21949978.620   117129345.011 7      5032.421    21949994.580    91100628.306 7      3914.105    21949994.540    91100630.306 7      3914.105
R16  21978492.400   117405132.485 7      5266.878    21978493.080   117405132.497 7      5266.878    21978505.020    91315193.411 7      4096.461    21978504.720    91315167.413 7      4096.461
G16  23409712.820   123018859.819 7      -770.730    23409712.060   123018859.822 4      -770.730    23409725.000    95858886.640 4      -600.569
R14  22130775.840   117969468.146 6     -1446.100    22130775.060   117969468.144 6     -1446.100    22130796.300    91754114.470 6     -1124.744    22130794.980    91754114.457 7     -1124.744
> 2025 04 04 15 13  7.0000000  0 15
R01  22597883.440   120798635.416 6      1907.128    22597884.780   120798635.428 6      1907.128    22597897.240    93954495.898 6      1483.322    22597897.060    93954496.148 6      1483.322
G02  21102846.760   110896202.938 7      2085.720    21102845.080   110896202.946 6      2085.720    21102848.880    86412629.188 6      1625.236
R24  23051017.960   123264145.946 7       559.450    23051017.740   123264145.960 6       559.450    23051032.920    95872169.075 7       435.128    23051033.420    95872185.077 7       435.128
G08  20594449.960   108224560.379 8      2968.567    20594448.740   108224560.386 8      2968.567    20594456.840    84330853.793 8      2313.169    20594457.640    84330858.797 8      2313.169
R15  20021710.340   106989942.602 8      1400.079    20021710.820   106989942.606 7      1400.079    20021721.380    83214445.160 8      1088.950    20021721.460    83214446.164 8      1088.950
G01  21370267.760   112301513.060 7      3834.663    21370266.520   112301513.067 6      3834.663    21370273.280    87507695.296 6      2988.049    21370274.120    87507697.298 8      2988.049
G27  21865996.340   114906581.656 7      1137.463    21865995.080   114906581.663 7      1137.463    21866004.440    89537631.497 7       886.335    21866004.480    89537626.494 8       886.335
R17  20694317.640   110739475.438 8      2015.187    20694317.360   110739475.445 8      2015.187    20694329.680    86130745.527 8      1567.367    20694328.660    86130744.527 8      1567.367
R18  21691471.280   115790530.007 7      3762.301    21691472.300   115790530.007 7      3762.301    21691484.820    90059378.140 8      2926.234    21691484.640    90059370.153 8      2926.234
G07  24143866.720   126876867.354 6      1549.150    24143866.160   126876867.359 2      1549.150    24143879.220    98865115.609 3      1207.130    24143882.640    98865133.567 5      1207.130
G10  23613727.460   124090959.409 7        39.774    23613726.860   124090959.406 6        39.774    23613736.700    96694300.813 6        30.993    23613736.760    96694303.813 7        30.993
R02  21949043.740   117124312.784 7      5032.323    21949035.520   117124312.777 7      5032.323    21949051.820    91096714.355 7      3914.029    21949051.520    91096716.360 7      3914.029
R16  21977506.800   117399865.866 7      5266.819    21977507.420   117399865.876 7      5266.819    21977519.100    91311097.150 7      4096.415    21977518.960    91311071.155 7      4096.415
G16  23409859.220   123019630.589 7      -770.356    23409858.900   123019630.591 4      -770.356    23409871.720    95859487.233 4      -600.277
R14  22131046.720   117970914.256 6     -1445.847    22131047.360   117970914.256 6     -1445.847    22131067.340    91755239.208 6     -1124.548    22131066.600    91755239.190 7     -1124.548
> 2025 04 04 15 13  8.0000000  0 15
R01  22597526.480   120796728.497 6      1906.532    22597527.560   120796728.509 6      1906.532    22597541.020    93953011.776 6      1482.858    22597540.260    93953012.026 6      1482.858
G02  21102449.780   110894117.196 7      2085.599    21102448.020   110894117.198 6      2085.599    21102452.000    86411003.938 6      1625.142
R24  23050913.680   123263586.335 7       559.521    23050913.660   123263586.347 7       559.521    23050928.360    95871733.834 7       435.183    23050928.660    95871749.839 7       435.183
G08  20593885.040   108221591.773 7      2968.496    20593883.840   108221591.772 8      2968.496    20593891.940    84328540.591 8      2313.114    20593892.960    84328545.597 8      2313.114
R15  20021448.720   106988542.872 8      1399.267    20021448.880   106988542.876 7      1399.267    20021459.520    83213356.485 8      1088.319    20021459.440    83213357.489 8      1088.319
G01  21369538.080   112297678.408 7      3834.502    21369536.840   112297678.410 6      3834.502    21369543.520    87504707.264 6      2987.924    21369544.500    87504709.272 8      2987.924
G27  21865779.960   114905444.167 7      1137.379    21865778.520   114905444.172 7      1137.379    21865788.160    89536745.148 7       886.269    21865788.420    89536740.149 8       886.269
R17  20693941.120   110737460.199 7      2015.162    20693940.800   110737460.206 8      2015.162    20693953.240    86129178.130 8      1567.348    20693952.060    86129177.127 8      1567.348
R18  21690766.560   115786767.675 7      3762.216    21690767.200   115786767.678 7      3762.216    21690780.180    90056451.893 8      2926.168    21690779.780    90056443.905 8      2926.168
G07  24143571.860   126875318.383 6      1548.701    24143571.300   126875318.388 2      1548.701    24143584.560    98863908.620 3      1206.780    24143588.120    98863926.582 5      1206.780
G10  23613719.660   124090919.665 7        39.458    23613719.200   124090919.662 6        39.458    23613729.040    96694269.854 6        30.747    23613729.380    96694272.856 7        30.747
R02  21948100.820   117119280.547 7      5031.905    21948092.220   117119280.540 7      5031.905    21948108.540    91092800.407 7      3913.704    21948108.720    91092802.409 7      3913.704
R16  21976521.100   117394599.432 7      5266.018    21976521.740   117394599.444 7      5266.018    21976533.180    91307001.051 7      4095.792    21976533.140    91306975.052 7      4095.792
G16  23410005.840   123020401.016 6      -770.593    23410005.480   123020401.016 4      -770.593    23410018.320    95860087.554 4      -600.462
R14  22131318.160   117972359.987 6     -1445.623    22131318.280   117972359.982 6     -1445.623    22131338.060    91756363.659 6     -1124.373    22131337.400    91756363.650 6     -1124.373
> 2025 04 04 15 13  9.0000000  0 15
R01  22597169.520   120794821.721 6      1906.850    22597170.500   120794821.735 6      1906.850    22597184.140    93951527.655 6      1483.105    22597183.800    93951527.905 6      1483.105
G02  21102052.740   110892031.015 7      2086.480    21102050.980   110892031.020 6      2086.480    21102054.920    86409378.347 6      1625.829
R24  23050808.540   123263025.936 6       560.758    23050808.380   123263025.953 7       560.758    23050823.740    95871297.976 7       436.145    23050823.580    95871313.979 7       436.145
G08  20593320.140   108218622.796 8      2969.221    20593318.880   108218622.801 8      2969.221    20593326.940    84326227.111 8      2313.679    20593327.900    84326232.113 8      2313.679
R15  20021186.880   106987143.288 8      1399.582    20021186.680   106987143.287 8      1399.582    20021197.580    83212267.922 8      1088.564    20021197.560    83212268.922 8      1088.564
G01  21368808.600   112293843.464 7      3835.243    21368807.180   112293843.469 6      3835.243    21368813.620    87501719.004 6      2988.501    21368814.600    87501721.015 8      2988.501
G27  21865563.520   114904306.299 7      1138.170    21865562.080   114904306.304 7      1138.170    21865571.640    89535858.488 7       886.886    21865571.700    89535853.488 8       886.886
R17  20693564.320   110735444.383 8      2016.165    20693564.000   110735444.387 8      2016.165    20693576.460    86127610.275 8      1568.128    20693575.480    86127609.272 8      1568.128
R18  21690061.320   115783004.828 7      3763.180    21690062.600   115783004.840 7      3763.180    21690075.280    90053525.251 8      2926.918    21690074.880    90053517.263 8      2926.918
G07  24143277.120   126873769.067 6      1549.489    24143276.320   126873769.066 2      1549.489    24143289.740    98862701.356 3      1207.394    24143293.000    98862719.298 5      1207.394
G10  23613712.260   124090879.622 7        40.256    23613711.680   124090879.619 6        40.256    23613721.320    96694238.656 6        31.368    23613721.780    96694241.655 7        31.368
R02  21947157.860   117114248.142 7      5032.568    21947148.960   117114248.135 7      5032.568    21947166.340    91088886.337 7      3914.220    21947165.840    91088888.337 7      3914.220
R16  21975535.300   117389333.038 7      5266.378    21975535.580   117389333.050 7      5266.378    21975547.260    91302904.971 7      4096.072    21975547.260    91302878.974 8      4096.072
G16  23410152.420   123021170.979 7      -769.615    23410151.940   123021170.981 4      -769.615    23410164.980    95860687.519 4      -599.700
R14  22131589.020   117973805.364 6     -1444.924    22131589.320   117973805.359 6     -1444.924    22131609.940    91757487.818 6     -1123.830    22131608.460    91757487.821 6     -1123.830
> 2025 04 04 15 13 10.0000000  0 15
R01  22596813.140   120792915.121 6      1906.346    22596813.540   120792915.141 6      1906.346    22596828.460    93950045.946 6      1482.714    22596826.840    93950046.196 6      1482.714
G02  21101655.680   110889944.425 7      2086.699    21101653.920   110889944.427 6      2086.699    21101657.840    86407752.440 6      1625.999
R24  23050703.360   123262464.844 6       561.403    23050703.740   123262464.850 6       561.403    23050718.580    95870861.561 7       436.647    23050718.780    95870877.564 7       436.647
G08  20592754.960   108215653.433 8      2969.418    20592753.820   108215653.438 8      2969.418    20592761.920    84323913.325 8      2313.832    20592762.840    84323918.330 8      2313.832
R15  20020925.000   106985743.884 8      1399.130    20020925.000   106985743.890 7      1399.130    20020935.700    83211179.502 8      1088.212    20020935.740    83211180.507 8      1088.212
G01  21368078.680   112290008.256 7      3835.202    21368077.460   112290008.258 6      3835.202    21368083.820    87498730.536 6      2988.469    21368084.720    87498732.544 8      2988.469
G27  21865346.960   114903168.051 7      1138.215    21865345.420   114903168.053 7      1138.215    21865355.080    89534971.547 7       886.921    21865355.020    89534966.548 8       886.921
R17  20693187.380   110733428.015 8      2016.508    20693187.000   110733428.027 8      2016.508    20693199.600    86126041.989 8      1568.395    20693198.780    86126040.986 8      1568.395
R18  21689356.380   115779241.498 7      3763.588    21689357.340   115779241.505 7      3763.588    21689370.580    90050598.212 8      2927.235    21689370.000    90050590.223 8      2927.235
G07  24142982.500   126872219.467 6      1549.292    24142981.420   126872219.464 2      1549.292    24142994.700    98861493.874 3      1207.241    24142998.180    98861511.816 5      1207.241
G10  23613704.720   124090839.334 7        40.417    23613704.000   124090839.336 6        40.417    23613713.560    96694207.267 6        31.494    23613714.280    96694210.268 7        31.494
R02  21946214.940   117109215.612 7      5032.477    21946205.940   117109215.610 7      5032.477    21946222.860    91084972.164 7      3914.149    21946222.860    91084974.167 7      3914.149
R16  21974549.380   117384066.711 7      5266.180    21974549.780   117384066.726 7      5266.180    21974561.460    91298808.947 7      4095.918    21974561.300    91298782.946 8      4095.918
G16  23410298.980   123021940.534 7      -769.535    23410298.360   123021940.534 4      -769.535    23410311.420    95861287.162 4      -599.637
R14  22131859.960   117975250.317 6     -1444.769    22131861.300   117975250.315 6     -1444.769    22131881.080    91758611.650 6     -1123.709    22131879.800    91758611.647 6     -1123.709
> 2025 04 04 15 13 11.0000000  0 15
R01  22596456.780   120791008.793 7      1906.180    22596456.540   120791008.808 6      1906.180    22596470.980    93948564.319 6      1482.584    22596470.500    93948564.569 6      1482.584
G02  21101258.600   110887857.558 8      2086.971    21101256.800   110887857.563 6      2086.971    21101260.860    86406126.309 6      1626.211
R24  23050598.640   123261903.215 6       561.832    23050597.880   123261903.221 6       561.832    23050613.620    95870424.732 7       436.981    23050613.820    95870440.735 7       436.981
G08  20592190.020   108212683.839 7      2969.700    20592188.740   108212683.843 8      2969.700    20592196.960    84321599.356 8      2314.052    20592197.780    84321604.360 8      2314.052
R15  20020663.000   106984344.794 8      1398.971    20020663.040   106984344.795 8      1398.971    20020673.920    83210091.311 8      1088.089    20020673.620    83210092.311 8      1088.089
G01  21367348.680   112286172.876 7      3835.504    21367347.640   112286172.875 6      3835.504    21367353.960    87495741.930 6      2988.704    21367354.780    87495743.937 8      2988.704
G27  21865130.220   114902029.513 7      1138.709    21865128.720   114902029.520 7      1138.709    21865138.340    89534084.375 7       887.306    21865138.380    89534079.382 8       887.306
R17  20692810.560   110731411.193 8      2017.028    20692810.380   110731411.208 8      2017.028    20692822.620    86124473.355 8      1568.800    20692821.780    86124472.357 8      1568.800
R18  21688651.640   115775477.829 7      3763.883    21688652.500   115775477.836 7      3763.883    21688665.620    90047670.918 8      2927.465    21688665.240    90047662.931 8      2927.465
G07  24142686.860   126870669.618 6      1549.710    24142686.460   126870669.618 2      1549.710    24142699.960    98860286.191 3      1207.566    24142702.940    98860304.119 5      1207.566
G10  23613696.980   124090798.944 7        40.422    23613696.260   124090798.941 6        40.422    23613705.980    96694175.788 6        31.498    23613706.800    96694178.783 7        31.498
R02  21945271.940   117104183.052 7      5032.600    21945262.660   117104183.045 7      5032.600    21945279.680    91081057.947 7      3914.245    21945279.960    91081059.950 7      3914.245
R16  21973563.240   117378800.598 7      5266.090    21973564.160   117378800.609 7      5266.090    21973575.420    91294713.071 7      4095.848    21973575.200    91294687.067 7      4095.848
G16  23410445.460   123022709.737 7      -769.073    23410444.840   123022709.734 4      -769.073    23410457.880    95861886.527 4      -599.278
R14  22132130.380   117976694.905 6     -1444.253    22132132.260   117976694.926 6     -1444.253    22132151.940    91759735.216 6     -1123.308    22132151.000    91759735.211 7     -1123.308
> 2025 04 04 15 13 12.0000000  0 15
R01  22596100.280   120789102.930 7      1905.720    22596099.860   120789102.942 6      1905.720    22596114.960    93947082.110 6      1482.227    22596113.820    93947082.360 6      1482.227
G02  21100861.500   110885770.571 7      2087.137    21100859.540   110885770.570 6      2087.137    21100863.780    86404500.080 6      1626.341
R24  23050493.260   123261341.195 6       562.213    23050492.500   123261341.204 6       562.213    23050508.480    95869987.600 7       437.277    23050508.780    95870003.596 7       437.277
G08  20591624.820   108209714.176 8      2969.803    20591623.640   108209714.186 8      2969.803    20591631.760    84319285.329 8      2314.132    20591632.600    84319290.331 8      2314.132
R15  20020401.260   106982946.253 8      1398.333    20020401.160   106982946.251 8      1398.333    20020412.060    83209003.552 8      1087.593    20020411.960    83209004.557 8      1087.593
G01  21366619.140   112282337.530 7      3835.460    21366617.660   112282337.535 6      3835.460    21366624.060    87492753.353 6      2988.670    21366624.840    87492755.352 8      2988.670
G27  21864913.480   114900890.952 7      1138.677    21864911.940   114900890.954 7      1138.677    21864921.980    89533197.176 7       887.281    21864922.100    89533192.179 7       887.281
R17  20692433.620   110729394.119 8      2017.300    20692433.480   110729394.134 8      2017.300    20692445.780    86122904.522 8      1569.011    20692444.980    86122903.521 8      1569.011
R18  21687946.340   115771713.998 7      3763.994    21687947.440   115771714.009 7      3763.994    21687960.660    90044743.502 8      2927.551    21687960.080    90044735.517 8      2927.551
G07  24142392.540   126869119.779 6      1549.983    24142391.360   126869119.779 2      1549.983    24142404.920    98859078.517 2      1207.779    24142408.440    98859096.444 5      1207.779
G10  23613688.880   124090758.567 7        40.537    23613688.620   124090758.561 6        40.537    23613698.220    96694144.321 6        31.588    23613698.740    96694147.316 7        31.588
R02  21944328.680   117099150.749 7      5032.305    21944319.620   117099150.733 7      5032.305    21944336.600    91077143.943 7      3914.015    21944336.580    91077145.947 7      3914.015
R16  21972577.700   117373534.855 7      5265.663    21972578.620   117373534.859 7      5265.663    21972589.700    91290617.493 7      4095.516    21972589.840    91290591.494 8      4095.516
G16  23410591.340   123023478.809 6      -768.839    23410591.220   123023478.806 4      -768.839    23410604.220    95862485.789 4      -599.095
R14  22132401.700   117978139.455 6     -1444.398    22132402.900   117978139.450 6     -1444.398    22132422.920    91760858.720 6     -1123.421    22132421.940    91760858.707 7     -1123.421
> 2025 04 04 15 13 13.0000000  0 15
R01  22595743.860   120787197.530 6      1905.298    22595743.600   120787197.537 6      1905.298    22595758.140    93945600.234 6      1481.898    22595757.160    93945600.484 6      1481.898
G02  21100464.320   110883683.484 7      2087.157    21100462.400   110883683.488 6      2087.157    21100466.520    86402873.779 6      1626.356
R24  23050388.540   123260778.750 6       562.715    23050387.560   123260778.760 6       562.715    23050403.100    95869550.126 7       437.667    23050403.340    95869566.129 7       437.667
G08  20591059.900   108206744.466 8      2969.801    20591058.580   108206744.474 8      2969.801    20591066.700    84316971.267 8      2314.131    20591067.460    84316976.269 8      2314.131
R15  20020139.480   106981548.224 8      1397.874    20020139.580   106981548.222 7      1397.874    20020150.480    83207916.199 8      1087.235    20020150.460    83207917.201 8      1087.235
G01  21365889.300   112278502.203 7      3835.467    21365888.000   112278502.210 6      3835.467    21365894.240    87489764.791 6      2988.675    21365895.160    87489766.795 8      2988.675
G27  21864697.020   114899752.301 7      1138.697    21864695.260   114899752.309 7      1138.697    21864705.260    89532309.918 7       887.296    21864705.420    89532304.919 8       887.296
R17  20692057.000   110727376.844 8      2017.411    20692056.520   110727376.856 8      2017.411    20692068.640    86121335.526 8      1569.098    20692067.840    86121334.524 8      1569.098
R18  21687241.460   115767949.995 7      3764.202    21687242.680   115767950.010 7      3764.202    21687255.840    90041815.949 8      2927.713    21687254.920    90041807.961 8      2927.713
G07  24142097.760   126867569.972 6      1549.728    24142096.460   126867569.974 2      1549.728    24142110.280    98857870.871 2      1207.580    24142113.640    98857888.823 5      1207.580
G10  23613681.540   124090718.261 7        40.376    23613681.080   124090718.258 6        40.376    23613690.720    96694112.911 6        31.461    23613690.620    96694115.911 7        31.461
R02  21943385.700   117094118.691 7      5031.952    21943376.380   117094118.667 7      5031.952    21943393.700    91073230.122 7      3913.740    21943393.640    91073232.122 7      3913.740
R16  21971591.940   117368269.417 7      5265.295    21971592.420   117368269.432 7      5265.295    21971604.200    91286522.163 7      4095.229    21971603.820    91286496.162 7      4095.229
G16  23410738.200   123024247.773 6      -768.806    23410737.540   123024247.770 4      -768.806    23410750.640    95863084.968 4      -599.069
R14  22132672.380   117979583.856 6     -1444.231    22132673.380   117979583.825 6     -1444.231    22132693.260    91761982.112 6     -1123.291    22132693.120    91761982.099 7     -1123.291
> 2025 04 04 15 13 14.0000000  0 15
R01  22595387.600   120785292.545 6      1904.799    22595387.220   120785292.559 6      1904.799    22595402.000    93944119.024 6      1481.510    22595400.940    93944119.274 6      1481.510
G02  21100067.220   110881596.233 8      2087.451    21100065.340   110881596.236 6      2087.451    21100069.380    86401247.348 6      1626.585
R24  23050283.000   123260215.875 6       563.202    23050282.320   123260215.879 6       563.202    23050297.920    95869112.343 7       438.046    23050298.500    95869128.339 7       438.046
G08  20590494.620   108203774.635 8      2969.968    20590493.460   108203774.640 8      2969.968    20590501.540    84314657.116 8      2314.260    20590502.480    84314662.113 8      2314.260
R15  20019878.040   106980150.714 8      1397.333    20019878.060   106980150.709 7      1397.333    20019888.960    83206829.240 8      1086.814    20019889.000    83206830.243 8      1086.814
G01  21365159.460   112274666.870 7      3835.431    21365158.200   112274666.878 6      3835.431    21365164.400    87486776.220 6      2988.647    21365165.100    87486778.223 8      2988.647
G27  21864480.320   114898613.519 7      1138.942    21864478.580   114898613.521 7      1138.942    21864488.700    89531422.543 7       887.488    21864488.720    89531417.546 8       887.488
R17  20691680.020   110725359.245 8      2017.853    20691679.500   110725359.252 7      2017.853    20691691.500    86119766.279 8      1569.441    20691691.100    86119765.276 8      1569.441
R18  21686536.400   115764185.777 7      3764.467    21686537.020   115764185.786 7      3764.467    21686550.480    90038888.223 8      2927.919    21686550.100    90038880.236 8      2927.919
G07  24141803.360   126866020.089 6      1549.971    24141801.720   126866020.094 2      1549.971    24141815.200    98856663.161 2      1207.770    24141818.840    98856681.084 5      1207.770
G10  23613673.900   124090677.933 6        40.398    23613673.440   124090677.930 6        40.398    23613682.980    96694081.486 6        31.479    23613682.900    96694084.489 7        31.479
R02  21942442.680   117089086.785 7      5031.860    21942433.560   117089086.772 7      5031.860    21942450.880    91069316.436 7      3913.669    21942450.580    91069318.436 7      3913.669
R16  21970606.400   117363004.284 7      5265.128    21970606.780   117363004.296 7      5265.128    21970618.480    91282427.053 7      4095.099    21970618.320    91282401.052 7      4095.099
G16  23410884.320   123025016.524 7      -768.573    23410883.700   123025016.521 4      -768.573    23410896.800    95863683.978 4      -598.888
R14  22132944.000   117981028.098 6     -1444.109    22132945.380   117981028.082 6     -1444.109    22132964.600    91763105.392 6     -1123.196    22132963.740    91763105.391 7     -1123.196
> 2025 04 04 15 13 15.0000000  0 15
R01  22595030.640   120783387.770 6      1904.604    22595030.680   120783387.790 6      1904.604    22595045.840    93942634.902 6      1481.359    22595044.720    93942635.152 6      1481.359
G02  21099670.000   110879508.631 7      2087.765    21099667.900   110879508.636 6      2087.765    21099672.160    86399620.647 6      1626.830
R24  23050177.580   123259652.326 6       563.919    23050177.340   123259652.327 6       563.919    23050192.300    95868674.010 7       438.604    23050193.020    95868690.004 7       438.604
G08  20589929.580   108200804.492 8      2970.275    20589928.140   108200804.497 8      2970.275    20589936.340    84312342.718 8      2314.500    20589937.120    84312347.718 8      2314.500
R15  20019616.640   106978753.436 8      1397.128    20019616.640   106978753.432 7      1397.128    20019627.520    83205742.467 8      1086.655    20019627.340    83205743.469 8      1086.655
G01  21364429.440   112270831.315 7      3835.588    21364428.300   112270831.322 6      3835.588    21364434.560    87483787.481 6      2988.770    21364435.260    87483789.482 8      2988.770
G27  21864263.700   114897474.430 7      1139.203    21864261.760   114897474.429 7      1139.203    21864271.960    89530534.935 7       887.691    21864272.300    89530529.938 8       887.691
R17  20691302.500   110723341.141 8      2018.357    20691302.500   110723341.156 8      2018.357    20691314.240    86118196.653 8      1569.833    20691313.720    86118195.650 8      1569.833
R18  21685830.800   115760421.115 7      3764.882    21685832.080   115760421.121 7      3764.882    21685845.280    90035960.149 8      2928.242    21685844.520    90035952.165 8      2928.242
G07  24141508.000   126864469.935 6      1550.344    24141506.620   126864469.940 2      1550.344    24141520.240    98855455.241 2      1208.060    24141522.900    98855473.176 5      1208.060
G10  23613666.160   124090637.422 7        40.517    23613665.700   124090637.419 6        40.517    23613675.160    96694049.923 6        31.571    23613675.140    96694052.924 7        31.571
R02  21941499.880   117084054.876 7      5031.919    21941490.600   117084054.858 7      5031.919    21941507.500    91065402.740 7      3913.715    21941507.740    91065404.741 7      3913.715
R16  21969620.820   117357739.263 7      5264.866    21969621.140   117357739.275 7      5264.866    21969632.960    91278332.037 7      4094.896    21969632.840    91278306.037 8      4094.896
G16  23411030.740   123025784.916 7      -768.237    23411030.000   123025784.915 4      -768.237    23411043.200    95864282.708 4      -598.626
R14  22133214.740   117982471.966 6     -1443.704    22133216.580   117982471.958 6     -1443.704    22133234.780    91764228.382 6     -1122.881    22133234.760    91764228.385 6     -1122.881
> 2025 04 04 15 13 16.0000000  0 15
R01  22594674.640   120781483.180 6      1904.369    22594674.440   120781483.194 6      1904.369    22594689.500    93941154.773 6      1481.176    22594688.560    93941155.023 6      1481.176
G02  21099272.540   110877420.635 8      2088.203    21099270.620   110877420.642 6      2088.203    21099274.840    86397993.647 6      1627.171
R24  23050071.900   123259088.069 6       564.513    23050071.540   123259088.070 6       564.513    23050086.980    95868235.139 7       439.066    23050087.540    95868251.131 7       439.066
G08  20589364.240   108197834.012 8      2970.603    20589362.840   108197834.017 8      2970.603    20589371.060    84310028.067 8      2314.756    20589371.760    84310033.067 8      2314.756
R15  20019355.200   106977356.382 8      1396.934    20019354.960   106977356.378 7      1396.934    20019366.080    83204655.869 8      1086.504    20019366.040    83204656.876 8      1086.504
G01  21363699.400   112266995.494 7      3835.906    21363698.580   112266995.496 6      3835.906    21363704.620    87480798.530 6      2989.018    21363705.220    87480800.532 8      2989.018
G27  21864046.720   114896334.975 7      1139.508    21864044.900   114896334.980 7      1139.508    21864055.160    89529647.065 7       887.928    21864055.300    89529642.071 8       887.928
R17  20690925.300   110721322.483 8      2018.888    20690925.040   110721322.493 8      2018.888    20690937.200    86116626.585 8      1570.246    20690936.660    86116625.585 8      1570.246
R18  21685125.520   115756655.994 7      3765.259    21685126.740   115756656.008 7      3765.259    21685140.180    90033031.742 8      2928.535    21685139.260    90033023.757 8      2928.535
G07  24141212.820   126862919.518 6      1550.551    24141211.420   126862919.520 2      1550.551    24141225.200    98854247.120 2      1208.222    24141228.360    98854265.065 5      1208.222
G10  23613658.620   124090596.641 7        40.912    23613657.900   124090596.635 6        40.912    23613667.540    96694018.141 6        31.879    23613667.380    96694021.138 7        31.879
R02  21940556.560   117079022.879 7      5032.006    21940547.760   117079022.872 7      5032.006    21940564.460    91061488.979 7      3913.782    21940564.740    91061490.977 7      3913.782
R16  21968635.380   117352474.306 7      5264.850    21968635.680   117352474.315 7      5264.850    21968647.200    91274237.081 7      4094.883    21968647.180    91274211.079 7      4094.883
G16  23411176.560   123026552.887 7      -767.765    23411176.280   123026552.889 4      -767.765    23411189.040    95864881.121 4      -598.258
R14  22133485.760   117983915.437 6     -1443.427    22133487.000   117983915.432 6     -1443.427    22133505.720    91765351.067 6     -1122.665    22133505.440    91765351.069 6     -1122.665
> 2025 04 04 15 13 17.0000000  0 15
R01  22594318.220   120779578.931 6      1904.101    22594318.080   120779578.943 6      1904.101    22594332.940    93939672.897 6      1480.967    22594332.000    93939673.147 6      1480.967
G02  21098875.280   110875332.439 7      2088.303    21098873.300   110875332.444 6      2088.303    21098877.480    86396366.483 6      1627.249
R24  23049966.580   123258523.266 6       565.144    23049965.940   123258523.264 6       565.144    23049981.060    95867795.850 7       439.556    23049981.720    95867811.846 7       439.556
G08  20588799.020   108194863.359 8      2970.791    20588797.620   108194863.359 8      2970.791    20588805.800    84307713.272 8      2314.902    20588806.520    84307718.270 8      2314.902
R15  20019093.880   106975959.730 8      1396.521    20019093.500   106975959.728 7      1396.521    20019104.620    83203569.590 8      1086.183    20019104.820    83203570.597 8      1086.183
G01  21362969.340   112263159.599 7      3835.964    21362968.660   112263159.604 6      3835.964    21362974.520    87477809.525 6      2989.063    21362975.380    87477811.525 8      2989.063
G27  21863829.880   114895195.334 7      1139.789    21863827.840   114895195.342 7      1139.789    21863838.400    89528759.035 7       888.147    21863838.620    89528754.041 8       888.147
R17  20690548.300   110719303.488 8      2019.234    20690547.900   110719303.498 8      2019.234    20690559.880    86115056.260 8      1570.515    20690558.840    86115055.261 8      1570.515
R18  21684420.340   115752890.612 7      3765.463    21684421.560   115752890.629 7      3765.463    21684434.940    90030103.115 8      2928.693    21684434.040    90030095.124 8      2928.693
G07  24140918.140   126861369.001 6      1550.507    24140916.240   126861369.004 2      1550.507    24140930.260    98853038.919 2      1208.187    24140933.180    98853056.828 5      1208.187
G10  23613650.960   124090555.835 7        40.826    23613650.020   124090555.832 6        40.826    23613659.900    96693986.344 6        31.812    23613659.460    96693989.350 7        31.812
R02  21939613.720   117073990.968 7      5031.823    21939604.460   117073990.958 7      5031.823    21939621.500    91057575.283 7      3913.640    21939621.740    91057577.287 7      3913.640
R16  21967649.600   117347209.635 7      5264.615    21967650.500   117347209.644 7      5264.615    21967661.600    91270142.341 7      4094.701    21967661.560    91270116.339 7      4094.701
G16  23411323.180   123027320.626 7      -767.568    23411322.100   123027320.626 4      -767.568    23411335.180    95865479.345 4      -598.105
R14  22133756.980   117985358.660 6     -1443.160    22133758.420   117985358.658 6     -1443.160    22133776.600    91766473.554 6     -1122.458    22133775.740    91766473.549 6     -1122.458
> 2025 04 04 15 13 18.0000000  0 15
R01  22593962.340   120777675.063 6      1903.518    22593961.860   120777675.064 6      1903.518    22593977.520    93938193.266 6      1480.514    22593976.100    93938193.516 6      1480.514
G02  21098477.820   110873244.025 7      2088.386    21098475.880   110873244.027 6      2088.386    21098480.120    86394739.148 6      1627.313
R24  23049860.500   123257957.973 6       565.516    23049860.400   123257957.967 6       565.516    23049875.360    95867356.176 7       439.846    23049876.080    95867372.164 7       439.846
G08  20588233.740   108191892.543 8      2970.777    20588232.280   108191892.545 8      2970.777    20588240.460    84305398.352 8      2314.892    20588241.340    84305403.357 8      2314.892
R15  20018832.280   106974563.470 8      1395.987    20018832.120   106974563.474 7      1395.987    20018843.460    83202483.617 8      1085.768    20018843.220    83202484.623 8      1085.768
G01  21362239.540   112259323.615 7      3835.889    21362238.760   112259323.620 6      3835.889    21362244.620    87474820.457 6      2989.004    21362245.540    87474822.461 8      2989.004
G27  21863613.000   114894055.530 7      1139.836    21863611.020   114894055.530 7      1139.836    21863621.520    89527870.872 7       888.184    21863621.660    89527865.878 8       888.184
R17  20690171.140   110717284.180 8      2019.326    20690170.720   110717284.195 8      2019.326    20690182.600    86113485.695 8      1570.587    20690181.720    86113484.693 8      1570.587
R18  21683714.840   115749124.973 7      3765.573    21683716.240   115749124.987 7      3765.573    21683729.500    90027174.292 8      2928.779    21683728.580    90027166.302 8      2928.779
G07  24140622.860   126859818.359 6      1550.572    24140621.060   126859818.361 2      1550.572    24140635.060    98851830.617 2      1208.238    24140638.520    98851848.563 5      1208.238
G10  23613643.180   124090514.956 7        40.724    23613642.280   124090514.956 6        40.724    23613652.200    96693954.497 6        31.733    23613651.900    96693957.505 7        31.733
R02  21938670.760   117068959.126 7      5031.685    21938661.660   117068959.111 7      5031.685    21938678.520    91053661.639 7      3913.533    21938678.760    91053663.636 7      3913.533
R16  21966664.140   117341945.252 7      5264.142    21966664.760   117341945.266 7      5264.142    21966676.200    91266047.823 8      4094.332    21966675.920    91266021.817 7      4094.332
G16  23411469.000   123028088.111 7      -767.433    23411468.300   123028088.111 4      -767.433    23411481.260    95866077.375 4      -597.999
R14  22134027.700   117986801.678 6     -1443.056    22134028.960   117986801.673 6     -1443.056    22134046.960    91767595.886 6     -1122.377    22134046.960    91767595.875 6     -1122.377
> 2025 04 04 15 13 19.0000000  0 15
R01  22593606.540   120775771.563 6      1903.543    22593605.840   120775771.570 6      1903.543    22593621.280    93936713.967 6      1480.533    22593620.380    93936714.217 6      1480.533
G02  21098080.340   110871155.413 7      2088.981    21098078.340   110871155.421 6      2088.981    21098082.700    86393111.660 6      1627.777
R24  23049754.020   123257392.208 6       566.266    23049754.460   123257392.198 6       566.266    23049769.440    95866916.132 7       440.429    23049770.340    95866932.116 7       440.429
G08  20587668.320   108188921.590 8      2971.279    20587666.980   108188921.598 8      2971.279    20587675.100    84303083.331 8      2315.282    20587676.140    84303088.328 8      2315.282
R15  20018571.220   106973167.667 8      1395.860    20018570.880   106973167.665 7      1395.860    20018582.160    83201397.988 8      1085.669    20018582.120    83201398.990 8      1085.669
G01  21361509.780   112255487.594 7      3836.327    21361508.700   112255487.596 6      3836.327    21361514.740    87471831.350 6      2989.346    21361515.520    87471833.350 8      2989.346
G27  21863395.940   114892915.581 7      1140.329    21863394.060   114892915.584 7      1140.329    21863404.640    89526982.600 7       888.568    21863404.640    89526977.602 8       888.568
R17  20689793.260   110715264.532 8      2020.094    20689793.380   110715264.544 8      2020.094    20689805.040    86111914.856 8      1571.184    20689804.460    86111913.853 8      1571.184
R18  21683009.560   115745359.078 7      3766.345    21683010.940   115745359.093 7      3766.345    21683023.960    90024245.262 8      2929.380    21683023.160    90024237.275 8      2929.380
G07  24140327.500   126858267.595 6      1551.366    24140326.080   126858267.597 2      1551.366    24140340.060    98850622.224 2      1208.857    24140343.580    98850640.172 5      1208.857
G10  23613634.840   124090474.062 7        41.123    23613634.620   124090474.059 6        41.123    23613644.420    96693922.629 6        32.044    23613644.200    96693925.632 7        32.044
R02  21937727.840   117063927.415 7      5031.966    21937718.520   117063927.408 7      5031.966    21937735.460    91049748.094 7      3913.752    21937735.880    91049750.095 7      3913.752
R16  21965678.840   117336681.168 7      5264.190    21965679.400   117336681.185 7      5264.190    21965690.700    91261953.542 7      4094.370    21965690.800    91261927.542 8      4094.370
G16  23411615.160   123028855.407 7      -766.861    23411614.280   123028855.406 4      -766.861    23411627.380    95866675.256 4      -597.554
R14  22134298.040   117988244.502 6     -1442.429    22134299.500   117988244.494 6     -1442.429    22134317.480    91768718.060 6     -1121.889    22134317.260    91768718.061 6     -1121.889
> 2025 04 04 15 13 20.0000000  0 15
R01  22593250.440   120773868.256 6      1903.049    22593249.640   120773868.260 6      1903.049    22593265.080    93935233.422 6      1480.149    22593264.200    93935233.672 6      1480.149
G02  21097682.860   110869066.416 7      2089.057    21097680.920   110869066.423 6      2089.057    21097685.080    86391483.878 6      1627.837
R24  23049647.820   123256825.726 6       566.739    23049648.220   123256825.727 6       566.739    23049663.780    95866475.537 7       440.797    23049664.360    95866491.525 7       440.797
G08  20587102.800   108185950.283 8      2971.308    20587101.540   108185950.288 8      2971.308    20587109.780    84300768.030 8      2315.305    20587110.520    84300773.030 8      2315.305
R15  20018309.900   106971772.061 8      1395.367    20018309.920   106971772.057 7      1395.367    20018321.160    83200312.519 8      1085.285    20018320.880    83200313.521 8      1085.285
G01  21360779.380   112251651.297 7      3836.311    21360778.680   112251651.299 6      3836.311    21360784.680    87468842.036 6      2989.333    21360785.420    87468844.036 8      2989.333
G27  21863179.040   114891775.273 7      1140.378    21863177.040   114891775.270 7      1140.378    21863187.740    89526094.044 7       888.606    21863187.940    89526089.046 8       888.606
R17  20689415.880   110713244.314 8      2020.320    20689415.840   110713244.326 8      2020.320    20689427.500    86110343.582 8      1571.360    20689426.660    86110342.581 8      1571.360
R18  21682304.280   115741592.700 7      3766.491    21682305.080   115741592.715 7      3766.491    21682318.620    90021315.868 8      2929.493    21682317.360    90021307.878 8      2929.493
G07  24140032.340   126856716.655 6      1550.879    24140030.700   126856716.658 2      1550.879    24140045.040    98849413.694 2      1208.477    24140048.020    98849431.637 5      1208.477
G10  23613627.320   124090432.907 7        41.128    23613626.780   124090432.901 6        41.128    23613636.560    96693890.558 6        32.048    23613636.400    96693893.568 7        32.048
R02  21936784.900   117058895.618 7      5031.710    21936775.800   117058895.603 7      5031.710    21936792.540    91045834.485 7      3913.553    21936792.940    91045836.486 7      3913.553
R16  21964693.180   117331417.149 7      5263.811    21964693.940   117331417.160 7      5263.811    21964705.420    91257859.310 7      4094.075    21964705.140    91257833.309 8      4094.075
G16  23411761.460   123029622.287 7      -766.858    23411760.140   123029622.287 4      -766.858    23411773.320    95867272.811 4      -597.552
R14  22134568.580   117989686.938 7     -1442.366    22134569.860   117989686.939 6     -1442.366    22134587.800    91769839.942 6     -1121.840    22134587.400    91769839.950 6     -1121.840
> 2025 04 04 15 13 21.0000000  0 15
R01  22592894.500   120771965.435 6      1902.653    22592893.780   120771965.441 6      1902.653    22592909.200    93933753.542 6      1479.841    22592908.300    93933753.792 6      1479.841
G02  21097285.540   110866977.321 7      2089.273    21097283.200   110866977.323 6      2089.273    21097287.580    86389856.014 6      1628.005
R24  23049542.460   123256258.891 6       567.234    23049542.320   123256258.876 6       567.234    23049557.500    95866034.651 7       441.182    23049558.460    95866050.639 7       441.182
G08  20586537.600   108182978.931 8      2971.486    20586536.180   108182978.930 8      2971.486    20586544.260    84298452.691 8      2315.444    20586544.920    84298457.689 8      2315.444
R15  20018048.920   106970376.993 8      1394.895    20018048.520   106970376.989 7      1394.895    20018060.100    83199227.466 8      1084.918    20018060.020    83199228.470 8      1084.918
G01  21360049.340   112247815.048 7      3836.396    21360048.760   112247815.052 6      3836.396    21360054.600    87465852.758 6      2989.399    21360055.380    87465854.757 8      2989.399
G27  21862961.980   114890634.891 7      1140.553    21862960.040   114890634.896 7      1140.553    21862970.660    89525205.443 7       888.743    21862971.020    89525200.447 8       888.743
R17  20689038.240   110711223.834 8      2020.733    20689038.240   110711223.844 8      2020.733    20689049.920    86108772.103 8      1571.681    20689049.220    86108771.101 8      1571.681
R18  21681598.420   115737826.165 7      3766.710    21681599.560   115737826.177 7      3766.710    21681612.900    90018386.340 8      2929.664    21681611.780    90018378.349 8      2929.664
G07  24139736.860   126855165.629 6      1551.216    24139735.360   126855165.629 2      1551.216    24139749.960    98848205.098 2      1208.740    24139752.000    98848223.041 5      1208.740
G10  23613619.480   124090391.834 7        41.015    23613618.920   124090391.831 6        41.015    23613628.940    96693858.553 6        31.960    23613628.540    96693861.569 7        31.960
R02  21935842.020   117053864.017 7      5031.492    21935833.160   117053864.012 7      5031.492    21935849.480    91041921.039 7      3913.383    21935850.120    91041923.037 7      3913.383
R16  21963707.960   117326153.500 7      5263.477    21963708.460   117326153.515 7      5263.477    21963719.860    91253765.366 8      4093.816    21963719.880    91253739.362 7      4093.816
G16  23411907.280   123030389.005 6      -766.512    23411906.140   123030388.999 4      -766.512    23411919.340    95867870.243 4      -597.282
R14  22134838.780   117991129.335 7     -1442.317    22134840.140   117991129.325 6     -1442.317    22134858.540    91770961.780 6     -1121.802    22134857.820    91770961.796 6     -1121.802
> 2025 04 04 15 13 22.0000000  0 15
R01  22592538.760   120770062.854 6      1902.305    22592537.800   120770062.872 6      1902.305    22592553.140    93932274.493 6      1479.570    22592552.680    93932274.743 6      1479.570
G02  21096887.740   110864887.906 7      2089.382    21096885.620   110864887.911 6      2089.382    21096889.900    86388227.903 6      1628.090
R24  23049436.420   123255691.374 6       567.655    23049435.760   123255691.365 6       567.655    23049451.560    95865593.257 7       441.509    23049452.060    95865609.241 7       441.509
G08  20585972.140   108180007.305 8      2971.549    20585970.580   108180007.305 8      2971.549    20585978.840    84296137.141 8      2315.493    20585979.520    84296142.141 8      2315.493
R15  20017787.860   106968982.203 8      1394.462    20017787.460   106968982.196 7      1394.462    20017799.180    83198142.629 8      1084.582    20017798.960    83198143.631 8      1084.582
G01  21359319.320   112243978.609 7      3836.435    21359318.620   112243978.611 6      3836.435    21359324.520    87462863.328 6      2989.430    21359325.420    87462865.326 8      2989.430
G27  21862744.880   114889494.228 7      1140.696    21862742.940   114889494.227 7      1140.696    21862753.800    89524316.610 7       888.854    21862753.840    89524311.614 8       888.854
R17  20688660.480   110709202.878 8      2021.055    20688660.380   110709202.890 8      2021.055    20688672.040    86107200.250 8      1571.931    20688671.420    86107199.248 8      1571.931
R18  21680892.920   115734059.245 7      3766.929    21680893.860   115734059.260 7      3766.929    21680907.180    90015456.520 8      2929.834    21680906.420    90015448.529 8      2929.834
G07  24139442.200   126853614.390 6      1551.391    24139440.200   126853614.387 2      1551.391    24139454.820    98846996.334 2      1208.876    24139456.740    98847014.271 5      1208.876
G10  23613611.840   124090350.547 7        41.273    23613611.120   124090350.539 6        41.273    23613620.960    96693826.378 6        32.161    23613621.140    96693829.390 7        32.161
R02  21934899.340   117048832.383 7      5031.395    21934890.300   117048832.381 7      5031.395    21934906.740    91038007.565 7      3913.307    21934907.060    91038009.562 7      3913.307
R16  21962722.520   117320889.927 7      5263.385    21962722.740   117320889.941 7      5263.385    21962734.540    91249671.477 8      4093.744    21962734.560    91249645.476 8      4093.744
G16  23412053.240   123031155.391 7      -766.310    23412052.060   123031155.388 4      -766.310    23412065.040    95868467.417 4      -597.125
R14  22135109.800   117992571.357 6     -1441.934    22135110.800   117992571.354 6     -1441.934    22135128.300    91772083.337 6     -1121.504    22135127.980    91772083.337 6     -1121.504
> 2025 04 04 15 13 23.0000000  0 15
R01  22592182.880   120768160.597 6      1902.124    22592182.260   120768160.607 6      1902.124    22592197.300    93930794.862 6      1479.430    22592196.780    93930795.112 6      1479.430
G02  21096490.060   110862798.191 7      2089.941    21096488.040   110862798.193 6      2089.941    21096492.320    86386599.554 6      1628.525
R24  23049330.180   123255123.218 6       568.584    23049329.660   123255123.212 6       568.584    23049345.040    95865151.358 7       442.232    23049345.720    95865167.346 7       442.232
G08  20585406.340   108177035.420 8      2972.066    20585405.120   108177035.425 8      2972.066    20585413.220    84293821.390 8      2315.896    20585413.860    84293826.390 8      2315.896
R15  20017526.840   106967587.720 8      1394.366    20017526.520   106967587.716 7      1394.366    20017538.380    83197058.035 8      1084.507    20017538.000    83197059.040 8      1084.507
G01  21358589.520   112240142.013 7      3836.753    21358588.640   112240142.015 6      3836.753    21358594.380    87459873.776 6      2989.677    21358595.460    87459875.777 8      2989.677
G27  21862528.040   114888353.323 7      1141.055    21862525.740   114888353.327 7      1141.055    21862536.660    89523427.597 7       889.133    21862537.120    89523422.600 8       889.133
R17  20688282.800   110707181.501 7      2021.684    20688282.800   110707181.513 8      2021.684    20688294.420    86105628.075 8      1572.421    20688293.640    86105627.074 8      1572.421
R18  21680187.100   115730291.995 7      3767.549    21680188.160   115730292.001 7      3767.549    21680201.300    90012526.440 8      2930.316    21680200.560    90012518.449 8      2930.316
G07  24139146.760   126852063.017 6      1551.471    24139144.900   126852063.011 2      1551.471    24139159.660    98845787.469 2      1208.939    24139162.540    98845805.409 5      1208.939
G10  23613603.960   124090309.153 7        41.560    23613603.120   124090309.150 6        41.560    23613613.280    96693794.127 6        32.384    23613613.160    96693797.139 7        32.384
R02  21933956.140   117043800.805 7      5031.608    21933947.560   117043800.795 7      5031.608    21933963.560    91034094.124 7      3913.473    21933964.060    91034096.121 7      3913.473
R16  21961737.080   117315626.564 7      5263.291    21961737.660   117315626.576 7      5263.291    21961749.400    91245577.759 8      4093.670    21961749.140    91245551.758 8      4093.670
G16  23412198.500   123031921.478 7      -765.942    23412197.740   123031921.475 4      -765.942    23412211.000    95869064.357 4      -596.838
R14  22135379.960   117994013.101 6     -1441.553    22135381.880   117994013.101 6     -1441.553    22135398.960    91773204.681 6     -1121.208    22135398.460    91773204.687 6     -1121.208
> 2025 04 04 15 13 24.0000000  0 15
R01  22591827.080   120766258.627 6      1901.653    22591826.660   120766258.628 6      1901.653    22591841.140    93929315.564 6      1479.063    22591840.960    93929315.814 6      1479.063
G02  21096092.340   110860708.224 7      2089.900    21096090.240   110860708.224 6      2089.900    21096094.560    86384971.012 6      1628.493
R24  23049223.700   123254554.578 6       568.618    23049223.360   123254554.569 6       568.618    23049239.240    95864709.081 7       442.258    23049239.360    95864725.069 7       442.258
G08  20584840.640   108174063.314 8      2972.057    20584839.480   108174063.324 8      2972.057    20584847.700    84291505.477 8      2315.889    20584848.440    84291510.477 8      2315.889
R15  20017265.780   106966193.600 8      1393.797    20017265.420   106966193.599 7      1393.797    20017277.580    83195973.722 8      1084.064    20017277.360    83195974.724 8      1084.064
G01  21357859.540   112236305.285 7      3836.661    21357858.580   112236305.285 6      3836.661    21357864.380    87456884.125 6      2989.606    21357865.220    87456886.125 8      2989.606
G27  21862310.640   114887212.160 7      1141.170    21862308.660   114887212.157 7      1141.170    21862319.520    89522538.376 7       889.223    21862320.100    89522533.382 8       889.223
R17  20687904.660   110705159.731 8      2021.802    20687905.120   110705159.736 8      2021.802    20687916.580    86104055.585 8      1572.513    20687915.880    86104054.583 8      1572.513
R18  21679481.160   115726524.386 7      3767.610    21679482.320   115726524.403 7      3767.610    21679495.580    90009596.093 8      2930.363    21679494.800    90009588.099 8      2930.363
G07  24138851.620   126850511.433 6      1551.463    24138849.600   126850511.428 2      1551.463    24138864.460    98844578.435 2      1208.932    24138867.020    98844596.381 5      1208.932
G10  23613596.300   124090267.652 7        41.363    23613595.300   124090267.649 6        41.363    23613605.620    96693761.790 6        32.231    23613605.140    96693764.806 7        32.231
R02  21933012.940   117038769.286 7      5031.284    21933005.120   117038769.287 7      5031.284    21933020.580    91030180.741 7      3913.221    21933021.040    91030182.736 7      3913.221
R16  21960751.960   117310363.405 7      5262.785    21960752.240   117310363.417 7      5262.785    21960763.960    91241484.197 7      4093.277    21960763.820    91241458.197 8      4093.277
G16  23412344.480   123032687.263 7      -765.899    23412343.500   123032687.260 4      -765.899    23412356.700    95869661.060 4      -596.804
R14  22135650.320   117995454.514 7     -1441.397    22135651.900   117995454.523 6     -1441.397    22135669.760    91774325.766 6     -1121.086    22135669.580    91774325.774 6     -1121.086
> 2025 04 04 15 13 25.0000000  0 15
R01  22591470.940   120764356.992 6      1901.628    22591470.720   120764356.999 6      1901.628    22591485.520    93927834.852 6      1479.044    22591485.000    93927835.102 6      1479.044
G02  21095694.480   110858618.034 7      2090.393    21095692.560   110858618.036 6      2090.393    21095696.800    86383342.296 6      1628.877
R24  23049117.600   123253985.433 6       569.407    23049116.860   123253985.421 6       569.407    23049132.740    95864266.406 7       442.872    23049132.800    95864282.396 7       442.872
G08  20584275.280   108171091.068 8      2972.399    20584273.960   108171091.076 8      2972.399    20584282.040    84289189.440 8      2316.155    20584282.760    84289194.440 8      2316.155
R15  20017005.020   106964799.905 8      1393.572    20017004.680   106964799.904 7      1393.572    20017016.660    83194889.739 8      1083.889    20017016.340    83194890.741 8      1083.889
G01  21357129.160   112232468.484 7      3836.869    21357128.380   112232468.486 6      3836.869    21357134.100    87453894.420 6      2989.768    21357135.020    87453896.416 8      2989.768
G27  21862093.480   114886070.853 7      1141.404    21862091.440   114886070.861 7      1141.404    21862102.460    89521649.054 7       889.406    21862102.620    89521644.054 8       889.406
R17  20687527.060   110703137.584 7      2022.381    20687527.280   110703137.591 8      2022.381    20687538.780    86102482.811 8      1572.963    20687537.800    86102481.808 8      1572.963
R18  21678775.500   115722756.506 7      3768.103    21678776.720   115722756.517 7      3768.103    21678789.580    90006665.525 8      2930.747    21678789.040    90006657.530 8      2930.747
G07  24138556.340   126848959.742 6      1551.815    24138554.560   126848959.739 2      1551.815    24138569.220    98843369.325 2      1209.206    24138571.180    98843387.271 5      1209.206
G10  23613588.100   124090226.095 7        41.598    23613587.280   124090226.095 6        41.598    23613597.740    96693729.410 6        32.414    23613597.240    96693732.430 7        32.414
R02  21932070.060   117033737.898 7      5031.368    21932062.020   117033737.890 7      5031.368    21932077.900    91026267.447 7      3913.286    21932078.340    91026269.442 7      3913.286
R16  21959766.580   117305100.483 7      5262.801    21959766.960   117305100.492 7      5262.801    21959778.760    91237390.813 8      4093.290    21959778.460    91237364.812 8      4093.290
G16  23412490.240   123033452.811 7      -765.416    23412489.280   123033452.806 4      -765.416    23412502.540    95870257.577 4      -596.428
R14  22135920.760   117996895.720 7     -1441.104    22135922.460   117996895.720 6     -1441.104    22135939.440    91775446.679 6     -1120.858    22135939.860    91775446.689 6     -1120.858
> 2025 04 04 15 13 26.0000000  0 15
R01  22591115.300   120762455.751 6      1901.000    22591115.340   120762455.758 6      1901.000    22591129.780    93926356.219 6      1478.556    22591129.300    93926356.469 6      1478.556
G02  21095296.840   110856527.662 7      2090.315    21095294.700   110856527.664 6      2090.315    21095299.100    86381713.441 6      1628.817
R24  23049010.980   123253415.796 6       569.769    23049010.100   123253415.776 6       569.769    23049026.160    95863823.347 7       443.154    23049026.520    95863839.339 7       443.154
G08  20583709.640   108168118.649 8      2972.434    20583708.340   108168118.654 8      2972.434    20583716.520    84286873.273 8      2316.182    20583716.980    84286878.276 8      2316.182
R15  20016744.240   106963406.627 8      1392.979    20016743.860   106963406.623 8      1392.979    20016756.120    83193806.081 8      1083.428    20016755.880    83193807.083 8      1083.428
G01  21356399.060   112228631.612 7      3836.820    21356398.220   112228631.611 6      3836.820    21356404.020    87450904.655 6      2989.730    21356404.900    87450906.650 8      2989.730
G27  21861876.500   114884929.354 7      1141.533    21861874.100   114884929.356 7      1141.533    21861885.240    89520759.578 7       889.506    21861885.360    89520754.576 8       889.506
R17  20687149.060   110701115.122 8      2022.565    20687149.220   110701115.129 8      2022.565    20687160.820    86100909.788 8      1573.106    20687160.000    86100908.788 8      1573.106
R18  21678069.500   115718988.380 7      3768.187    21678070.760   115718988.391 7      3768.187    21678083.400    90003734.769 8      2930.812    21678082.600    90003726.775 8      2930.812
G07  24138261.360   126847407.983 6      1551.568    24138259.420   126847407.980 2      1551.568    24138273.940    98842160.160 2      1209.014    24138275.400    98842178.089 5      1209.014
G10  23613580.020   124090184.470 7        41.624    23613579.320   124090184.467 6        41.624    23613589.880    96693696.975 6        32.434    23613589.840    96693699.993 7        32.434
R02  21931127.300   117028706.589 7      5031.157    21931119.640   117028706.577 7      5031.157    21931134.740    91022354.220 7      3913.122    21931135.380    91022356.215 7      3913.122
R16  21958781.780   117299837.823 7      5262.396    21958781.700   117299837.837 7      5262.396    21958793.840    91233297.648 8      4092.975    21958793.780    91233271.646 8      4092.975
G16  23412635.780   123034218.099 6      -765.171    23412634.980   123034218.094 4      -765.171    23412648.020    95870853.895 4      -596.237
R14  22136191.480   117998336.680 7     -1440.908    22136192.860   117998336.667 6     -1440.908    22136209.360    91776567.401 6     -1120.706    22136209.540    91776567.402 6     -1120.706
> 2025 04 04 15 13 27.0000000  0 15
R01  22590759.840   120760554.921 6      1900.617    22590759.880   120760554.944 6      1900.617    22590773.760    93924878.334 6      1478.258    22590773.480    93924878.584 6      1478.258
G02  21094898.760   110854437.151 7      2090.546    21094897.040   110854437.153 6      2090.546    21094901.240    86380084.478 6      1628.997
R24  23048903.660   123252845.667 6       570.431    23048903.260   123252845.655 6       570.431    23048919.740    95863379.919 7       443.668    23048920.120    95863395.910 7       443.668
G08  20583144.080   108165146.162 8      2972.586    20583142.640   108165146.167 8      2972.586    20583150.820    84284557.056 8      2316.301    20583151.400    84284562.058 8      2316.301
R15  20016484.000   106962013.846 8      1392.592    20016483.280   106962013.836 7      1392.592    20016495.400    83192722.804 8      1083.127    20016495.340    83192723.807 8      1083.127
G01  21355668.960   112224794.750 7      3836.881    21355668.040   112224794.752 6      3836.881    21355673.980    87447914.899 6      2989.777    21355674.760    87447916.893 8      2989.777
G27  21861659.220   114883787.777 7      1141.704    21861657.040   114883787.779 7      1141.704    21861667.960    89519870.035 7       889.640    21861668.120    89519865.040 8       889.640
R17  20686771.140   110699092.397 8      2022.854    20686771.360   110699092.404 8      2022.854    20686782.660    86099336.564 8      1573.331    20686782.100    86099335.563 8      1573.331
R18  21677363.740   115715220.043 7      3768.525    21677364.620   115715220.054 7      3768.525    21677377.800    90000803.848 8      2931.075    21677376.960    90000795.855 8      2931.075
G07  24137965.620   126845856.166 6      1551.745    24137964.080   126845856.163 2      1551.745    24137978.660    98840950.946 2      1209.152    24137980.900    98840968.881 5      1209.152
G10  23613572.400   124090142.897 7        41.557    23613571.340   124090142.894 6        41.557    23613582.000    96693664.583 6        32.382    23613581.560    96693667.601 7        32.382
R02  21930184.500   117023675.430 7      5031.062    21930177.080   117023675.428 7      5031.062    21930191.840    91018441.117 7      3913.049    21930192.360    91018443.110 7      3913.049
R16  21957796.500   117294575.542 7      5262.087    21957796.740   117294575.557 7      5262.087    21957808.620    91229204.769 7      4092.734    21957808.560    91229178.765 8      4092.734
G16  23412781.560   123034983.277 6      -765.116    23412780.600   123034983.274 4      -765.116    23412793.880    95871450.128 4      -596.195
R14  22136461.620   117999777.515 7     -1440.702    22136462.940   117999777.518 6     -1440.702    22136479.120    91777688.046 6     -1120.546    22136479.840    91777688.056 6     -1120.546
> 2025 04 04 15 13 28.0000000  0 15
R01  22590403.940   120758654.434 6      1900.402    22590403.940   120758654.459 6      1900.402    22590418.880    93923398.620 6      1478.090    22590418.120    93923398.870 6      1478.090
G02  21094501.100   110852346.401 7      2091.008    21094499.160   110852346.403 6      2091.008    21094503.400    86378455.324 6      1629.357
R24  23048797.260   123252275.038 6       571.040    23048796.020   123252275.042 6       571.040    23048812.740    95862936.103 7       444.142    23048813.360    95862952.091 7       444.142
G08  20582578.360   108162173.483 8      2972.947    20582577.020   108162173.486 8      2972.947    20582585.040    84282240.683 8      2316.582    20582585.680    84282245.685 8      2316.582
R15  20016223.320   106960621.452 7      1392.356    20016222.740   106960621.453 7      1392.356    20016235.040    83191639.840 8      1082.944    20016234.620    83191640.844 8      1082.944
G01  21354939.020   112220957.767 7      3837.230    21354937.940   112220957.772 6      3837.230    21354943.900    87444925.053 6      2990.050    21354944.480    87444927.045 8      2990.050
G27  21861441.920   114882646.005 7      1141.997    21861439.620   114882646.009 7      1141.997    21861450.780    89518980.347 7       889.868    21861450.700    89518975.343 8       889.868
R17  20686393.140   110697069.260 8      2023.518    20686393.440   110697069.272 8      2023.518    20686404.620    86097763.019 8      1573.848    20686403.840    86097762.021 8      1573.848
R18  21676657.380   115711451.433 7      3768.897    21676658.860   115711451.440 7      3768.897    21676671.720    89997872.714 8      2931.364    21676671.180    89997864.718 8      2931.364
G07  24137670.340   126844304.204 6      1552.193    24137668.760   126844304.201 2      1552.193    24137683.240    98839741.617 2      1209.501    24137686.000    98839759.564 6      1209.501
G10  23613564.400   124090101.233 7        41.806    23613563.480   124090101.230 6        41.806    23613574.080    96693632.119 6        32.576    23613573.780    96693635.137 7        32.576
R02  21929241.280   117018644.341 7      5031.131    21929234.080   117018644.347 7      5031.131    21929248.980    91014528.066 7      3913.102    21929249.720    91014530.063 7      3913.102
R16  21956811.200   117289313.496 7      5262.082    21956811.760   117289313.516 7      5262.082    21956823.500    91225112.075 7      4092.730    21956823.520    91225086.073 8      4092.730
G16  23412926.720   123035748.166 7      -764.684    23412926.220   123035748.166 4      -764.684    23412939.380    95872046.137 4      -595.858
R14  22136731.840   118001218.134 7     -1440.241    22136732.980   118001218.140 6     -1440.241    22136749.560    91778808.507 6     -1120.188    22136749.960    91778808.523 6     -1120.188
> 2025 04 04 15 13 29.0000000  0 15
R01  22590048.400   120756754.181 6      1900.089    22590048.820   120756754.207 6      1900.089    22590063.040    93921920.403 6      1477.847    22590062.900    93921920.653 6      1477.847
G02  21094103.200   110850255.307 7      2091.337    21094101.220   110850255.309 6      2091.337    21094105.520    86376825.906 6      1629.613
R24  23048690.100   123251703.816 6       571.632    23048689.640   123251703.809 6       571.632    23048706.020    95862491.810 7       444.602    23048706.560    95862507.799 7       444.602
G08  20582012.480   108159200.507 8      2973.080    20582011.280   108159200.518 8      2973.080    20582019.320    84279924.088 8      2316.686    20582020.000    84279929.090 8      2316.686
R15  20015963.280   106959229.342 8      1392.023    20015962.300   106959229.335 7      1392.023    20015974.420    83190557.083 8      1082.685    20015974.320    83190558.087 8      1082.685
G01  21354208.820   112217120.611 7      3837.267    21354207.760   112217120.614 6      3837.267    21354213.520    87441935.063 6      2990.078    21354214.500    87441937.057 8      2990.078
G27  21861224.440   114881503.920 7      1142.276    21861222.280   114881503.925 7      1142.276    21861233.360    89518090.408 7       890.085    21861233.340    89518085.409 8       890.085
R17  20686014.900   110695045.636 8      2023.917    20686015.560   110695045.648 8      2023.917    20686026.380    86096189.100 8      1574.158    20686025.900    86096188.095 8      1574.158
R18  21675951.320   115707682.395 7      3769.297    21675952.840   115707682.401 7      3769.297    21675965.520    89994941.246 8      2931.675    21675965.200    89994933.252 8      2931.675
G07  24137375.180   126842752.045 5      1552.047    24137373.340   126842752.039 2      1552.047    24137387.940    98838532.138 2      1209.387    24137391.400    98838550.092 6      1209.387
G10  23613556.320   124090059.366 7        42.048    23613555.360   124090059.360 6        42.048    23613566.120    96693599.493 6        32.764    23613565.940    96693602.505 7        32.764
R02  21928298.620   117013613.235 7      5031.173    21928291.580   117013613.236 7      5031.173    21928306.020    91010615.001 7      3913.134    21928306.660    91010616.992 7      3913.134
R16  21955826.020   117284051.614 7      5261.830    21955826.480   117284051.631 7      5261.830    21955838.320    91221019.508 7      4092.534    21955838.600    91220993.504 8      4092.534
G16  23413072.080   123036512.695 7      -764.286    23413071.600   123036512.694 4      -764.286    23413084.980    95872641.863 4      -595.548
R14  22137001.680   118002658.455 6     -1440.035    22137003.240   118002658.453 6     -1440.035    22137019.180    91779928.738 6     -1120.028    22137020.200    91779928.741 6     -1120.028
> 2025 04 04 15 13 30.0000000  0 15
R01  22589693.500   120754854.341 6      1899.656    22589693.960   120754854.353 6      1899.656    22589708.260    93920444.846 6      1477.510    22589707.340    93920445.096 6      1477.510
G02  21093705.220   110848164.073 7      2091.260    21093703.200   110848164.073 6      2091.260    21093707.620    86375196.376 6      1629.553
R24  23048583.360   123251132.163 6       571.909    23048582.220   123251132.140 6       571.909    23048599.080    95862047.177 7       444.818    23048599.580    95862063.165 7       444.818
G08  20581446.640   108156227.419 8      2973.093    20581445.520   108156227.423 8      2973.093    20581453.580    84277607.396 8      2316.696    20581454.100    84277612.396 8      2316.696
R15  20015702.580   106957837.677 8      1391.379    20015701.660   106957837.673 7      1391.379    20015714.120    83189474.684 8      1082.183    20015713.740    83189475.688 8      1082.183
G01  21353478.700   112213283.424 7      3837.105    21353477.600   112213283.429 6      3837.105    21353483.520    87438945.053 6      2989.952    21353484.120    87438947.045 8      2989.952
G27  21861007.080   114880361.727 7      1142.152    21861004.900   114880361.727 7      1142.152    21861016.140    89517200.388 7       889.988    21861016.060    89517195.389 8       889.988
R17  20685636.560   110693021.702 8      2024.017    20685637.060   110693021.719 8      2024.017    20685648.040    86094614.933 8      1574.235    20685647.600    86094613.932 8      1574.235
R18  21675245.700   115703913.147 7      3769.316    21675246.900   115703913.151 7      3769.316    21675259.260    89992009.611 8      2931.690    21675259.040    89992001.618 8      2931.690
G07  24137080.080   126841199.800 5      1552.120    24137077.840   126841199.799 2      1552.120    24137092.540    98837322.590 2      1209.444    24137095.300    98837340.542 6      1209.444
G10  23613548.460   124090017.533 7        41.744    23613547.300   124090017.522 6        41.744    23613558.340    96693566.890 6        32.528    23613557.840    96693569.898 7        32.528
R02  21927355.860   117008582.325 7      5030.738    21927348.620   117008582.325 7      5030.738    21927363.260    91006702.080 7      3912.796    21927364.120    91006704.076 7      3912.796
R16  21954841.040   117278790.040 7      5261.388    21954841.280   117278790.052 7      5261.388    21954853.540    91216927.175 8      4092.191    21954853.600    91216901.172 8      4092.191
G16  23413217.500   123037277.042 7      -764.250    23413217.140   123037277.045 4      -764.250    23413230.460    95873237.448 4      -595.520
R14  22137271.260   118004098.579 6     -1440.134    22137273.140   118004098.584 6     -1440.134    22137289.420    91781048.824 6     -1120.104    22137290.260    91781048.811 6     -1120.104
> 2025 04 04 15 13 31.0000000  0 15
R01  22589338.060   120752954.823 6      1899.323    22589338.040   120752954.833 6      1899.323    22589352.660    93918967.045 6      1477.251    22589351.720    93918967.295 6      1477.251
G02  21093307.180   110846072.548 7      2091.665    21093305.180   110846072.551 6      2091.665    21093309.600    86373566.624 6      1629.869
R24  23048476.740   123250559.876 6       572.747    23048475.080   123250559.851 6       572.747    23048492.360    95861602.061 7       445.470    23048492.700    95861618.049 7       445.470
G08  20580880.960   108153254.104 8      2973.410    20580879.740   108153254.114 8      2973.410    20580887.740    84275290.535 8      2316.943    20580888.580    84275295.537 8      2316.943
R15  20015442.140   106956446.350 8      1391.108    20015441.340   106956446.346 7      1391.108    20015453.680    83188392.542 8      1081.973    20015453.260    83188393.546 8      1081.973
G01  21352748.280   112209446.071 7      3837.452    21352747.420   112209446.073 6      3837.452    21352753.160    87435954.914 6      2990.223    21352754.080    87435956.906 8      2990.223
G27  21860789.780   114879219.269 7      1142.599    21860787.500   114879219.269 7      1142.599    21860798.600    89516310.163 7       890.337    21860798.780    89516305.158 8       890.337
R17  20685258.280   110690997.377 7      2024.468    20685258.900   110690997.389 8      2024.468    20685269.880    86093040.462 8      1574.586    20685269.400    86093039.462 8      1574.586
R18  21674539.280   115700143.527 7      3769.798    21674540.840   115700143.536 7      3769.798    21674552.940    89989077.696 8      2932.065    21674552.600    89989069.703 8      2932.065
G07  24136784.640   126839647.378 5      1552.445    24136782.440   126839647.378 2      1552.445    24136797.020    98836112.911 2      1209.697    24136798.800    98836130.863 6      1209.697
G10  23613540.540   124089975.543 7        42.021    23613539.480   124089975.535 6        42.021    23613550.360    96693534.174 6        32.744    23613550.100    96693537.188 7        32.744
R02  21926413.200   117003551.419 7      5030.871    21926405.840   117003551.423 7      5030.871    21926420.340    91002789.175 7      3912.900    21926421.380    91002791.170 7      3912.900
R16  21953856.300   117273528.622 7      5261.371    21953856.480   117273528.629 7      5261.371    21953868.620    91212834.968 8      4092.177    21953868.660    91212808.962 8      4092.177
G16  23413362.900   123038041.090 7      -763.868    23413362.560   123038041.095 4      -763.868    23413375.960    95873832.802 4      -595.222
R14  22137542.160   118005538.433 6     -1439.839    22137543.340   118005538.428 6     -1439.839    22137558.200    91782168.679 6     -1119.874    22137559.660    91782168.674 6     -1119.874
> 2025 04 04 15 13 32.0000000  0 15
R01  22588983.300   120751055.670 6      1898.949    22588983.160   120751055.676 6      1898.949    22588997.520    93917492.071 6      1476.960    22588996.540    93917492.321 6      1476.960
G02  21092909.080   110843980.845 7      2091.744    21092907.180   110843980.849 6      2091.744    21092911.500    86371936.733 6      1629.930
R24  23048370.160   123249987.087 6       572.942    23048368.240   123249987.067 6       572.942    23048385.220    95861156.564 7       445.622    23048385.320    95861172.552 7       445.622
G08  20580315.260   108150280.652 8      2973.408    20580313.940   108150280.660 8      2973.408    20580321.900    84272973.564 8      2316.941    20580322.600    84272978.566 8      2316.941
R15  20015181.560   106955055.436 8      1390.630    20015181.180   106955055.427 7      1390.630    20015193.300    83187310.720 8      1081.601    20015193.260    83187311.723 8      1081.601
G01  21352018.020   112205608.684 7      3837.338    21352016.980   112205608.691 6      3837.338    21352022.920    87432964.752 6      2990.134    21352023.960    87432966.747 8      2990.134
G27  21860572.100   114878076.680 7      1142.559    21860570.180   114878076.677 7      1142.559    21860581.160    89515419.834 7       890.306    21860581.400    89515414.831 8       890.306
R17  20684879.960   110688972.752 8      2024.688    20684880.620   110688972.764 8      2024.688    20684891.320    86091465.756 8      1574.757    20684890.800    86091464.758 8      1574.757
R18  21673832.860   115696373.703 7      3769.791    21673834.660   115696373.709 7      3769.791    21673846.760    89986145.619 8      2932.059    21673846.360    89986137.624 8      2932.059
G07  24136488.820   126838094.904 5      1552.360    24136487.000   126838094.903 2      1552.360    24136501.740    98834903.185 2      1209.631    24136503.940    98834921.118 6      1209.631
G10  23613532.120   124089933.510 7        42.040    23613531.380   124089933.507 6        42.040    23613542.480    96693501.428 6        32.758    23613542.260    96693504.440 7        32.758
R02  21925470.620   116998520.650 7      5030.645    21925463.340   116998520.648 7      5030.645    21925477.820    90998876.367 7      3912.724    21925478.260    90998878.362 7      3912.724
R16  21952871.400   117268267.466 7      5260.972    21952871.180   117268267.483 7      5260.972    21952883.620    91208742.972 8      4091.867    21952883.840    91208716.966 8      4091.867
G16  23413508.700   123038804.923 7      -763.849    23413507.820   123038804.933 4      -763.849    23413521.200    95874427.988 4      -595.207
R14  22137812.200   118006978.053 6     -1439.566    22137813.800   118006978.034 6     -1439.566    22137828.460    91783288.361 6     -1119.663    22137829.260    91783288.377 6     -1119.663
> 2025 04 04 15 13 33.0000000  0 15
R01  22588627.880   120749156.839 6      1898.681    22588628.080   120749156.862 6      1898.681    22588642.120    93916014.352 6      1476.752    22588641.440    93916014.602 6      1476.752
G02  21092511.060   110841888.907 7      2092.012    21092509.140   110841888.907 6      2092.012    21092513.400    86370306.654 6      1630.139
R24  23048262.860   123249413.728 6       573.615    23048261.340   123249413.726 6       573.615    23048278.260    95860710.625 7       446.145    23048278.440    95860726.611 7       446.145
G08  20579749.320   108147307.009 8      2973.670    20579748.040   108147307.014 8      2973.670    20579755.980    84270656.444 8      2317.145    20579756.760    84270661.446 8      2317.145
R15  20014921.540   106953664.897 8      1390.299    20014920.920   106953664.890 7      1390.299    20014933.300    83186229.190 8      1081.344    20014932.840    83186230.194 8      1081.344
G01  21351287.640   112201771.189 7      3837.547    21351286.780   112201771.191 6      3837.547    21351292.800    87429974.501 6      2990.297    21351293.600    87429976.495 8      2990.297
G27  21860354.480   114876933.873 7      1142.948    21860352.620   114876933.867 7      1142.948    21860363.600    89514529.333 7       890.609    21860363.880    89514524.331 8       890.609
R17  20684501.560   110686947.732 8      2025.179    20684502.060   110686947.744 8      2025.179    20684512.880    86089890.747 8      1575.139    20684512.700    86089889.748 8      1575.139
R18  21673126.860   115692603.586 7      3770.129    21673128.540   115692603.589 7      3770.129    21673140.440    89983213.310 8      2932.323    21673139.920    89983205.315 8      2932.323
G07  24136193.620   126836542.251 5      1552.900    24136191.380   126836542.245 2      1552.900    24136206.200    98833693.317 2      1210.052    24136208.020    98833711.247 5      1210.052
G10  23613524.500   124089891.436 6        42.081    23613523.380   124089891.428 6        42.081    23613534.520    96693468.643 6        32.791    23613534.100    96693471.649 7        32.791
R02  21924527.580   116993489.952 7      5030.632    21924520.580   116993489.964 7      5030.632    21924534.980    90994963.625 7      3912.714    21924535.580    90994965.616 7      3912.714
R16  21951886.900   117263006.531 7      5260.802    21951886.440   117263006.546 7      5260.802    21951898.820    91204651.140 8      4091.735    21951899.160    91204625.134 8      4091.735
G16  23413653.740   123039568.498 7      -763.512    23413653.080   123039568.508 4      -763.512    23413666.520    95875022.976 4      -594.945
R14  22138082.620   118008417.424 6     -1439.283    22138083.500   118008417.406 6     -1439.283    22138098.340    91784407.858 6     -1119.442    22138098.920    91784407.874 6     -1119.442
> 2025 04 04 15 13 34.0000000  0 15
R01  22588272.280   120747258.332 6      1898.324    22588272.820   120747258.357 6      1898.324    22588287.060    93914535.886 6      1476.474    22588286.280    93914536.136 6      1476.474
G02  21092113.020   110839796.685 7      2092.337    21092111.020   110839796.682 6      2092.337    21092115.320    86368676.352 6      1630.392
R24  23048155.480   123248839.799 6       574.248    23048154.480   123248839.782 6       574.248    23048170.700    95860264.223 7       446.638    23048171.060    95860280.212 7       446.638
G08  20579183.340   108144333.145 8      2973.879    20579182.180   108144333.150 8      2973.879    20579190.040    84268339.149 8      2317.308    20579190.780    84268344.151 8      2317.308
R15  20014661.380   106952274.705 8      1389.921    20014660.680   106952274.700 7      1389.921    20014673.080    83185147.933 8      1081.050    20014672.840    83185148.938 8      1081.050
G01  21350557.460   112197933.568 7      3837.654    21350556.400   112197933.570 6      3837.654    21350562.440    87426984.153 6      2990.380    21350563.120    87426986.143 8      2990.380
G27  21860137.180   114875790.853 7      1143.098    21860135.100   114875790.855 7      1143.098    21860146.060    89513638.674 7       890.726    21860146.500    89513633.670 8       890.726
R17  20684122.920   110684922.251 8      2025.680    20684123.820   110684922.263 8      2025.680    20684134.340    86088315.379 8      1575.529    20684133.900    86088314.380 8      1575.529
R18  21672420.420   115688833.100 7      3770.612    21672421.960   115688833.114 7      3770.612    21672433.860    89980280.725 8      2932.698    21672433.660    89980272.733 8      2932.698
G07  24135897.820   126834989.475 5      1552.843    24135895.800   126834989.472 2      1552.843    24135910.600    98832483.357 2      1210.008    24135912.220    98832501.268 5      1210.008
G10  23613516.380   124089849.217 7        42.140    23613515.320   124089849.217 6        42.140    23613526.540    96693435.747 6        32.836    23613526.400    96693438.763 7        32.836
R02  21923584.940   116988459.335 7      5030.494    21923577.660   116988459.333 7      5030.494    21923591.980    90991050.929 7      3912.606    21923592.880    90991052.920 7      3912.606
R16  21950901.840   117257745.802 7      5260.589    21950901.640   117257745.822 7      5260.589    21950914.080    91200559.470 7      4091.569    21950914.100    91200533.464 8      4091.569
G16  23413799.460   123040331.768 7      -763.185    23413798.380   123040331.773 4      -763.185    23413811.700    95875617.717 4      -594.690
R14  22138352.680   118009856.490 6     -1438.949    22138353.620   118009856.493 6     -1438.949    22138368.140    91785527.129 6     -1119.183    22138369.160    91785527.142 6     -1119.183
> 2025 04 04 15 13 35.0000000  0 15
R01  22587917.160   120745360.122 6      1898.041    22587917.000   120745360.142 6      1898.041    22587932.120    93913059.414 6      1476.254    22587931.060    93913059.664 6      1476.254
G02  21091714.840   110837704.193 7      2092.588    21091712.880   110837704.196 6      2092.588    21091717.180    86367045.844 6      1630.588
R24  23048047.760   123248265.315 6       574.828    23048047.100   123248265.297 6       574.828    23048063.520    95859817.400 7       447.088    23048063.700    95859833.388 7       447.088
G08  20578617.380   108141359.045 8      2974.229    20578616.180   108141359.049 8      2974.229    20578624.020    84266021.670 8      2317.581    20578625.080    84266026.674 8      2317.581
R15  20014401.400   106950884.857 8      1389.632    20014400.700   106950884.856 8      1389.632    20014412.820    83184066.945 8      1080.825    20014412.720    83184067.947 8      1080.825
G01  21349827.040   112194095.794 7      3837.834    21349826.020   112194095.797 6      3837.834    21349832.080    87423993.686 6      2990.520    21349832.860    87423995.676 8      2990.520
G27  21859919.560   114874647.573 7      1143.451    21859917.460   114874647.575 7      1143.451    21859928.500    89512747.804 7       891.001    21859928.640    89512742.797 8       891.001
R17  20683744.520   110682896.323 8      2026.153    20683745.280   110682896.338 8      2026.153    20683755.660    86086739.659 8      1575.896    20683755.420    86086738.663 8      1575.896
R18  21671713.560   115685062.268 7      3771.011    21671715.760   115685062.285 7      3771.011    21671727.480    89977347.870 8      2933.009    21671727.240    89977339.880 8      2933.009
G07  24135602.060   126833436.457 5      1553.548    24135600.120   126833436.451 2      1553.548    24135615.280    98831273.203 2      1210.557    24135616.240    98831291.135 5      1210.557
G10  23613508.360   124089806.872 7        42.446    23613507.320   124089806.872 6        42.446    23613518.380    96693402.749 6        33.075    23613518.060    96693405.754 7        33.075
R02  21922642.400   116983428.734 7      5030.590    21922635.140   116983428.727 7      5030.590    21922649.340    90987138.249 7      3912.681    21922650.200    90987140.244 7      3912.681
R16  21949916.800   117252485.279 7      5260.487    21949916.760   117252485.296 7      5260.487    21949929.280    91196467.954 8      4091.490    21949929.340    91196441.946 8      4091.490
G16  23413944.580   123041094.739 7      -762.803    23413943.620   123041094.741 4      -762.803    23413957.120    95876212.230 4      -594.392
R14  22138622.120   118011295.313 7     -1438.685    22138623.460   118011295.308 6     -1438.685    22138638.420    91786646.184 6     -1118.977    22138638.960    91786646.204 6     -1118.977
> 2025 04 04 15 13 36.0000000  0 15
R01  22587562.380   120743462.339 6      1897.441    22587562.040   120743462.375 6      1897.441    22587577.300    93911584.357 6      1475.787    22587576.360    93911584.607 6      1475.787
G02  21091316.640   110835611.575 7      2092.572    21091314.660   110835611.575 6      2092.572    21091319.000    86365415.237 6      1630.575
R24  23047940.440   123247690.403 6       575.033    23047939.800   123247690.388 6       575.033    23047955.980    95859370.244 7       447.248    23047956.140    95859386.232 7       447.248
G08  20578051.500   108138384.881 8      2974.101    20578050.300   108138384.883 8      2974.101    20578058.100    84263704.146 8      2317.481    20578059.000    84263709.150 8      2317.481
R15  20014141.280   106949495.525 8      1388.928    20014140.940   106949495.527 8      1388.928    20014152.840    83182986.354 8      1080.277    20014152.620    83182987.354 8      1080.277
G01  21349096.980   112190258.047 7      3837.606    21349095.660   112190258.052 6      3837.606    21349101.800    87421003.242 6      2990.342    21349102.560    87421005.234 8      2990.342
G27  21859702.220   114873504.234 7      1143.232    21859699.920   114873504.234 7      1143.232    21859710.880    89511856.896 7       890.830    21859711.000    89511851.890 8       890.830
R17  20683365.700   110680870.155 8      2026.144    20683366.600   110680870.172 8      2026.144    20683377.060    86085163.757 8      1575.890    20683376.900    86085162.762 8      1575.890
R18  21671007.240   115681291.264 8      3771.029    21671009.120   115681291.273 7      3771.029    21671021.100    89974414.865 8      2933.023    21671020.880    89974406.869 8      2933.023
G07  24135306.740   126831883.478 5      1553.075    24135304.540   126831883.470 2      1553.075    24135319.900    98830063.086 2      1210.189    24135320.620    98830081.024 5      1210.189
G10  23613500.240   124089764.587 7        42.194    23613499.140   124089764.582 6        42.194    23613510.320    96693369.798 6        32.878    23613510.100    96693372.803 7        32.878
R02  21921699.960   116978398.362 7      5030.112    21921692.120   116978398.358 7      5030.112    21921706.660    90983225.750 7      3912.309    21921707.220    90983227.741 7      3912.309
R16  21948932.420   117247225.143 7      5259.818    21948932.100   117247225.155 7      5259.818    21948944.540    91192376.747 7      4090.970    21948944.620    91192350.741 8      4090.970
G16  23414089.620   123041857.570 7      -762.935    23414088.920   123041857.573 4      -762.935    23414102.220    95876806.632 4      -594.494
R14  22138892.500   118012734.000 7     -1438.735    22138893.340   118012733.995 6     -1438.735    22138908.740    91787765.157 6     -1119.016    22138908.320    91787765.158 6     -1119.016
> 2025 04 04 15 13 37.0000000  0 15
R01  22587206.960   120741565.230 6      1896.954    22587207.560   120741565.258 6      1896.954    22587222.040    93910106.639 6      1475.409    22587221.320    93910106.889 6      1475.409
G02  21090918.480   110833519.038 7      2092.747    21090916.360   110833519.038 6      2092.747    21090920.740    86363784.693 6      1630.712
R24  23047832.860   123247115.292 6       575.486    23047832.040   123247115.286 6       575.486    23047848.440    95858922.940 7       447.600    23047848.820    95858938.926 7       447.600
G08  20577485.600   108135410.841 8      2974.187    20577484.320   108135410.843 8      2974.187    20577492.120    84261386.712 8      2317.548    20577492.880    84261391.717 8      2317.548
R15  20013881.500   106948106.907 8      1388.551    20013881.140   106948106.903 8      1388.551    20013892.960    83181906.317 8      1079.984    20013892.800    83181907.317 8      1079.984
G01  21348366.700   112186420.497 7      3837.676    21348365.340   112186420.499 6      3837.676    21348371.580    87418012.949 6      2990.397    21348372.280    87418014.936 8      2990.397
G27  21859484.720   114872360.981 7      1143.458    21859482.400   114872360.980 7      1143.458    21859493.280    89510966.044 7       891.007    21859493.320    89510961.045 8       891.007
R17  20682986.980   110678843.954 8      2026.456    20682987.840   110678843.969 8      2026.456    20682998.340    86083587.825 8      1576.133    20682998.360    86083586.829 8      1576.133
R18  21670301.060   115677520.277 8      3771.245    21670302.880   115677520.283 7      3771.245    21670314.760    89971481.881 8      2933.191    21670314.680    89971473.885 8      2933.191
G07  24135011.460   126830330.702 5      1553.000    24135009.280   126830330.699 2      1553.000    24135024.340    98828853.126 2      1210.130    24135025.680    98828871.037 5      1210.130
G10  23613492.580   124089722.500 7        42.300    23613491.200   124089722.491 6        42.300    23613502.340    96693336.998 6        32.961    23613502.340    96693340.002 7        32.961
R02  21920757.240   116973368.361 7      5030.090    21920749.680   116973368.354 7      5030.090    21920763.760    90979313.546 7      3912.292    21920764.840    90979315.539 7      3912.292
R16  21947948.120   117241965.530 7      5259.628    21947947.220   117241965.542 7      5259.628    21947959.880    91188285.938 8      4090.822    21947960.120    91188259.930 7      4090.822
G16  23414234.480   123042620.436 7      -762.641    23414234.200   123042620.438 4      -762.641    23414247.300    95877401.060 4      -594.266
R14  22139162.800   118014172.780 6     -1438.565    22139163.740   118014172.775 6     -1438.565    22139178.100    91788884.175 6     -1118.884    22139178.520    91788884.184 6     -1118.884
> 2025 04 04 15 13 38.0000000  0 15
R01  22586851.900   120739668.249 6      1896.830    22586852.160   120739668.277 6      1896.830    22586868.100    93908630.417 6      1475.313    22586866.360    93908630.667 6      1475.313
G02  21090520.400   110831426.081 7      2092.997    21090518.160   110831426.081 6      2092.997    21090522.420    86362153.819 6      1630.907
R24  23047725.580   123246539.495 6       575.971    23047724.520   123246539.491 6       575.971    23047740.780    95858475.092 7       447.977    23047741.120    95858491.082 7       447.977
G08  20576919.500   108132436.412 8      2974.460    20576918.340   108132436.422 8      2974.460    20576926.100    84259068.986 8      2317.761    20576926.800    84259073.986 8      2317.761
R15  20013621.520   106946718.516 8      1388.110    20013621.340   106946718.514 8      1388.110    20013633.080    83180826.459 8      1079.641    20013632.940    83180827.461 8      1079.641
G01  21347636.240   112182582.648 7      3837.943    21347634.980   112182582.650 6      3837.943    21347641.220    87415022.419 6      2990.605    21347641.800    87415024.409 8      2990.605
G27  21859267.120   114871217.353 7      1143.649    21859264.740   114871217.358 7      1143.649    21859275.580    89510074.910 7       891.155    21859275.640    89510069.903 8       891.155
R17  20682608.240   110676817.197 8      2026.923    20682609.080   110676817.215 8      2026.923    20682619.480    86082011.463 8      1576.495    20682619.600    86082010.466 8      1576.495
R18  21669594.400   115673748.793 7      3771.735    21669596.240   115673748.805 7      3771.735    21669608.100    89968548.509 8      2933.572    21669607.800    89968540.518 8      2933.572
G07  24134716.140   126828777.547 5      1553.180    24134713.680   126828777.544 2      1553.180    24134728.580    98827642.866 2      1210.270    24134730.400    98827660.810 5      1210.270
G10  23613484.180   124089680.165 7        42.307    23613483.180   124089680.165 6        42.307    23613494.220    96693304.018 6        32.966    23613494.380    96693307.020 7        32.966
R02  21919814.380   116968338.262 7      5030.077    21919807.080   116968338.254 7      5030.077    21919821.260    90975401.259 7      3912.282    21919822.140    90975403.256 7      3912.282
R16  21946963.340   117236705.987 7      5259.289    21946962.600   117236706.004 7      5259.289    21946975.340    91184195.196 8      4090.558    21946975.420    91184169.188 7      4090.558
G16  23414379.480   123043382.871 7      -762.371    23414379.280   123043382.870 4      -762.371    23414392.240    95877995.155 4      -594.055
R14  22139432.400   118015611.072 7     -1438.071    22139433.260   118015611.086 6     -1438.071    22139447.900    91790002.851 6     -1118.499    22139448.920    91790002.844 6     -1118.499
> 2025 04 04 15 13 39.0000000  0 15
R01  22586497.560   120737771.768 6      1896.450    22586497.840   120737771.807 6      1896.450    22586512.440    93907157.189 6      1475.017    22586511.960    93907157.439 6      1475.017
G02  21090121.940   110829333.024 7      2093.205    21090119.840   110829333.027 6      2093.205    21090124.040    86360522.876 6      1631.069
R24  23047617.640   123245963.265 6       576.663    23047616.860   123245963.258 6       576.663    23047633.300    95858026.910 7       448.516    23047633.520    95858042.901 7       448.516
G08  20576353.540   108129461.946 8      2974.689    20576352.340   108129461.954 8      2974.689    20576360.160    84256751.222 8      2317.940    20576360.580    84256756.222 8      2317.940
R15  20013361.900   106945330.624 8      1387.800    20013361.800   106945330.623 7      1387.800    20013373.240    83179746.990 8      1079.400    20013373.060    83179747.994 8      1079.400
G01  21346905.740   112178744.882 7      3837.893    21346904.720   112178744.889 6      3837.893    21346911.000    87412031.961 6      2990.566    21346911.760    87412033.949 8      2990.566
G27  21859049.400   114870073.679 7      1143.822    21859047.140   114870073.681 7      1143.822    21859057.900    89509183.738 7       891.290    21859058.100    89509178.732 8       891.290
R17  20682229.440   110674790.237 8      2027.215    20682230.380   110674790.254 8      2027.215    20682240.740    86080434.944 8      1576.722    20682240.720    86080433.950 8      1576.722
R18  21668888.100   115669977.189 7      3771.882    21668889.540   115669977.201 7      3771.882    21668901.580    89965615.052 7      2933.686    21668901.420    89965607.058 7      2933.686
G07  24134420.380   126827224.403 5      1553.313    24134418.440   126827224.403 2      1553.313    24134432.840    98826432.617 2      1210.374    24134433.800    98826450.557 5      1210.374
G10  23613476.140   124089637.899 7        42.365    23613475.080   124089637.896 6        42.365    23613486.180    96693271.083 6        33.011    23613486.620    96693274.085 7        33.011
R02  21918871.860   116963308.383 7      5029.966    21918864.740   116963308.363 7      5029.966    21918878.640    90971489.140 7      3912.196    21918879.420    90971491.133 7      3912.196
R16  21945978.740   117231446.834 7      5259.111    21945977.780   117231446.849 7      5259.111    21945990.840    91180104.750 8      4090.420    21945991.060    91180078.744 8      4090.420
G16  23414524.520   123044145.177 7      -762.118    23414524.400   123044145.179 4      -762.118    23414537.380    95878589.147 4      -593.858
R14  22139701.720   118017049.346 7     -1438.086    22139703.120   118017049.360 6     -1438.086    22139717.800    91791121.473 6     -1118.511    22139718.460    91791121.468 6     -1118.511
> 2025 04 04 15 13 40.0000000  0 15
R01  22586143.420   120735875.773 6      1895.855    22586143.360   120735875.799 6      1895.855    22586158.340    93905684.793 6      1474.554    22586156.940    93905685.043 6      1474.554
G02  21089723.640   110827239.868 7      2093.273    21089721.560   110827239.867 6      2093.273    21089725.660    86358891.847 6      1631.121
R24  23047509.420   123245386.620 6       576.968    23047509.080   123245386.624 6       576.968    23047525.480    95857578.415 7       448.753    23047525.520    95857594.407 7       448.753
G08  20575787.460   108126487.439 8      2974.588    20575786.380   108126487.441 8      2974.588    20575793.960    84254433.426 8      2317.861    20575794.600    84254438.428 8      2317.861
R15  20013102.120   106943943.251 8      1387.098    20013102.280   106943943.255 7      1387.098    20013113.640    83178667.928 8      1078.854    20013113.600    83178668.932 8      1078.854
G01  21346175.600   112174907.130 7      3837.693    21346174.400   112174907.134 6      3837.693    21346180.680    87409041.510 6      2990.410    21346181.400    87409043.501 8      2990.410
G27  21858831.720   114868929.942 7      1143.741    21858829.580   114868929.941 7      1143.741    21858840.300    89508292.514 7       891.227    21858840.460    89508287.508 8       891.227
R17  20681850.500   110672763.003 8      2027.384    20681851.720   110672763.018 8      2027.384    20681861.840    86078858.207 8      1576.854    20681861.900    86078857.213 8      1576.854
R18  21668181.500   115666205.417 7      3771.910    21668183.140   115666205.421 7      3771.910    21668194.880    89962681.455 8      2933.708    21668194.800    89962673.462 8      2933.708
G07  24134124.760   126825671.296 5      1553.022    24134122.680   126825671.295 2      1553.022    24134137.380    98825222.400 2      1210.147    24134138.200    98825240.350 5      1210.147
G10  23613468.260   124089595.659 7        42.177    23613466.980   124089595.661 6        42.177    23613478.160    96693238.171 6        32.865    23613478.580    96693241.181 7        32.865
R02  21917929.360   116958278.684 7      5029.696    21917922.020   116958278.671 7      5029.696    21917936.220    90967577.174 7      3911.986    21917936.780    90967579.171 7      3911.986
R16  21944994.140   117226188.058 7      5258.672    21944993.580   117226188.064 7      5258.672    21945006.240    91176014.593 8      4090.079    21945006.540    91175988.585 8      4090.079
G16  23414669.580   123044907.349 7      -762.074    23414669.460   123044907.351 4      -762.074    23414682.580    95879183.035 4      -593.824
R14  22139971.760   118018487.460 7     -1438.071    22139973.300   118018487.463 6     -1438.071    22139987.540    91792239.981 6     -1118.500    22139988.500    91792239.984 6     -1118.500
> 2025 04 04 15 13 41.0000000  0 15
R01  22585788.840   120733980.335 6      1895.176    22585788.220   120733980.368 6      1895.176    22585803.500    93904210.567 6      1474.026    22585802.660    93904210.817 6      1474.026
G02  21089325.420   110825146.711 7      2093.217    21089323.500   110825146.710 6      2093.217    21089327.380    86357260.820 6      1631.078
R24  23047401.420   123244809.670 6       577.241    23047401.100   123244809.674 6       577.241    23047417.480    95857129.681 7       448.965    23047417.960    95857145.671 7       448.965
G08  20575221.400   108123512.955 8      2974.564    20575220.280   108123512.962 8      2974.564    20575227.900    84252115.655 8      2317.842    20575228.460    84252120.657 8      2317.842
R15  20012842.940   106942556.455 8      1386.561    20012842.800   106942556.458 8      1386.561    20012854.060    83177589.313 8      1078.436    20012853.820    83177590.317 8      1078.436
G01  21345445.380   112171069.485 7      3837.689    21345444.020   112171069.487 6      3837.689    21345450.520    87406051.142 6      2990.407    21345450.960    87406053.132 8      2990.407
G27  21858614.120   114867786.207 7      1143.821    21858611.940   114867786.201 7      1143.821    21858622.500    89507401.288 7       891.289    21858622.920    89507396.280 8       891.289
R17  20681471.720   110670735.580 8      2027.604    20681472.880   110670735.598 8      2027.604    20681482.900    86077281.329 8      1577.025    20681482.800    86077280.332 8      1577.025
R18  21667474.660   115662433.576 7      3771.921    21667476.620   115662433.582 7      3771.921    21667488.520    89959747.809 8      2933.716    21667488.160    89959739.816 8      2933.716
G07  24133829.420   126824118.215 5      1553.279    24133827.120   126824118.214 2      1553.279    24133841.520    98824012.199 2      1210.347    24133843.420    98824030.153 5      1210.347
G10  23613460.480   124089553.569 7        42.142    23613459.180   124089553.574 6        42.142    23613470.100    96693205.382 6        32.838    23613470.180    96693208.392 7        32.838
R02  21916986.900   116953249.321 7      5029.296    21916979.620   116953249.319 7      5029.296    21916993.820    90963665.468 7      3911.675    21916994.320    90963667.465 7      3911.675
R16  21944009.840   117220929.722 7      5258.273    21944009.040   117220929.728 7      5258.273    21944021.900    91171924.782 8      4089.768    21944022.040    91171898.774 8      4089.768
G16  23414814.980   123045669.484 7      -761.989    23414814.480   123045669.483 4      -761.989    23414827.800    95879776.899 4      -593.758
R14  22140241.300   118019925.523 7     -1437.979    22140242.980   118019925.537 6     -1437.979    22140256.540    91793358.460 6     -1118.428    22140257.920    91793358.466 6     -1118.428
> 2025 04 04 15 13 42.0000000  0 15
R01  22585434.420   120732085.003 6      1895.279    22585433.700   120732085.026 6      1895.279    22585448.820    93902737.006 6      1474.106    22585448.040    93902737.256 6      1474.106
G02  21088926.840   110823053.081 7      2093.773    21088924.940   110823053.078 6      2093.773    21088928.960    86355629.424 6      1631.511
R24  23047293.540   123244231.990 6       577.897    23047293.480   123244232.003 6       577.897    23047309.760    95856680.372 7       449.475    23047310.100    95856696.360 7       449.475
G08  20574655.380   108120538.079 8      2974.946    20574654.200   108120538.084 8      2974.946    20574661.840    84249797.572 8      2318.140    20574662.400    84249802.574 8      2318.140
R15  20012583.420   106941169.832 8      1386.443    20012583.320   106941169.828 8      1386.443    20012594.580    83176510.825 8      1078.345    20012594.200    83176511.829 8      1078.345
G01  21344715.200   112167231.535 7      3838.003    21344713.740   112167231.538 6      3838.003    21344720.240    87403060.540 6      2990.652    21344720.740    87403062.533 8      2990.652
G27  21858396.460   114866642.049 7      1144.318    21858394.280   114866642.054 7      1144.318    21858404.680    89506509.746 7       891.676    21858405.220    89506504.738 8       891.676
R17  20681092.700   110668707.558 8      2028.228    20681093.680   110668707.572 8      2028.228    20681104.020    86075703.984 8      1577.510    20681103.860    86075702.988 8      1577.510
R18  21666768.120   115658661.193 7      3772.540    21666769.820   115658661.194 7      3772.540    21666781.620    89956813.740 8      2934.197    21666781.200    89956805.742 8      2934.197
G07  24133533.560   126822564.858 5      1553.364    24133531.460   126822564.860 2      1553.364    24133545.960    98822801.787 2      1210.413    24133546.700    98822819.730 5      1210.413
G10  23613452.300   124089511.174 7        42.595    23613450.920   124089511.171 6        42.595    23613462.060    96693172.339 6        33.191    23613462.000    96693175.346 7        33.191
R02  21916044.360   116948219.805 7      5029.547    21916037.360   116948219.793 7      5029.547    21916051.200    90959753.631 7      3911.870    21916051.740    90959755.630 7      3911.870
R16  21943025.460   117215671.394 7      5258.236    21943024.680   117215671.400 7      5258.236    21943037.680    91167834.980 8      4089.739    21943037.660    91167808.974 8      4089.739
G16  23414959.600   123046431.133 7      -761.524    23414959.320   123046431.135 4      -761.524    23414972.720    95880370.379 4      -593.395
R14  22140511.560   118021363.114 7     -1437.404    22140512.400   118021363.128 7     -1437.404    22140527.160    91794476.579 6     -1117.981    22140527.500    91794476.576 6     -1117.981
> 2025 04 04 15 13 43.0000000  0 15
R01  22585080.100   120730190.219 6      1894.537    22585079.760   120730190.231 6      1894.537    22585094.420    93901263.861 6      1473.529    22585093.560    93901264.111 6      1473.529
G02  21088528.420   110820959.399 7      2093.805    21088526.540   110820959.401 6      2093.805    21088530.640    86353997.989 6      1631.536
R24  23047184.960   123243653.953 6       578.172    23047185.520   123243653.970 6       578.172    23047201.500    95856230.789 7       449.689    23047202.100    95856246.779 7       449.689
G08  20574089.440   108117563.180 8      2974.917    20574088.100   108117563.190 8      2974.917    20574095.660    84247479.479 8      2318.117    20574096.440    84247484.481 8      2318.117
R15  20012323.900   106939783.784 8      1385.813    20012324.000   106939783.780 8      1385.813    20012335.020    83175432.794 8      1077.854    20012335.200    83175433.796 8      1077.854
G01  21343984.900   112163393.662 7      3837.787    21343983.300   112163393.667 6      3837.787    21343989.820    87400069.998 6      2990.484    21343990.440    87400071.992 8      2990.484
G27  21858178.600   114865497.904 7      1144.204    21858176.660   114865497.906 7      1144.204    21858186.940    89505618.203 7       891.587    21858187.340    89505613.199 8       891.587
R17  20680713.960   110666679.372 8      2028.333    20680714.620   110666679.387 8      2028.333    20680725.020    86074126.506 8      1577.592    20680724.440    86074125.510 8      1577.592
R18  21666060.940   115654888.708 7      3772.521    21666063.300   115654888.714 7      3772.521    21666074.940    89953879.591 8      2934.183    21666074.580    89953871.598 8      2934.183
G07  24133238.180   126821011.496 5      1553.423    24133235.820   126821011.495 2      1553.423    24133250.240    98821591.372 2      1210.459    24133251.460    98821609.312 5      1210.459
G10  23613444.140   124089468.923 7        42.112    23613443.060   124089468.918 6        42.112    23613453.780    96693139.414 6        32.815    23613453.840    96693142.426 7        32.815
R02  21915102.040   116943190.570 7      5029.153    21915094.940   116943190.568 7      5029.153    21915108.840    90955842.026 7      3911.563    21915109.200    90955844.023 7      3911.563
R16  21942041.520   117210413.477 7      5257.766    21942040.400   117210413.481 7      5257.766    21942053.300    91163745.491 8      4089.373    21942053.340    91163719.485 8      4089.373
G16  23415104.740   123047192.706 7      -761.483    23415104.280   123047192.711 4      -761.483    23415117.600    95880963.802 4      -593.363
R14  22140780.920   118022800.679 7     -1437.479    22140782.440   118022800.690 7     -1437.479    22140796.840    91795594.655 6     -1118.039    22140797.560    91795594.646 6     -1118.039
> 2025 04 04 15 13 44.0000000  0 15
R01  22584726.100   120728295.850 6      1894.478    22584725.540   120728295.859 6      1894.478    22584740.440    93899792.047 6      1473.483    22584739.380    93899792.297 6      1473.483
G02  21088130.180   110818865.614 7      2094.125    21088128.240   110818865.613 6      2094.125    21088132.240    86352366.475 6      1631.786
R24  23047077.100   123243075.503 6       579.003    23047077.440   123243075.512 6       579.003    23047093.260    95855780.876 7       450.336    23047094.000    95855796.864 7       450.336
G08  20573523.160   108114588.225 8      2975.281    20573522.040   108114588.230 8      2975.281    20573529.540    84245161.330 8      2318.400    20573530.380    84245166.330 8      2318.400
R15  20012065.080   106938398.222 8      1385.614    20012064.880   106938398.226 8      1385.614    20012075.680    83174355.141 8      1077.700    20012075.700    83174356.145 8      1077.700
G01  21343254.140   112159555.815 7      3837.984    21343252.940   112159555.823 6      3837.984    21343259.540    87397079.476 6      2990.637    21343259.800    87397081.466 8      2990.637
G27  21857960.840   114864353.665 7      1144.543    21857958.920   114864353.667 7      1144.543    21857969.240    89504726.588 7       891.851    21857969.540    89504721.580 8       891.851
R17  20680334.940   110664650.953 8      2028.739    20680335.440   110664650.968 8      2028.739    20680345.760    86072548.854 8      1577.908    20680345.500    86072547.857 8      1577.908
R18  21665354.700   115651116.045 7      3772.962    21665356.260   115651116.051 7      3772.962    21665368.240    89950945.308 8      2934.526    21665367.440    89950937.314 8      2934.526
G07  24132942.500   126819458.139 5      1553.687    24132940.320   126819458.136 2      1553.687    24132954.300    98820380.956 2      1210.665    24132956.260    98820398.900 5      1210.665
G10  23613436.180   124089426.649 7        42.488    23613435.020   124089426.649 6        42.488    23613445.620    96693106.479 6        33.107    23613445.540    96693109.487 7        33.107
R02  21914159.340   116938161.543 7      5029.184    21914152.760   116938161.538 7      5029.184    21914166.480    90951930.573 7      3911.588    21914166.920    90951932.577 7      3911.588
R16  21941056.860   117205155.916 7      5257.618    21941056.400   117205155.922 7      5257.618    21941069.040    91159656.289 8      4089.258    21941068.840    91159630.286 8      4089.258
G16  23415249.900   123047954.124 7      -760.974    23415249.320   123047954.128 4      -760.974    23415262.380    95881557.107 4      -592.967
R14  22141050.840   118024238.129 7     -1437.066    22141052.240   118024238.143 7     -1437.066    22141065.560    91796712.647 6     -1117.718    22141067.640    91796712.622 6     -1117.718
> 2025 04 04 15 13 45.0000000  0 15
R01  22584371.120   120726401.657 6      1894.139    22584370.640   120726401.661 6      1894.139    22584385.820    93898316.158 6      1473.219    22584384.900    93898316.408 6      1473.219
G02  21087731.640   110816771.430 7      2094.357    21087729.580   110816771.434 6      2094.357    21087733.780    86350734.647 6      1631.967
R24  23046969.060   123242496.355 6       579.550    23046969.300   123242496.354 6       579.550    23046984.760    95855330.417 7       450.761    23046985.440    95855346.409 7       450.761
G08  20572956.900   108111612.935 8      2975.365    20572955.840   108111612.942 8      2975.365    20572963.320    84242842.926 8      2318.466    20572964.300    84242847.926 8      2318.466
R15  20011805.760   106937012.922 8      1385.157    20011805.680   106937012.923 8      1385.157    20011816.420    83173277.679 8      1077.345    20011816.340    83173278.685 8      1077.345
G01  21342524.080   112155717.692 7      3838.181    21342522.580   112155717.697 6      3838.181    21342529.260    87394088.737 6      2990.790    21342529.480    87394090.731 8      2990.790
G27  21857742.900   114863209.089 7      1144.698    21857741.240   114863209.086 7      1144.698    21857751.400    89503834.702 7       891.973    21857751.880    89503829.697 8       891.973
R17  20679955.520   110662621.962 8      2029.219    20679956.420   110662621.977 8      2029.219    20679966.520    86070970.751 8      1578.282    20679966.540    86070969.755 8      1578.282
R18  21664647.840   115647342.911 7      3773.250    21664649.100   115647342.923 7      3773.250    21664661.280    89948010.661 8      2934.750    21664660.720    89948002.672 8      2934.750
G07  24132647.180   126817904.498 5      1553.577    24132644.660   126817904.498 2      1553.577    24132658.740    98819170.317 2      1210.579    24132661.280    98819188.289 5      1210.579
G10  23613427.960   124089384.157 7        42.615    23613427.080   124089384.154 6        42.615    23613437.500    96693073.373 6        33.206    23613437.260    96693076.376 7        33.206
R02  21913216.940   116933132.449 7      5029.100    21913210.260   116933132.439 7      5029.100    21913224.040    90948019.068 7      3911.522    21913224.640    90948021.063 7      3911.522
R16  21940072.920   117199898.459 7      5257.285    21940071.920   117199898.471 7      5257.285    21940084.880    91155567.167 8      4088.999    21940084.920    91155541.161 8      4088.999
G16  23415394.660   123048715.158 6      -760.847    23415394.040   123048715.163 4      -760.847    23415407.280    95882150.104 4      -592.868
R14  22141320.480   118025675.193 7     -1436.934    22141321.720   118025675.223 7     -1436.934    22141334.280    91797830.368 6     -1117.615    22141337.120    91797830.342 6     -1117.615
> 2025 04 04 15 13 46.0000000  0 15
R01  22584016.820   120724508.062 6      1893.430    22584016.780   120724508.063 6      1893.430    22584031.360    93896843.096 6      1472.668    22584030.520    93896843.346 6      1472.668
G02  21087333.120   110814677.274 8      2094.070    21087331.200   110814677.277 6      2094.070    21087335.180    86349102.842 6      1631.743
R24  23046860.840   123241916.914 6       579.525    23046861.280   123241916.915 6       579.525    23046876.600    95854879.740 7       450.741    23046877.060    95854895.737 7       450.741
G08  20572390.780   108108637.686 8      2975.186    20572389.640   108108637.691 8      2975.186    20572397.120    84240524.553 8      2318.327    20572398.040    84240529.557 8      2318.327
R15  20011546.620   106935628.261 8      1384.295    20011546.920   106935628.259 7      1384.295    20011557.240    83172200.724 8      1076.674    20011557.280    83172201.728 8      1076.674
G01  21341793.900   112151879.738 7      3837.818    21341792.260   112151879.745 6      3837.818    21341798.800    87391098.127 6      2990.508    21341799.320    87391100.115 8      2990.508
G27  21857525.160   114862064.553 7      1144.360    21857523.560   114862064.555 7      1144.360    21857533.380    89502942.864 7       891.709    21857533.940    89502937.861 7       891.709
R17  20679576.620   110660592.842 8      2029.135    20679576.960   110660592.849 7      2029.135    20679587.400    86069392.549 8      1578.216    20679587.320    86069391.549 8      1578.216
R18  21663940.980   115643569.733 7      3773.108    21663942.480   115643569.747 7      3773.108    21663954.480    89945075.979 8      2934.640    21663954.000    89945067.983 8      2934.640
G07  24132351.060   126816350.957 6      1553.378    24132349.180   126816350.959 2      1553.378    24132363.240    98817959.759 2      1210.424    24132365.620    98817977.722 5      1210.424
G10  23613419.700   124089341.864 7        42.041    23613419.060   124089341.861 6        42.041    23613429.520    96693040.415 6        32.759    23613429.740    96693043.413 7        32.759
R02  21912274.600   116928103.665 7      5028.556    21912267.660   116928103.652 7      5028.556    21912281.840    90944107.808 7      3911.099    21912282.260    90944109.807 7      3911.099
R16  21939088.640   117194641.517 7      5256.625    21939087.940   117194641.524 7      5256.625    21939100.540    91151478.438 8      4088.486    21939100.840    91151452.434 8      4088.486
G16  23415539.800   123049476.150 7      -761.001    23415538.800   123049476.150 4      -761.001    23415552.120    95882743.075 4      -592.988
R14  22141590.100   118027112.313 7     -1437.183    22141591.660   118027112.329 7     -1437.183    22141603.960    91798948.103 6     -1117.809    22141606.320    91798948.104 6     -1117.809
> 2025 04 04 15 13 47.0000000  0 15
R01  22583662.720   120722615.024 6      1892.926    22583662.280   120722615.044 6      1892.926    22583677.480    93895370.866 6      1472.275    22583676.060    93895371.116 6      1472.275
G02  21086934.600   110812583.074 8      2094.369    21086932.720   110812583.077 6      2094.369    21086936.660    86347471.002 6      1631.976
R24  23046752.400   123241337.146 6       580.109    23046752.420   123241337.155 6       580.109    23046768.240    95854428.818 7       451.196    23046768.460    95854444.813 7       451.196
G08  20571824.680   108105662.469 8      2975.401    20571823.480   108105662.479 8      2975.401    20571830.940    84238206.212 8      2318.494    20571831.800    84238211.216 8      2318.494
R15  20011287.660   106934244.163 8      1384.043    20011287.880   106934244.162 8      1384.043    20011298.100    83171124.204 8      1076.478    20011298.320    83171125.210 8      1076.478
G01  21341063.640   112148041.885 7      3837.985    21341061.820   112148041.888 6      3837.985    21341068.360    87388107.595 6      2990.638    21341068.880    87388109.585 8      2990.638
G27  21857307.460   114860920.019 7      1144.661    21857305.860   114860920.022 7      1144.661    21857315.520    89502051.020 7       891.944    21857316.100    89502046.014 7       891.944
R17  20679197.400   110658563.546 8      2029.528    20679197.820   110658563.556 8      2029.528    20679208.160    86067814.210 8      1578.522    20679207.920    86067813.207 8      1578.522
R18  21663234.380   115639796.466 7      3773.544    21663235.180   115639796.475 7      3773.544    21663247.780    89942141.216 8      2934.978    21663247.020    89942133.225 8      2934.978
G07  24132055.340   126814797.474 6      1553.667    24132053.640   126814797.474 2      1553.667    24132067.520    98816749.253 2      1210.650    24132068.880    98816767.223 5      1210.650
G10  23613412.020   124089299.674 7        42.091    23613411.120   124089299.671 6        42.091    23613421.440    96693007.540 6        32.799    23613421.480    96693010.550 7        32.799
R02  21911332.160   116923075.139 7      5028.566    21911325.180   116923075.132 7      5028.566    21911339.380    90940196.747 7      3911.107    21911339.880    90940198.751 7      3911.107
R16  21938104.500   117189385.014 7      5256.518    21938103.820   117189385.015 7      5256.518    21938116.600    91147390.051 8      4088.403    21938116.880    91147364.047 8      4088.403
G16  23415684.500   123050237.090 7      -760.620    23415683.780   123050237.089 4      -760.620    23415696.800    95883336.000 4      -592.691
R14  22141859.700   118028549.342 7     -1436.739    22141860.960   118028549.356 7     -1436.739    22141873.460    91800065.782 6     -1117.463    22141876.220    91800065.752 6     -1117.463
> 2025 04 04 15 13 48.0000000  0 15
R01  22583308.220   120720722.349 6      1892.334    22583308.220   120720722.347 6      1892.334    22583323.560    93893896.972 6      1471.816    22583322.360    93893897.222 6      1471.816
G02  21086535.980   110810488.646 8      2094.465    21086534.140   110810488.648 6      2094.465    21086538.080    86345838.986 6      1632.051
R24  23046644.120   123240756.908 7       580.495    23046644.240   123240756.912 6       580.495    23046659.660    95853977.513 7       451.496    23046660.080    95853993.512 7       451.496
G08  20571258.300   108102687.073 8      2975.341    20571257.320   108102687.078 8      2975.341    20571264.700    84235887.722 8      2318.448    20571265.700    84235892.726 8      2318.448
R15  20011028.580   106932860.442 8      1383.471    20011029.120   106932860.441 8      1383.471    20011039.140    83170047.981 8      1076.033    20011039.420    83170048.989 8      1076.033
G01  21340333.180   112144203.931 7      3837.908    21340331.500   112144203.930 6      3837.908    21340337.980    87385116.987 6      2990.578    21340338.600    87385118.981 8      2990.578
G27  21857089.600   114859775.291 7      1144.737    21857087.980   114859775.294 7      1144.737    21857097.780    89501159.024 7       892.003    21857098.480    89501154.020 8       892.003
R17  20678818.180   110656533.886 8      2029.716    20678818.220   110656533.893 8      2029.716    20678828.660    86066235.590 8      1578.668    20678828.880    86066234.587 8      1578.668
R18  21662527.720   115636022.919 7      3773.601    21662528.720   115636022.923 7      3773.601    21662540.820    89939206.237 8      2935.023    21662540.140    89939198.250 8      2935.023
G07  24131760.580   126813243.833 6      1553.956    24131757.920   126813243.833 2      1553.956    24131771.900    98815538.618 2      1210.875    24131772.920    98815556.611 5      1210.875
G10  23613403.900   124089257.377 7        42.185    23613403.080   124089257.376 6        42.185    23613413.440    96692974.585 6        32.872    23613413.280    96692977.586 7        32.872
R02  21910389.560   116918046.715 7      5028.329    21910382.800   116918046.703 7      5028.329    21910397.180    90936285.767 7      3910.922    21910397.580    90936287.771 7      3910.922
R16  21937120.620   117184128.745 7      5256.097    21937119.620   117184128.746 7      5256.097    21937132.600    91143301.850 8      4088.075    21937132.500    91143275.844 8      4088.075
G16  23415829.300   123050997.806 7      -760.736    23415828.540   123050997.806 4      -760.736    23415841.360    95883928.756 4      -592.782
R14  22142129.260   118029986.126 7     -1436.609    22142130.500   118029986.145 7     -1436.609    22142143.900    91801183.268 6     -1117.363    22142145.200    91801183.228 5     -1117.363
> 2025 04 04 15 13 49.0000000  0 15
R01  22582954.700   120718830.101 6      1892.168    22582954.180   120718830.116 6      1892.168    22582969.520    93892427.153 6      1471.686    22582968.400    93892427.403 6      1471.686
G02  21086137.340   110808394.133 7      2094.677    21086135.560   110808394.130 6      2094.677    21086139.480    86344206.900 6      1632.216
R24  23046535.340   123240176.284 7       580.805    23046535.960   123240176.302 6       580.805    23046551.060    95853525.928 7       451.737    23046551.360    95853541.928 7       451.737
G08  20570692.220   108099711.619 8      2975.653    20570691.080   108099711.627 8      2975.653    20570698.540    84233569.194 8      2318.691    20570699.420    84233574.192 8      2318.691
R15  20010769.620   106931477.229 8      1383.147    20010770.320   106931477.225 8      1383.147    20010780.180    83168972.146 8      1075.781    20010780.460    83168973.156 8      1075.781
G01  21339602.980   112140366.023 7      3838.011    21339601.060   112140366.025 6      3838.011    21339607.720    87382126.418 6      2990.658    21339608.400    87382128.418 8      2990.658
G27  21856871.840   114858630.500 7      1145.002    21856870.160   114858630.505 7      1145.002    21856879.840    89500266.983 7       892.209    21856880.520    89500261.977 8       892.209
R17  20678438.740   110654503.982 8      2030.180    20678438.800   110654503.992 8      2030.180    20678449.360    86064656.782 8      1579.029    20678449.220    86064655.781 8      1579.029
R18  21661820.700   115632249.196 7      3773.990    21661821.440   115632249.205 7      3773.990    21661833.980    89936271.129 8      2935.326    21661833.480    89936263.140 8      2935.326
G07  24131464.260   126811690.277 5      1554.000    24131462.260   126811690.274 2      1554.000    24131476.360    98814328.052 2      1210.909    24131478.600    98814346.025 5      1210.909
G10  23613395.740   124089215.168 7        42.256    23613395.140   124089215.168 6        42.256    23613405.200    96692941.695 6        32.926    23613405.380    96692944.703 7        32.926
R02  21909447.500   116913018.529 7      5028.256    21909440.700   116913018.522 7      5028.256    21909454.800    90932374.972 7      3910.866    21909455.200    90932376.976 7      3910.866
R16  21936136.240   117178872.808 7      5255.985    21936135.940   117178872.825 7      5255.985    21936148.540    91139213.918 8      4087.989    21936148.780    91139187.912 8      4087.989
G16  23415973.620   123051758.373 7      -760.363    23415973.400   123051758.375 4      -760.363    23415986.160    95884521.395 4      -592.491
R14  22142398.760   118031422.787 7     -1436.404    22142400.220   118031422.801 7     -1436.404    22142413.000    91802300.648 6     -1117.203    22142414.940    91802300.608 5     -1117.203
> 2025 04 04 15 13 50.0000000  0 15
R01  22582600.740   120716938.247 6      1891.730    22582600.700   120716938.259 6      1891.730    22582615.700    93890955.505 6      1471.346    22582614.720    93890955.755 6      1471.346
G02  21085738.820   110806299.376 7      2094.925    21085736.980   110806299.378 6      2094.925    21085741.000    86342574.622 6      1632.409
R24  23046426.760   123239595.073 7       581.477    23046427.560   123239595.082 6       581.477    23046442.340    95853073.868 7       452.260    23046442.920    95853089.862 7       452.260
G08  20570126.020   108096736.008 8      2975.734    20570124.960   108096736.013 8      2975.734    20570132.220    84231250.534 8      2318.754    20570132.980    84231255.532 8      2318.754
R15  20010510.620   106930094.427 8      1382.678    20010511.620   106930094.423 8      1382.678    20010521.360    83167896.633 8      1075.416    20010521.480    83167897.640 8      1075.416
G01  21338872.600   112136528.013 7      3838.098    21338870.780   112136528.018 6      3838.098    21338877.300    87379135.767 6      2990.726    21338878.060    87379137.763 8      2990.726
G27  21856653.900   114857485.541 7      1145.118    21856652.520   114857485.541 7      1145.118    21856661.820    89499374.801 7       892.300    21856662.700    89499369.797 8       892.300
R17  20678059.380   110652473.723 8      2030.468    20678059.380   110652473.735 8      2030.468    20678069.960    86063077.691 8      1579.253    20678069.760    86063076.688 8      1579.253
R18  21661113.740   115628475.203 7      3774.224    21661114.260   115628475.202 7      3774.224    21661126.860    89933335.800 8      2935.507    21661126.560    89933327.810 8      2935.507
G07  24131169.680   126810136.596 5      1553.683    24131166.560   126810136.593 2      1553.683    24131180.760    98813117.386 2      1210.662    24131182.680    98813135.367 5      1210.662
G10  23613387.780   124089172.876 7        42.300    23613387.080   124089172.873 6        42.300    23613397.060    96692908.738 6        32.961    23613396.900    96692911.746 7        32.961
R02  21908504.840   116907990.433 7      5028.133    21908498.020   116907990.426 7      5028.133    21908512.620    90928464.243 7      3910.770    21908513.140    90928466.245 7      3910.770
R16  21935152.600   117173617.161 7      5255.576    21935152.420   117173617.168 7      5255.576    21935164.920    91135126.186 8      4087.670    21935164.920    91135100.180 8      4087.670
G16  23416118.280   123052518.689 7      -760.228    23416118.020   123052518.692 4      -760.228    23416130.780    95885113.840 4      -592.385
R14  22142668.060   118032859.243 7     -1436.230    22142669.400   118032859.244 7     -1436.230    22142682.220    91803417.869 6     -1117.067    22142683.240    91803417.856 5     -1117.067
> 2025 04 04 15 13 51.0000000  0 15
R01  22582246.600   120715046.900 6      1891.054    22582247.220   120715046.920 6      1891.054    22582261.640    93889483.109 6      1470.820    22582260.820    93889483.359 6      1470.820
G02  21085340.200   110804204.561 7      2094.817    21085338.460   110804204.566 6      2094.817    21085342.320    86340942.309 6      1632.325
R24  23046317.960   123239013.492 7       581.703    23046319.040   123239013.507 7       581.703    23046333.840    95852621.534 7       452.436    23046334.160    95852637.530 7       452.436
G08  20569559.780   108093760.352 8      2975.649    20569558.660   108093760.362 8      2975.649    20569565.980    84228931.852 8      2318.688    20569566.640    84228936.850 8      2318.688
R15  20010251.980   106928712.187 8      1382.001    20010252.920   106928712.185 8      1382.001    20010262.600    83166821.566 8      1074.890    20010263.080    83166822.574 8      1074.890
G01  21338142.100   112132690.082 7      3837.862    21338140.520   112132690.084 6      3837.862    21338146.980    87376145.175 6      2990.542    21338147.460    87376147.178 8      2990.542
G27  21856436.020   114856340.545 7      1144.978    21856434.740   114856340.542 7      1144.978    21856443.960    89498482.596 7       892.191    21856444.760    89498477.595 7       892.191
R17  20677680.160   110650443.268 8      2030.513    20677679.900   110650443.275 8      2030.513    20677690.420    86061498.449 8      1579.288    20677690.300    86061497.448 8      1579.288
R18  21660406.620   115624701.075 7      3774.149    21660407.280   115624701.078 7      3774.149    21660419.720    89930400.379 8      2935.450    21660419.700    89930392.389 8      2935.450
G07  24130873.700   126808582.901 5      1553.773    24130870.860   126808582.898 2      1553.773    24130885.000    98811906.710 2      1210.733    24130888.000    98811924.684 5      1210.733
G10  23613379.640   124089130.667 7        42.179    23613379.180   124089130.661 6        42.179    23613389.060    96692875.844 6        32.867    23613388.780    96692878.844 7        32.867
R02  21907562.860   116902962.569 7      5027.804    21907556.020   116902962.562 7      5027.804    21907570.220    90924553.703 7      3910.514    21907570.540    90924555.705 7      3910.514
R16  21934168.940   117168361.913 7      5255.107    21934168.340   117168361.922 7      5255.107    21934180.840    91131038.784 8      4087.306    21934181.420    91131012.778 8      4087.306
G16  23416263.120   123053278.899 7      -760.155    23416262.740   123053278.906 4      -760.155    23416275.460    95885706.200 4      -592.329
R14  22142937.420   118034295.641 7     -1436.355    22142938.880   118034295.641 7     -1436.355    22142951.560    91804535.052 6     -1117.165    22142953.000    91804535.047 5     -1117.165
> 2025 04 04 15 13 52.0000000  0 15
R01  22581892.860   120713156.056 6      1890.807    22581893.160   120713156.073 6      1890.807    22581907.740    93888012.375 6      1470.627    22581907.200    93888012.625 6      1470.627
G02  21084941.440   110802109.702 7      2094.924    21084939.840   110802109.707 6      2094.924    21084943.720    86339309.959 6      1632.408
R24  23046209.520   123238431.591 7       582.187    23046210.340   123238431.595 7       582.187    23046225.020    95852168.936 7       452.812    23046225.380    95852184.936 7       452.812
G08  20568993.720   108090784.720 8      2975.711    20568992.400   108090784.725 8      2975.711    20568999.740    84226613.177 8      2318.736    20569000.440    84226618.175 8      2318.736
R15  20009993.660   106927330.531 8      1381.403    20009994.380   106927330.532 8      1381.403    20010004.220    83165746.949 8      1074.425    20010004.200    83165747.955 8      1074.425
G01  21337411.560   112128852.240 7      3837.809    21337410.280   112128852.243 6      3837.809    21337416.620    87373154.656 6      2990.500    21337417.060    87373156.658 8      2990.500
G27  21856217.860   114855195.536 7      1144.994    21856216.900   114855195.543 7      1144.994    21856226.080    89497590.389 7       892.203    21856226.560    89497585.390 7       892.203
R17  20677300.400   110648412.621 8      2030.710    20677300.340   110648412.625 7      2030.710    20677310.960    86059919.060 8      1579.441    20677311.020    86059918.058 8      1579.441
R18  21659699.540   115620926.834 7      3774.325    21659700.240   115620926.835 7      3774.325    21659712.800    89927464.864 8      2935.586    21659712.740    89927456.871 8      2935.586
G07  24130577.440   126807029.270 5      1553.714    24130575.240   126807029.270 2      1553.714    24130589.520    98810696.085 2      1210.686    24130591.920    98810714.076 5      1210.686
G10  23613371.840   124089088.566 7        42.116    23613371.240   124089088.566 6        42.116    23613381.120    96692843.046 6        32.818    23613380.860    96692846.052 7        32.818
R02  21906621.080   116897935.017 7      5027.461    21906613.780   116897935.008 7      5027.461    21906628.300    90920643.396 7      3910.248    21906628.420    90920645.395 7      3910.248
R16  21933185.140   117163107.151 7      5254.587    21933184.860   117163107.160 7      5254.587    21933197.340    91126951.755 8      4086.901    21933197.580    91126925.747 8      4086.901
G16  23416407.740   123054039.061 7      -760.081    23416407.400   123054039.071 4      -760.081    23416419.980    95886298.526 4      -592.271
R14  22143207.040   118035731.953 7     -1436.215    22143208.320   118035731.951 7     -1436.215    22143221.340    91805652.172 6     -1117.056    22143222.640    91805652.163 5     -1117.056
> 2025 04 04 15 13 53.0000000  0 15
R01  22581539.060   120711265.730 6      1890.198    22581540.020   120711265.742 6      1890.198    22581553.960    93886541.392 6      1470.154    22581553.760    93886541.642 6      1470.154
G02  21084542.880   110800014.724 7      2095.088    21084541.200   110800014.724 6      2095.088    21084544.960    86337677.507 6      1632.536
R24  23046099.980   123237849.299 7       582.512    23046101.220   123237849.306 7       582.512    23046116.260    95851716.040 7       453.065    23046116.500    95851732.040 7       453.065
G08  20568427.380   108087809.009 8      2975.827    20568426.140   108087809.016 8      2975.827    20568433.440    84224294.445 8      2318.826    20568434.320    84224299.443 8      2318.826
R15  20009734.940   106925949.359 8      1380.957    20009735.940   106925949.358 8      1380.957    20009745.540    83164672.704 8      1074.077    20009745.700    83164673.708 8      1074.077
G01  21336681.260   112125014.412 7      3837.854    21336679.720   112125014.417 6      3837.854    21336686.320    87370164.146 6      2990.535    21336686.640    87370166.150 8      2990.535
G27  21856000.080   114854050.437 7      1145.196    21855999.040   114854050.442 7      1145.196    21856008.100    89496698.101 7       892.360    21856008.640    89496693.103 7       892.360
R17  20676921.120   110646381.674 8      2031.088    20676920.560   110646381.681 8      2031.088    20676931.500    86058339.441 8      1579.735    20676931.360    86058338.438 8      1579.735
R18  21658992.360   115617152.398 7      3774.516    21658993.100   115617152.402 7      3774.516    21659005.860    89924529.200 8      2935.735    21659005.460    89924521.209 8      2935.735
G07  24130281.800   126805475.672 5      1553.561    24130279.460   126805475.671 2      1553.561    24130293.920    98809485.480 2      1210.567    24130295.720    98809503.453 5      1210.567
G10  23613364.220   124089046.510 7        42.114    23613363.220   124089046.507 6        42.114    23613373.020    96692810.278 6        32.816    23613372.760    96692813.273 7        32.816
R02  21905679.140   116892907.685 7      5027.294    21905671.540   116892907.675 7      5027.294    21905685.900    90916733.258 8      3910.118    21905686.320    90916735.260 7      3910.118
R16  21932201.260   117157852.739 7      5254.243    21932201.600   117157852.742 7      5254.243    21932213.640    91122864.992 8      4086.633    21932214.000    91122838.981 8      4086.633
G16  23416552.740   123054799.067 7      -759.841    23416551.740   123054799.075 4      -759.841    23416564.640    95886890.727 4      -592.084
R14  22143476.500   118037168.126 7     -1436.127    22143477.700   118037168.129 7     -1436.127    22143491.000    91806769.181 6     -1116.987    22143492.400    91806769.155 5     -1116.987
> 2025 04 04 15 13 54.0000000  0 15
R01  22581186.120   120709375.736 6      1889.928    22581185.860   120709375.732 6      1889.928    22581200.980    93885073.985 6      1469.944    22581200.400    93885074.235 6      1469.944
G02  21084144.060   110797919.521 8      2095.374    21084142.540   110797919.523 6      2095.374    21084146.280    86336044.885 6      1632.759
R24  23045990.880   123237266.462 7       583.063    23045992.340   123237266.476 7       583.063    23046007.140    95851262.726 7       453.494    23046007.700    95851278.727 7       453.494
G08  20567861.060   108084833.140 8      2976.007    20567859.900   108084833.150 8      2976.007    20567867.100    84221975.591 8      2318.967    20567868.000    84221980.588 8      2318.967
R15  20009476.620   106924568.561 8      1380.707    20009477.440   106924568.560 8      1380.707    20009487.080    83163598.752 8      1073.883    20009487.380    83163599.759 8      1073.883
G01  21335951.080   112121176.483 7      3838.067    21335949.420   112121176.488 6      3838.067    21335956.080    87367173.558 6      2990.701    21335956.480    87367175.561 8      2990.701
G27  21855782.180   114852905.176 7      1145.393    21855781.100   114852905.181 7      1145.393    21855790.120    89495805.689 7       892.514    21855790.400    89495800.690 7       892.514
R17  20676541.460   110644350.350 8      2031.541    20676541.060   110644350.354 8      2031.541    20676551.660    86056759.520 8      1580.087    20676551.940    86056758.519 8      1580.087
R18  21658285.220   115613377.679 7      3774.925    21658285.860   115613377.680 7      3774.925    21658298.660    89921593.314 8      2936.052    21658298.300    89921585.317 8      2936.052
G07  24129986.520   126803921.900 5      1553.767    24129984.260   126803921.902 2      1553.767    24129998.540    98808274.736 2      1210.728    24130001.360    98808292.703 5      1210.728
G10  23613355.840   124089004.381 7        42.160    23613355.240   124089004.380 6        42.160    23613365.060    96692777.451 6        32.852    23613365.080    96692780.445 7        32.852
R02  21904737.100   116887880.485 7      5027.124    21904729.440   116887880.481 7      5027.124    21904744.120    90912823.235 8      3909.986    21904744.380    90912825.232 7      3909.986
R16  21931218.040   117152598.527 7      5254.113    21931217.540   117152598.536 7      5254.113    21931230.060    91118778.391 8      4086.533    21931230.520    91118752.380 8      4086.533
G16  23416697.160   123055558.825 7      -759.620    23416696.320   123055558.832 4      -759.620    23416709.260    95887482.733 4      -591.912
R14  22143745.820   118038604.033 7     -1435.695    22143746.820   118038604.039 7     -1435.695    22143760.700    91807885.971 6     -1116.652    22143762.120    91807885.930 5     -1116.652
> 2025 04 04 15 13 55.0000000  0 15
R01  22580832.400   120707486.306 6      1889.171    22580832.700   120707486.307 6      1889.171    22580847.520    93883603.335 6      1469.356    22580847.200    93883603.585 6      1469.356
G02  21083745.460   110795824.330 8      2095.155    21083743.800   110795824.332 6      2095.155    21083747.640    86334412.275 6      1632.588
R24  23045882.460   123236683.306 7       583.224    23045883.340   123236683.313 7       583.224    23045898.240    95850809.157 7       453.619    23045898.740    95850825.157 7       453.619
G08  20567294.820   108081857.329 8      2975.691    20567293.620   108081857.339 8      2975.691    20567300.860    84219656.783 8      2318.720    20567301.680    84219661.779 8      2318.720
R15  20009218.100   106923188.426 8      1379.703    20009219.260   106923188.424 8      1379.703    20009228.980    83162525.318 8      1073.103    20009229.340    83162526.324 8      1073.103
G01  21335220.800   112117338.720 7      3837.632    21335219.080   112117338.728 6      3837.632    21335225.680    87364183.104 6      2990.363    21335226.100    87364185.109 8      2990.363
G27  21855564.420   114851759.954 7      1145.113    21855563.300   114851759.961 7      1145.113    21855572.180    89494913.313 7       892.296    21855572.660    89494908.309 7       892.296
R17  20676161.700   110642318.924 8      2031.371    20676161.420   110642318.930 7      2031.371    20676172.080    86055179.533 8      1579.955    20676172.280    86055178.534 8      1579.955
R18  21657577.940   115609602.931 7      3774.642    21657578.400   115609602.940 7      3774.642    21657591.660    89918657.412 8      2935.832    21657591.420    89918649.414 8      2935.832
G07  24129691.860   126802368.243 5      1553.503    24129688.720   126802368.243 2      1553.503    24129703.000    98807064.091 2      1210.521    24129705.140    98807082.067 5      1210.521
G10  23613347.860   124088962.409 7        41.886    23613347.400   124088962.406 6        41.886    23613357.020    96692744.746 6        32.638    23613357.040    96692747.746 7        32.638
R02  21903794.680   116882853.614 7      5026.669    21903787.540   116882853.604 7      5026.669    21903802.120    90908913.457 7      3909.632    21903802.300    90908915.452 7      3909.632
R16  21930234.320   117147344.827 7      5253.224    21930234.220   117147344.839 7      5253.224    21930246.480    91114692.190 8      4085.841    21930246.900    91114666.180 8      4085.841
G16  23416841.720   123056318.561 7      -759.763    23416840.980   123056318.574 4      -759.763    23416853.820    95888074.731 4      -592.023
R14  22144015.260   118040039.986 7     -1436.082    22144016.060   118040040.005 7     -1436.082    22144029.480    91809002.833 6     -1116.952    22144031.080    91809002.799 5     -1116.952
> 2025 04 04 15 13 56.0000000  0 15
R01  22580479.020   120705597.442 6      1888.665    22580480.060   120705597.444 6      1888.665    22580493.940    93882134.098 6      1468.962    22580493.620    93882134.348 6      1468.962
G02  21083346.880   110793729.119 7      2095.302    21083345.220   110793729.126 6      2095.302    21083348.800    86332779.649 6      1632.703
R24  23045773.240   123236099.849 7       583.602    23045774.380   123236099.861 7       583.602    23045789.180    95850355.361 7       453.913    23045789.460    95850371.357 7       453.913
G08  20566728.300   108078881.539 8      2975.841    20566727.360   108078881.544 8      2975.841    20566734.500    84217337.986 8      2318.837    20566735.280    84217342.981 8      2318.837
R15  20008960.220   106921808.878 8      1379.321    20008961.120   106921808.872 8      1379.321    20008970.740    83161452.332 8      1072.805    20008971.100    83161453.339 8      1072.805
G01  21334490.560   112113501.071 7      3837.678    21334488.780   112113501.075 6      3837.678    21334495.420    87361192.734 6      2990.399    21334495.800    87361194.736 8      2990.399
G27  21855346.440   114850614.745 7      1145.264    21855345.340   114850614.758 7      1145.264    21855354.160    89494020.942 7       892.413    21855354.740    89494015.941 7       892.413
R17  20675782.060   110640287.361 8      2031.649    20675781.700   110640287.371 8      2031.649    20675792.360    86053599.435 8      1580.171    20675792.580    86053598.436 8      1580.171
R18  21656870.860   115605828.111 7      3774.935    21656871.360   115605828.123 7      3774.935    21656884.360    89915721.449 8      2936.061    21656884.400    89915713.449 8      2936.061
G07  24129395.120   126800814.694 5      1553.372    24129392.940   126800814.694 2      1553.372    24129407.460    98805853.525 2      1210.420    24129410.480    98805871.483 5      1210.420
G10  23613339.920   124088920.584 7        41.769    23613339.500   124088920.578 6        41.769    23613349.180    96692712.153 6        32.548    23613349.520    96692715.149 7        32.548
R02  21902852.760   116877827.004 7      5026.546    21902845.460   116877826.997 7      5026.546    21902860.200    90905003.886 7      3909.536    21902860.380    90905005.881 7      3909.536
R16  21929251.060   117142091.561 7      5253.152    21929250.940   117142091.565 7      5253.152    21929263.240    91110606.319 8      4085.785    21929263.560    91110580.309 8      4085.785
G16  23416986.180   123057078.271 7      -759.600    23416985.860   123057078.278 4      -759.600    23416998.440    95888666.697 4      -591.896
R14  22144284.700   118041475.954 7     -1435.938    22144286.020   118041475.970 7     -1435.938    22144299.100    91810119.670 6     -1116.841    22144300.480    91810119.653 5     -1116.841
> 2025 04 04 15 13 57.0000000  0 15
R01  22580125.480   120703709.116 6      1888.126    22580125.940   120703709.131 6      1888.126    22580141.360    93880664.196 6      1468.543    22580140.460    93880664.446 6      1468.543
G02  21082948.220   110791633.881 8      2095.406    21082946.440   110791633.886 6      2095.406    21082950.060    86331146.998 6      1632.784
R24  23045664.220   123235516.108 7       584.013    23045665.520   123235516.109 7       584.013    23045680.060    95849901.329 7       454.232    23045680.380    95849917.330 7       454.232
G08  20566162.280   108075905.767 8      2975.984    20566161.080   108075905.775 8      2975.984    20566168.280    84215019.207 8      2318.949    20566169.040    84215024.207 8      2318.949
R15  20008702.140   106920429.935 8      1378.781    20008703.000   106920429.928 8      1378.781    20008712.740    83160379.825 8      1072.385    20008712.900    83160380.831 8      1072.385
G01  21333760.080   112109663.518 7      3837.679    21333758.700   112109663.523 6      3837.679    21333764.940    87358202.437 6      2990.399    21333765.520    87358204.446 8      2990.399
G27  21855128.460   114849469.547 7      1145.378    21855127.560   114849469.552 7      1145.378    21855136.280    89493128.578 7       892.502    21855136.920    89493123.582 7       892.502
R17  20675402.420   110638255.654 8      2031.979    20675402.100   110638255.656 8      2031.979    20675412.820    86052019.216 8      1580.428    20675412.900    86052018.215 8      1580.428
R18  21656163.900   115602053.203 7      3775.108    21656164.420   115602053.220 7      3775.108    21656177.320    89912785.420 8      2936.195    21656176.860    89912777.420 8      2936.195
G07  24129100.160   126799261.156 5      1553.525    24129097.500   126799261.153 2      1553.525    24129111.880    98804642.974 2      1210.539    24129114.560    98804660.953 6      1210.539
G10  23613331.820   124088878.869 7        41.795    23613331.440   124088878.866 6        41.795    23613341.100    96692679.650 6        32.567    23613341.720    96692682.654 7        32.567
R02  21901911.040   116872800.656 7      5026.388    21901903.360   116872800.649 7      5026.388    21901918.240    90901094.514 7      3909.413    21901918.460    90901096.512 7      3909.413
R16  21928267.820   117136838.791 7      5252.691    21928267.800   117136838.803 7      5252.691    21928279.720    91106520.841 8      4085.426    21928279.980    91106494.836 8      4085.426
G16  23417131.040   123057837.886 7      -759.317    23417130.600   123057837.891 4      -759.317    23417142.920    95889258.595 4      -591.676
R14  22144553.760   118042911.858 7     -1435.744    22144555.080   118042911.869 7     -1435.744    22144569.720    91811236.472 6     -1116.690    22144569.820    91811236.455 5     -1116.690
