     3.05           OBSERVATION DATA    MIXED               RINEX VERSION / TYPE
TPS2RIN 1.0.28.3459 TPS-USER            20250407 105714 UTC PGM / RUN BY / DATE
Win64 build Jun 01, 2022 (c) Topcon Positioning Systems     COMMENT
SRC: 20250404_grav_20250404_183637.tps                      COMMENT
Observer            Agency                                  OBSERVER / AGENCY
O0M3X53SBGM         TPS HIPER_SR        4.8 HSR Jul,08,2022 REC # / TYPE / VERS
FW: 4.8 HSR Jul,08,2022 p3                                  COMMENT
SN: HiPer SR 1212-12575                                     COMMENT
000                 TPSHIPER_SR     NONE                    ANT # / TYPE
        1.8000        0.0000        0.0000                  ANTENNA: DELTA H/E/N
DELTA H stands for **SLANT** height here!                   COMMENT
ORO07b                                                      MARKER NAME
  5382553.0844 -1597598.0834  3016266.6681                  APPROX POSITION XYZ
  2025     4     4    16    37   11.0000000     GPS         TIME OF FIRST OBS
  2025     4     4    16    52   41.0000000     GPS         TIME OF LAST OBS
     1.000                                                  INTERVAL
   931 EPOCHS                                               COMMENT
G   12 C1C L1C D1C C1W L1W D1W C2W L2W D2W C2X L2X D2X      SYS / # / OBS TYPES
R   12 C1C L1C D1C C1P L1P D1P C2P L2P D2P C2C L2C D2C      SYS / # / OBS TYPES
    18                                                      # OF SATELLITES
   G01   931   931   931   931   931   931   931   931   931PRN / # OF OBS
         931   931   931                                    PRN / # OF OBS
   G02   931   931   931   931   931   931   931   931   931PRN / # OF OBS
           0     0     0                                    PRN / # OF OBS
   G03   931   931   931   931   931   931   931   931   931PRN / # OF OBS
         931   931   931                                    PRN / # OF OBS
   G04   350   350   350   345   345   345   345   345   345PRN / # OF OBS
         342   342   342                                    PRN / # OF OBS
   G08   931   931   931   931   931   931   931   931   931PRN / # OF OBS
         931   931   931                                    PRN / # OF OBS
   G14   931   931   931   931   931   931   931   931   931PRN / # OF OBS
         931   931   931                                    PRN / # OF OBS
   G17   931   931   931   931   931   931   931   931   931PRN / # OF OBS
         931   931   931                                    PRN / # OF OBS
   G22   931   931   931   931   931   931   931   931   931PRN / # OF OBS
           0     0     0                                    PRN / # OF OBS
   G27   931   931   931   931   931   931   931   931   931PRN / # OF OBS
         931   931   931                                    PRN / # OF OBS
   G32   931   931   931   931   931   931   931   931   931PRN / # OF OBS
         931   931   931                                    PRN / # OF OBS
   R02   931   931   931   931   931   931   931   931   931PRN / # OF OBS
         931   931   931                                    PRN / # OF OBS
   R03   931   931   931   931   931   931   931   931   931PRN / # OF OBS
         931   931   931                                    PRN / # OF OBS
   R04   931   931   931   931   931   931   931   931   931PRN / # OF OBS
         931   931   931                                    PRN / # OF OBS
   R09   931   931   931   931   931   931   931   931   931PRN / # OF OBS
         931   931   931                                    PRN / # OF OBS
   R15   931   931   931   931   931   931   931   931   931PRN / # OF OBS
         931   931   931                                    PRN / # OF OBS
   R16   931   931   931   931   931   931   931   931   931PRN / # OF OBS
         931   931   931                                    PRN / # OF OBS
   R17   931   931   931   931   931   931   931   931   931PRN / # OF OBS
         931   931   931                                    PRN / # OF OBS
   R18   931   931   931   931   931   931   931   931   931PRN / # OF OBS
         931   931   931                                    PRN / # OF OBS
G L1C                                                       SYS / PHASE SHIFT
G L1W -0.25000                                              SYS / PHASE SHIFT
G L2W  0.00000                                              SYS / PHASE SHIFT
G L2X  0.25000                                              SYS / PHASE SHIFT
R L1C                                                       SYS / PHASE SHIFT
R L1P -0.25000                                              SYS / PHASE SHIFT
R L2P -0.25000                                              SYS / PHASE SHIFT
R L2C                                                       SYS / PHASE SHIFT
  8 R02 -4 R03  5 R04  6 R09 -2 R15  0 R16 -1 R17  4 R18 -3 GLONASS SLOT / FRQ #
                                                            GLONASS COD/PHS/BIS
    18                  GPS                                 LEAP SECONDS
                                                            END OF HEADER
> 2025 04 04 16 37 11.0000000  0 17
G02  21964781.820   115425695.353 7      1673.901    21964780.240   115425695.360 6      1673.901    21964784.440    89942113.423 6      1304.339
G03  20293629.880   106643739.275 8      4259.460    20293628.280   106643739.272 8      4259.460    20293636.180    83099049.831 8      3319.060    20293637.560    83099054.824 8      3319.060
G14  22750175.900   119552975.217 7      4554.543    22750174.500   119552975.232 5      4554.543    22750182.540    93158191.764 5      3548.994    22750183.120    93158194.772 7      3548.994
G08  21076331.640   110756860.820 7      1298.857    21076330.480   110756860.817 7      1298.857    21076339.400    86304081.477 8      1012.096    21076340.220    86304083.478 8      1012.096
G01  20951097.000   110098747.575 7      2588.880    20951095.660   110098747.582 6      2588.880    20951100.800    85791252.416 6      2017.309    20951101.260    85791253.424 8      2017.309
R03  20448191.240   109460768.385 7      5165.891    20448190.900   109460768.409 7      5165.891    20448204.540    85136212.379 8      4017.915    20448204.300    85136212.377 8      4017.915
R18  20900368.480   111567578.015 7      3499.200    20900368.100   111567578.011 7      3499.200    20900378.780    86774828.447 8      2721.600    20900379.220    86774831.452 8      2721.600
R02  21453103.360   114477864.015 7      1251.864    21453102.780   114477864.010 7      1251.864    21453113.840    89038385.824 7       973.672    21453114.460    89038386.823 7       973.672
R17  21459289.720   114832986.255 7      1837.951    21459290.460   114832986.270 7      1837.951    21459303.200    89314598.230 8      1429.517    21459302.760    89314599.229 8      1429.517
R16  21462542.960   114649041.874 8      1282.497    21462543.580   114649041.878 7      1282.497    21462556.560    89171531.039 8       997.497    21462556.900    89171531.037 8       997.497
R04  23029591.700   123322428.091 7      7136.458    23029592.840   123322428.144 7      7136.458    23029621.760    95917604.451 7      5550.578    23029621.520    95917607.454 7      5550.578
R15  22739816.000   121514644.394 7     -1007.827    22739815.080   121514644.393 7     -1007.827    22739839.200    94511471.618 8      -783.865    22739839.060    94511475.619 8      -783.865
G22  24656963.360   129573216.373 7      5263.622    24656961.900   129573216.384 4      5263.622    24656970.840   100966166.088 4      4101.524
G32  24879802.420   130744242.557 6      1783.527    24879802.640   130744242.554 6      1783.527    24879813.820   101878678.312 6      1389.761    24879814.620   101878683.306 7      1389.761
G27  23950119.840   125858699.936 6       -58.174    23950118.360   125858699.954 6       -58.174    23950137.380    98071779.880 6       -45.331    23950137.760    98071781.854 7       -45.331
G17  24679705.280   129692720.765 6      5553.513    24679703.980   129692720.775 4      5553.513    24679713.680   101059273.410 4      4327.413    24679713.960   101059309.422 7      4327.413
R09  23461785.240   125284618.431 6      4570.947    23461784.820   125284618.440 7      4570.947    23461797.740    97443648.425 7      3555.181    23461798.160    97443648.411 7      3555.181
> 2025 04 04 16 37 12.0000000  0 17
G02  21964463.180   115424021.361 7      1674.008    21964461.700   115424021.366 6      1674.008    21964465.780    89940809.017 6      1304.422
G03  20292819.420   106639480.108 7      4258.985    20292817.740   106639480.110 8      4258.985    20292825.740    83095731.009 8      3318.689    20292827.240    83095736.007 8      3318.689
G14  22749309.260   119548420.848 7      4554.081    22749307.760   119548420.861 5      4554.081    22749315.880    93154642.912 5      3548.635    22749316.220    93154645.924 7      3548.635
G08  21076084.560   110755562.056 7      1298.538    21076083.200   110755562.056 7      1298.538    21076092.360    86303069.452 7      1011.848    21076093.260    86303071.450 8      1011.848
G01  20950604.280   110096158.768 7      2588.762    20950603.120   110096158.773 6      2588.762    20950608.120    85789235.168 6      2017.217    20950608.640    85789236.170 8      2017.217
R03  20447226.240   109455602.748 7      5165.281    20447225.480   109455602.768 7      5165.281    20447239.520    85132194.669 8      4017.441    20447239.380    85132194.665 8      4017.441
R18  20899713.080   111564078.751 7      3499.234    20899712.560   111564078.752 7      3499.234    20899723.360    86772106.806 8      2721.627    20899723.380    86772109.811 8      2721.627
R02  21452869.160   114476612.553 8      1251.003    21452868.480   114476612.559 7      1251.003    21452879.360    89037412.476 7       973.002    21452879.680    89037413.480 7       973.002
R17  21458946.680   114831148.269 7      1837.897    21458947.020   114831148.281 7      1837.897    21458959.660    89313168.686 8      1429.476    21458959.160    89313169.683 8      1429.476
R16  21462303.100   114647759.631 7      1281.891    21462303.660   114647759.635 7      1281.891    21462316.620    89170533.733 8       997.026    21462316.880    89170533.733 8       997.026
R04  23028258.620   123315291.431 7      7136.681    23028260.460   123315291.478 7      7136.681    23028289.040    95912053.749 7      5550.752    23028289.160    95912056.752 7      5550.752
R15  22740004.480   121515652.159 7     -1007.731    22740003.940   121515652.144 6     -1007.731    22740027.780    94512255.408 8      -783.790    22740027.700    94512259.409 8      -783.790
G22  24655962.000   129567952.859 6      5263.480    24655960.300   129567952.872 4      5263.480    24655969.220   100962064.648 4      4101.413
G32  24879463.320   130742459.206 6      1783.077    24879463.300   130742459.206 6      1783.077    24879474.480   101877288.696 6      1389.411    24879475.400   101877293.692 7      1389.411
G27  23950131.020   125858758.096 6       -58.225    23950129.440   125858758.114 6       -58.225    23950148.560    98071825.179 6       -45.370    23950148.840    98071827.162 7       -45.370
G17  24678648.280   129687167.072 6      5553.674    24678647.140   129687167.082 4      5553.674    24678656.800   101054945.856 4      4327.538    24678657.560   101054981.860 7      4327.538
R09  23460929.220   125280047.773 6      4570.419    23460929.300   125280047.790 7      4570.419    23460941.440    97440093.468 7      3554.770    23460942.000    97440093.436 7      3554.770
> 2025 04 04 16 37 13.0000000  0 17
G02  21964144.500   115422347.417 7      1674.081    21964143.060   115422347.422 6      1674.081    21964147.220    89939504.644 6      1304.479
G03  20292009.100   106635221.579 7      4258.339    20292007.360   106635221.584 8      4258.339    20292015.300    83092412.686 8      3318.186    20292016.980    83092417.682 8      3318.186
G14  22748442.440   119543867.040 7      4553.791    22748440.980   119543867.058 5      4553.791    22748449.280    93151094.496 5      3548.409    22748449.780    93151097.503 7      3548.409
G08  21075837.280   110754263.694 7      1298.350    21075836.180   110754263.697 7      1298.350    21075845.320    86302057.748 7      1011.701    21075846.160    86302059.748 8      1011.701
G01  20950111.540   110093570.154 7      2588.666    20950110.520   110093570.158 6      2588.666    20950115.600    85787218.066 6      2017.143    20950116.060    85787219.074 8      2017.143
R03  20446261.100   109450437.814 7      5164.740    20446260.840   109450437.829 7      5164.740    20446274.720    85128177.505 8      4017.020    20446274.580    85128177.503 8      4017.020
R18  20899057.740   111560579.517 7      3499.388    20899057.040   111560579.518 7      3499.388    20899067.840    86769385.182 8      2721.746    20899068.140    86769388.188 8      2721.746
R02  21452634.800   114475361.928 7      1250.311    21452634.260   114475361.929 7      1250.311    21452645.060    89036439.766 7       972.464    21452645.400    89036440.768 7       972.464
R17  21458602.800   114829310.378 7      1838.031    21458603.560   114829310.392 7      1838.031    21458616.220    89311739.204 8      1429.580    21458615.780    89311740.205 8      1429.580
R16  21462062.920   114646478.118 7      1281.296    21462063.980   114646478.119 7      1281.296    21462076.720    89169537.000 8       996.564    21462077.000    89169537.001 8       996.564
R04  23026925.980   123308154.856 7      7136.765    23026927.680   123308154.911 7      7136.765    23026956.400    95906503.115 7      5550.817    23026956.140    95906506.124 7      5550.817
R15  22740193.000   121516660.071 7     -1007.965    22740192.360   121516660.054 6     -1007.965    22740216.480    94513039.313 8      -783.973    22740216.380    94513043.320 8      -783.973
G22  24654960.540   129562689.699 6      5263.204    24654958.640   129562689.712 4      5263.204    24654967.720   100957963.489 4      4101.198
G32  24879123.860   130740676.393 7      1782.822    24879123.980   130740676.390 6      1782.822    24879135.380   101875899.487 6      1389.212    24879135.740   101875904.477 7      1389.212
G27  23950142.100   125858816.522 6       -58.254    23950140.640   125858816.537 6       -58.254    23950159.620    98071870.691 6       -45.393    23950159.680    98071872.669 7       -45.393
G17  24677590.900   129681613.325 6      5553.864    24677590.460   129681613.332 4      5553.864    24677600.040   101050618.258 4      4327.686    24677600.580   101050654.266 7      4327.686
R09  23460073.820   125275477.849 6      4569.786    23460073.400   125275477.860 7      4569.786    23460085.760    97436539.093 7      3554.278    23460085.900    97436539.069 7      3554.278
> 2025 04 04 16 37 14.0000000  0 17
G02  21963826.200   115420673.341 7      1674.373    21963824.520   115420673.349 6      1674.373    21963828.640    89938200.176 6      1304.706
G03  20291198.640   106630963.474 8      4258.097    20291197.260   106630963.479 8      4258.097    20291205.020    83089094.686 8      3317.997    20291206.580    83089099.684 8      3317.997
G14  22747576.000   119539313.657 7      4553.346    22747574.540   119539313.669 5      4553.346    22747582.820    93147546.405 5      3548.062    22747583.300    93147549.407 7      3548.062
G08  21075590.260   110752965.601 7      1298.207    21075589.100   110752965.600 8      1298.207    21075598.220    86301046.242 8      1011.590    21075599.360    86301048.244 8      1011.590
G01  20949618.680   110090981.544 7      2588.859    20949617.840   110090981.549 6      2588.859    20949623.060    85785200.974 6      2017.293    20949623.560    85785201.977 8      2017.293
R03  20445296.500   109445273.413 8      5164.403    20445296.020   109445273.434 7      5164.403    20445309.980    85124160.757 8      4016.758    20445310.260    85124160.751 8      4016.758
R18  20898402.160   111557080.149 7      3499.670    20898401.280   111557080.153 7      3499.670    20898412.360    86766663.457 8      2721.966    20898412.740    86766666.464 8      2721.966
R02  21452400.420   114474111.965 7      1249.842    21452399.880   114474111.958 7      1249.842    21452410.800    89035467.575 7       972.099    21452410.900    89035468.572 7       972.099
R17  21458259.480   114827472.411 7      1838.198    21458259.780   114827472.428 7      1838.198    21458272.720    89310309.679 7      1429.710    21458272.440    89310310.682 7      1429.710
R16  21461822.980   114645197.141 7      1280.889    21461823.980   114645197.148 7      1280.889    21461836.860    89168540.685 8       996.247    21461837.040    89168540.688 8       996.247
R04  23025593.180   123301018.201 7      7136.896    23025595.020   123301018.254 7      7136.896    23025623.760    95900952.425 7      5550.919    23025623.460    95900955.430 7      5550.919
R15  22740382.260   121517667.831 7     -1007.260    22740380.940   121517667.808 7     -1007.260    22740405.200    94513823.095 8      -783.425    22740404.880    94513827.098 8      -783.425
G22  24653959.200   129557426.737 6      5263.084    24653956.900   129557426.749 4      5263.084    24653966.160   100953862.487 4      4101.104
G32  24878784.980   130738893.925 6      1782.502    24878784.640   130738893.924 6      1782.502    24878796.400   101874510.569 6      1388.962    24878796.920   101874515.560 7      1388.962
G27  23950153.320   125858875.013 6       -58.179    23950151.780   125858875.026 6       -58.179    23950170.700    98071916.240 6       -45.335    23950171.120    98071918.208 7       -45.335
G17  24676534.140   129676059.320 6      5554.310    24676533.720   129676059.327 4      5554.310    24676543.080   101046290.468 4      4328.034    24676543.860   101046326.478 7      4328.034
R09  23459217.460   125270908.440 7      4569.423    23459217.740   125270908.451 7      4569.423    23459229.880    97432985.108 7      3553.995    23459230.380    97432985.086 7      3553.995
> 2025 04 04 16 37 15.0000000  0 17
G02  21963507.500   115418999.011 7      1674.149    21963505.860   115418999.016 6      1674.149    21963509.980    89936895.501 6      1304.532
G03  20290388.540   106626705.689 7      4257.333    20290386.980   106626705.692 8      4257.333    20290394.820    83085776.934 8      3317.403    20290396.260    83085781.930 8      3317.403
G14  22746709.260   119534760.494 7      4552.705    22746708.100   119534760.504 5      4552.705    22746716.420    93143998.488 5      3547.563    22746717.080    93144001.502 7      3547.563
G08  21075343.400   110751667.618 7      1297.671    21075342.080   110751667.615 8      1297.671    21075351.280    86300034.816 8      1011.172    21075352.260    86300036.821 8      1011.172
G01  20949126.340   110088392.840 7      2588.433    20949125.320   110088392.848 6      2588.433    20949130.500    85783183.808 6      2016.961    20949130.780    85783184.816 8      2016.961
R03  20444331.840   109440109.424 7      5163.522    20444331.260   109440109.445 7      5163.522    20444345.160    85120144.325 8      4016.073    20444345.280    85120144.321 8      4016.073
R18  20897746.480   111553580.555 7      3499.434    20897745.900   111553580.550 7      3499.434    20897756.740    86763941.548 8      2721.782    20897756.980    86763944.553 8      2721.782
R02  21452166.380   114472862.552 7      1248.848    21452165.820   114472862.550 7      1248.848    21452176.880    89034495.811 7       971.326    21452177.040    89034496.806 7       971.326
R17  21457915.940   114825634.252 7      1838.032    21457916.360   114825634.264 7      1838.032    21457929.340    89308879.997 8      1429.580    21457928.840    89308880.996 8      1429.580
R16  21461583.520   114643916.606 7      1279.992    21461584.560   114643916.607 7      1279.992    21461597.120    89167544.706 8       995.550    21461597.540    89167544.709 8       995.550
R04  23024260.660   123293881.289 7      7136.656    23024262.540   123293881.331 7      7136.656    23024291.180    95895401.518 7      5550.733    23024290.720    95895404.527 7      5550.733
R15  22740570.480   121518675.422 7     -1007.767    22740569.740   121518675.413 7     -1007.767    22740593.620    94514606.769 8      -783.819    22740593.720    94514610.774 8      -783.819
G22  24652957.560   129552163.824 6      5262.568    24652955.500   129552163.834 4      5262.568    24652964.680   100949761.520 4      4100.703
G32  24878445.400   130737111.669 6      1781.906    24878445.260   130737111.671 6      1781.906    24878457.200   101873121.808 6      1388.498    24878458.080   101873126.800 7      1388.498
G27  23950164.620   125858933.441 6       -58.702    23950163.000   125858933.451 6       -58.702    23950182.060    98071961.748 6       -45.741    23950182.560    98071963.724 7       -45.741
G17  24675477.200   129670504.989 6      5554.141    24675476.700   129670504.997 4      5554.141    24675485.960   101041962.424 4      4327.902    24675486.540   101041998.441 7      4327.902
R09  23458362.160   125266339.437 7      4568.487    23458361.960   125266339.443 7      4568.487    23458374.100    97429431.450 7      3553.268    23458374.600    97429431.417 7      3553.268
> 2025 04 04 16 37 16.0000000  0 17
G02  21963188.900   115417324.699 7      1674.320    21963187.420   115417324.709 6      1674.320    21963191.440    89935590.848 6      1304.665
G03  20289578.380   106622448.490 8      4256.962    20289576.860   106622448.498 8      4256.962    20289584.680    83082459.644 8      3317.113    20289586.020    83082464.642 8      3317.113
G14  22745842.960   119530207.876 7      4552.363    22745841.560   119530207.888 5      4552.363    22745849.920    93140451.001 5      3547.296    22745850.500    93140454.011 7      3547.296
G08  21075096.400   110750370.023 7      1297.471    21075095.120   110750370.023 7      1297.471    21075104.200    86299023.706 7      1011.016    21075105.360    86299025.708 8      1011.016
G01  20948633.720   110085804.278 7      2588.622    20948632.620   110085804.283 6      2588.622    20948637.900    85781166.743 6      2017.108    20948638.180    85781167.750 8      2017.108
R03  20443367.180   109434946.129 7      5163.007    20443366.860   109434946.146 7      5163.007    20443380.580    85116128.429 8      4015.672    20443380.880    85116128.427 8      4015.672
R18  20897090.460   111550081.011 7      3499.563    20897090.300   111550081.009 7      3499.563    20897101.040    86761219.681 8      2721.882    20897101.560    86761222.686 8      2721.882
R02  21451932.360   114471613.921 7      1248.392    21451931.900   114471613.916 7      1248.392    21451942.800    89033524.660 7       970.972    21451943.280    89033525.659 7       970.972
R17  21457572.540   114823796.178 7      1838.116    21457572.560   114823796.193 7      1838.116    21457585.620    89307450.384 8      1429.646    21457585.400    89307451.386 8      1429.646
R16  21461344.140   114642636.783 7      1279.575    21461344.820   114642636.781 7      1279.575    21461357.360    89166549.284 8       995.225    21461357.760    89166549.283 8       995.225
R04  23022928.300   123286744.361 7      7136.944    23022929.600   123286744.403 7      7136.944    23022958.040    95889850.611 7      5550.956    23022958.020    95889853.615 7      5550.956
R15  22740759.620   121519683.065 7     -1007.654    22740758.480   121519683.060 7     -1007.654    22740782.280    94515390.472 8      -783.731    22740782.160    94515394.479 8      -783.731
G22  24651956.040   129546901.218 6      5262.637    24651953.960   129546901.226 4      5262.637    24651963.360   100945660.787 4      4100.756
G32  24878106.500   130735329.917 6      1781.682    24878106.240   130735329.917 6      1781.682    24878118.160   101871733.435 6      1388.324    24878119.220   101871738.433 7      1388.324
G27  23950175.620   125858992.077 6       -58.692    23950174.120   125858992.084 6       -58.692    23950193.040    98072007.426 6       -45.734    23950194.000    98072009.398 7       -45.734
G17  24674420.340   129664950.572 6      5554.527    24674419.660   129664950.577 4      5554.527    24674429.080   101037634.307 4      4328.203    24674429.480   101037670.307 7      4328.203
R09  23457506.760   125261771.093 6      4568.029    23457506.660   125261771.107 7      4568.029    23457518.480    97425878.294 7      3552.912    23457518.820    97425878.276 7      3552.912
> 2025 04 04 16 37 17.0000000  0 17
G02  21962870.340   115415650.234 7      1674.804    21962868.800   115415650.242 6      1674.804    21962872.800    89934286.071 6      1305.042
G03  20288768.360   106618191.738 8      4256.742    20288766.900   106618191.741 8      4256.742    20288774.660    83079142.696 8      3316.941    20288776.240    83079147.692 8      3316.941
G14  22744976.740   119525655.633 7      4552.226    22744975.320   119525655.643 5      4552.226    22744983.820    93136903.801 5      3547.189    22744984.460    93136906.813 7      3547.189
G08  21074849.480   110749072.671 7      1297.463    21074848.120   110749072.668 7      1297.463    21074857.420    86298012.780 7      1011.010    21074858.240    86298014.786 8      1011.010
G01  20948141.140   110083215.739 7      2588.815    20948140.100   110083215.744 6      2588.815    20948145.260    85779149.704 6      2017.258    20948145.640    85779150.705 8      2017.258
R03  20442402.640   109429783.344 7      5162.776    20442402.300   109429783.362 7      5162.776    20442415.960    85112112.950 8      4015.492    20442416.280    85112112.949 8      4015.492
R18  20896435.040   111546581.326 7      3500.012    20896434.800   111546581.321 7      3500.012    20896445.540    86758497.705 8      2722.232    20896445.740    86758500.710 8      2722.232
R02  21451698.580   114470365.935 8      1247.914    21451697.760   114470365.941 7      1247.914    21451708.960    89032554.008 7       970.599    21451709.260    89032555.007 7       970.599
R17  21457229.020   114821958.045 7      1838.429    21457229.160   114821958.052 7      1838.429    21457242.380    89306020.722 7      1429.889    21457241.800    89306021.723 8      1429.889
R16  21461104.380   114641357.518 7      1279.204    21461105.540   114641357.517 7      1279.204    21461117.900    89165554.303 8       994.937    21461118.400    89165554.304 8       994.937
R04  23021594.940   123279607.267 7      7137.475    23021597.220   123279607.314 7      7137.475    23021625.320    95884299.569 7      5551.370    23021625.160    95884302.575 7      5551.370
R15  22740947.860   121520690.645 7     -1007.453    22740946.600   121520690.630 6     -1007.453    22740970.680    94516174.119 8      -783.574    22740970.800    94516178.124 8      -783.574
G22  24650954.780   129541638.829 7      5262.537    24650952.460   129541638.839 4      5262.537    24650961.940   100941560.231 4      4100.679
G32  24877767.640   130733548.537 6      1781.439    24877767.040   130733548.536 6      1781.439    24877779.160   101870345.342 6      1388.135    24877780.140   101870350.335 7      1388.135
G27  23950186.820   125859050.760 6       -58.488    23950185.160   125859050.767 6       -58.488    23950204.240    98072053.129 6       -45.575    23950205.100    98072055.104 7       -45.575
G17  24673363.540   129659395.923 6      5554.871    24673362.640   129659395.925 4      5554.871    24673372.060   101033306.015 4      4328.471    24673372.320   101033342.028 7      4328.471
R09  23456651.220   125257203.329 6      4567.662    23456651.160   125257203.340 7      4567.662    23456663.300    97422325.590 7      3552.626    23456664.020    97422325.562 7      3552.626
> 2025 04 04 16 37 18.0000000  0 17
G02  21962551.500   115413975.602 7      1674.901    21962550.160   115413975.607 6      1674.901    21962554.140    89932981.160 6      1305.118
G03  20287958.440   106613935.351 8      4256.315    20287956.860   106613935.359 8      4256.315    20287964.680    83075826.046 8      3316.609    20287966.180    83075831.046 8      3316.609
G14  22744110.520   119521103.734 7      4551.825    22744109.160   119521103.744 5      4551.825    22744117.620    93133356.873 5      3546.877    22744117.820    93133359.875 7      3546.877
G08  21074602.520   110747775.507 7      1297.185    21074601.240   110747775.509 7      1297.185    21074610.640    86297002.007 7      1010.794    21074611.600    86297004.009 8      1010.794
G01  20947648.620   110080627.169 7      2588.748    20947647.640   110080627.174 6      2588.748    20947652.800    85777132.638 6      2017.206    20947653.220    85777133.644 8      2017.206
R03  20441438.160   109424621.061 7      5162.278    20441437.920   109424621.078 7      5162.278    20441451.720    85108097.845 8      4015.105    20441451.720    85108097.845 8      4015.105
R18  20895779.220   111543081.435 7      3500.162    20895779.000   111543081.438 7      3500.162    20895789.840    86755775.581 8      2722.348    20895789.900    86755778.589 8      2722.348
R02  21451464.660   114469118.475 7      1247.403    21451464.180   114469118.475 7      1247.403    21451475.120    89031583.766 7       970.203    21451475.400    89031584.767 7       970.203
R17  21456885.780   114820119.822 7      1838.523    21456885.560   114820119.818 7      1838.523    21456898.660    89304590.984 8      1429.963    21456898.340    89304591.987 8      1429.963
R16  21460865.340   114640078.732 8      1278.717    21460865.860   114640078.733 7      1278.717    21460878.540    89164559.689 8       994.558    21460878.700    89164559.694 8       994.558
R04  23020262.640   123272470.039 7      7137.474    23020264.180   123272470.075 7      7137.474    23020292.780    95878748.436 7      5551.368    23020292.260    95878751.441 7      5551.368
R15  22741136.420   121521698.055 7     -1007.114    22741134.780   121521698.040 6     -1007.114    22741159.340    94516957.628 8      -783.311    22741159.260    94516961.638 8      -783.311
G22  24649953.320   129536376.536 6      5262.440    24649950.880   129536376.546 4      5262.440    24649960.680   100937459.744 4      4100.602
G32  24877428.520   130731767.426 6      1781.123    24877428.040   130731767.421 6      1781.123    24877440.180   101868957.472 6      1387.888    24877441.040   101868962.476 7      1387.888
G27  23950197.840   125859109.438 6       -58.477    23950196.260   125859109.448 6       -58.477    23950215.480    98072098.839 6       -45.567    23950216.320    98072100.813 7       -45.567
G17  24672306.140   129653840.975 6      5555.178    24672305.700   129653840.980 4      5555.178    24672315.220   101028977.488 4      4328.710    24672315.560   101029013.496 7      4328.710
R09  23455795.740   125252636.018 7      4567.196    23455796.360   125252636.033 7      4567.196    23455807.520    97418773.238 7      3552.264    23455808.220    97418773.218 7      3552.264
> 2025 04 04 16 37 19.0000000  0 17
G02  21962232.760   115412300.706 7      1674.973    21962231.440   115412300.711 6      1674.973    21962235.220    89931676.051 6      1305.174
G03  20287148.520   106609679.288 8      4255.873    20287147.020   106609679.293 8      4255.873    20287154.840    83072509.630 8      3316.265    20287156.340    83072514.628 8      3316.265
G14  22743244.520   119516552.072 7      4551.436    22743242.920   119516552.082 5      4551.436    22743251.380    93129810.128 5      3546.574    22743251.760    93129813.134 7      3546.574
G08  21074355.520   110746478.467 7      1296.845    21074354.420   110746478.467 7      1296.845    21074363.720    86295991.324 7      1010.529    21074364.580    86295993.329 8      1010.529
G01  20947155.980   110078038.486 7      2588.617    20947155.020   110078038.491 6      2588.617    20947160.100    85775115.487 6      2017.104    20947160.640    85775116.488 8      2017.104
R03  20440473.920   109419459.194 7      5161.609    20440473.560   109419459.204 7      5161.609    20440487.440    85104083.068 8      4014.585    20440487.660    85104083.062 8      4014.585
R18  20895123.560   111539581.301 7      3500.243    20895123.380   111539581.307 7      3500.243    20895134.140    86753053.256 8      2722.412    20895134.480    86753056.261 8      2722.412
R02  21451231.260   114467871.548 7      1246.575    21451230.480   114467871.543 7      1246.575    21451241.480    89030613.928 7       969.558    21451241.920    89030614.927 7       969.558
R17  21456542.260   114818281.392 7      1838.494    21456541.760   114818281.394 7      1838.494    21456555.160    89303161.094 8      1429.940    21456554.660    89303162.098 8      1429.940
R16  21460626.120   114638800.373 7      1278.055    21460626.580   114638800.366 7      1278.055    21460639.160    89163565.406 8       994.043    21460639.500    89163565.409 8       994.043
R04  23018929.880   123265332.548 7      7137.534    23018930.840   123265332.585 7      7137.534    23018959.200    95873197.102 7      5551.415    23018959.360    95873200.112 7      5551.415
R15  22741324.720   121522705.307 7     -1007.155    22741323.960   121522705.298 6     -1007.155    22741347.820    94517741.028 8      -783.343    22741347.760    94517745.031 8      -783.343
G22  24648951.900   129531114.311 6      5262.173    24648949.660   129531114.327 4      5262.173    24648959.420   100933359.309 4      4100.395
G32  24877089.680   130729986.545 6      1780.639    24877089.060   130729986.537 6      1780.639    24877101.320   101867569.778 6      1387.511    24877102.240   101867574.778 7      1387.511
G27  23950208.840   125859168.073 6       -58.703    23950207.580   125859168.083 6       -58.703    23950226.760    98072144.509 6       -45.742    23950227.160    98072146.485 7       -45.742
G17  24671248.980   129648285.672 6      5555.373    24671248.560   129648285.677 4      5555.373    24671258.040   101024648.685 4      4328.862    24671258.340   101024684.685 7      4328.862
R09  23454940.460   125248069.119 7      4566.690    23454941.340   125248069.136 7      4566.690    23454952.680    97415221.203 7      3551.870    23454953.080    97415221.185 7      3551.870
> 2025 04 04 16 37 20.0000000  0 17
G02  21961914.180   115410625.651 8      1675.262    21961912.720   115410625.658 6      1675.262    21961916.480    89930370.815 6      1305.399
G03  20286338.800   106605423.642 8      4255.650    20286337.100   106605423.641 8      4255.650    20286345.020    83069193.544 8      3316.091    20286346.580    83069198.542 8      3316.091
G14  22742378.400   119512000.770 7      4551.285    22742376.720   119512000.780 5      4551.285    22742385.280    93126263.663 5      3546.456    22742385.640    93126266.671 7      3546.456
G08  21074108.840   110745181.622 7      1296.926    21074107.680   110745181.619 8      1296.926    21074117.020    86294980.797 8      1010.592    21074117.960    86294982.806 8      1010.592
G01  20946663.200   110075449.780 7      2588.853    20946662.360   110075449.782 6      2588.853    20946667.460    85773098.311 6      2017.288    20946667.820    85773099.314 8      2017.288
R03  20439509.940   109414297.802 7      5161.303    20439509.420   109414297.811 7      5161.303    20439523.240    85100068.654 8      4014.347    20439523.360    85100068.650 8      4014.347
R18  20894467.920   111536081.042 7      3500.503    20894467.720   111536081.043 7      3500.503    20894478.460    86750330.830 8      2722.614    20894478.820    86750333.837 8      2722.614
R02  21450997.800   114466625.230 8      1246.184    21450996.960   114466625.236 7      1246.184    21451008.180    89029644.579 7       969.254    21451008.480    89029645.576 7       969.254
R17  21456198.440   114816442.832 7      1838.786    21456197.940   114816442.841 7      1838.786    21456211.800    89301731.109 8      1430.167    21456211.040    89301732.110 8      1430.167
R16  21460386.920   114637522.524 7      1277.838    21460387.180   114637522.520 7      1277.838    21460399.920    89162571.517 8       993.874    21460400.140    89162571.524 8       993.874
R04  23017597.220   123258194.902 7      7138.029    23017598.100   123258194.944 7      7138.029    23017626.620    95867645.623 7      5551.801    23017626.380    95867648.632 7      5551.801
R15  22741513.180   121523712.458 7     -1006.895    22741512.280   121523712.454 7     -1006.895    22741536.360    94518524.349 8      -783.140    22741536.600    94518528.354 8      -783.140
G22  24647950.500   129525852.258 6      5262.106    24647948.540   129525852.265 4      5262.106    24647958.140   100929259.010 4      4100.343
G32  24876750.680   130728205.981 6      1780.528    24876750.160   130728205.973 6      1780.528    24876762.620   101866182.326 6      1387.424    24876763.620   101866187.326 7      1387.424
G27  23950220.100   125859226.722 6       -58.516    23950218.620   125859226.732 6       -58.516    23950237.900    98072190.197 6       -45.597    23950238.040    98072192.175 7       -45.597
G17  24670192.280   129642730.096 6      5555.953    24670191.480   129642730.098 4      5555.953    24670200.840   101020319.669 4      4329.314    24670200.780   101020355.677 7      4329.314
R09  23454085.280   125243502.735 7      4566.309    23454086.060   125243502.752 7      4566.309    23454097.560    97411669.569 6      3551.573    23454097.920    97411669.547 7      3551.573
> 2025 04 04 16 37 21.0000000  0 17
G02  21961595.460   115408950.579 7      1675.224    21961593.920   115408950.584 6      1675.224    21961597.660    89929065.564 6      1305.370
G03  20285528.940   106601168.547 8      4254.972    20285527.440   106601168.552 8      4254.972    20285535.360    83065877.893 8      3315.563    20285536.860    83065882.893 8      3315.563
G14  22741512.380   119507449.999 7      4550.571    22741510.760   119507450.006 5      4550.571    22741519.280    93122717.609 5      3545.899    22741519.460    93122720.619 7      3545.899
G08  21073862.200   110743885.154 7      1296.412    21073861.000   110743885.154 8      1296.412    21073870.400    86293970.559 7      1010.191    21073871.480    86293972.562 8      1010.191
G01  20946170.620   110072861.196 7      2588.699    20946169.680   110072861.199 6      2588.699    20946174.840    85771081.237 6      2017.168    20946175.260    85771082.240 8      2017.168
R03  20438546.060   109409137.041 8      5160.658    20438545.560   109409137.056 7      5160.658    20438559.240    85096054.741 8      4013.845    20438559.180    85096054.741 8      4013.845
R18  20893812.460   111532580.761 7      3500.479    20893811.980   111532580.765 7      3500.479    20893822.880    86747608.396 8      2722.595    20893822.980    86747611.403 8      2722.595
R02  21450764.240   114465379.755 8      1245.279    21450763.440   114465379.755 7      1245.279    21450774.480    89028675.878 7       968.550    21450774.920    89028676.876 7       968.550
R17  21455854.900   114814604.351 7      1838.571    21455854.540   114814604.358 7      1838.571    21455868.160    89300301.176 8      1430.000    21455867.720    89300302.179 8      1430.000
R16  21460147.640   114636245.375 7      1276.965    21460147.920   114636245.370 7      1276.965    21460160.700    89161578.185 8       993.195    21460161.300    89161578.190 8       993.195
R04  23016264.040   123251057.283 7      7137.708    23016264.920   123251057.331 7      7137.708    23016293.680    95862094.189 7      5551.550    23016293.620    95862097.199 7      5551.550
R15  22741702.040   121524719.667 7     -1007.125    22741700.940   121524719.668 7     -1007.125    22741725.000    94519307.713 8      -783.319    22741724.860    94519311.718 8      -783.319
G22  24646949.100   129520590.464 6      5261.883    24646947.280   129520590.472 4      5261.883    24646957.000   100925158.917 4      4100.169
G32  24876412.080   130726425.846 6      1780.158    24876411.300   130726425.843 6      1780.158    24876423.960   101864795.213 6      1387.136    24876425.080   101864800.209 7      1387.136
G27  23950231.460   125859285.581 6       -58.841    23950229.840   125859285.591 6       -58.841    23950249.080    98072236.053 6       -45.850    23950249.280    98072238.037 7       -45.850
G17  24669134.980   129637174.420 6      5556.049    24669134.280   129637174.422 5      5556.049    24669143.660   101015990.572 4      4329.389    24669144.000   101016026.574 7      4329.389
R09  23453230.340   125238936.979 7      4565.579    23453231.240   125238936.991 7      4565.579    23453242.220    97408118.425 7      3551.006    23453242.840    97408118.413 7      3551.006
> 2025 04 04 16 37 22.0000000  0 17
G02  21961276.460   115407275.163 7      1675.435    21961274.900   115407275.168 6      1675.435    21961278.860    89927760.048 6      1305.534
G03  20284719.140   106596913.669 8      4254.712    20284717.740   106596913.671 8      4254.712    20284725.640    83062562.409 8      3315.360    20284727.040    83062567.411 8      3315.360
G14  22740646.400   119502899.353 7      4550.405    22740645.000   119502899.363 5      4550.405    22740653.280    93119171.656 5      3545.770    22740653.500    93119174.662 7      3545.770
G08  21073615.580   110742588.700 7      1296.284    21073614.220   110742588.703 7      1296.284    21073623.640    86292960.335 7      1010.091    21073624.660    86292962.342 8      1010.091
G01  20945678.180   110070272.424 7      2588.781    20945677.220   110070272.424 6      2588.781    20945682.340    85769064.012 6      2017.232    20945682.600    85769065.015 8      2017.232
R03  20437582.040   109403976.590 8      5160.188    20437581.480   109403976.611 7      5160.188    20437595.220    85092041.066 8      4013.480    20437595.360    85092041.064 8      4013.480
R18  20893156.800   111529080.152 7      3500.633    20893156.260   111529080.148 7      3500.633    20893167.340    86744885.700 8      2722.714    20893167.360    86744888.705 8      2722.714
R02  21450530.880   114464134.738 7      1244.731    21450529.980   114464134.739 7      1244.731    21450541.380    89027707.528 7       968.124    21450541.780    89027708.525 7       968.124
R17  21455511.300   114812765.579 7      1838.887    21455511.100   114812765.573 7      1838.887    21455524.340    89298871.007 7      1430.246    21455524.100    89298872.006 8      1430.246
R16  21459908.520   114634968.549 7      1276.489    21459908.760   114634968.550 7      1276.489    21459921.720    89160585.096 8       992.825    21459922.400    89160585.101 8       992.825
R04  23014930.520   123243919.268 7      7138.076    23014932.040   123243919.313 7      7138.076    23014960.740    95856542.437 7      5551.837    23014960.660    95856545.444 7      5551.837
R15  22741890.420   121525726.543 7     -1006.785    22741889.300   121525726.536 7     -1006.785    22741913.220    94520090.797 8      -783.055    22741913.440    94520094.796 8      -783.055
G22  24645947.960   129515328.689 7      5261.591    24645946.040   129515328.702 4      5261.591    24645955.500   100921058.837 4      4099.941
G32  24876073.620   130724645.879 6      1779.796    24876072.260   130724645.881 6      1779.796    24876085.160   101863408.232 6      1386.854    24876086.440   101863413.228 7      1386.854
G27  23950242.340   125859344.259 6       -58.782    23950240.960   125859344.264 6       -58.782    23950260.440    98072281.755 6       -45.804    23950260.440    98072283.737 7       -45.804
G17  24668077.540   129631618.299 6      5556.244    24668077.100   129631618.304 5      5556.244    24668086.360   101011661.134 5      4329.541    24668086.900   101011697.155 7      4329.541
R09  23452375.140   125234371.548 7      4565.183    23452376.480   125234371.554 7      4565.183    23452387.560    97404567.536 7      3550.698    23452388.140    97404567.517 7      3550.698
> 2025 04 04 16 37 23.0000000  0 17
G02  21960957.520   115405599.748 7      1675.346    21960956.080   115405599.753 6      1675.346    21960960.280    89926454.529 6      1305.464
G03  20283909.820   106592659.392 8      4253.921    20283908.260   106592659.397 8      4253.921    20283916.100    83059247.388 8      3314.743    20283917.540    83059252.390 8      3314.743
G14  22739780.760   119498349.249 7      4549.818    22739779.080   119498349.252 5      4549.818    22739787.240    93115626.120 5      3545.313    22739787.740    93115629.126 7      3545.313
G08  21073368.900   110741292.633 7      1295.813    21073367.580   110741292.635 7      1295.813    21073377.040    86291950.412 7      1009.725    21073377.860    86291952.417 8      1009.725
G01  20945185.680   110067683.804 7      2588.472    20945184.560   110067683.806 6      2588.472    20945189.740    85767046.909 6      2016.991    20945190.020    85767047.915 8      2016.991
R03  20436618.160   109398816.825 7      5159.378    20436617.720   109398816.840 7      5159.378    20436631.360    85088027.921 8      4012.850    20436631.160    85088027.917 8      4012.850
R18  20892501.080   111525579.527 7      3500.589    20892500.500   111525579.520 7      3500.589    20892511.340    86742162.998 8      2722.680    20892511.160    86742166.003 8      2722.680
R02  21450297.660   114462890.509 7      1243.786    21450296.800   114462890.505 7      1243.786    21450308.180    89026739.797 7       967.389    21450308.480    89026740.794 7       967.389
R17  21455167.500   114810926.898 7      1838.573    21455167.260   114810926.902 7      1838.573    21455180.720    89297440.934 8      1430.001    21455180.380    89297441.933 8      1430.001
R16  21459669.800   114633692.431 7      1275.720    21459669.900   114633692.426 7      1275.720    21459683.060    89159592.554 8       992.227    21459683.440    89159592.561 8       992.227
R04  23013597.340   123236781.261 7      7138.013    23013599.140   123236781.308 7      7138.013    23013627.400    95850990.687 7      5551.788    23013627.660    95850993.692 7      5551.788
R15  22742078.660   121526733.490 7     -1007.076    22742077.640   121526733.481 6     -1007.076    22742101.940    94520873.955 8      -783.281    22742101.860    94520877.956 8      -783.281
G22  24644946.740   129510067.209 7      5261.194    24644944.900   129510067.214 4      5261.194    24644954.200   100916958.983 4      4099.632
G32  24875734.860   130722866.387 6      1779.192    24875733.640   130722866.392 6      1779.192    24875746.600   101862021.623 6      1386.384    24875747.600   101862026.619 7      1386.384
G27  23950253.540   125859403.136 6       -59.138    23950252.100   125859403.144 6       -59.138    23950271.640    98072327.622 6       -46.081    23950271.980    98072329.600 7       -46.081
G17  24667020.080   129626062.103 6      5556.273    24667019.780   129626062.111 5      5556.273    24667029.020   101007331.637 5      4329.563    24667029.100   101007367.639 7      4329.563
R09  23451520.500   125229806.801 7      4564.456    23451521.560   125229806.805 7      4564.456    23451532.780    97401017.173 7      3550.132    23451533.260    97401017.156 7      3550.132
> 2025 04 04 16 37 24.0000000  0 17
G02  21960638.740   115403924.400 7      1675.472    21960637.400   115403924.408 6      1675.472    21960641.280    89925149.065 6      1305.563
G03  20283100.160   106588405.730 8      4253.515    20283098.820   106588405.732 8      4253.515    20283106.680    83055932.856 8      3314.427    20283108.240    83055937.858 8      3314.427
G14  22738914.780   119493799.742 7      4549.324    22738913.140   119493799.747 5      4549.324    22738921.460    93112081.052 5      3544.928    22738922.020    93112084.051 7      3544.928
G08  21073122.220   110739997.006 7      1295.581    21073120.980   110739997.011 7      1295.581    21073130.460    86290940.829 7      1009.544    21073131.260    86290942.834 8      1009.544
G01  20944693.060   110065095.397 7      2588.473    20944691.940   110065095.399 6      2588.473    20944697.200    85765029.967 6      2016.992    20944697.560    85765030.972 8      2016.992
R03  20435654.100   109393657.793 8      5158.801    20435654.020   109393657.816 7      5158.801    20435667.580    85084015.351 8      4012.401    20435667.540    85084015.352 8      4012.401
R18  20891845.020   111522078.983 7      3500.649    20891844.760   111522078.981 7      3500.649    20891855.540    86739440.350 8      2722.727    20891855.600    86739443.359 8      2722.727
R02  21450064.920   114461647.059 7      1243.256    21450063.840   114461647.055 7      1243.256    21450075.140    89025772.663 7       966.977    21450075.620    89025773.664 7       966.977
R17  21454824.180   114809088.335 7      1838.566    21454823.640   114809088.339 7      1838.566    21454837.220    89296010.928 7      1429.996    21454836.860    89296011.931 8      1429.996
R16  21459430.520   114632417.060 7      1275.200    21459430.900   114632417.059 7      1275.200    21459444.180    89158600.609 8       991.822    21459444.740    89158600.614 8       991.822
R04  23012264.200   123229643.372 7      7137.917    23012266.340   123229643.416 7      7137.917    23012294.820    95845439.031 7      5551.713    23012294.440    95845442.038 7      5551.713
R15  22742267.420   121527740.544 7     -1006.981    22742266.300   121527740.527 7     -1006.981    22742290.340    94521657.197 7      -783.207    22742290.300    94521661.204 7      -783.207
G22  24643945.720   129504806.104 6      5260.983    24643943.760   129504806.111 4      5260.983    24643952.940   100912859.427 4      4099.467
G32  24875396.220   130721087.439 6      1778.778    24875394.960   130721087.444 6      1778.778    24875408.200   101860635.426 6      1386.061    24875409.280   101860640.424 7      1386.061
G27  23950264.440   125859462.292 6       -59.292    23950263.560   125859462.294 6       -59.292    23950282.980    98072373.688 6       -46.202    23950283.080    98072375.664 7       -46.202
G17  24665963.120   129620505.865 6      5556.426    24665962.500   129620505.867 5      5556.426    24665971.680   101003002.099 5      4329.682    24665971.680   101003038.107 7      4329.682
R09  23450666.160   125225242.801 7      4563.730    23450666.720   125225242.810 7      4563.730    23450677.800    97397467.410 7      3549.568    23450678.320    97397467.395 7      3549.568
> 2025 04 04 16 37 25.0000000  0 17
G02  21960319.900   115402249.022 7      1675.274    21960318.500   115402249.026 6      1675.274    21960322.540    89923843.573 6      1305.408
G03  20282290.820   106584152.609 8      4252.772    20282289.480   106584152.614 8      4252.772    20282297.360    83052618.736 8      3313.848    20282298.720    83052623.738 8      3313.848
G14  22738049.300   119489250.684 7      4548.690    22738047.340   119489250.688 5      4548.690    22738055.900    93108536.337 5      3544.434    22738056.420    93108539.343 7      3544.434
G08  21072875.940   110738701.711 7      1295.080    21072874.540   110738701.718 7      1295.080    21072883.920    86289931.510 7      1009.153    21072884.840    86289933.515 8      1009.153
G01  20944200.660   110062507.087 7      2588.179    20944199.320   110062507.092 6      2588.179    20944204.580    85763013.106 6      2016.763    20944204.920    85763014.109 8      2016.763
R03  20434690.500   109388499.390 7      5158.008    20434690.480   109388499.413 7      5158.008    20434703.860    85080003.267 8      4011.784    20434703.980    85080003.265 8      4011.784
R18  20891189.060   111518578.392 7      3500.515    20891189.060   111518578.401 7      3500.515    20891199.820    86736717.686 8      2722.623    20891199.780    86736720.693 8      2722.623
R02  21449832.200   114460404.346 8      1242.251    21449831.160   114460404.341 7      1242.251    21449842.260    89024806.114 7       966.195    21449842.680    89024807.109 7       966.195
R17  21454480.460   114807249.772 7      1838.463    21454480.140   114807249.773 7      1838.463    21454493.740    89294580.934 8      1429.915    21454493.160    89294581.934 8      1429.915
R16  21459192.100   114631142.344 7      1274.342    21459192.400   114631142.343 7      1274.342    21459205.640    89157609.151 8       991.155    21459205.940    89157609.154 8       991.155
R04  23010931.240   123222505.442 7      7137.894    23010933.380   123222505.484 7      7137.894    23010961.820    95839887.343 7      5551.695    23010961.700    95839890.350 7      5551.695
R15  22742455.440   121528747.644 7     -1007.291    22742454.760   121528747.643 7     -1007.291    22742478.740    94522440.470 7      -783.449    22742478.680    94522444.471 7      -783.449
G22  24642944.740   129499545.274 7      5260.567    24642942.520   129499545.287 4      5260.567    24642951.800   100908760.086 4      4099.143
G32  24875057.340   130719308.938 6      1778.216    24875056.400   130719308.940 6      1778.216    24875069.780   101859249.581 6      1385.623    24875071.200   101859254.575 7      1385.623
G27  23950275.580   125859521.572 6       -59.558    23950274.660   125859521.584 6       -59.558    23950294.300    98072419.876 6       -46.409    23950294.420    98072421.858 7       -46.409
G17  24664905.720   129614949.466 6      5556.431    24664905.180   129614949.471 5      5556.431    24664914.380   100998672.441 5      4329.686    24664914.040   100998708.447 7      4329.686
R09  23449811.580   125220679.445 7      4563.009    23449812.040   125220679.446 7      4563.009    23449823.360    97393918.125 7      3549.007    23449823.900    97393918.111 7      3549.007
> 2025 04 04 16 37 26.0000000  0 17
G02  21960001.360   115400573.569 7      1675.515    21959999.740   115400573.574 6      1675.515    21960003.700    89922538.030 6      1305.596
G03  20281481.500   106579899.990 8      4252.466    20281480.180   106579899.997 8      4252.466    20281488.100    83049305.019 8      3313.610    20281489.580    83049310.021 8      3313.610
G14  22737183.600   119484702.083 7      4548.465    22737181.700   119484702.093 5      4548.465    22737190.400    93104991.979 5      3544.259    22737191.040    93104994.989 7      3544.259
G08  21072629.620   110737406.731 8      1294.924    21072628.240   110737406.736 7      1294.924    21072637.560    86288922.431 7      1009.032    21072638.540    86288924.435 8      1009.032
G01  20943708.160   110059918.867 7      2588.288    20943706.940   110059918.874 6      2588.288    20943712.180    85760996.315 6      2016.848    20943712.500    85760997.318 8      2016.848
R03  20433726.780   109383341.587 8      5157.542    20433726.720   109383341.615 7      5157.542    20433740.340    85075991.652 8      4011.422    20433740.340    85075991.650 8      4011.422
R18  20890533.460   111515077.797 8      3500.676    20890533.500   111515077.798 7      3500.676    20890544.180    86733994.992 8      2722.748    20890544.080    86733998.001 8      2722.748
R02  21449599.040   114459162.326 7      1241.761    21449598.360   114459162.321 7      1241.761    21449609.620    89023840.102 7       965.814    21449610.000    89023841.100 7       965.814
R17  21454137.160   114805411.216 7      1838.641    21454136.400   114805411.226 7      1838.641    21454150.160    89293150.953 7      1430.054    21454149.880    89293151.952 8      1430.054
R16  21458953.540   114629868.205 8      1273.935    21458953.980   114629868.206 7      1273.935    21458967.140    89156618.160 8       990.838    21458967.520    89156618.165 8       990.838
R04  23009598.120   123215367.478 7      7138.192    23009599.920   123215367.522 7      7138.192    23009628.580    95834335.629 7      5551.927    23009628.720    95834338.636 7      5551.927
R15  22742644.040   121529754.717 7     -1007.065    22742643.340   121529754.716 7     -1007.065    22742667.400    94523223.741 8      -783.273    22742667.520    94523227.748 8      -783.273
G22  24641943.100   129494284.684 6      5260.599    24641941.380   129494284.697 4      5260.599    24641950.780   100904660.931 4      4099.168
G32  24874719.280   130717530.823 6      1778.060    24874717.940   130717530.831 6      1778.060    24874731.520   101857864.045 6      1385.501    24874732.880   101857869.041 7      1385.501
G27  23950287.100   125859580.996 6       -59.454    23950285.960   125859581.003 6       -59.454    23950305.620    98072466.162 6       -46.328    23950305.800    98072468.150 7       -46.328
G17  24663848.200   129609392.918 6      5556.655    24663847.800   129609392.923 5      5556.655    24663856.960   100994342.672 5      4329.861    24663856.580   100994378.688 7      4329.861
R09  23448957.540   125216116.722 6      4562.552    23448957.700   125216116.718 7      4562.552    23448968.860    97390369.336 7      3548.652    23448969.060    97390369.314 7      3548.652
> 2025 04 04 16 37 27.0000000  0 17
G02  21959682.240   115398897.909 7      1675.614    21959680.860   115398897.911 6      1675.614    21959684.660    89921232.319 6      1305.673
G03  20280672.540   106575647.741 8      4251.958    20280671.040   106575647.743 8      4251.958    20280678.940    83045991.579 8      3313.214    20280680.460    83045996.581 8      3313.214
G14  22736318.540   119480153.813 7      4547.881    22736316.300   119480153.825 5      4547.881    22736324.940    93101447.876 5      3543.803    22736325.200    93101450.882 7      3543.803
G08  21072383.240   110736111.930 7      1294.537    21072381.740   110736111.932 7      1294.537    21072391.140    86287913.495 7      1008.730    21072392.220    86287915.497 8      1008.730
G01  20943215.360   110057330.599 7      2588.106    20943214.460   110057330.604 6      2588.106    20943219.560    85758979.485 6      2016.706    20943219.980    85758980.486 8      2016.706
R03  20432763.640   109378184.260 8      5156.924    20432763.620   109378184.280 7      5156.924    20432777.080    85071980.400 8      4010.941    20432776.820    85071980.398 8      4010.941
R18  20889877.160   111511576.964 7      3500.844    20889877.480   111511576.965 7      3500.844    20889888.420    86731272.122 8      2722.879    20889888.380    86731275.127 8      2722.879
R02  21449366.560   114457920.938 8      1240.884    21449365.720   114457920.941 7      1240.884    21449376.880    89022874.583 7       965.132    21449377.400    89022875.580 7       965.132
R17  21453793.560   114803572.549 7      1838.562    21453793.380   114803572.561 7      1838.562    21453806.720    89291720.876 8      1429.993    21453806.120    89291721.878 8      1429.993
R16  21458715.040   114628594.560 7      1273.226    21458715.360   114628594.561 7      1273.226    21458728.800    89155627.548 8       990.287    21458729.220    89155627.552 8       990.287
R04  23008265.080   123208229.315 7      7138.188    23008266.520   123208229.368 7      7138.188    23008295.920    95828783.770 7      5551.924    23008295.560    95828786.773 7      5551.924
R15  22742832.480   121530761.649 7     -1007.011    22742831.680   121530761.639 7     -1007.011    22742855.760    94524006.862 8      -783.231    22742856.080    94524010.869 8      -783.231
G22  24640942.160   129489024.244 6      5260.150    24640940.340   129489024.254 4      5260.150    24640949.600   100900561.887 4      4098.818
G32  24874380.920   130715752.990 6      1777.713    24874379.740   130715752.992 6      1777.713    24874393.080   101856478.729 6      1385.231    24874394.280   101856483.733 7      1385.231
G27  23950298.680   125859640.398 6       -59.613    23950297.220   125859640.403 6       -59.613    23950317.000    98072512.432 6       -46.452    23950317.120    98072514.424 7       -46.452
G17  24662790.720   129603836.041 6      5556.993    24662790.400   129603836.046 5      5556.993    24662799.620   100990012.640 5      4330.124    24662799.580   100990048.654 7      4330.124
R09  23448102.840   125211554.434 7      4561.865    23448103.300   125211554.429 7      4561.865    23448114.420    97386820.894 7      3548.117    23448114.520    97386820.887 6      3548.117
> 2025 04 04 16 37 28.0000000  0 17
G02  21959363.220   115397222.162 7      1675.611    21959361.980   115397222.167 6      1675.611    21959365.880    89919926.544 6      1305.671
G03  20279863.400   106571395.971 8      4251.471    20279861.920   106571395.973 8      4251.471    20279869.880    83042678.517 8      3312.834    20279871.360    83042683.521 8      3312.834
G14  22735453.000   119475605.942 7      4547.641    22735450.840   119475605.952 5      4547.641    22735459.420    93097904.083 5      3543.616    22735459.920    93097907.089 7      3543.616
G08  21072136.740   110734817.407 7      1294.237    21072135.520   110734817.412 7      1294.237    21072144.820    86286904.776 7      1008.497    21072145.740    86286906.778 8      1008.497
G01  20942723.000   110054742.362 7      2588.105    20942721.720   110054742.365 6      2588.105    20942727.000    85756962.677 6      2016.705    20942727.560    85756963.680 8      2016.705
R03  20431800.120   109373027.506 7      5156.382    20431800.220   109373027.529 7      5156.382    20431813.700    85067969.597 8      4010.520    20431813.760    85067969.598 8      4010.520
R18  20889221.500   111508076.037 7      3500.860    20889221.680   111508076.041 7      3500.860    20889232.440    86728549.187 8      2722.891    20889232.460    86728552.196 8      2722.891
R02  21449133.920   114456680.241 8      1240.235    21449133.460   114456680.250 7      1240.235    21449144.300    89021909.605 7       964.627    21449144.760    89021910.606 7       964.627
R17  21453450.000   114801733.846 7      1838.695    21453449.680   114801733.848 7      1838.695    21453463.120    89290290.772 8      1430.096    21453462.580    89290291.774 8      1430.096
R16  21458476.700   114627321.506 8      1272.699    21458477.340   114627321.509 7      1272.699    21458490.340    89154637.384 8       989.877    21458490.740    89154637.384 8       989.877
R04  23006931.700   123201091.099 7      7138.100    23006933.940   123201091.144 7      7138.100    23006962.860    95823231.860 7      5551.855    23006962.540    95823234.865 7      5551.855
R15  22743020.840   121531768.511 7     -1007.027    22743020.380   121531768.509 6     -1007.027    22743044.300    94524789.966 7      -783.243    22743044.360    94524793.971 7      -783.243
G22  24639941.460   129483763.972 6      5260.121    24639939.360   129483763.985 4      5260.121    24639948.620   100896462.975 4      4098.796
G32  24874042.240   130713975.574 6      1777.273    24874041.440   130713975.573 6      1777.273    24874054.900   101855093.731 6      1384.888    24874056.060   101855098.725 7      1384.888
G27  23950309.960   125859699.904 6       -59.628    23950308.440   125859699.917 6       -59.628    23950328.540    98072558.785 6       -46.463    23950328.300    98072560.771 7       -46.463
G17  24661733.360   129598279.009 6      5557.070    24661732.940   129598279.009 5      5557.070    24661742.140   100985682.485 5      4330.184    24661742.240   100985718.493 7      4330.184
R09  23447248.620   125206992.704 7      4561.372    23447249.020   125206992.702 7      4561.372    23447260.080    97383272.886 7      3547.734    23447260.460    97383272.870 6      3547.734
> 2025 04 04 16 37 29.0000000  0 17
G02  21959044.420   115395546.292 7      1675.990    21959043.200   115395546.297 6      1675.990    21959047.000    89918620.673 6      1305.966
G03  20279054.540   106567144.663 8      4251.168    20279052.960   106567144.665 8      4251.168    20279060.820    83039365.810 8      3312.598    20279062.400    83039370.814 8      3312.598
G14  22734587.600   119471058.489 7      4547.397    22734585.620   119471058.499 5      4547.397    22734593.920    93094360.617 5      3543.426    22734594.500    93094363.627 7      3543.426
G08  21071890.640   110733523.149 7      1294.113    21071889.180   110733523.154 7      1294.113    21071898.500    86285896.259 7      1008.399    21071899.200    86285898.264 8      1008.399
G01  20942230.640   110052154.181 7      2588.188    20942229.320   110052154.186 6      2588.188    20942234.380    85754945.917 6      2016.770    20942234.900    85754946.916 8      2016.770
R03  20430836.700   109367871.303 8      5156.031    20430837.160   109367871.329 7      5156.031    20430850.340    85063959.230 8      4010.246    20430850.440    85063959.230 8      4010.246
R18  20888565.600   111504575.034 7      3501.038    20888565.780   111504575.034 7      3501.038    20888576.480    86725826.187 8      2723.030    20888576.740    86725829.193 8      2723.030
R02  21448901.500   114455440.241 7      1239.779    21448900.780   114455440.250 7      1239.779    21448912.020    89020945.160 7       964.273    21448912.380    89020946.157 7       964.273
R17  21453106.300   114799895.098 7      1838.807    21453106.460   114799895.108 7      1838.807    21453119.420    89288860.635 8      1430.183    21453118.900    89288861.636 8      1430.183
R16  21458238.760   114626049.039 7      1272.220    21458238.960   114626049.037 7      1272.220    21458252.140    89153647.685 8       989.504    21458252.680    89153647.686 8       989.504
R04  23005598.700   123193952.714 7      7138.456    23005600.820   123193952.764 7      7138.456    23005629.700    95817679.820 7      5552.132    23005629.560    95817682.825 7      5552.132
R15  22743209.500   121532775.325 7     -1006.773    22743208.800   121532775.313 7     -1006.773    22743232.640    94525573.006 7      -783.046    22743232.760    94525577.014 7      -783.046
G22  24638940.320   129478503.952 7      5259.949    24638938.540   129478503.968 4      5259.949    24638947.720   100892364.263 4      4098.662
G32  24873704.540   130712198.541 6      1776.773    24873703.260   130712198.544 6      1776.773    24873716.860   101853709.033 6      1384.498    24873718.100   101853714.033 7      1384.498
G27  23950321.520   125859759.496 6       -59.542    23950319.980   125859759.514 6       -59.542    23950339.880    98072605.208 6       -46.396    23950339.720    98072607.182 7       -46.396
G17  24660675.500   129592721.764 6      5557.377    24660675.420   129592721.769 5      5557.377    24660684.580   100981352.171 5      4330.424    24660684.640   100981388.183 7      4330.424
R09  23446394.840   125202431.572 7      4560.957    23446394.740   125202431.567 7      4560.957    23446406.060    97379725.330 7      3547.411    23446406.320    97379725.325 6      3547.411
> 2025 04 04 16 37 30.0000000  0 17
G02  21958725.680   115393870.364 7      1676.077    21958724.240   115393870.366 6      1676.077    21958728.060    89917314.753 6      1306.034
G03  20278245.580   106562893.854 8      4250.681    20278244.080   106562893.856 8      4250.681    20278251.940    83036053.503 8      3312.219    20278253.580    83036058.505 8      3312.219
G14  22733721.960   119466511.483 7      4547.017    22733720.280   119466511.488 5      4547.017    22733728.520    93090817.498 5      3543.130    22733729.220    93090820.504 7      3543.130
G08  21071644.440   110732229.189 7      1293.831    21071643.060   110732229.196 7      1293.831    21071652.380    86284887.984 7      1008.180    21071653.100    86284889.987 8      1008.180
G01  20941738.120   110049566.050 7      2588.239    20941736.880   110049566.055 6      2588.239    20941741.860    85752929.195 6      2016.810    20941742.460    85752930.201 8      2016.810
R03  20429873.840   109362715.692 8      5155.521    20429873.940   109362715.707 7      5155.521    20429887.360    85059949.314 8      4009.849    20429887.180    85059949.317 8      4009.849
R18  20887910.160   111501073.939 7      3501.218    20887909.960   111501073.943 7      3501.218    20887920.620    86723103.119 8      2723.170    20887920.580    86723106.128 8      2723.170
R02  21448669.200   114454200.927 7      1239.183    21448668.700   114454200.930 7      1239.183    21448679.960    89019981.245 7       963.809    21448680.200    89019982.244 7       963.809
R17  21452762.420   114798056.300 7      1838.960    21452762.520   114798056.315 7      1838.960    21452775.960    89287430.460 8      1430.303    21452775.340    89287431.464 8      1430.303
R16  21458000.520   114624777.186 8      1271.667    21458001.160   114624777.182 7      1271.667    21458013.920    89152658.462 8       989.074    21458014.460    89152658.465 8       989.074
R04  23004265.640   123186814.257 7      7138.584    23004267.540   123186814.307 7      7138.584    23004296.380    95812127.727 7      5552.232    23004296.220    95812130.730 7      5552.232
R15  22743397.760   121533782.115 7     -1006.800    22743396.860   121533782.113 7     -1006.800    22743421.160    94526356.051 7      -783.067    22743421.240    94526360.058 7      -783.067
G22  24637939.160   129473244.174 7      5259.716    24637937.660   129473244.187 4      5259.716    24637946.800   100888265.738 4      4098.480
G32  24873366.960   130710421.861 6      1776.565    24873365.240   130710421.856 6      1776.565    24873378.640   101852324.605 6      1384.336    24873379.980   101852329.615 7      1384.336
G27  23950333.240   125859819.219 6       -59.731    23950331.160   125859819.227 6       -59.731    23950351.240    98072651.717 6       -46.543    23950351.180    98072653.693 7       -46.543
G17  24659618.200   129587164.357 6      5557.405    24659617.840   129587164.359 5      5557.405    24659627.000   100977021.727 5      4330.446    24659627.120   100977057.744 7      4330.446
R09  23445540.640   125197871.030 7      4560.310    23445540.520   125197871.023 7      4560.310    23445552.080    97376178.242 7      3546.908    23445552.320    97376178.229 6      3546.908
> 2025 04 04 16 37 31.0000000  0 17
G02  21958406.980   115392194.381 7      1675.991    21958405.280   115392194.383 6      1675.991    21958409.020    89916008.795 6      1305.967
G03  20277436.720   106558643.579 8      4250.008    20277435.220   106558643.586 8      4250.008    20277443.160    83032741.605 8      3311.694    20277444.800    83032746.607 8      3311.694
G14  22732856.760   119461964.958 7      4546.257    22732855.000   119461964.965 5      4546.257    22732863.300    93087274.759 5      3542.538    22732863.880    93087277.767 7      3542.538
G08  21071398.300   110730935.549 8      1293.419    21071396.880   110730935.556 7      1293.419    21071406.220    86283879.951 7      1007.859    21071407.060    86283881.956 8      1007.859
G01  20941245.480   110046978.034 7      2588.018    20941244.500   110046978.037 6      2588.018    20941249.540    85750912.562 6      2016.637    20941249.940    85750913.565 8      2016.637
R03  20428910.900   109357560.715 8      5154.597    20428911.100   109357560.730 7      5154.597    20428924.400    85055939.898 8      4009.131    20428924.120    85055939.900 8      4009.131
R18  20887254.360   111497572.850 7      3501.049    20887253.960   111497572.851 7      3501.049    20887264.880    86720380.058 8      2723.038    20887264.960    86720383.067 8      2723.038
R02  21448437.100   114452962.322 7      1238.167    21448436.680   114452962.323 7      1238.167    21448447.700    89019017.892 7       963.019    21448447.880    89019018.893 7       963.019
R17  21452418.820   114796217.533 7      1838.760    21452419.400   114796217.561 7      1838.760    21452432.320    89286000.315 8      1430.146    21452431.760    89286001.318 8      1430.146
R16  21457762.800   114623506.020 7      1270.848    21457762.900   114623506.015 8      1270.848    21457776.000    89151669.775 8       988.437    21457776.300    89151669.776 8       988.437
R04  23002932.720   123179675.755 7      7138.437    23002935.000   123179675.802 7      7138.437    23002963.100    95806575.593 7      5552.117    23002963.080    95806578.598 7      5552.117
R15  22743586.120   121534788.963 7     -1006.858    22743585.600   121534788.946 7     -1006.858    22743609.380    94527139.111 8      -783.112    22743609.760    94527143.117 7      -783.112
G22  24636938.820   129467984.635 7      5259.506    24636936.720   129467984.648 4      5259.506    24636945.900   100884167.400 4      4098.317
G32  24873028.960   130708645.622 6      1776.171    24873027.100   130708645.617 6      1776.171    24873040.640   101850940.525 6      1384.029    24873041.480   101850945.525 7      1384.029
G27  23950344.600   125859879.072 6       -59.970    23950342.520   125859879.087 6       -59.970    23950362.700    98072698.347 6       -46.729    23950363.120    98072700.325 7       -46.729
G17  24658560.900   129581606.758 7      5557.714    24658560.480   129581606.760 5      5557.714    24658569.400   100972691.139 5      4330.686    24658569.640   100972727.157 7      4330.686
R09  23444686.840   125193311.112 7      4559.581    23444686.580   125193311.108 7      4559.581    23444698.160    97372631.648 7      3546.341    23444698.160    97372631.647 6      3546.341
> 2025 04 04 16 37 32.0000000  0 17
G02  21958088.120   115390518.022 7      1676.282    21958086.280   115390518.024 6      1676.282    21958090.080    89914702.541 6      1306.194
G03  20276628.060   106554393.482 8      4249.797    20276626.560   106554393.487 8      4249.797    20276634.400    83029429.847 8      3311.530    20276635.820    83029434.853 8      3311.530
G14  22731991.460   119457418.558 7      4546.097    22731989.980   119457418.571 5      4546.097    22731998.180    93083732.112 5      3542.413    22731998.940    93083735.118 7      3542.413
G08  21071152.060   110729641.919 7      1293.381    21071150.680   110729641.924 7      1293.381    21071160.040    86282871.924 7      1007.829    21071161.000    86282873.927 8      1007.829
G01  20940752.840   110044389.793 7      2588.175    20940751.900   110044389.795 6      2588.175    20940756.940    85748895.752 6      2016.760    20940757.340    85748896.753 8      2016.760
R03  20427947.920   109352406.003 8      5154.331    20427948.220   109352406.023 7      5154.331    20427961.300    85051930.686 8      4008.924    20427961.500    85051930.688 8      4008.924
R18  20886598.340   111494071.365 7      3501.415    20886597.800   111494071.372 7      3501.415    20886608.900    86717656.686 8      2723.323    20886608.940    86717659.694 8      2723.323
R02  21448205.040   114451724.053 8      1237.875    21448204.440   114451724.046 7      1237.875    21448215.600    89018054.782 7       962.792    21448216.340    89018055.779 7       962.792
R17  21452075.300   114794378.485 7      1838.948    21452075.780   114794378.506 7      1838.948    21452088.660    89284569.936 8      1430.293    21452088.160    89284570.937 8      1430.293
R16  21457524.800   114622235.160 7      1270.418    21457525.260   114622235.161 7      1270.418    21457537.960    89150681.329 8       988.103    21457538.420    89150681.330 8       988.103
R04  23001599.820   123172536.928 7      7138.761    23001601.740   123172536.965 7      7138.761    23001630.320    95801023.198 7      5552.370    23001630.080    95801026.207 7      5552.370
R15  22743774.420   121535795.497 7     -1006.579    22743774.040   121535795.477 7     -1006.579    22743797.800    94527921.946 8      -782.895    22743798.060    94527925.951 8      -782.895
G22  24635938.220   129462725.043 7      5259.435    24635935.920   129462725.056 4      5259.435    24635944.920   100880069.021 4      4098.261
G32  24872690.560   130706869.499 6      1775.891    24872689.180   130706869.502 6      1775.891    24872702.660   101849556.541 6      1383.811    24872703.500   101849561.555 7      1383.811
G27  23950356.040   125859938.722 6       -59.655    23950353.920   125859938.726 6       -59.655    23950374.240    98072744.805 6       -46.485    23950374.320    98072746.789 7       -46.485
G17  24657503.340   129576048.730 7      5558.011    24657502.880   129576048.729 5      5558.011    24657511.760   100968360.210 5      4330.918    24657511.920   100968396.224 7      4330.918
R09  23443833.640   125188751.486 7      4559.367    23443832.960   125188751.487 7      4559.367    23443844.340    97369085.266 7      3546.174    23443844.760    97369085.265 6      3546.174
> 2025 04 04 16 37 33.0000000  0 17
G02  21957769.080   115388841.647 7      1676.334    21957767.300   115388841.644 6      1676.334    21957771.120    89913396.275 6      1306.234
G03  20275819.280   106550143.937 7      4249.369    20275817.760   106550143.942 8      4249.369    20275825.680    83026118.520 8      3311.196    20275827.380    83026123.524 8      3311.196
G14  22731126.540   119452872.674 7      4545.626    22731124.960   119452872.687 5      4545.626    22731133.160    93080189.865 5      3542.046    22731134.060    93080192.867 7      3542.046
G08  21070906.000   110728348.642 7      1293.064    21070904.660   110728348.647 8      1293.064    21070914.020    86281864.178 7      1007.582    21070914.860    86281866.178 8      1007.582
G01  20940260.340   110041801.677 7      2588.052    20940259.440   110041801.682 6      2588.052    20940264.360    85746879.039 6      2016.664    20940265.020    85746880.044 8      2016.664
R03  20426985.520   109347251.949 8      5153.715    20426985.460   109347251.972 7      5153.715    20426998.520    85047921.990 8      4008.445    20426998.440    85047921.990 8      4008.445
R18  20885942.240   111490569.868 7      3501.445    20885941.980   111490569.866 7      3501.445    20885952.860    86714933.296 8      2723.346    20885952.920    86714936.305 8      2723.346
R02  21447973.380   114450486.529 7      1237.077    21447972.600   114450486.530 7      1237.077    21447983.580    89017092.269 7       962.171    21447984.160    89017093.268 7       962.171
R17  21451731.760   114792539.513 7      1838.910    21451732.700   114792539.530 7      1838.910    21451744.960    89283139.620 8      1430.263    21451744.680    89283140.617 8      1430.263
R16  21457287.040   114620964.937 7      1269.840    21457287.260   114620964.941 7      1269.840    21457300.300    89149693.377 8       987.653    21457300.580    89149693.378 8       987.653
R04  23000267.000   123165398.110 7      7138.745    23000268.120   123165398.154 7      7138.745    23000297.220    95795470.831 7      5552.357    23000296.800    95795473.838 7      5552.357
R15  22743962.800   121536802.036 7     -1006.580    22743962.580   121536802.023 7     -1006.580    22743986.380    94528704.809 7      -782.896    22743986.340    94528708.816 8      -782.896
G22  24634937.280   129457465.762 7      5259.099    24634935.120   129457465.775 4      5259.099    24634944.160   100875970.884 4      4098.000
G32  24872352.300   130705093.875 6      1775.367    24872351.260   130705093.878 6      1775.367    24872364.800   101848172.936 6      1383.403    24872365.780   101848177.942 7      1383.403
G27  23950367.320   125859998.563 6       -59.693    23950365.360   125859998.573 6       -59.693    23950385.540    98072791.423 6       -46.514    23950386.160    98072793.407 7       -46.514
G17  24656445.520   129570490.558 6      5558.223    24656445.280   129570490.563 5      5558.223    24656453.980   100964029.175 5      4331.083    24656454.240   100964065.175 7      4331.083
R09  23442979.600   125184192.509 7      4558.600    23442978.920   125184192.513 7      4558.600    23442990.780    97365539.401 7      3545.578    23442990.820    97365539.396 7      3545.578
> 2025 04 04 16 37 34.0000000  0 17
G02  21957449.960   115387165.244 7      1676.693    21957448.360   115387165.243 6      1676.693    21957452.260    89912089.986 6      1306.514
G03  20275010.660   106545894.994 7      4248.868    20275009.160   106545894.996 8      4248.868    20275017.140    83022807.659 8      3310.806    20275018.580    83022812.663 8      3310.806
G14  22730261.440   119448327.289 7      4545.353    22730260.040   119448327.297 5      4545.353    22730268.300    93076648.013 5      3541.833    22730268.840    93076651.012 7      3541.833
G08  21070659.880   110727055.733 7      1292.973    21070658.600   110727055.740 7      1292.973    21070667.980    86280856.714 7      1007.511    21070668.920    86280858.714 8      1007.511
G01  20939767.940   110039213.690 7      2588.187    20939766.920   110039213.693 6      2588.187    20939771.880    85744862.428 6      2016.769    20939772.460    85744863.433 8      2016.769
R03  20426022.760   109342098.560 8      5153.336    20426022.800   109342098.577 7      5153.336    20426035.860    85043913.798 8      4008.150    20426035.800    85043913.798 8      4008.150
R18  20885286.380   111487068.354 7      3501.738    20885285.960   111487068.352 7      3501.738    20885296.960    86712209.901 8      2723.574    20885297.240    86712212.908 8      2723.574
R02  21447741.300   114449249.795 8      1236.561    21447740.800   114449249.793 7      1236.561    21447752.060    89016130.369 7       961.770    21447752.440    89016131.364 7       961.770
R17  21451388.120   114790700.618 7      1839.122    21451388.660   114790700.624 7      1839.122    21451401.420    89281709.356 8      1430.428    21451401.060    89281710.355 8      1430.428
R16  21457049.220   114619695.354 8      1269.516    21457049.720   114619695.358 7      1269.516    21457062.440    89148705.920 8       987.401    21457062.980    89148705.923 8       987.401
R04  22998933.820   123158259.297 7      7139.022    22998935.420   123158259.333 7      7139.022    22998963.940    95789918.448 7      5552.573    22998963.620    95789921.451 7      5552.573
R15  22744151.260   121537808.593 7     -1006.309    22744150.740   121537808.578 7     -1006.309    22744174.900    94529487.656 7      -782.685    22744174.820    94529491.659 8      -782.685
G22  24633936.360   129452206.764 7      5259.126    24633934.460   129452206.780 4      5259.126    24633943.460   100871872.966 4      4098.020
G32  24872014.680   130703318.653 6      1775.300    24872013.460   130703318.650 6      1775.300    24872026.920   101846789.644 6      1383.351    24872028.360   101846794.652 7      1383.351
G27  23950378.560   125860058.620 6       -59.866    23950376.660   125860058.633 6       -59.866    23950397.060    98072838.204 6       -46.649    23950397.680    98072840.199 7       -46.649
G17  24655387.800   129564932.320 7      5558.399    24655387.480   129564932.322 5      5558.399    24655396.200   100959698.085 5      4331.220    24655396.560   100959734.082 7      4331.220
R09  23442125.820   125179634.162 7      4558.210    23442125.440   125179634.163 7      4558.210    23442136.820    97361994.022 7      3545.275    23442137.120    97361994.017 7      3545.275
> 2025 04 04 16 37 35.0000000  0 17
G02  21957130.780   115385488.845 7      1676.350    21957129.240   115385488.853 6      1676.350    21957133.240    89910783.708 6      1306.247
G03  20274202.260   106541646.566 8      4248.167    20274200.720   106541646.571 8      4248.167    20274208.700    83019497.204 8      3310.260    20274210.120    83019502.208 8      3310.260
G14  22729396.740   119443782.396 7      4544.664    22729395.020   119443782.408 5      4544.664    22729403.340    93073106.541 5      3541.297    22729404.160    93073109.539 7      3541.297
G08  21070413.920   110725763.191 7      1292.314    21070412.620   110725763.196 7      1292.314    21070422.020    86279849.536 7      1006.998    21070422.980    86279851.537 8      1006.998
G01  20939275.460   110036625.840 7      2587.802    20939274.500   110036625.848 6      2587.802    20939279.400    85742845.929 6      2016.469    20939279.900    85742846.933 8      2016.469
R03  20425059.920   109336945.810 8      5152.438    20425060.200   109336945.822 7      5152.438    20425073.020    85039906.112 8      4007.452    20425073.320    85039906.112 8      4007.452
R18  20884630.660   111483566.846 7      3501.458    20884630.280   111483566.841 7      3501.458    20884640.920    86709486.506 8      2723.356    20884641.200    86709489.515 8      2723.356
R02  21447509.860   114448013.887 7      1235.468    21447509.260   114448013.888 7      1235.468    21447520.520    89015169.103 7       960.920    21447520.820    89015170.100 7       960.920
R17  21451044.480   114788861.741 7      1838.901    21451044.980   114788861.745 7      1838.901    21451057.520    89280279.116 8      1430.256    21451057.300    89280280.116 8      1430.256
R16  21456811.680   114618426.440 7      1268.551    21456812.260   114618426.435 7      1268.551    21456825.080    89147718.986 8       986.651    21456825.340    89147718.989 8       986.651
R04  22997600.520   123151120.446 7      7138.816    22997601.960   123151120.493 7      7138.816    22997630.700    95784366.054 7      5552.413    22997630.380    95784369.058 7      5552.413
R15  22744339.580   121538815.177 7     -1006.628    22744339.400   121538815.154 6     -1006.628    22744363.080    94530270.524 8      -782.933    22744363.340    94530274.531 8      -782.933
G22  24632935.360   129446948.116 7      5258.384    24632933.720   129446948.129 4      5258.384    24632942.800   100867775.320 4      4097.442
G32  24871677.060   130701543.957 6      1774.348    24871675.780   130701543.954 6      1774.348    24871689.080   101845406.765 6      1382.609    24871690.200   101845411.770 7      1382.609
G27  23950390.000   125860118.822 6       -60.219    23950388.000   125860118.827 6       -60.219    23950408.460    98072885.098 6       -46.924    23950409.040    98072887.080 7       -46.924
G17  24654329.700   129559373.908 7      5558.519    24654329.840   129559373.911 5      5558.519    24654338.440   100955366.863 5      4331.314    24654338.480   100955402.869 7      4331.314
R09  23441272.140   125175076.495 7      4557.274    23441271.880   125175076.491 7      4557.274    23441283.740    97358449.162 7      3544.547    23441283.900    97358449.150 6      3544.547
> 2025 04 04 16 37 36.0000000  0 17
G02  21956811.640   115383812.413 7      1676.230    21956810.000   115383812.418 6      1676.230    21956814.120    89909477.399 6      1306.153
G03  20273393.940   106537398.705 8      4247.438    20273392.320   106537398.705 8      4247.438    20273400.260    83016187.186 8      3309.692    20273401.660    83016192.193 8      3309.692
G14  22728532.060   119439238.009 7      4543.959    22728530.340   119439238.022 5      4543.959    22728538.780    93069565.461 5      3540.747    22728539.240    93069568.471 7      3540.747
G08  21070167.900   110724470.980 7      1291.925    21070166.860   110724470.983 7      1291.925    21070176.160    86278842.619 7      1006.695    21070176.920    86278844.619 8      1006.695
G01  20938782.960   110034038.111 7      2587.570    20938782.020   110034038.113 6      2587.570    20938786.960    85740829.517 6      2016.288    20938787.400    85740830.518 8      2016.288
R03  20424097.360   109331793.683 8      5151.688    20424097.920   109331793.698 7      5151.688    20424110.640    85035898.911 8      4006.868    20424110.820    85035898.911 8      4006.868
R18  20883974.780   111480065.329 7      3501.379    20883974.000   111480065.328 7      3501.379    20883984.980    86706763.110 8      2723.295    20883985.140    86706766.119 8      2723.295
R02  21447278.460   114446778.748 8      1234.668    21447277.700   114446778.747 7      1234.668    21447288.860    89014208.438 7       960.297    21447289.200    89014209.435 7       960.297
R17  21450701.040   114787022.870 7      1838.670    21450701.400   114787022.885 7      1838.670    21450713.920    89278848.890 8      1430.076    21450713.600    89278849.891 8      1430.076
R16  21456574.400   114617158.142 7      1267.858    21456574.720   114617158.146 8      1267.858    21456587.660    89146732.528 8       986.111    21456587.880    89146732.535 8       986.111
R04  22996267.960   123143981.587 7      7138.733    22996268.960   123143981.640 7      7138.733    22996297.680    95778813.648 7      5552.348    22996297.280    95778816.656 7      5552.348
R15  22744527.960   121539821.785 7     -1006.768    22744527.220   121539821.770 6     -1006.768    22744551.440    94531053.433 8      -783.042    22744551.780    94531057.440 7      -783.042
G22  24631934.880   129441689.699 7      5258.185    24631933.000   129441689.706 4      5258.185    24631942.160   100863677.854 4      4097.287
G32  24871339.420   130699769.652 6      1774.029    24871338.240   130699769.644 6      1774.029    24871351.400   101844024.196 6      1382.360    24871352.180   101844029.209 7      1382.360
G27  23950401.500   125860179.216 6       -60.591    23950399.480   125860179.220 6       -60.591    23950419.920    98072932.142 6       -47.214    23950420.140    98072934.120 7       -47.214
G17  24653272.180   129553815.387 7      5558.630    24653272.120   129553815.394 5      5558.630    24653280.780   100951035.550 5      4331.400    24653280.840   100951071.554 7      4331.400
R09  23440418.700   125170519.483 7      4556.590    23440418.640   125170519.473 7      4556.590    23440430.500    97354904.815 7      3544.014    23440430.300    97354904.822 7      3544.014
> 2025 04 04 16 37 37.0000000  0 17
G02  21956492.780   115382135.962 7      1676.529    21956491.140   115382135.967 6      1676.529    21956495.200    89908171.072 6      1306.386
G03  20272585.720   106533151.383 8      4247.180    20272584.140   106533151.385 8      4247.180    20272592.100    83012877.591 8      3309.491    20272593.680    83012882.593 8      3309.491
G14  22727667.720   119434694.114 7      4543.645    22727665.600   119434694.129 5      4543.645    22727673.960    93066024.771 5      3540.502    22727674.540    93066027.777 7      3540.502
G08  21069922.120   110723179.130 7      1291.815    21069920.980   110723179.135 7      1291.815    21069930.260    86277835.980 7      1006.609    21069931.200    86277837.983 8      1006.609
G01  20938290.580   110031450.511 7      2587.651    20938289.700   110031450.516 6      2587.651    20938294.600    85738813.205 6      2016.352    20938294.840    85738814.210 8      2016.352
R03  20423135.180   109326642.202 8      5151.277    20423135.560   109326642.222 7      5151.277    20423148.380    85031892.214 8      4006.548    20423148.360    85031892.216 8      4006.548
R18  20883318.760   111476563.810 7      3501.659    20883317.980   111476563.811 7      3501.659    20883329.140    86704039.711 8      2723.513    20883329.040    86704042.718 8      2723.513
R02  21447047.260   114445544.367 8      1234.130    21447046.580   114445544.360 7      1234.130    21447057.640    89013248.363 7       959.879    21447057.960    89013249.360 7       959.879
R17  21450357.400   114785184.034 7      1838.880    21450357.620   114785184.046 7      1838.880    21450370.240    89277418.680 7      1430.240    21450369.940    89277419.677 8      1430.240
R16  21456337.320   114615890.557 7      1267.321    21456337.500   114615890.556 7      1267.321    21456350.460    89145746.625 8       985.694    21456350.680    89145746.630 8       985.694
R04  22994934.600   123136842.718 7      7138.962    22994936.120   123136842.768 7      7138.962    22994964.480    95773261.230 7      5552.526    22994964.020    95773264.233 7      5552.526
R15  22744716.040   121540828.460 7     -1006.653    22744715.860   121540828.440 6     -1006.653    22744740.180    94531836.390 8      -782.952    22744740.340    94531840.391 8      -782.952
G22  24630934.200   129436431.605 7      5258.107    24630932.540   129436431.618 4      5258.107    24630941.700   100859580.644 4      4097.226
G32  24871002.040   130697995.860 6      1773.611    24871000.780   130697995.857 6      1773.611    24871013.920   101842642.026 6      1382.035    24871014.480   101842647.026 7      1382.035
G27  23950413.320   125860239.783 6       -60.633    23950411.100   125860239.787 6       -60.633    23950431.500    98072979.314 6       -47.246    23950431.480    98072981.300 7       -47.246
G17  24652214.600   129548256.802 6      5558.743    24652214.180   129548256.804 5      5558.743    24652222.920   100946704.187 5      4331.488    24652223.060   100946740.191 7      4331.488
R09  23439564.960   125165963.104 7      4556.240    23439564.860   125165963.097 7      4556.240    23439576.980    97351360.968 7      3543.743    23439577.060    97351360.973 7      3543.743
> 2025 04 04 16 37 38.0000000  0 17
G02  21956173.760   115380459.403 7      1676.782    21956172.120   115380459.408 6      1676.782    21956176.020    89906864.664 6      1306.584
G03  20271777.640   106528904.550 8      4246.753    20271776.020   106528904.555 8      4246.753    20271783.920    83009568.374 8      3309.158    20271785.400    83009573.376 8      3309.158
G14  22726802.960   119430150.618 7      4543.486    22726800.900   119430150.634 5      4543.486    22726809.300    93062484.389 5      3540.378    22726809.940    93062487.399 7      3540.378
G08  21069676.500   110721887.565 7      1291.618    21069675.260   110721887.565 7      1291.618    21069684.540    86276829.564 7      1006.455    21069685.520    86276831.569 8      1006.455
G01  20937798.220   110028862.944 7      2587.745    20937797.320   110028862.944 6      2587.745    20937802.160    85736796.923 6      2016.425    20937802.580    85736797.925 8      2016.425
R03  20422172.720   109321491.282 7      5150.771    20422173.260   109321491.305 7      5150.771    20422186.040    85027885.954 8      4006.155    20422186.220    85027885.954 8      4006.155
R18  20882662.760   111473062.177 7      3501.892    20882662.020   111473062.172 7      3501.892    20882672.960    86701316.220 8      2723.694    20882673.300    86701319.227 8      2723.694
R02  21446815.940   114444310.618 8      1233.518    21446815.140   114444310.617 7      1233.518    21446826.280    89012288.787 7       959.403    21446826.680    89012289.786 7       959.403
R17  21450013.820   114783345.174 7      1839.055    21450013.640   114783345.191 7      1839.055    21450026.520    89275988.463 8      1430.376    21450026.220    89275989.464 8      1430.376
R16  21456100.100   114614623.555 7      1266.878    21456100.340   114614623.559 7      1266.878    21456113.300    89144761.179 8       985.350    21456113.480    89144761.182 8       985.350
R04  22993601.220   123129703.763 7      7139.148    22993602.580   123129703.810 7      7139.148    22993631.240    95767708.747 7      5552.670    22993630.760    95767711.750 7      5552.670
R15  22744904.720   121541835.087 6     -1006.702    22744904.080   121541835.083 6     -1006.702    22744928.420    94532619.318 8      -782.991    22744928.280    94532623.325 8      -782.991
G22  24629933.840   129431173.732 7      5258.002    24629932.060   129431173.744 4      5258.002    24629941.140   100855483.604 4      4097.144
G32  24870664.320   130696222.411 6      1773.439    24870663.220   130696222.408 6      1773.439    24870676.420   101841260.121 6      1381.900    24870677.020   101841265.133 7      1381.900
G27  23950424.640   125860300.397 6       -60.580    23950422.540   125860300.409 6       -60.580    23950443.120    98073026.542 6       -47.205    23950443.120    98073028.530 7       -47.205
G17  24651156.600   129542697.973 6      5559.101    24651156.420   129542697.975 5      5559.101    24651165.120   100942372.632 5      4331.767    24651165.380   100942408.628 7      4331.767
R09  23438711.880   125161407.277 7      4555.637    23438711.520   125161407.280 7      4555.637    23438724.280    97347817.554 7      3543.274    23438723.620    97347817.561 7      3543.274
> 2025 04 04 16 37 39.0000000  0 17
G02  21955854.720   115378782.750 7      1676.593    21955853.060   115378782.760 6      1676.593    21955857.040    89905558.185 6      1306.436
G03  20270969.440   106524658.179 8      4246.032    20270967.940   106524658.181 8      4246.032    20270975.840    83006259.518 8      3308.596    20270977.480    83006264.522 8      3308.596
G14  22725938.400   119425607.551 7      4542.802    22725936.460   119425607.558 5      4542.802    22725944.860    93058944.341 5      3539.846    22725945.520    93058947.342 7      3539.846
G08  21069430.820   110720596.261 7      1291.116    21069429.600   110720596.266 7      1291.116    21069438.820    86275823.357 7      1006.064    21069439.960    86275825.360 8      1006.064
G01  20937305.940   110026275.423 7      2587.465    20937304.940   110026275.428 6      2587.465    20937309.740    85734780.675 6      2016.206    20937310.280    85734781.678 8      2016.206
R03  20421210.640   109316340.928 8      5149.976    20421211.100   109316340.948 7      5149.976    20421223.880    85023880.128 8      4005.537    20421224.080    85023880.129 8      4005.537
R18  20882007.080   111469560.444 7      3501.706    20882006.240   111469560.445 7      3501.706    20882017.200    86698592.656 8      2723.549    20882017.320    86698595.663 8      2723.549
R02  21446584.800   114443077.521 8      1232.646    21446584.160   114443077.516 7      1232.646    21446595.260    89011329.709 7       958.725    21446595.460    89011330.708 7       958.725
R17  21449670.360   114781506.338 7      1838.698    21449670.280   114781506.347 7      1838.698    21449683.220    89274558.243 7      1430.098    21449682.520    89274559.242 8      1430.098
R16  21455862.840   114613357.156 7      1266.003    21455863.380   114613357.163 7      1266.003    21455876.320    89143776.202 8       984.669    21455876.560    89143776.209 8       984.669
R04  22992268.140   123122564.706 7      7139.073    22992268.800   123122564.748 7      7139.073    22992298.300    95762156.185 7      5552.612    22992297.560    95762159.188 7      5552.612
R15  22745092.820   121542841.661 7     -1006.646    22745092.860   121542841.638 6     -1006.646    22745116.800    94533402.165 7      -782.947    22745116.620    94533406.174 8      -782.947
G22  24628933.480   129425916.071 7      5257.407    24628931.580   129425916.084 4      5257.407    24628940.660   100851386.730 4      4096.681
G32  24870327.020   130694449.375 6      1772.660    24870325.920   130694449.367 6      1772.660    24870339.060   101839878.532 6      1381.293    24870339.660   101839883.528 7      1381.293
G27  23950436.360   125860361.129 6       -60.824    23950433.940   125860361.145 6       -60.824    23950454.720    98073073.843 6       -47.395    23950454.840    98073075.830 7       -47.395
G17  24650099.000   129537138.947 7      5559.015    24650098.520   129537138.947 5      5559.015    24650107.120   100938040.925 5      4331.700    24650107.540   100938076.937 7      4331.700
R09  23437859.040   125156852.032 7      4554.829    23437858.520   125156852.036 7      4554.829    23437870.960    97344274.584 7      3542.645    23437870.880    97344274.586 7      3542.645
> 2025 04 04 16 37 40.0000000  0 17
G02  21955535.500   115377105.981 7      1676.776    21955534.060   115377105.986 6      1676.776    21955537.940    89904251.608 6      1306.579
G03  20270161.600   106520412.260 8      4245.616    20270159.980   106520412.265 8      4245.616    20270167.940    83002951.016 8      3308.272    20270169.100    83002956.020 8      3308.272
G14  22725073.920   119421064.893 7      4542.324    22725071.980   119421064.908 5      4542.324    22725080.360    93055404.610 5      3539.473    22725081.100    93055407.617 7      3539.473
G08  21069185.280   110719305.223 7      1290.909    21069183.860   110719305.228 8      1290.909    21069193.100    86274817.349 7      1005.903    21069194.020    86274819.350 8      1005.903
G01  20936813.120   110023687.925 7      2587.588    20936812.520   110023687.927 6      2587.588    20936817.320    85732764.443 6      2016.302    20936817.740    85732765.448 8      2016.302
R03  20420249.180   109311191.114 8      5149.561    20420249.000   109311191.140 7      5149.561    20420261.920    85019874.726 8      4005.214    20420262.040    85019874.724 8      4005.214
R18  20881350.880   111466058.624 7      3501.837    20881349.940   111466058.627 7      3501.837    20881360.940    86695869.027 8      2723.651    20881361.300    86695872.033 8      2723.651
R02  21446354.140   114441845.058 7      1232.078    21446352.880   114441845.056 7      1232.078    21446364.500    89010371.137 7       958.283    21446364.740    89010372.136 7       958.283
R17  21449326.400   114779667.408 7      1838.958    21449326.340   114779667.409 7      1838.958    21449339.300    89273127.964 8      1430.300    21449338.860    89273128.961 8      1430.300
R16  21455625.860   114612091.337 8      1265.478    21455626.400   114612091.338 7      1265.478    21455639.340    89142791.672 8       984.261    21455639.580    89142791.675 8       984.261
R04  22990934.800   123115425.569 7      7139.070    22990936.060   123115425.606 7      7139.070    22990964.900    95756603.560 7      5552.610    22990964.440    95756606.565 7      5552.610
R15  22745280.940   121543848.162 7     -1006.500    22745280.700   121543848.158 6     -1006.500    22745305.160    94534184.970 8      -782.833    22745305.040    94534188.975 8      -782.833
G22  24627932.760   129420658.608 7      5257.267    24627931.140   129420658.618 4      5257.267    24627940.240   100847290.007 4      4096.572
G32  24869989.880   130692676.626 6      1772.693    24869988.580   130692676.618 6      1772.693    24870001.540   101838497.169 6      1381.319    24870002.600   101838502.185 7      1381.319
G27  23950448.120   125860421.938 6       -60.896    23950445.600   125860421.948 6       -60.896    23950466.400    98073121.210 6       -47.452    23950466.680    98073123.197 7       -47.452
G17  24649041.060   129531579.684 7      5559.446    24649040.640   129531579.684 5      5559.446    24649049.340   100933709.034 5      4332.036    24649049.140   100933745.044 7      4332.036
R09  23437005.900   125152297.327 7      4554.426    23437005.560   125152297.330 7      4554.426    23437018.120    97340732.035 7      3542.332    23437018.040    97340732.046 7      3542.332
> 2025 04 04 16 37 41.0000000  0 17
G02  21955216.240   115375429.307 7      1677.007    21955214.960   115375429.309 6      1677.007    21955218.840    89902945.107 6      1306.759
G03  20269353.540   106516167.014 8      4245.169    20269352.120   106516167.019 8      4245.169    20269360.000    82999643.040 8      3307.924    20269361.400    82999648.042 8      3307.924
G14  22724209.620   119416522.845 7      4542.021    22724207.560   119416522.855 5      4542.021    22724215.980    93051865.351 5      3539.237    22724216.680    93051868.353 7      3539.237
G08  21068939.600   110718014.646 7      1290.711    21068938.300   110718014.654 7      1290.711    21068947.460    86273811.705 7      1005.749    21068948.460    86273813.704 8      1005.749
G01  20936321.020   110021100.705 7      2587.380    20936320.220   110021100.710 6      2587.380    20936324.960    85730748.431 6      2016.140    20936325.540    85730749.435 8      2016.140
R03  20419287.020   109306042.095 8      5148.914    20419286.880   109306042.121 7      5148.914    20419300.060    85015869.942 8      4004.711    20419300.380    85015869.942 8      4004.711
R18  20880694.440   111462556.918 7      3501.969    20880694.120   111462556.919 7      3501.969    20880705.080    86693145.480 8      2723.753    20880705.200    86693148.484 8      2723.753
R02  21446123.340   114440613.534 7      1231.419    21446122.400   114440613.532 7      1231.419    21446133.600    89009413.279 7       957.771    21446133.980    89009414.278 7       957.771
R17  21448983.100   114777828.652 7      1838.917    21448982.620   114777828.661 7      1838.917    21448995.720    89271697.822 8      1430.269    21448995.580    89271698.822 8      1430.269
R16  21455388.660   114610826.306 7      1264.901    21455389.640   114610826.310 8      1264.901    21455402.640    89141807.757 8       983.812    21455402.920    89141807.766 8       983.812
R04  22989601.620   123108286.518 7      7139.397    22989602.380   123108286.562 7      7139.397    22989631.560    95751051.000 7      5552.864    22989631.080    95751054.001 7      5552.864
R15  22745469.760   121544854.805 7     -1006.370    22745469.240   121544854.801 6     -1006.370    22745493.500    94534967.889 8      -782.732    22745493.660    94534971.890 8      -782.732
G22  24626932.340   129415401.547 7      5257.169    24626930.880   129415401.562 4      5257.169    24626939.860   100843193.600 4      4096.495
G32  24869652.780   130690904.512 6      1772.167    24869651.580   130690904.512 6      1772.167    24869664.320   101837116.320 5      1380.909    24869665.100   101837121.334 7      1380.909
G27  23950459.880   125860483.022 6       -60.920    23950457.240   125860483.035 6       -60.920    23950478.060    98073168.794 6       -47.471    23950478.380    98073170.783 7       -47.471
G17  24647982.840   129526020.453 7      5559.594    24647982.740   129526020.458 5      5559.594    24647991.420   100929377.170 5      4332.151    24647991.560   100929413.172 7      4332.151
R09  23436153.140   125147743.444 7      4553.791    23436152.720   125147743.444 7      4553.791    23436165.240    97337190.126 7      3541.838    23436165.520    97337190.137 7      3541.838
> 2025 04 04 16 37 42.0000000  0 17
G02  21954897.220   115373752.425 7      1677.026    21954895.880   115373752.427 6      1677.026    21954899.860    89901638.446 6      1306.773
G03  20268545.740   106511922.115 8      4244.702    20268544.320   106511922.119 8      4244.702    20268552.220    82996335.328 8      3307.560    20268553.840    82996340.330 8      3307.560
G14  22723345.640   119411981.083 7      4541.614    22723343.320   119411981.094 5      4541.614    22723351.780    93048326.324 5      3538.920    22723352.540    93048329.326 7      3538.920
G08  21068693.880   110716724.249 7      1290.286    21068692.860   110716724.256 7      1290.286    21068701.880    86272806.201 7      1005.418    21068702.860    86272808.199 8      1005.418
G01  20935828.440   110018513.383 7      2587.282    20935827.800   110018513.388 6      2587.282    20935832.520    85728732.338 6      2016.064    20935832.980    85728733.348 8      2016.064
R03  20418325.000   109300893.515 8      5148.293    20418325.420   109300893.549 7      5148.293    20418338.180    85011865.499 8      4004.228    20418338.660    85011865.499 8      4004.228
R18  20880038.420   111459055.020 7      3501.971    20880038.060   111459055.010 7      3501.971    20880049.040    86690421.773 8      2723.756    20880049.140    86690424.782 8      2723.756
R02  21445892.300   114439382.619 8      1230.624    21445891.660   114439382.620 7      1230.624    21445903.000    89008455.905 7       957.152    21445903.360    89008456.904 7       957.152
R17  21448639.540   114775989.725 7      1839.015    21448639.240   114775989.737 7      1839.015    21448652.020    89270267.544 8      1430.345    21448651.940    89270268.545 8      1430.345
R16  21455152.080   114609561.721 7      1264.384    21455153.160   114609561.719 7      1264.384    21455165.920    89140824.184 8       983.410    21455166.260    89140824.189 8       983.410
R04  22988268.600   123101147.287 7      7139.366    22988269.860   123101147.326 7      7139.366    22988298.760    95745498.298 7      5552.840    22988297.940    95745501.301 7      5552.840
R15  22745657.800   121545861.266 7     -1006.251    22745658.060   121545861.251 6     -1006.251    22745682.000    94535750.661 7      -782.640    22745682.280    94535754.664 8      -782.640
G22  24625932.140   129410144.601 7      5256.880    24625930.520   129410144.616 4      5256.880    24625939.480   100839097.279 4      4096.270
G32  24869315.560   130689132.667 6      1771.579    24869314.620   130689132.669 6      1771.579    24869327.120   101835735.663 6      1380.451    24869328.120   101835740.671 7      1380.451
G27  23950471.200   125860544.110 6       -61.194    23950468.820   125860544.120 6       -61.194    23950489.620    98073216.380 6       -47.683    23950489.740    98073218.367 7       -47.683
G17  24646924.680   129520460.902 7      5559.661    24646924.920   129520460.909 5      5559.661    24646933.540   100925045.054 5      4332.203    24646933.860   100925081.060 7      4332.203
R09  23435300.420   125143189.990 7      4553.172    23435300.040   125143189.994 7      4553.172    23435312.420    97333648.551 7      3541.356    23435312.620    97333648.550 7      3541.356
> 2025 04 04 16 37 43.0000000  0 17
G02  21954578.340   115372075.572 7      1676.811    21954576.860   115372075.572 6      1676.811    21954580.840    89900331.809 6      1306.606
G03  20267737.940   106507677.827 8      4243.997    20267736.680   106507677.830 8      4243.997    20267744.560    82993028.096 8      3307.011    20267745.980    82993033.100 8      3307.011
G14  22722481.440   119407439.876 7      4540.930    22722479.200   119407439.889 5      4540.930    22722487.720    93044787.724 5      3538.387    22722488.500    93044790.725 7      3538.387
G08  21068448.460   110715434.227 7      1289.855    21068447.400   110715434.234 7      1289.855    21068456.480    86271800.991 7      1005.082    21068457.240    86271802.991 8      1005.082
G01  20935336.220   110015926.232 7      2587.095    20935335.560   110015926.237 6      2587.095    20935340.400    85726716.379 6      2015.918    20935340.660    85726717.382 8      2015.918
R03  20417363.140   109295745.655 8      5147.494    20417363.560   109295745.681 7      5147.494    20417376.640    85007861.612 8      4003.607    20417376.820    85007861.612 8      4003.607
R18  20879382.500   111455553.156 7      3501.856    20879381.960   111455553.149 7      3501.856    20879392.980    86687698.106 8      2723.665    20879393.100    86687701.110 8      2723.665
R02  21445662.260   114438152.547 8      1229.673    21445661.260   114438152.542 7      1229.673    21445672.300    89007499.178 7       956.412    21445672.740    89007500.179 7       956.412
R17  21448295.960   114774150.942 7      1838.674    21448295.660   114774150.954 7      1838.674    21448308.120    89268837.379 8      1430.080    21448308.260    89268838.381 8      1430.080
R16  21454915.540   114608297.843 8      1263.525    21454916.520   114608297.844 8      1263.525    21454929.460    89139841.168 8       982.741    21454929.560    89139841.173 8       982.741
R04  22986935.740   123094008.053 7      7139.250    22986936.720   123094008.098 7      7139.250    22986965.100    95739945.604 7      5552.750    22986964.880    95739948.605 7      5552.750
R15  22745846.420   121546867.832 7     -1006.592    22745846.320   121546867.830 7     -1006.592    22745870.520    94536533.529 7      -782.905    22745870.460    94536537.534 8      -782.905
G22  24624931.740   129404887.986 7      5256.476    24624930.120   129404888.002 4      5256.476    24624939.260   100835001.220 4      4095.955
G32  24868978.400   130687361.305 6      1771.089    24868977.500   130687361.302 6      1771.089    24868989.960   101834355.379 6      1380.070    24868990.720   101834360.383 7      1380.070
G27  23950482.480   125860605.396 6       -61.311    23950480.400   125860605.401 6       -61.311    23950501.420    98073264.112 6       -47.775    23950501.640    98073266.096 7       -47.775
G17  24645866.640   129514901.250 7      5559.718    24645867.100   129514901.255 5      5559.718    24645875.640   100920712.862 5      4332.248    24645875.900   100920748.872 7      4332.248
R09  23434447.800   125138637.245 7      4552.468    23434447.500   125138637.243 7      4552.468    23434460.500    97330107.523 7      3540.809    23434460.060    97330107.521 6      3540.809
> 2025 04 04 16 37 44.0000000  0 17
G02  21954259.120   115370398.612 7      1676.903    21954257.760   115370398.611 6      1676.903    21954261.800    89899025.084 6      1306.678
G03  20266930.540   106503434.029 7      4243.407    20266929.120   106503434.031 8      4243.407    20266936.980    82989721.246 8      3306.551    20266938.380    82989726.250 8      3306.551
G14  22721617.360   119402899.116 7      4540.371    22721615.140   119402899.123 5      4540.371    22721623.580    93041249.469 5      3537.951    22721624.420    93041252.466 7      3537.951
G08  21068202.980   110714144.526 7      1289.378    21068201.920   110714144.533 7      1289.378    21068211.080    86270796.025 7      1004.710    21068211.980    86270798.027 8      1004.710
G01  20934843.820   110013339.162 7      2586.898    20934843.320   110013339.167 6      2586.898    20934848.020    85724700.482 6      2015.765    20934848.160    85724701.490 8      2015.765
R03  20416401.740   109290598.381 8      5146.856    20416402.220   109290598.402 7      5146.856    20416415.080    85003858.181 8      4003.110    20416415.340    85003858.181 8      4003.110
R18  20878726.420   111452051.232 7      3501.730    20878725.740   111452051.222 7      3501.730    20878736.940    86684974.386 8      2723.568    20878737.120    86684977.393 8      2723.568
R02  21445431.960   114436923.128 8      1228.968    21445430.820   114436923.126 7      1228.968    21445442.160    89006542.967 7       955.864    21445442.380    89006543.969 7       955.864
R17  21447952.280   114772312.119 7      1838.614    21447952.040   114772312.126 7      1838.614    21447964.360    89267407.182 8      1430.033    21447964.620    89267408.181 7      1430.033
R16  21454679.240   114607034.543 8      1262.803    21454679.940   114607034.546 7      1262.803    21454692.920    89138858.603 8       982.180    21454693.240    89138858.606 8       982.180
R04  22985602.520   123086868.753 7      7139.238    22985603.220   123086868.797 7      7139.238    22985631.680    95734392.851 7      5552.741    22985631.560    95734395.856 7      5552.741
R15  22746035.140   121547874.381 7     -1006.595    22746034.760   121547874.380 7     -1006.595    22746058.720    94537316.376 7      -782.907    22746058.680    94537320.381 8      -782.907
G22  24623931.460   129399631.619 7      5256.074    24623929.940   129399631.634 4      5256.074    24623938.800   100830905.353 4      4095.642
G32  24868641.280   130685590.303 6      1770.858    24868640.520   130685590.307 6      1770.858    24868653.060   101832975.389 6      1379.890    24868653.880   101832980.393 7      1379.890
G27  23950494.380   125860666.804 6       -61.624    23950492.140   125860666.812 6       -61.624    23950513.160    98073311.948 6       -48.019    23950513.720    98073313.930 7       -48.019
G17  24644808.880   129509341.444 7      5559.739    24644808.940   129509341.446 5      5559.739    24644817.580   100916380.549 5      4332.264    24644818.220   100916416.562 7      4332.264
R09  23433595.600   125134085.081 7      4551.692    23433594.940   125134085.082 7      4551.692    23433607.580    97326566.951 7      3540.205    23433607.800    97326566.960 7      3540.205
> 2025 04 04 16 37 45.0000000  0 17
G02  21953940.220   115368721.588 7      1676.914    21953938.580   115368721.593 6      1676.914    21953942.620    89897718.317 6      1306.686
G03  20266123.200   106499190.706 7      4242.920    20266121.560   106499190.714 8      4242.920    20266129.540    82986414.771 8      3306.171    20266130.840    82986419.773 8      3306.171
G14  22720753.160   119398358.770 7      4539.908    22720751.180   119398358.780 5      4539.908    22720759.620    93037711.541 5      3537.590    22720760.240    93037714.551 7      3537.590
G08  21067957.720   110712855.098 7      1289.094    21067956.620   110712855.102 7      1289.094    21067965.600    86269791.276 7      1004.489    21067966.400    86269793.274 8      1004.489
G01  20934351.760   110010752.145 7      2586.817    20934351.000   110010752.150 6      2586.817    20934355.780    85722684.627 6      2015.702    20934356.040    85722685.638 8      2015.702
R03  20415440.120   109285451.691 8      5146.269    20415440.500   109285451.711 7      5146.269    20415453.600    84999855.208 8      4002.654    20415453.660    84999855.206 8      4002.654
R18  20878070.340   111448549.163 7      3501.996    20878069.800   111448549.151 7      3501.996    20878080.780    86682250.555 8      2723.775    20878081.080    86682253.560 8      2723.775
R02  21445201.380   114435694.390 7      1228.183    21445200.700   114435694.388 7      1228.183    21445211.880    89005587.288 7       955.254    21445212.060    89005588.283 7       955.254
R17  21447608.840   114770473.261 7      1838.619    21447608.140   114770473.274 7      1838.619    21447620.960    89265976.961 8      1430.037    21447620.880    89265977.960 8      1430.037
R16  21454442.940   114605771.824 8      1262.321    21454443.520   114605771.826 8      1262.321    21454456.680    89137876.481 8       981.805    21454456.800    89137876.482 8       981.805
R04  22984268.500   123079729.388 7      7139.248    22984270.040   123079729.430 7      7139.248    22984298.320    95728840.055 7      5552.748    22984298.320    95728843.056 7      5552.748
R15  22746223.860   121548880.917 7     -1006.659    22746223.240   121548880.908 6     -1006.659    22746247.100    94538099.212 7      -782.957    22746247.080    94538103.217 8      -782.957
G22  24622931.420   129394375.459 7      5255.949    24622929.620   129394375.472 4      5255.949    24622938.500   100826809.648 4      4095.544
G32  24868304.840   130683819.766 6      1770.184    24868303.580   130683819.773 5      1770.184    24868316.040   101831595.754 5      1379.364    24868316.960   101831600.754 7      1379.364
G27  23950506.220   125860728.333 6       -61.770    23950503.820   125860728.332 6       -61.770    23950524.940    98073359.867 6       -48.133    23950525.040    98073361.843 7       -48.133
G17  24643751.180   129503781.440 7      5560.039    24643750.820   129503781.437 5      5560.039    24643759.700   100912048.081 5      4332.498    24643760.160   100912084.081 7      4332.498
R09  23432743.140   125129533.508 7      4551.115    23432742.740   125129533.495 7      4551.115    23432755.740    97323026.826 7      3539.756    23432755.580    97323026.822 7      3539.756
> 2025 04 04 16 37 46.0000000  0 17
G02  21953621.060   115367044.399 7      1677.285    21953619.540   115367044.403 6      1677.285    21953623.520    89896411.418 6      1306.975
G03  20265315.800   106494947.822 8      4242.619    20265314.300   106494947.827 8      4242.619    20265322.160    82983108.625 8      3305.937    20265323.640    82983113.629 8      3305.937
G14  22719889.500   119393818.798 7      4539.704    22719887.400   119393818.808 5      4539.704    22719895.880    93034173.905 5      3537.432    22719896.120    93034176.908 7      3537.432
G08  21067712.500   110711565.888 7      1289.150    21067711.280   110711565.892 7      1289.150    21067720.220    86268786.696 8      1004.532    21067721.120    86268788.695 8      1004.532
G01  20933859.400   110008165.128 7      2586.985    20933858.720   110008165.133 6      2586.985    20933863.600    85720668.769 6      2015.833    20933863.860    85720669.775 8      2015.833
R03  20414479.000   109280305.496 8      5145.976    20414479.200   109280305.505 7      5145.976    20414492.300    84995852.612 8      4002.426    20414492.400    84995852.610 8      4002.426
R18  20877414.440   111445046.958 7      3502.210    20877413.780   111445046.948 7      3502.210    20877424.780    86679526.620 8      2723.941    20877425.040    86679529.627 8      2723.941
R02  21444971.320   114434466.241 7      1227.741    21444970.400   114434466.237 7      1227.741    21444981.720    89004632.064 7       954.910    21444981.980    89004633.063 7       954.910
R17  21447265.420   114768634.313 7      1838.973    21447264.540   114768634.325 7      1838.973    21447277.280    89264546.670 7      1430.312    21447277.140    89264547.669 8      1430.312
R16  21454207.100   114604509.662 7      1261.875    21454207.180   114604509.655 7      1261.875    21454220.400    89136894.797 8       981.458    21454220.460    89136894.797 8       981.458
R04  22982935.320   123072589.890 7      7139.554    22982937.200   123072589.937 7      7139.554    22982965.240    95723287.149 7      5552.987    22982965.140    95723290.154 7      5552.987
R15  22746411.840   121549887.330 7     -1006.360    22746411.440   121549887.334 7     -1006.360    22746435.720    94538881.949 7      -782.725    22746435.640    94538885.954 7      -782.725
G22  24621931.080   129389119.483 7      5255.894    24621929.340   129389119.501 4      5255.894    24621938.360   100822714.090 4      4095.502
G32  24867967.400   130682049.539 6      1770.020    24867966.640   130682049.538 6      1770.020    24867979.240   101830216.352 5      1379.237    24867979.960   101830221.350 7      1379.237
G27  23950517.960   125860789.853 6       -61.522    23950515.480   125860789.853 6       -61.522    23950536.720    98073407.793 6       -47.939    23950536.760    98073409.771 7       -47.939
G17  24642693.140   129498221.195 7      5560.387    24642692.800   129498221.194 5      5560.387    24642701.540   100907715.429 5      4332.769    24642701.800   100907751.437 7      4332.769
R09  23431890.480   125124982.377 7      4550.897    23431890.200   125124982.378 7      4550.897    23431903.340    97319487.068 7      3539.586    23431903.440    97319487.077 7      3539.586
> 2025 04 04 16 37 47.0000000  0 17
G02  21953301.900   115365367.259 7      1677.166    21953300.320   115365367.264 6      1677.166    21953304.180    89895104.558 6      1306.882
G03  20264508.640   106490705.542 8      4241.979    20264506.900   106490705.547 8      4241.979    20264514.740    82979802.963 8      3305.438    20264516.180    82979807.965 8      3305.438
G14  22719025.500   119389279.388 7      4539.195    22719023.520   119389279.401 5      4539.195    22719031.960    93030636.702 5      3537.035    22719032.400    93030639.698 7      3537.035
G08  21067467.200   110710277.111 8      1288.614    21067466.040   110710277.116 7      1288.614    21067475.040    86267782.455 7      1004.115    21067475.960    86267784.451 8      1004.115
G01  20933367.140   110005578.300 8      2586.725    20933366.440   110005578.305 6      2586.725    20933371.280    85718653.059 6      2015.630    20933371.480    85718654.069 8      2015.630
R03  20413517.780   109275159.986 8      5145.220    20413517.960   109275160.006 7      5145.220    20413531.200    84991850.563 8      4001.838    20413531.140    84991850.563 8      4001.838
R18  20876758.280   111441544.825 7      3502.162    20876757.860   111441544.818 7      3502.162    20876768.740    86676802.745 8      2723.904    20876768.700    86676805.750 8      2723.904
R02  21444741.060   114433238.917 8      1226.967    21444740.600   114433238.915 7      1226.967    21444751.600    89003677.481 7       954.307    21444751.980    89003678.478 7       954.307
R17  21446921.400   114766795.519 7      1838.683    21446921.040   114766795.534 7      1838.683    21446933.800    89263116.497 7      1430.086    21446933.580    89263117.496 8      1430.086
R16  21453970.540   114603248.250 7      1261.035    21453970.920   114603248.245 7      1261.035    21453984.200    89135913.686 8       980.805    21453984.340    89135913.687 8       980.805
R04  22981602.700   123065450.485 7      7139.404    22981603.700   123065450.529 7      7139.404    22981631.920    95717734.314 7      5552.870    22981631.860    95717737.319 7      5552.870
R15  22746600.340   121550893.869 7     -1006.580    22746599.860   121550893.862 7     -1006.580    22746624.040    94539664.777 7      -782.895    22746624.000    94539668.778 8      -782.895
G22  24620931.140   129383863.893 7      5255.372    24620929.240   129383863.911 4      5255.372    24620938.400   100818618.827 4      4095.095
G32  24867630.680   130680279.819 6      1769.506    24867629.880   130680279.818 5      1769.506    24867642.420   101828837.350 5      1378.836    24867642.960   101828842.348 7      1378.836
G27  23950529.920   125860851.645 6       -61.818    23950527.200   125860851.650 6       -61.818    23950548.580    98073455.930 6       -48.170    23950548.680    98073457.910 7       -48.170
G17  24641635.300   129492660.897 7      5560.331    24641634.720   129492660.899 5      5560.331    24641643.300   100903382.733 5      4332.726    24641643.520   100903418.747 7      4332.726
R09  23431038.300   125120431.992 7      4550.135    23431038.460   125120431.990 7      4550.135    23431051.280    97315947.884 7      3538.994    23431051.100    97315947.895 7      3538.994
> 2025 04 04 16 37 48.0000000  0 17
G02  21952982.740   115363690.178 7      1677.016    21952981.240   115363690.183 6      1677.016    21952985.160    89893797.744 6      1306.766
G03  20263701.540   106486463.893 8      4241.280    20263699.760   106486463.900 8      4241.280    20263707.560    82976497.788 8      3304.893    20263709.000    82976502.790 8      3304.893
G14  22718161.700   119384740.580 7      4538.347    22718159.960   119384740.592 5      4538.347    22718168.100    93027099.966 5      3536.374    22718169.020    93027102.970 7      3536.374
G08  21067221.920   110708988.771 7      1288.047    21067220.820   110708988.776 7      1288.047    21067229.900    86266778.549 7      1003.673    21067230.860    86266780.548 8      1003.673
G01  20932875.040   110002991.674 7      2586.354    20932874.140   110002991.679 6      2586.354    20932879.120    85716637.513 6      2015.341    20932879.360    85716638.524 8      2015.341
R03  20412556.680   109270015.198 8      5144.410    20412556.680   109270015.227 7      5144.410    20412569.880    84987849.074 8      4001.208    20412570.120    84987849.074 8      4001.208
R18  20876102.100   111438042.804 7      3501.877    20876101.600   111438042.795 7      3501.877    20876112.860    86674078.953 8      2723.682    20876112.680    86674081.958 8      2723.682
R02  21444511.260   114432012.444 8      1226.013    21444510.740   114432012.448 7      1226.013    21444521.900    89002723.561 7       953.566    21444522.180    89002724.563 7       953.566
R17  21446577.680   114764956.830 7      1838.589    21446577.720   114764956.837 7      1838.589    21446589.980    89261686.410 7      1430.014    21446589.920    89261687.411 8      1430.014
R16  21453734.600   114601987.583 8      1260.211    21453734.880   114601987.570 7      1260.211    21453748.100    89134933.163 8       980.164    21453748.140    89134933.164 8       980.164
R04  22980269.200   123058311.166 7      7139.270    22980270.000   123058311.199 7      7139.270    22980298.240    95712181.544 7      5552.765    22980298.380    95712184.551 7      5552.765
R15  22746788.960   121551900.464 7     -1006.643    22746788.560   121551900.457 6     -1006.643    22746812.360    94540447.649 7      -782.945    22746812.400    94540451.654 7      -782.945
G22  24619930.660   129378608.626 7      5255.130    24619929.160   129378608.641 4      5255.130    24619938.440   100814523.820 4      4094.907
G32  24867294.240   130678510.629 6      1768.972    24867293.380   130678510.632 5      1768.972    24867305.780   101827458.763 6      1378.419    24867306.360   101827463.759 7      1378.419
G27  23950541.240   125860913.673 6       -62.135    23950538.880   125860913.680 6       -62.135    23950560.460    98073504.251 6       -48.417    23950560.280    98073506.231 7       -48.417
G17  24640577.160   129487100.567 7      5560.283    24640576.680   129487100.572 5      5560.283    24640585.160   100899050.013 5      4332.688    24640585.800   100899086.021 7      4332.688
R09  23430186.700   125115882.394 7      4549.137    23430186.320   125115882.395 7      4549.137    23430199.120    97312409.305 7      3538.218    23430199.240    97312409.308 7      3538.218
> 2025 04 04 16 37 49.0000000  0 17
G02  21952663.500   115362013.054 7      1677.032    21952662.100   115362013.062 6      1677.032    21952665.860    89892490.894 6      1306.778
G03  20262894.220   106482222.785 8      4240.718    20262892.680   106482222.787 8      4240.718    20262900.540    82973193.024 8      3304.455    20262901.920    82973198.026 8      3304.455
G14  22717298.120   119380202.200 7      4537.984    22717296.400   119380202.212 5      4537.984    22717304.560    93023563.574 5      3536.091    22717305.280    93023566.576 7      3536.091
G08  21066976.880   110707700.751 7      1287.782    21066975.740   110707700.748 7      1287.782    21066984.760    86265774.892 7      1003.467    21066985.740    86265776.890 8      1003.467
G01  20932382.820   110000405.130 7      2586.366    20932382.000   110000405.135 6      2586.366    20932386.900    85714622.024 6      2015.350    20932387.080    85714623.035 8      2015.350
R03  20411595.600   109264871.043 8      5143.803    20411595.780   109264871.071 7      5143.803    20411608.920    84983848.070 8      4000.736    20411609.100    84983848.069 8      4000.736
R18  20875446.240   111434540.709 7      3501.957    20875445.620   111434540.715 7      3501.957    20875456.600    86671355.112 8      2723.744    20875456.760    86671358.116 8      2723.744
R02  21444281.380   114430786.740 8      1225.308    21444280.980   114430786.735 7      1225.308    21444292.300    89001770.229 7       953.017    21444292.240    89001771.229 7       953.017
R17  21446233.720   114763118.181 7      1838.448    21446234.260   114763118.191 7      1838.448    21446246.620    89260256.343 7      1429.904    21446246.420    89260257.343 8      1429.904
R16  21453498.760   114600727.567 7      1259.672    21453498.960   114600727.568 7      1259.672    21453512.220    89133953.149 8       979.745    21453512.240    89133953.148 8       979.745
R04  22978935.900   123051171.785 7      7139.369    22978937.240   123051171.819 7      7139.369    22978965.000    95706628.728 7      5552.843    22978965.280    95706631.728 7      5552.843
R15  22746977.340   121552907.064 7     -1006.744    22746976.800   121552907.057 7     -1006.744    22747000.780    94541230.544 7      -783.023    22747000.540    94541234.545 8      -783.023
G22  24618930.840   129373353.651 6      5254.885    24618929.360   129373353.666 4      5254.885    24618938.460   100810429.035 4      4094.715
G32  24866957.980   130676741.903 6      1768.406    24866956.760   130676741.905 5      1768.406    24866969.200   101826080.539 5      1377.979    24866969.800   101826085.543 7      1377.979
G27  23950553.580   125860975.850 6       -62.258    23950550.720   125860975.858 6       -62.258    23950572.360    98073552.687 6       -48.513    23950571.900    98073554.671 7       -48.513
G17  24639519.040   129481540.107 7      5560.349    24639518.620   129481540.112 5      5560.349    24639527.140   100894717.193 5      4332.740    24639527.640   100894753.195 7      4332.740
R09  23429334.680   125111333.402 6      4548.671    23429334.720   125111333.401 7      4548.671    23429347.880    97308871.195 7      3537.855    23429347.380    97308871.210 7      3537.855
> 2025 04 04 16 37 50.0000000  0 17
G02  21952344.340   115360336.065 7      1677.037    21952342.900   115360336.070 6      1677.037    21952346.900    89891184.151 6      1306.782
G03  20262087.360   106477982.363 7      4240.162    20262085.740   106477982.368 8      4240.162    20262093.620    82969888.805 8      3304.022    20262095.200    82969893.808 8      3304.022
G14  22716434.520   119375664.477 7      4537.529    22716432.840   119375664.489 5      4537.529    22716441.020    93020027.692 5      3535.737    22716441.700    93020030.690 7      3535.737
G08  21066731.760   110706413.239 7      1287.312    21066730.760   110706413.241 7      1287.312    21066739.620    86264771.637 7      1003.100    21066740.580    86264773.636 8      1003.100
G01  20931890.500   109997818.864 7      2586.337    20931889.900   109997818.867 6      2586.337    20931894.660    85712606.754 6      2015.327    20931894.880    85712607.761 8      2015.327
R03  20410634.900   109259727.719 7      5143.065    20410634.980   109259727.740 7      5143.065    20410648.300    84979847.708 8      4000.161    20410648.420    84979847.708 8      4000.161
R18  20874790.140   111431038.750 7      3502.012    20874789.660   111431038.750 7      3502.012    20874800.700    86668631.361 8      2723.787    20874800.800    86668634.368 8      2723.787
R02  21444051.780   114429561.950 8      1224.466    21444051.120   114429561.949 7      1224.466    21444062.960    89000817.622 7       952.363    21444062.760    89000818.619 7       952.363
R17  21445889.920   114761279.696 7      1838.518    21445890.440   114761279.708 7      1838.518    21445903.040    89258826.406 8      1429.958    21445902.760    89258827.407 8      1429.958
R16  21453262.820   114599468.372 7      1258.985    21453263.160   114599468.373 7      1258.985    21453276.440    89132973.771 8       979.211    21453276.840    89132973.774 8       979.211
R04  22977602.700   123044032.551 7      7139.256    22977603.880   123044032.585 7      7139.256    22977632.020    95701076.024 7      5552.755    22977632.020    95701079.029 7      5552.755
R15  22747165.720   121553913.827 7     -1006.699    22747165.280   121553913.812 7     -1006.699    22747189.100    94542013.561 7      -782.988    22747189.160    94542017.566 7      -782.988
G22  24617931.040   129368099.141 7      5254.500    24617929.460   129368099.156 4      5254.500    24617938.520   100806334.616 4      4094.415
G32  24866621.460   130674973.723 6      1768.149    24866620.240   130674973.727 5      1768.149    24866632.820   101824702.742 5      1377.778    24866633.700   101824707.744 7      1377.778
G27  23950565.560   125861038.359 6       -62.348    23950562.700   125861038.364 6       -62.348    23950584.280    98073601.373 6       -48.583    23950584.240    98073603.351 7       -48.583
G17  24638460.660   129475979.641 7      5560.660    24638460.560   129475979.640 5      5560.660    24638469.100   100890384.364 5      4332.982    24638469.360   100890420.374 7      4332.982
R09  23428483.280   125106785.188 6      4548.129    23428482.760   125106785.191 7      4548.129    23428495.940    97305333.705 7      3537.434    23428495.720    97305333.708 7      3537.434
> 2025 04 04 16 37 51.0000000  0 17
G02  21952025.480   115358658.802 7      1677.365    21952023.800   115358658.801 6      1677.365    21952027.740    89889877.191 6      1307.037
G03  20261280.260   106473742.246 8      4239.935    20261278.820   106473742.248 8      4239.935    20261286.760    82966584.820 8      3303.846    20261288.220    82966589.822 8      3303.846
G14  22715571.040   119371127.006 7      4537.369    22715569.400   119371127.016 5      4537.369    22715577.540    93016492.003 5      3535.612    22715578.300    93016495.009 7      3535.612
G08  21066486.780   110705125.831 7      1287.302    21066485.740   110705125.833 8      1287.302    21066494.640    86263768.464 7      1003.093    21066495.640    86263770.463 8      1003.093
G01  20931398.420   109995232.496 7      2586.423    20931397.660   109995232.501 6      2586.423    20931402.360    85710591.408 6      2015.395    20931402.880    85710592.411 8      2015.395
R03  20409673.880   109254584.773 8      5142.712    20409673.980   109254584.799 7      5142.712    20409687.380    84975847.653 8      3999.887    20409687.560    84975847.652 8      3999.887
R18  20874134.000   111427536.507 7      3502.342    20874133.680   111427536.500 7      3502.342    20874144.420    86665907.397 8      2724.044    20874144.680    86665910.402 8      2724.044
R02  21443822.440   114428337.668 8      1224.025    21443821.640   114428337.664 7      1224.025    21443833.200    88999865.398 7       952.019    21443833.700    88999866.395 7       952.019
R17  21445546.380   114759441.060 7      1838.700    21445546.800   114759441.075 7      1838.700    21445559.660    89257396.360 8      1430.100    21445559.440    89257397.364 8      1430.100
R16  21453027.400   114598209.585 8      1258.467    21453027.540   114598209.589 7      1258.467    21453040.820    89131994.715 8       978.807    21453041.040    89131994.715 8       978.807
R04  22976269.380   123036893.063 7      7139.536    22976270.660   123036893.092 7      7139.536    22976298.840    95695523.122 7      5552.972    22976298.720    95695526.129 7      5552.972
R15  22747354.500   121554920.425 7     -1006.514    22747353.340   121554920.412 7     -1006.514    22747377.600    94542796.433 7      -782.844    22747377.440    94542800.438 7      -782.844
G22  24616931.280   129362844.718 7      5254.202    24616929.640   129362844.731 4      5254.202    24616938.520   100802240.262 4      4094.184
G32  24866284.780   130673205.805 6      1767.837    24866283.860   130673205.818 6      1767.837    24866296.340   101823325.150 5      1377.535    24866296.720   101823330.154 7      1377.535
G27  23950577.020   125861100.799 6       -62.346    23950574.580   125861100.804 6       -62.346    23950596.200    98073650.013 6       -48.581    23950596.020    98073651.999 7       -48.581
G17  24637402.340   129470418.859 7      5560.847    24637402.440   129470418.862 5      5560.847    24637410.840   100886051.294 5      4333.127    24637411.360   100886087.296 7      4333.127
R09  23427631.640   125102237.435 7      4547.454    23427631.620   125102237.439 7      4547.454    23427644.340    97301796.559 7      3536.909    23427644.100    97301796.552 7      3536.909
> 2025 04 04 16 37 52.0000000  0 17
G02  21951706.160   115356981.416 7      1677.454    21951704.640   115356981.418 6      1677.454    21951708.720    89888570.139 6      1307.107
G03  20260473.640   106469502.588 7      4239.430    20260472.100   106469502.593 8      4239.430    20260480.020    82963281.201 8      3303.452    20260481.560    82963286.201 8      3303.452
G14  22714707.740   119366589.947 7      4536.947    22714705.960   119366589.960 5      4536.947    22714713.960    93012956.641 5      3535.283    22714714.980    93012959.638 7      3535.283
G08  21066241.780   110703838.678 7      1287.053    21066240.860   110703838.678 7      1287.053    21066249.760    86262765.482 7      1002.898    21066250.800    86262767.481 8      1002.898
G01  20930906.240   109992646.149 7      2586.358    20930905.500   109992646.154 6      2586.358    20930910.360    85708576.073 6      2015.344    20930910.760    85708577.080 8      2015.344
R03  20408713.140   109249442.390 8      5142.113    20408713.460   109249442.407 7      5142.113    20408726.880    84971848.022 8      3999.422    20408726.900    84971848.022 8      3999.422
R18  20873477.960   111424034.188 7      3502.341    20873477.640   111424034.183 7      3502.341    20873488.460    86663183.373 8      2724.043    20873488.680    86663186.380 8      2724.043
R02  21443593.340   114427114.037 7      1223.219    21443592.480   114427114.035 7      1223.219    21443603.740    88998913.689 7       951.392    21443604.300    88998914.690 7       951.392
R17  21445202.960   114757602.384 7      1838.717    21445203.300   114757602.394 7      1838.717    21445216.080    89255966.273 7      1430.113    21445215.820    89255967.276 7      1430.113
R16  21452791.860   114596951.333 7      1257.897    21452792.100   114596951.331 7      1257.897    21452805.320    89131016.074 8       978.364    21452805.540    89131016.074 8       978.364
R04  22974936.200   123029753.460 7      7139.642    22974936.620   123029753.502 7      7139.642    22974965.700    95689970.145 7      5553.055    22974965.480    95689973.150 7      5553.055
R15  22747543.020   121555926.926 7     -1006.498    22747541.400   121555926.914 7     -1006.498    22747566.160    94543579.248 7      -782.832    22747565.960    94543583.253 7      -782.832
G22  24615931.620   129357590.413 7      5254.182    24615929.660   129357590.423 4      5254.182    24615938.740   100798146.002 4      4094.168
G32  24865948.380   130671438.269 6      1767.320    24865947.660   130671438.274 6      1767.320    24865959.900   101821947.853 6      1377.133    24865960.420   101821952.845 7      1377.133
G27  23950589.080   125861163.279 6       -62.293    23950586.560   125861163.289 6       -62.293    23950608.220    98073698.682 6       -48.540    23950608.080    98073700.660 7       -48.540
G17  24636344.020   129464857.839 7      5561.077    24636344.140   129464857.839 5      5561.077    24636352.720   100881718.031 5      4333.307    24636353.120   100881754.039 7      4333.307
R09  23426780.240   125097690.195 7      4546.864    23426779.900   125097690.217 7      4546.864    23426792.720    97298259.832 7      3536.450    23426792.820    97298259.826 7      3536.450
> 2025 04 04 16 37 53.0000000  0 17
G02  21951386.840   115355304.058 7      1677.297    21951385.300   115355304.060 6      1677.297    21951389.480    89887263.107 6      1306.985
G03  20259666.900   106465263.511 8      4238.751    20259665.460   106465263.516 8      4238.751    20259673.240    82959978.028 8      3302.923    20259674.780    82959983.030 8      3302.923
G14  22713844.460   119362053.422 7      4536.337    22713842.760   119362053.435 5      4536.337    22713850.720    93009421.686 5      3534.808    22713851.460    93009424.686 7      3534.808
G08  21065996.980   110702551.923 7      1286.535    21065995.920   110702551.925 7      1286.535    21066004.860    86261762.815 7      1002.495    21066005.940    86261764.814 8      1002.495
G01  20930414.200   109990059.957 7      2586.175    20930413.340   109990059.959 6      2586.175    20930418.020    85706560.858 6      2015.201    20930418.620    85706561.865 8      2015.201
R03  20407753.000   109244300.694 7      5141.355    20407752.700   109244300.714 7      5141.355    20407766.320    84967848.935 8      3998.831    20407766.540    84967848.935 8      3998.831
R18  20872821.820   111420531.911 7      3502.247    20872821.440   111420531.909 7      3502.247    20872832.320    86660459.390 8      2723.970    20872832.240    86660462.395 8      2723.970
R02  21443364.140   114425891.171 8      1222.438    21443363.500   114425891.172 7      1222.438    21443374.760    88997962.575 7       950.785    21443375.200    88997963.572 7       950.785
R17  21444859.360   114755763.744 7      1838.555    21444859.700   114755763.753 7      1838.555    21444872.340    89254536.219 7      1429.987    21444872.260    89254537.222 8      1429.987
R16  21452556.320   114595693.767 7      1257.246    21452556.580   114595693.771 7      1257.246    21452569.960    89130037.963 8       977.858    21452570.300    89130037.965 8       977.858
R04  22973602.840   123022613.930 7      7139.528    22973603.840   123022613.972 7      7139.528    22973632.140    95684417.210 7      5552.966    22973631.820    95684420.213 7      5552.966
R15  22747731.120   121556933.475 7     -1006.514    22747730.020   121556933.466 6     -1006.514    22747754.480    94544362.091 7      -782.845    22747754.440    94544366.098 7      -782.845
G22  24614931.420   129352336.473 7      5253.743    24614929.740   129352336.483 4      5253.743    24614938.900   100794052.027 4      4093.826
G32  24865611.720   130669671.166 6      1766.954    24865611.500   130669671.173 5      1766.954    24865623.680   101820570.896 6      1376.847    24865624.540   101820575.884 7      1376.847
G27  23950600.960   125861226.013 6       -62.806    23950598.500   125861226.018 6       -62.806    23950620.080    98073747.546 6       -48.940    23950619.880    98073749.532 7       -48.940
G17  24635286.160   129459296.729 7      5561.162    24635285.720   129459296.726 5      5561.162    24635294.500   100877384.701 5      4333.373    24635294.900   100877420.705 7      4333.373
R09  23425928.580   125093143.638 7      4546.171    23425928.900   125093143.650 7      4546.171    23425941.420    97294723.611 7      3535.910    23425941.340    97294723.622 7      3535.910
> 2025 04 04 16 37 54.0000000  0 17
G02  21951067.480   115353626.548 7      1677.636    21951066.140   115353626.551 6      1677.636    21951070.120    89885955.959 6      1307.249
G03  20258860.280   106461024.878 8      4238.427    20258858.840   106461024.883 8      4238.427    20258866.700    82956675.208 8      3302.670    20258868.080    82956680.208 8      3302.670
G14  22712981.440   119357517.299 7      4535.857    22712979.720   119357517.312 5      4535.857    22712987.560    93005887.041 5      3534.434    22712988.380    93005890.039 7      3534.434
G08  21065752.280   110701265.385 7      1286.516    21065750.920   110701265.387 7      1286.516    21065760.020    86260760.318 7      1002.480    21065761.140    86260762.319 8      1002.480
G01  20929922.220   109987473.770 7      2586.242    20929921.220   109987473.775 6      2586.242    20929926.080    85704545.651 6      2015.254    20929926.620    85704546.661 8      2015.254
R03  20406792.520   109239159.544 8      5140.934    20406792.020   109239159.561 7      5140.934    20406806.060    84963850.267 8      3998.504    20406806.040    84963850.267 8      3998.504
R18  20872165.520   111417029.511 7      3502.538    20872165.320   111417029.504 7      3502.538    20872176.380    86657735.299 8      2724.196    20872176.360    86657738.308 8      2724.196
R02  21443135.220   114424668.946 8      1221.962    21443134.540   114424668.946 7      1221.962    21443145.740    88997011.955 7       950.415    21443145.900    88997012.952 7       950.415
R17  21444515.840   114753924.990 7      1838.794    21444516.260   114753924.997 7      1838.794    21444528.880    89253106.082 7      1430.173    21444528.540    89253107.087 8      1430.173
R16  21452320.980   114594436.775 7      1256.794    21452321.660   114594436.782 7      1256.794    21452334.560    89129060.304 8       977.506    21452335.080    89129060.307 8       977.506
R04  22972269.120   123015474.244 7      7139.854    22972270.520   123015474.283 7      7139.854    22972298.920    95678864.161 7      5553.219    22972298.580    95678867.168 7      5553.219
R15  22747919.460   121557939.961 7     -1006.370    22747918.180   121557939.957 6     -1006.370    22747942.820    94545144.892 7      -782.732    22747943.100    94545148.897 7      -782.732
G22  24613931.660   129347082.712 7      5253.721    24613930.040   129347082.722 4      5253.721    24613939.280   100789958.189 4      4093.808
G32  24865276.020   130667904.457 6      1766.603    24865275.240   130667904.462 5      1766.603    24865287.420   101819194.234 5      1376.574    24865288.420   101819199.234 7      1376.574
G27  23950613.300   125861288.774 6       -62.619    23950610.340   125861288.777 6       -62.619    23950632.180    98073796.430 6       -48.794    23950631.800    98073798.414 7       -48.794
G17  24634227.900   129453735.380 7      5561.650    24634227.420   129453735.372 5      5561.650    24634236.220   100873051.186 5      4333.753    24634237.080   100873087.186 7      4333.753
R09  23425077.640   125088597.607 7      4545.833    23425077.820   125088597.616 7      4545.833    23425089.720    97291187.813 7      3535.648    23425090.040    97291187.808 7      3535.648
> 2025 04 04 16 37 55.0000000  0 17
G02  21950748.280   115351948.894 7      1677.630    21950746.900   115351948.894 6      1677.630    21950750.920    89884648.697 6      1307.244
G03  20258053.820   106456786.663 7      4237.869    20258052.340   106456786.668 8      4237.869    20258060.200    82953372.703 8      3302.236    20258061.600    82953377.705 8      3302.236
G14  22712118.380   119352981.505 7      4535.474    22712116.420   119352981.515 5      4535.474    22712124.440    93002352.658 5      3534.136    22712125.240    93002355.657 7      3534.136
G08  21065507.440   110699979.089 7      1286.135    21065506.280   110699979.091 7      1286.135    21065515.260    86259758.010 7      1002.183    21065516.260    86259760.008 8      1002.183
G01  20929430.020   109984887.591 7      2586.029    20929429.160   109984887.598 6      2586.029    20929433.940    85702530.453 6      2015.087    20929434.360    85702531.463 8      2015.087
R03  20405832.160   109234018.897 7      5140.293    20405831.900   109234018.915 7      5140.293    20405845.620    84959851.993 8      3998.006    20405845.540    84959851.995 8      3998.006
R18  20871509.420   111413526.948 7      3502.601    20871509.280   111413526.944 7      3502.601    20871520.120    86655011.088 8      2724.245    20871520.020    86655014.093 8      2724.245
R02  21442906.620   114423447.374 8      1221.136    21442905.520   114423447.372 7      1221.136    21442916.880    88996061.834 7       949.772    21442916.980    88996062.833 7       949.772
R17  21444172.080   114752086.170 7      1838.734    21444172.660   114752086.180 7      1838.734    21444185.420    89251675.880 7      1430.127    21444184.940    89251676.883 7      1430.127
R16  21452085.660   114593180.323 7      1256.113    21452086.420   114593180.329 7      1256.113    21452099.360    89128083.058 8       976.977    21452099.800    89128083.060 8       976.977
R04  22970936.420   123008334.403 7      7139.934    22970937.160   123008334.436 7      7139.934    22970965.740    95673310.988 7      5553.282    22970964.920    95673313.998 7      5553.282
R15  22748107.800   121558946.347 7     -1006.446    22748106.540   121558946.335 6     -1006.446    22748131.300    94545927.604 7      -782.791    22748131.080    94545931.609 7      -782.791
G22  24612932.400   129341829.116 7      5253.445    24612930.200   129341829.132 4      5253.445    24612939.620   100785864.483 4      4093.593
G32  24864939.840   130666138.048 6      1766.097    24864939.180   130666138.050 5      1766.097    24864951.220   101817817.813 5      1376.180    24864952.120   101817822.817 7      1376.180
G27  23950625.460   125861351.582 6       -62.890    23950622.380   125861351.587 6       -62.890    23950644.000    98073845.357 6       -49.005    23950644.300    98073847.343 7       -49.005
G17  24633169.660   129448173.811 7      5561.546    24633169.020   129448173.808 5      5561.546    24633177.820   100868717.502 5      4333.672    24633178.560   100868753.500 7      4333.672
R09  23424226.180   125084052.095 7      4545.261    23424226.480   125084052.104 7      4545.261    23424238.720    97287652.414 7      3535.203    23424238.680    97287652.419 7      3535.203
> 2025 04 04 16 37 56.0000000  0 17
G02  21950429.040   115350271.213 7      1677.642    21950427.580   115350271.210 6      1677.642    21950431.740    89883341.408 6      1307.254
G03  20257247.520   106452549.003 8      4237.272    20257245.980   106452549.002 8      4237.272    20257253.760    82950070.629 8      3301.770    20257255.260    82950075.629 8      3301.770
G14  22711255.120   119348446.194 7      4535.047    22711253.400   119348446.207 5      4535.047    22711261.320    92998818.651 5      3533.803    22711262.040    92998821.651 7      3533.803
G08  21065262.660   110698693.132 7      1285.737    21065261.580   110698693.131 7      1285.737    21065270.400    86258755.965 7      1001.873    21065271.540    86258757.964 8      1001.873
G01  20928938.020   109982301.509 7      2585.956    20928937.060   109982301.517 6      2585.956    20928941.740    85700515.325 6      2015.031    20928942.120    85700516.338 8      2015.031
R03  20404872.160   109228878.890 7      5139.628    20404871.740   109228878.905 7      5139.628    20404885.420    84955854.216 8      3997.488    20404885.360    84955854.218 8      3997.488
R18  20870853.280   111410024.362 7      3502.492    20870853.080   111410024.360 7      3502.492    20870864.120    86652286.858 8      2724.161    20870864.120    86652289.863 8      2724.161
R02  21442677.940   114422226.552 7      1220.353    21442676.440   114422226.555 7      1220.353    21442688.120    88995112.310 7       949.163    21442688.420    88995113.309 7       949.163
R17  21443828.340   114750247.444 7      1838.531    21443828.840   114750247.453 7      1838.531    21443841.900    89250245.751 7      1429.968    21443841.300    89250246.752 8      1429.968
R16  21451850.780   114591924.506 7      1255.471    21451851.360   114591924.507 7      1255.471    21451864.260    89127106.309 8       976.477    21451864.560    89127106.314 8       976.477
R04  22969603.120   123001194.559 7      7139.794    22969603.920   123001194.598 7      7139.794    22969631.980    95667757.818 7      5553.173    22969631.820    95667760.825 7      5553.173
R15  22748296.060   121559952.736 7     -1006.532    22748294.760   121559952.732 6     -1006.532    22748319.700    94546710.338 7      -782.858    22748319.660    94546714.344 7      -782.858
G22  24611932.580   129336575.807 6      5253.184    24611930.360   129336575.820 4      5253.184    24611939.900   100781770.999 4      4093.390
G32  24864603.520   130664372.080 6      1765.701    24864603.260   130664372.082 6      1765.701    24864615.140   101816441.740 6      1375.871    24864616.120   101816446.736 7      1375.871
G27  23950637.100   125861414.548 6       -63.006    23950634.300   125861414.551 6       -63.006    23950656.060    98073894.399 6       -49.095    23950656.500    98073896.383 7       -49.095
G17  24632111.340   129442612.091 6      5561.588    24632110.820   129442612.088 5      5561.588    24632119.440   100864383.697 5      4333.705    24632120.240   100864419.699 7      4333.705
R09  23423375.040   125079507.247 7      4544.440    23423375.840   125079507.258 7      4544.440    23423387.380    97284117.539 7      3534.564    23423387.940    97284117.538 7      3534.564
> 2025 04 04 16 37 57.0000000  0 17
G02  21950109.640   115348593.402 7      1677.846    21950108.420   115348593.404 6      1677.846    21950112.420    89882034.026 6      1307.413
G03  20256441.100   106448311.781 8      4236.876    20256439.780   106448311.786 8      4236.876    20256447.520    82946768.904 8      3301.462    20256448.840    82946773.908 8      3301.462
G14  22710392.160   119343911.301 7      4534.639    22710390.280   119343911.316 5      4534.639    22710398.460    92995284.976 5      3533.485    22710398.980    92995287.984 7      3533.485
G08  21065018.140   110697407.429 7      1285.552    21065016.700   110697407.429 7      1285.552    21065025.800    86257754.117 7      1001.729    21065026.960    86257756.118 8      1001.729
G01  20928445.900   109979715.464 7      2585.979    20928444.960   109979715.474 6      2585.979    20928449.680    85698500.231 6      2015.049    20928450.200    85698501.234 8      2015.049
R03  20403912.140   109223739.445 7      5139.069    20403911.400   109223739.463 7      5139.069    20403925.500    84951856.880 8      3997.054    20403925.300    84951856.882 8      3997.054
R18  20870197.140   111406521.652 7      3502.755    20870197.080   111406521.656 7      3502.755    20870207.980    86649562.537 8      2724.365    20870208.080    86649565.542 8      2724.365
R02  21442448.920   114421006.376 7      1219.840    21442447.800   114421006.371 7      1219.840    21442459.220    88994163.288 7       948.765    21442459.800    88994164.291 7       948.765
R17  21443484.760   114748408.656 7      1838.683    21443485.040   114748408.662 7      1838.683    21443498.220    89248815.584 8      1430.087    21443497.640    89248816.588 8      1430.087
R16  21451615.820   114590669.253 7      1254.894    21451616.440   114590669.252 7      1254.894    21451629.520    89126130.001 8       976.028    21451629.700    89126130.004 8       976.028
R04  22968269.380   122994054.589 7      7139.956    22968270.240   122994054.625 7      7139.956    22968298.520    95662204.544 7      5553.299    22968298.220    95662207.547 7      5553.299
R15  22748484.180   121560959.096 7     -1006.370    22748483.460   121560959.092 7     -1006.370    22748507.940    94547493.023 7      -782.732    22748508.200    94547497.030 7      -782.732
G22  24610933.080   129331322.708 7      5252.972    24610930.800   129331322.726 4      5252.972    24610940.220   100777677.679 4      4093.225
G32  24864267.460   130662606.493 6      1765.370    24864267.180   130662606.495 6      1765.370    24864279.100   101815065.956 6      1375.613    24864280.120   101815070.956 7      1375.613
G27  23950649.120   125861477.559 6       -62.894    23950646.080   125861477.558 6       -62.894    23950668.180    98073943.477 6       -49.008    23950668.280    98073945.472 7       -49.008
G17  24631053.020   129437050.149 7      5561.982    24631052.320   129437050.148 5      5561.982    24631061.040   100860049.721 5      4334.012    24631061.700   100860085.721 7      4334.012
R09  23422523.660   125074962.936 7      4543.963    23422524.540   125074962.950 7      4543.963    23422536.420    97280583.072 7      3534.193    23422536.680    97280583.077 7      3534.193
> 2025 04 04 16 37 58.0000000  0 17
G02  21949790.660   115346915.548 7      1677.900    21949789.060   115346915.547 6      1677.900    21949793.160    89880726.607 6      1307.455
G03  20255634.920   106444075.058 7      4236.542    20255633.440   106444075.063 8      4236.542    20255641.280    82943467.574 8      3301.201    20255642.780    82943472.574 8      3301.201
G14  22709529.060   119339376.878 7      4534.187    22709527.420   119339376.890 5      4534.187    22709535.800    92991751.664 5      3533.133    22709536.320    92991754.663 7      3533.133
G08  21064773.580   110696122.053 7      1285.255    21064772.140   110696122.053 7      1285.255    21064781.140    86256752.525 7      1001.497    21064782.220    86256754.526 8      1001.497
G01  20927953.720   109977129.506 7      2585.923    20927952.900   109977129.511 6      2585.923    20927957.560    85696485.202 6      2015.005    20927958.120    85696486.204 8      2015.005
R03  20402952.220   109218600.618 8      5138.540    20402951.060   109218600.633 7      5138.540    20402965.560    84947860.021 8      3996.642    20402965.500    84947860.021 8      3996.642
R18  20869540.920   111403018.916 7      3502.860    20869540.620   111403018.914 7      3502.860    20869551.880    86646838.184 8      2724.447    20869551.740    86646841.189 8      2724.447
R02  21442220.680   114419786.909 8      1219.198    21442219.420   114419786.905 7      1219.198    21442230.680    88993214.816 7       948.265    21442231.240    88993215.817 7       948.265
R17  21443141.240   114746569.884 7      1838.739    21443141.480   114746569.893 7      1838.739    21443154.380    89247385.439 7      1430.130    21443154.420    89247386.440 8      1430.130
R16  21451380.980   114589414.590 7      1254.310    21451381.520   114589414.597 7      1254.310    21451394.640    89125154.150 8       975.575    21451395.080    89125154.151 8       975.575
R04  22966936.000   122986914.571 7      7140.097    22966937.320   122986914.602 7      7140.097    22966965.640    95656651.240 7      5553.409    22966965.040    95656654.245 7      5553.409
R15  22748672.820   121561965.437 7     -1006.234    22748671.380   121561965.430 7     -1006.234    22748696.380    94548275.697 7      -782.626    22748696.280    94548279.705 7      -782.626
G22  24609933.520   129326069.869 7      5252.742    24609931.180   129326069.885 4      5252.742    24609940.500   100773584.560 4      4093.045
G32  24863931.900   130660841.311 6      1764.936    24863931.060   130660841.316 5      1764.936    24863943.240   101813690.494 5      1375.275    24863944.000   101813695.492 7      1375.275
G27  23950661.140   125861540.732 6       -63.140    23950658.180   125861540.740 6       -63.140    23950680.340    98073992.699 6       -49.200    23950680.740    98073994.683 7       -49.200
G17  24629995.020   129431488.064 7      5562.214    24629993.880   129431488.064 5      5562.214    24630002.660   100855715.630 5      4334.193    24630002.980   100855751.632 7      4334.193
R09  23421672.680   125070419.273 7      4543.328    23421673.760   125070419.290 7      4543.328    23421685.420    97277049.109 7      3533.700    23421685.620    97277049.112 7      3533.700
> 2025 04 04 16 37 59.0000000  0 17
G02  21949471.420   115345237.583 7      1677.879    21949469.860   115345237.585 6      1677.879    21949473.840    89879419.103 6      1307.439
G03  20254828.760   106439838.843 8      4235.936    20254827.340   106439838.845 8      4235.936    20254835.140    82940166.629 8      3300.730    20254836.540    82940171.631 8      3300.730
G14  22708666.320   119334842.854 7      4533.741    22708664.680   119334842.867 5      4533.741    22708672.860    92988218.662 5      3532.785    22708673.700    92988221.662 7      3532.785
G08  21064528.840   110694836.947 7      1284.940    21064527.560   110694836.944 7      1284.940    21064536.620    86255751.144 7      1001.252    21064537.640    86255753.143 8      1001.252
G01  20927461.700   109974543.595 7      2585.805    20927460.920   109974543.602 6      2585.805    20927465.480    85694470.203 6      2014.913    20927465.960    85694471.210 8      2014.913
R03  20401992.120   109213462.367 7      5137.883    20401991.380   109213462.385 7      5137.883    20402005.540    84943863.616 8      3996.132    20402005.680    84943863.618 8      3996.132
R18  20868884.820   111399516.089 7      3502.789    20868884.480   111399516.088 7      3502.789    20868895.600    86644113.770 8      2724.392    20868895.520    86644116.777 8      2724.392
R02  21441992.180   114418568.115 7      1218.403    21441990.920   114418568.116 7      1218.403    21442002.280    88992266.865 7       947.647    21442002.920    88992267.864 7       947.647
R17  21442797.620   114744731.090 7      1838.710    21442797.500   114744731.102 7      1838.710    21442810.600    89245955.262 7      1430.108    21442810.780    89245956.263 8      1430.108
R16  21451146.120   114588160.507 8      1253.700    21451146.920   114588160.511 7      1253.700    21451159.940    89124178.754 8       975.100    21451160.020    89124178.757 8       975.100
R04  22965602.480   122979774.499 7      7140.022    22965604.020   122979774.538 7      7140.022    22965632.120    95651097.893 7      5553.350    22965631.560    95651100.900 7      5553.350
R15  22748861.760   121562971.738 7     -1006.375    22748859.860   121562971.726 7     -1006.375    22748884.740    94549058.345 7      -782.736    22748884.600    94549062.346 7      -782.736
G22  24608934.000   129320817.233 7      5252.468    24608931.580   129320817.243 4      5252.468    24608940.920   100769491.595 4      4092.832
G32  24863596.080   130659076.528 6      1764.476    24863595.040   130659076.530 5      1764.476    24863607.580   101812315.334 5      1374.916    24863608.000   101812320.334 7      1374.916
G27  23950673.260   125861603.998 6       -63.267    23950670.280   125861604.008 6       -63.267    23950692.400    98074041.987 6       -49.299    23950692.340    98074043.979 7       -49.299
G17  24628936.420   129425925.806 7      5562.184    24628935.560   129425925.803 5      5562.184    24628944.100   100851381.407 5      4334.170    24628944.700   100851417.405 7      4334.170
R09  23420822.000   125065876.158 7      4542.700    23420823.100   125065876.175 7      4542.700    23420834.400    97273515.579 7      3533.211    23420834.920    97273515.586 7      3533.211
> 2025 04 04 16 38  0.0000000  0 17
G02  21949152.000   115343559.761 7      1678.025    21949150.500   115343559.760 6      1678.025    21949154.640    89878111.706 6      1307.552
G03  20254022.880   106435603.324 8      4235.473    20254021.360   106435603.331 8      4235.473    20254029.160    82936866.231 8      3300.368    20254030.620    82936871.233 8      3300.368
G14  22707803.740   119330309.487 7      4533.348    22707802.080   119330309.500 5      4533.348    22707810.040    92984686.171 5      3532.479    22707811.060    92984689.171 7      3532.479
G08  21064284.540   110693552.367 7      1284.581    21064283.040   110693552.364 7      1284.581    21064292.220    86254750.170 7      1000.972    21064292.960    86254752.169 8      1000.972
G01  20926969.560   109971957.965 7      2585.782    20926968.640   109971957.973 6      2585.782    20926973.480    85692455.428 6      2014.895    20926973.800    85692456.434 8      2014.895
R03  20401032.160   109208324.913 7      5137.360    20401031.560   109208324.937 7      5137.360    20401046.080    84939867.827 8      3995.724    20401045.840    84939867.829 8      3995.724
R18  20868228.640   111396013.391 7      3502.987    20868228.060   111396013.381 7      3502.987    20868239.360    86641389.442 8      2724.545    20868239.540    86641392.449 8      2724.545
R02  21441763.620   114417350.228 7      1217.669    21441762.640   114417350.229 7      1217.669    21441773.980    88991319.624 7       947.076    21441774.640    88991320.623 7       947.076
R17  21442454.340   114742892.476 7      1838.812    21442454.260   114742892.475 7      1838.812    21442467.360    89244525.220 8      1430.187    21442467.120    89244526.222 8      1430.187
R16  21450911.380   114586907.255 7      1253.123    21450912.340   114586907.267 7      1253.123    21450925.440    89123204.005 8       974.651    21450925.620    89123204.005 8       974.651
R04  22964269.240   122972634.596 7      7140.073    22964270.380   122972634.633 7      7140.073    22964298.280    95645544.672 7      5553.390    22964298.380    95645547.675 7      5553.390
R15  22749049.760   121563978.215 7     -1006.350    22749047.820   121563978.195 6     -1006.350    22749073.020    94549841.136 7      -782.717    22749073.000    94549845.141 7      -782.717
G22  24607934.460   129315565.069 7      5252.151    24607932.180   129315565.079 4      5252.151    24607941.480   100765399.002 4      4092.585
G32  24863260.540   130657312.326 6      1764.177    24863259.360   130657312.331 6      1764.177    24863271.760   101810940.637 5      1374.683    24863272.340   101810945.646 7      1374.683
G27  23950685.040   125861667.633 6       -63.607    23950682.360   125861667.644 6       -63.607    23950704.480    98074091.557 6       -49.564    23950704.620    98074093.535 7       -49.564
G17  24627877.740   129420363.546 7      5562.535    24627877.060   129420363.548 5      5562.535    24627885.720   100847047.184 5      4334.442    24627886.160   100847083.186 7      4334.442
R09  23419971.180   125061333.860 7      4542.088    23419972.580   125061333.869 7      4542.088    23419983.740    97269982.678 7      3532.735    23419984.200    97269982.679 7      3532.735
> 2025 04 04 16 38  1.0000000  0 17
G02  21948832.720   115341881.878 7      1677.937    21948831.120   115341881.880 6      1677.937    21948835.180    89876804.271 6      1307.483
G03  20253217.040   106431368.338 8      4234.807    20253215.440   106431368.343 8      4234.807    20253223.240    82933566.244 8      3299.850    20253224.720    82933571.246 8      3299.850
G14  22706941.100   119325776.599 7      4532.813    22706939.520   119325776.617 5      4532.813    22706947.520    92981154.056 5      3532.062    22706948.440    92981157.056 7      3532.062
G08  21064040.120   110692268.094 7      1284.204    21064038.660   110692268.091 7      1284.204    21064047.740    86253749.432 7      1000.679    21064048.540    86253751.433 8      1000.679
G01  20926477.620   109969372.443 8      2585.506    20926476.760   109969372.445 6      2585.506    20926481.600    85690440.736 6      2014.680    20926481.920    85690441.739 8      2014.680
R03  20400072.660   109203188.070 7      5136.604    20400071.920   109203188.090 7      5136.604    20400086.240    84935872.511 8      3995.136    20400086.260    84935872.511 8      3995.136
R18  20867572.620   111392510.668 8      3502.668    20867571.980   111392510.669 7      3502.668    20867583.180    86638665.113 8      2724.298    20867583.120    86638668.118 8      2724.298
R02  21441535.220   114416133.064 8      1216.815    21441534.780   114416133.068 7      1216.815    21441545.960    88990372.945 7       946.412    21441546.480    88990373.948 7       946.412
R17  21442110.620   114741053.851 7      1838.639    21442110.760   114741053.855 7      1838.639    21442123.660    89243095.179 7      1430.052    21442123.400    89243096.176 8      1430.052
R16  21450677.060   114585654.667 8      1252.354    21450678.080   114585654.671 8      1252.354    21450691.020    89122229.753 8       974.053    21450691.000    89122229.754 8       974.053
R04  22962935.780   122965494.661 7      7139.957    22962936.720   122965494.692 7      7139.957    22962965.600    95639991.415 7      5553.300    22962964.960    95639994.418 7      5553.300
R15  22749238.080   121564984.690 7     -1006.398    22749236.500   121564984.670 6     -1006.398    22749261.460    94550623.916 7      -782.754    22749261.660    94550627.925 8      -782.754
G22  24606934.720   129310313.147 7      5251.909    24606932.840   129310313.155 4      5251.909    24606942.000   100761306.601 4      4092.396
G32  24862924.740   130655548.586 6      1763.695    24862923.760   130655548.586 6      1763.695    24862936.100   101809566.295 5      1374.307    24862936.760   101809571.280 7      1374.307
G27  23950697.340   125861731.382 6       -63.936    23950694.720   125861731.390 6       -63.936    23950716.640    98074141.211 6       -49.820    23950716.900    98074143.195 7       -49.820
G17  24626818.840   129414801.159 7      5562.618    24626818.640   129414801.159 5      5562.618    24626827.180   100842712.861 5      4334.507    24626827.720   100842748.865 7      4334.507
R09  23419120.740   125056792.187 7      4541.382    23419122.420   125056792.190 7      4541.382    23419133.220    97266450.260 6      3532.186    23419133.940    97266450.250 7      3532.186
> 2025 04 04 16 38  2.0000000  0 17
G02  21948513.540   115340203.969 7      1678.216    21948511.900   115340203.968 6      1678.216    21948515.920    89875496.808 6      1307.701
G03  20252411.140   106427133.870 8      4234.592    20252409.660   106427133.872 8      4234.592    20252417.440    82930266.660 8      3299.682    20252418.900    82930271.665 8      3299.682
G14  22706078.900   119321244.196 7      4532.536    22706077.060   119321244.212 5      4532.536    22706085.140    92977622.318 5      3531.846    22706085.820    92977625.320 7      3531.846
G08  21063795.820   110690984.171 7      1284.046    21063794.260   110690984.173 7      1284.046    21063803.500    86252748.981 7      1000.556    21063804.460    86252750.981 8      1000.556
G01  20925985.520   109966787.013 7      2585.685    20925984.860   109966787.018 6      2585.685    20925989.460    85688426.119 6      2014.819    20925989.980    85688427.122 8      2014.819
R03  20399113.300   109198051.824 7      5136.312    20399112.480   109198051.849 7      5136.312    20399126.920    84931877.663 8      3994.909    20399126.920    84931877.665 8      3994.909
R18  20866916.380   111389007.934 8      3503.042    20866915.720   111389007.930 7      3503.042    20866927.140    86635940.763 8      2724.588    20866927.280    86635943.769 8      2724.588
R02  21441307.480   114414916.679 8      1216.274    21441306.760   114414916.683 7      1216.274    21441317.800    88989426.863 7       945.991    21441318.680    88989427.867 7       945.991
R17  21441766.840   114739215.277 7      1838.864    21441767.140   114739215.287 7      1838.864    21441779.980    89241665.181 7      1430.227    21441779.680    89241666.180 8      1430.227
R16  21450442.820   114584402.742 8      1251.874    21450443.580   114584402.749 8      1251.874    21450456.780    89121256.038 8       973.680    21450456.580    89121256.037 8       973.680
R04  22961602.500   122958354.670 7      7140.290    22961603.520   122958354.707 7      7140.290    22961631.940    95634438.136 7      5553.559    22961631.460    95634441.141 7      5553.559
R15  22749426.460   121565991.172 7     -1006.165    22749424.600   121565991.158 7     -1006.165    22749449.780    94551406.719 7      -782.573    22749449.900    94551410.720 7      -782.573
G22  24605935.600   129305061.507 7      5251.924    24605933.400   129305061.517 4      5251.924    24605942.720   100757214.422 4      4092.408
G32  24862588.860   130653785.249 6      1763.593    24862588.300   130653785.246 6      1763.593    24862600.620   101808192.269 6      1374.228    24862601.120   101808197.276 7      1374.228
G27  23950709.640   125861795.260 6       -63.616    23950706.900   125861795.262 6       -63.616    23950728.980    98074190.959 6       -49.571    23950729.000    98074192.945 7       -49.571
G17  24625760.300   129409238.662 7      5562.877    24625760.060   129409238.664 5      5562.877    24625768.720   100838378.449 5      4334.709    24625769.180   100838414.453 7      4334.709
R09  23418270.620   125052251.128 7      4541.034    23418271.980   125052251.142 7      4541.034    23418283.040    97262918.331 7      3531.916    23418283.020    97262918.336 7      3531.916
> 2025 04 04 16 38  3.0000000  0 17
G02  21948194.160   115338525.904 7      1678.056    21948192.520   115338525.909 6      1678.056    21948196.560    89874189.229 6      1307.576
G03  20251605.420   106422899.859 8      4233.634    20251603.980   106422899.864 8      4233.634    20251611.840    82926967.437 8      3298.936    20251613.100    82926972.441 8      3298.936
G14  22705216.540   119316712.180 7      4531.733    22705214.640   119316712.190 5      4531.733    22705222.700    92974090.873 5      3531.220    22705223.380    92974093.868 7      3531.220
G08  21063551.660   110689700.484 7      1283.385    21063550.000   110689700.486 7      1283.385    21063559.180    86251748.701 7      1000.040    21063560.140    86251750.697 8      1000.040
G01  20925493.700   109964201.593 7      2585.274    20925492.780   109964201.601 6      2585.274    20925497.560    85686411.508 6      2014.499    20925497.920    85686412.514 8      2014.499
R03  20398153.860   109192916.128 8      5135.220    20398153.080   109192916.151 7      5135.220    20398167.480    84927883.237 8      3994.060    20398167.480    84927883.237 8      3994.060
R18  20866260.380   111385505.086 8      3502.751    20866259.380   111385505.085 7      3502.751    20866270.860    86633216.331 8      2724.362    20866270.940    86633219.336 8      2724.362
R02  21441079.880   114413700.932 8      1215.245    21441078.820   114413700.933 8      1215.245    21441090.080    88988481.282 7       945.190    21441090.660    88988482.283 7       945.190
R17  21441423.100   114737376.660 7      1838.487    21441423.420   114737376.681 7      1838.487    21441436.500    89240235.148 7      1429.934    21441436.040    89240236.147 8      1429.934
R16  21450208.520   114583151.367 8      1250.854    21450209.360   114583151.374 8      1250.854    21450222.360    89120282.742 8       972.886    21450222.580    89120282.741 8       972.886
R04  22960268.880   122951214.561 7      7140.151    22960269.880   122951214.592 7      7140.151    22960298.040    95628884.741 7      5553.451    22960298.260    95628887.752 7      5553.451
R15  22749615.200   121566997.570 7     -1006.446    22749613.360   121566997.555 7     -1006.446    22749638.320    94552189.443 7      -782.791    22749638.000    94552193.446 7      -782.791
G22  24604936.140   129299810.081 7      5251.184    24604934.040   129299810.091 4      5251.184    24604943.240   100753122.404 4      4091.832
G32  24862253.420   130652022.316 6      1762.534    24862252.820   130652022.318 6      1762.534    24862265.120   101806818.555 6      1373.403    24862265.860   101806823.560 7      1373.403
G27  23950721.600   125861859.201 6       -63.988    23950719.120   125861859.195 6       -63.988    23950741.220    98074240.758 6       -49.860    23950741.460    98074242.751 7       -49.860
G17  24624701.720   129403675.905 7      5562.752    24624701.400   129403675.899 5      5562.752    24624710.200   100834043.835 5      4334.612    24624710.840   100834079.837 7      4334.612
R09  23417420.140   125047710.610 7      4540.121    23417421.580   125047710.625 7      4540.121    23417432.680    97259386.817 7      3531.205    23417433.080    97259386.835 7      3531.205
> 2025 04 04 16 38  4.0000000  0 17
G02  21947874.860   115336847.811 7      1678.088    21947873.160   115336847.816 6      1678.088    21947877.140    89872881.622 6      1307.601
G03  20250799.840   106418666.358 8      4233.209    20250798.380   106418666.363 8      4233.209    20250806.180    82923668.609 8      3298.605    20250807.600    82923673.609 8      3298.605
G14  22704354.120   119312180.645 7      4531.157    22704352.380   119312180.650 5      4531.157    22704360.260    92970559.806 5      3530.771    22704361.060    92970562.812 7      3530.771
G08  21063307.420   110688417.120 7      1283.150    21063305.760   110688417.117 7      1283.150    21063314.880    86250748.675 7       999.857    21063315.800    86250750.674 8       999.857
G01  20925001.600   109961616.289 7      2585.189    20925000.840   109961616.291 6      2585.189    20925005.540    85684396.988 6      2014.433    20925006.040    85684397.987 8      2014.433
R03  20397194.520   109187781.049 8      5134.708    20397193.660   109187781.075 7      5134.708    20397208.080    84923889.295 8      3993.662    20397208.160    84923889.297 8      3993.662
R18  20865603.920   111382002.179 7      3502.862    20865603.340   111382002.180 7      3502.862    20865614.760    86630491.852 8      2724.448    20865614.640    86630494.859 8      2724.448
R02  21440852.260   114412485.951 8      1214.522    21440851.220   114412485.943 7      1214.522    21440862.400    88987536.295 7       944.629    21440863.060    88987537.294 7       944.629
R17  21441079.760   114735538.076 7      1838.557    21441079.920   114735538.085 7      1838.557    21441092.700    89238805.133 8      1429.988    21441092.620    89238806.137 8      1429.988
R16  21449974.420   114581900.628 7      1250.345    21449975.360   114581900.627 8      1250.345    21449988.280    89119309.937 8       972.491    21449988.480    89119309.937 8       972.491
R04  22958935.240   122944074.457 7      7140.024    22958936.500   122944074.499 7      7140.024    22958964.920    95623331.379 7      5553.352    22958964.680    95623334.382 7      5553.352
R15  22749803.120   121568003.980 7     -1006.553    22749801.620   121568003.962 7     -1006.553    22749826.620    94552972.178 7      -782.875    22749826.320    94552976.183 7      -782.875
G22  24603936.760   129294558.903 7      5250.924    24603934.960   129294558.916 4      5250.924    24603943.980   100749030.583 4      4091.629
G32  24861917.700   130650259.761 6      1762.232    24861917.240   130650259.774 5      1762.232    24861929.680   101805445.146 6      1373.168    24861930.440   101805450.151 7      1373.168
G27  23950733.840   125861923.299 6       -64.115    23950731.440   125861923.296 6       -64.115    23950753.400    98074290.688 6       -49.960    23950753.640    98074292.681 7       -49.960
G17  24623643.340   129398113.016 7      5562.879    24623642.840   129398113.013 5      5562.879    24623651.740   100829709.121 5      4334.711    24623652.280   100829745.121 7      4334.711
R09  23416569.780   125043170.739 7      4539.492    23416571.620   125043170.751 7      4539.492    23416582.340    97255855.803 7      3530.716    23416582.740    97255855.803 7      3530.716
> 2025 04 04 16 38  5.0000000  0 17
G02  21947555.140   115335169.687 7      1678.147    21947553.660   115335169.689 6      1678.147    21947557.880    89871573.992 6      1307.647
G03  20249994.660   106414433.411 8      4232.618    20249992.780   106414433.418 8      4232.618    20250000.680    82920370.219 8      3298.144    20250002.240    82920375.219 8      3298.144
G14  22703491.840   119307649.572 7      4530.737    22703490.020   119307649.577 5      4530.737    22703497.980    92967029.102 5      3530.445    22703498.940    92967032.112 7      3530.445
G08  21063063.420   110687134.090 7      1282.893    21063061.580   110687134.092 7      1282.893    21063070.760    86249748.914 7       999.657    21063071.640    86249750.914 8       999.657
G01  20924509.740   109959031.082 7      2585.085    20924508.900   109959031.087 6      2585.085    20924513.600    85682382.545 6      2014.352    20924513.880    85682383.548 8      2014.352
R03  20396235.260   109182646.660 8      5133.955    20396234.740   109182646.680 7      5133.955    20396248.980    84919895.887 8      3993.076    20396248.800    84919895.887 8      3993.076
R18  20864947.820   111378499.238 7      3503.018    20864947.280   111378499.239 7      3503.018    20864958.380    86627767.340 8      2724.570    20864958.660    86627770.345 8      2724.570
R02  21440624.820   114411271.703 8      1213.883    21440623.860   114411271.701 7      1213.883    21440634.800    88986591.882 7       944.131    21440635.580    88986592.885 7       944.131
R17  21440736.200   114733699.510 7      1838.537    21440736.400   114733699.522 7      1838.537    21440749.220    89237375.129 7      1429.973    21440749.020    89237376.131 8      1429.973
R16  21449740.200   114580650.546 8      1249.755    21449741.380   114580650.544 7      1249.755    21449754.300    89118337.646 8       972.032    21449754.340    89118337.643 8       972.032
R04  22957602.800   122936934.327 7      7140.100    22957602.720   122936934.363 7      7140.100    22957631.840    95617777.975 7      5553.411    22957631.180    95617780.978 7      5553.411
R15  22749991.480   121569010.348 7     -1006.418    22749990.000   121569010.341 7     -1006.418    22750014.800    94553754.885 7      -782.770    22750014.300    94553758.893 7      -782.770
G22  24602937.920   129289308.011 6      5250.727    24602935.740   129289308.024 4      5250.727    24602944.640   100744938.983 4      4091.476
G32  24861583.000   130648497.679 6      1761.787    24861581.920   130648497.690 5      1761.787    24861594.460   101804072.098 5      1372.821    24861595.240   101804077.094 7      1372.821
G27  23950746.080   125861987.565 6       -64.408    23950743.660   125861987.562 6       -64.408    23950765.580    98074340.750 6       -50.188    23950765.560    98074342.738 7       -50.188
G17  24622584.380   129392549.988 7      5563.110    24622584.380   129392549.985 5      5563.110    24622593.060   100825374.298 5      4334.891    24622593.100   100825410.300 7      4334.891
R09  23415720.020   125038631.520 7      4538.936    23415721.640   125038631.529 7      4538.936    23415732.600    97252325.303 7      3530.284    23415733.300    97252325.308 7      3530.284
> 2025 04 04 16 38  6.0000000  0 17
G02  21947236.360   115333491.686 7      1678.089    21947234.320   115333491.685 6      1678.089    21947238.540    89870266.459 6      1307.602
G03  20249188.920   106410201.152 8      4232.003    20249187.380   106410201.163 8      4232.003    20249195.220    82917072.360 8      3297.665    20249196.800    82917077.364 8      3297.665
G14  22702629.600   119303119.146 7      4530.263    22702627.980   119303119.153 5      4530.263    22702635.920    92963498.902 5      3530.075    22702636.380    92963501.906 7      3530.075
G08  21062819.280   110685851.585 7      1282.421    21062817.560   110685851.582 7      1282.421    21062826.720    86248749.555 7       999.289    21062827.740    86248751.556 8       999.289
G01  20924017.780   109956446.146 7      2584.945    20924017.020   109956446.154 6      2584.945    20924021.720    85680368.309 6      2014.243    20924022.120    85680369.314 8      2014.243
R03  20395276.620   109177513.074 7      5133.333    20395275.680   109177513.094 7      5133.333    20395290.020    84915903.106 8      3992.592    20395290.300    84915903.105 8      3992.592
R18  20864291.480   111374996.459 7      3502.870    20864290.960   111374996.457 7      3502.870    20864302.300    86625042.955 8      2724.455    20864302.140    86625045.961 8      2724.455
R02  21440397.260   114410058.376 8      1212.992    21440396.240   114410058.368 7      1212.992    21440407.500    88985648.179 7       943.438    21440408.200    88985649.180 7       943.438
R17  21440392.300   114731861.096 7      1838.534    21440393.240   114731861.106 7      1838.534    21440405.700    89235945.250 7      1429.971    21440405.320    89235946.251 8      1429.971
R16  21449506.260   114579401.260 7      1249.090    21449507.620   114579401.258 7      1249.090    21449520.280    89117365.975 8       971.514    21449520.520    89117365.972 8       971.514
R04  22956268.580   122929794.317 7      7140.087    22956269.380   122929794.356 7      7140.087    22956298.500    95612224.690 7      5553.401    22956298.080    95612227.696 7      5553.401
R15  22750179.300   121570016.916 7     -1006.500    22750178.420   121570016.914 7     -1006.500    22750203.160    94554537.747 7      -782.834    22750202.740    94554541.754 7      -782.834
G22  24601938.440   129284057.592 6      5250.249    24601936.500   129284057.605 4      5250.249    24601945.420   100740847.750 4      4091.103
G32  24861247.380   130646736.210 6      1761.204    24861246.520   130646736.215 5      1761.204    24861259.340   101802699.524 5      1372.367    24861259.940   101802704.528 7      1372.367
G27  23950758.660   125862052.134 6       -64.677    23950755.960   125862052.131 6       -64.677    23950778.000    98074391.049 6       -50.398    23950777.900    98074393.043 7       -50.398
G17  24621525.980   129386987.005 7      5563.082    24621525.760   129386986.999 5      5563.082    24621534.400   100821039.512 5      4334.869    24621534.380   100821075.502 7      4334.869
R09  23414870.000   125034093.069 7      4538.199    23414871.640   125034093.086 7      4538.199    23414882.660    97248795.403 7      3529.711    23414882.980    97248795.395 7      3529.711
> 2025 04 04 16 38  7.0000000  0 17
G02  21946916.980   115331813.469 7      1678.000    21946915.120   115331813.469 6      1678.000    21946919.280    89868958.760 6      1307.533
G03  20248383.820   106405969.257 8      4231.422    20248382.120   106405969.264 8      4231.422    20248389.960    82913774.781 8      3297.212    20248391.520    82913779.785 8      3297.212
G14  22701767.400   119298589.037 7      4529.641    22701765.960   119298589.047 5      4529.641    22701773.880    92959968.951 5      3529.591    22701774.500    92959971.951 7      3529.591
G08  21062575.160   110684569.231 7      1281.939    21062573.500   110684569.233 7      1281.939    21062582.720    86247750.320 7       998.913    21062583.820    86247752.318 8       998.913
G01  20923525.940   109953861.152 8      2584.770    20923525.080   109953861.154 6      2584.770    20923529.860    85678354.028 6      2014.106    20923530.360    85678355.025 8      2014.106
R03  20394317.440   109172379.956 8      5132.565    20394316.900   109172379.979 7      5132.565    20394331.120    84911910.692 8      3991.995    20394331.000    84911910.692 8      3991.995
R18  20863635.140   111371493.477 7      3502.710    20863634.920   111371493.476 7      3502.710    20863646.040    86622318.422 8      2724.330    20863646.060    86622321.426 8      2724.330
R02  21440170.080   114408845.582 8      1212.167    21440169.120   114408845.583 7      1212.167    21440180.280    88984704.901 7       942.797    21440181.020    88984705.904 7       942.797
R17  21440049.000   114730022.565 7      1838.206    21440049.260   114730022.580 7      1838.206    21440062.020    89234515.288 7      1429.716    21440061.840    89234516.289 8      1429.716
R16  21449272.540   114578152.428 8      1248.279    21449273.820   114578152.434 7      1248.279    21449286.420    89116394.668 8       970.884    21449286.660    89116394.662 8       970.884
R04  22954935.060   122922654.146 7      7140.033    22954935.840   122922654.178 7      7140.033    22954964.700    95606671.249 7      5553.359    22954964.700    95606674.250 7      5553.359
R15  22750367.600   121571023.356 7     -1006.773    22750366.900   121571023.357 7     -1006.773    22750391.440    94555320.513 7      -783.046    22750391.060    94555324.518 7      -783.046
G22  24600939.540   129278807.226 7      5250.092    24600937.340   129278807.241 4      5250.092    24600946.260   100736756.555 4      4090.981
G32  24860912.540   130644974.998 6      1760.665    24860911.400   130644975.003 5      1760.665    24860924.140   101801327.153 5      1371.946    24860924.600   101801332.149 7      1371.946
G27  23950771.140   125862116.682 6       -64.907    23950768.240   125862116.689 6       -64.907    23950790.100    98074441.335 6       -50.577    23950790.260    98074443.328 7       -50.577
G17  24620467.420   129381423.701 7      5563.120    24620467.120   129381423.698 5      5563.120    24620475.520   100816704.473 5      4334.899    24620476.040   100816740.477 7      4334.899
R09  23414020.440   125029555.104 7      4537.385    23414022.360   125029555.108 7      4537.385    23414032.860    97245265.860 7      3529.077    23414033.240    97245265.851 7      3529.077
> 2025 04 04 16 38  8.0000000  0 17
G02  21946597.640   115330135.323 7      1678.352    21946595.840   115330135.326 6      1678.352    21946599.740    89867651.116 6      1307.807
G03  20247578.580   106401737.997 8      4231.305    20247576.960   106401738.004 8      4231.305    20247584.760    82910477.703 8      3297.121    20247586.080    82910482.701 8      3297.121
G14  22700905.500   119294059.517 7      4529.428    22700903.980   119294059.530 5      4529.428    22700912.060    92956439.461 5      3529.424    22700912.400    92956442.467 7      3529.424
G08  21062331.120   110683287.336 7      1281.848    21062329.500   110683287.338 7      1281.848    21062338.780    86246751.437 7       998.842    21062339.800    86246753.439 8       998.842
G01  20923034.060   109951276.366 7      2584.968    20923033.200   109951276.368 6      2584.968    20923038.020    85676339.913 6      2014.261    20923038.400    85676340.916 8      2014.261
R03  20393358.920   109167247.577 7      5132.310    20393358.220   109167247.600 7      5132.310    20393372.340    84907918.846 8      3991.796    20393372.260    84907918.844 8      3991.796
R18  20862978.800   111367990.557 7      3503.117    20862978.460   111367990.555 7      3503.117    20862989.880    86619593.926 8      2724.646    20862990.100    86619596.933 8      2724.646
R02  21439942.760   114407633.637 7      1211.710    21439941.840   114407633.640 7      1211.710    21439953.000    88983762.281 7       942.441    21439953.720    88983763.282 7       942.441
R17  21439705.620   114728184.184 7      1838.459    21439705.780   114728184.196 7      1838.459    21439718.440    89233085.431 8      1429.912    21439718.240    89233086.435 8      1429.912
R16  21449038.920   114576904.335 8      1248.007    21449040.040   114576904.342 7      1248.007    21449052.740    89115423.923 8       970.672    21449053.140    89115423.919 8       970.672
R04  22953602.400   122915514.069 7      7140.359    22953602.520   122915514.098 7      7140.359    22953631.860    95601117.890 7      5553.613    22953631.140    95601120.891 7      5553.613
R15  22750555.940   121572029.932 7     -1006.378    22750555.100   121572029.936 7     -1006.378    22750580.000    94556103.376 7      -782.738    22750579.480    94556107.379 7      -782.738
G22  24599940.300   129273557.293 6      5250.011    24599938.360   129273557.306 4      5250.011    24599947.420   100732665.698 4      4090.917
G32  24860577.340   130643214.335 6      1760.595    24860576.200   130643214.335 5      1760.595    24860588.920   101799955.208 5      1371.892    24860589.360   101799960.208 7      1371.892
G27  23950783.380   125862181.513 6       -64.805    23950780.660   125862181.515 6       -64.805    23950802.460    98074491.835 6       -50.497    23950803.000    98074493.821 7       -50.497
G17  24619408.360   129375860.382 7      5563.475    24619408.360   129375860.376 5      5563.475    24619416.740   100812369.422 5      4335.175    24619417.540   100812405.420 7      4335.175
R09  23413171.060   125025017.837 7      4537.193    23413171.940   125025017.840 7      4537.193    23413183.200    97241736.876 7      3528.928    23413183.520    97241736.875 7      3528.928
> 2025 04 04 16 38  9.0000000  0 17
G02  21946278.060   115328456.923 7      1678.563    21946276.260   115328456.928 6      1678.563    21946280.420    89866343.273 6      1307.971
G03  20246773.380   106397507.097 8      4230.743    20246771.840   106397507.096 8      4230.743    20246779.640    82907180.896 8      3296.682    20246781.200    82907185.896 8      3296.682
G14  22700043.440   119289530.257 7      4529.150    22700042.260   119289530.267 5      4529.150    22700049.960    92952910.168 5      3529.208    22700050.680    92952913.172 7      3529.208
G08  21062087.320   110682005.551 7      1281.728    21062085.680   110682005.551 7      1281.728    21062094.840    86245752.641 7       998.749    21062095.780    86245754.640 8       998.749
G01  20922542.240   109948691.490 7      2584.907    20922541.260   109948691.497 6      2584.907    20922546.140    85674325.728 6      2014.213    20922546.440    85674326.731 8      2014.213
R03  20392400.220   109162115.605 7      5131.786    20392399.660   109162115.626 7      5131.786    20392413.620    84903927.314 8      3991.389    20392413.520    84903927.314 8      3991.389
R18  20862322.660   111364487.365 7      3503.345    20862322.360   111364487.366 7      3503.345    20862333.680    86616869.227 8      2724.824    20862333.720    86616872.234 8      2724.824
R02  21439715.980   114406422.220 8      1211.186    21439714.960   114406422.215 7      1211.186    21439726.140    88982820.064 7       942.034    21439726.760    88982821.063 7       942.034
R17  21439362.040   114726345.618 7      1838.632    21439362.040   114726345.632 7      1838.632    21439374.920    89231655.435 7      1430.047    21439374.660    89231656.437 8      1430.047
R16  21448805.440   114575656.673 7      1247.450    21448806.560   114575656.677 7      1247.450    21448819.120    89114453.515 8       970.239    21448819.560    89114453.511 8       970.239
R04  22952268.580   122908373.733 7      7140.502    22952269.100   122908373.775 7      7140.502    22952298.240    95595564.344 7      5553.724    22952297.900    95595567.345 7      5553.724
R15  22750744.660   121573036.294 7     -1006.211    22750743.220   121573036.309 7     -1006.211    22750768.260    94556886.082 7      -782.608    22750768.180    94556890.087 7      -782.608
G22  24598941.280   129268307.410 7      5249.937    24598939.300   129268307.420 4      5249.937    24598948.420   100728574.885 4      4090.860
G32  24860242.500   130641453.867 6      1760.447    24860241.180   130641453.872 5      1760.447    24860253.960   101798583.419 5      1371.777    24860254.440   101798588.419 7      1371.777
G27  23950795.420   125862246.263 6       -64.750    23950793.020   125862246.257 6       -64.750    23950814.760    98074542.263 6       -50.455    23950815.340    98074544.249 7       -50.455
G17  24618349.600   129370296.692 7      5563.934    24618349.580   129370296.684 5      5563.934    24618358.140   100808034.082 5      4335.533    24618358.960   100808070.075 7      4335.533
R09  23412320.960   125020480.996 7      4536.559    23412322.460   125020481.010 7      4536.559    23412333.300    97238208.237 7      3528.435    23412334.300    97238208.242 7      3528.435
> 2025 04 04 16 38 10.0000000  0 17
G02  21945958.600   115326778.467 7      1678.477    21945956.940   115326778.475 6      1678.477    21945961.120    89865035.384 6      1307.904
G03  20245968.300   106393276.677 8      4230.095    20245966.740   106393276.682 8      4230.095    20245974.620    82903884.471 8      3296.178    20245976.180    82903889.474 8      3296.178
G14  22699181.720   119285001.467 7      4528.493    22699180.480   119285001.480 5      4528.493    22699188.260    92949381.245 5      3528.695    22699188.900    92949384.247 7      3528.695
G08  21061843.540   110680724.082 7      1281.289    21061841.800   110680724.079 7      1281.289    21061850.960    86244754.092 7       998.407    21061851.960    86244756.090 8       998.407
G01  20922050.380   109946106.690 7      2584.684    20922049.340   109946106.695 6      2584.684    20922054.000    85672311.598 6      2014.039    20922054.580    85672312.602 8      2014.039
R03  20391441.580   109156984.214 7      5131.104    20391441.260   109156984.232 7      5131.104    20391455.020    84899936.238 8      3990.858    20391455.100    84899936.241 8      3990.858
R18  20861666.520   111360984.151 7      3503.213    20861665.840   111360984.146 7      3503.213    20861677.540    86614144.499 8      2724.722    20861677.280    86614147.506 8      2724.722
R02  21439488.860   114405211.505 8      1210.439    21439488.060   114405211.500 7      1210.439    21439499.280    88981878.392 7       941.453    21439499.760    88981879.391 7       941.453
R17  21439018.380   114724507.065 7      1838.508    21439018.340   114724507.077 7      1838.508    21439031.320    89230225.446 7      1429.951    21439031.120    89230226.447 8      1429.951
R16  21448571.880   114574409.641 8      1246.637    21448573.000   114574409.642 7      1246.637    21448585.640    89113483.597 8       969.606    21448586.040    89113483.598 8       969.606
R04  22950935.340   122901233.356 7      7140.431    22950935.820   122901233.393 7      7140.431    22950964.740    95590010.747 7      5553.668    22950964.360    95590013.748 7      5553.668
R15  22750932.940   121574042.654 7     -1006.344    22750931.800   121574042.650 7     -1006.344    22750956.580    94557668.771 7      -782.712    22750956.300    94557672.771 7      -782.712
G22  24597942.360   129263057.811 6      5249.462    24597940.260   129263057.821 4      5249.462    24597949.360   100724484.290 4      4090.490
G32  24859907.260   130639693.850 6      1759.717    24859906.260   130639693.858 5      1759.717    24859919.100   101797211.985 5      1371.208    24859919.820   101797216.992 7      1371.208
G27  23950807.820   125862311.162 6       -65.131    23950805.400   125862311.157 6       -65.131    23950827.120    98074592.818 6       -50.751    23950827.500    98074594.808 7       -50.751
G17  24617291.200   129364732.868 7      5563.855    24617290.780   129364732.860 5      5563.855    24617299.420   100803698.639 5      4335.472    24617299.940   100803734.641 7      4335.472
R09  23411471.400   125015944.737 7      4535.995    23411472.480   125015944.749 7      4535.995    23411483.920    97234680.029 7      3527.996    23411484.440    97234680.037 7      3527.996
> 2025 04 04 16 38 11.0000000  0 17
G02  21945639.180   115325099.909 7      1678.583    21945637.560   115325099.911 6      1678.583    21945641.580    89863727.419 6      1307.987
G03  20245163.460   106389046.715 8      4229.727    20245161.760   106389046.718 8      4229.727    20245169.640    82900588.401 8      3295.891    20245171.100    82900593.403 8      3295.891
G14  22698319.980   119280473.072 7      4528.174    22698318.780   119280473.085 5      4528.174    22698326.600    92945852.629 5      3528.447    22698326.900    92945855.635 7      3528.447
G08  21061599.660   110679442.901 7      1280.939    21061597.940   110679442.901 7      1280.939    21061607.100    86243755.769 7       998.134    21061608.160    86243757.770 8       998.134
G01  20921558.500   109943521.925 7      2584.682    20921557.640   109943521.927 6      2584.682    20921562.380    85670297.497 6      2014.038    20921562.540    85670298.503 8      2014.038
R03  20390482.800   109151853.404 8      5130.488    20390482.500   109151853.424 7      5130.488    20390496.440    84895945.618 8      3990.380    20390496.420    84895945.619 8      3990.380
R18  20861010.520   111357480.854 7      3503.301    20861009.840   111357480.845 7      3503.301    20861021.200    86611419.717 8      2724.789    20861021.020    86611422.722 8      2724.789
R02  21439261.940   114404001.481 7      1209.615    21439261.460   114404001.476 7      1209.615    21439272.320    88980937.267 7       940.812    21439273.220    88980938.270 7       940.812
R17  21438674.940   114722668.470 7      1838.564    21438674.940   114722668.482 7      1838.564    21438687.580    89228795.429 7      1429.994    21438687.660    89228796.433 7      1429.994
R16  21448338.600   114573163.186 7      1246.075    21448339.660   114573163.192 7      1246.075    21448352.240    89112514.136 8       969.169    21448352.720    89112514.137 8       969.169
R04  22949602.020   122894092.891 7      7140.301    22949602.620   122894092.930 7      7140.301    22949631.160    95584457.104 7      5553.567    22949630.900    95584460.107 7      5553.567
R15  22751121.720   121575048.944 7     -1006.290    22751120.420   121575048.945 7     -1006.290    22751144.680    94558451.410 7      -782.670    22751144.660    94558455.408 7      -782.670
G22  24596943.320   129257808.414 7      5249.148    24596941.280   129257808.427 4      5249.148    24596950.520   100720393.851 4      4090.245
G32  24859572.600   130637934.188 6      1759.426    24859571.220   130637934.193 5      1759.426    24859584.260   101795840.831 5      1370.981    24859584.640   101795845.837 7      1370.981
G27  23950819.780   125862376.112 6       -65.085    23950817.900   125862376.112 6       -65.085    23950839.480    98074643.419 6       -50.715    23950840.120    98074645.416 7       -50.715
G17  24616232.580   129359168.821 7      5564.197    24616231.940   129359168.815 5      5564.197    24616240.700   100799363.023 5      4335.738    24616241.540   100799399.021 7      4335.738
R09  23410622.120   125011409.077 7      4535.402    23410623.020   125011409.086 7      4535.402    23410634.720    97231152.298 6      3527.535    23410635.080    97231152.290 7      3527.535
> 2025 04 04 16 38 12.0000000  0 17
G02  21945319.800   115323421.422 8      1678.317    21945318.220   115323421.427 6      1678.317    21945322.220    89862419.504 6      1307.780
G03  20244358.560   106384817.429 8      4228.846    20244357.060   106384817.431 8      4228.846    20244364.860    82897292.855 8      3295.205    20244366.540    82897297.859 8      3295.205
G14  22697458.680   119275945.302 7      4527.364    22697457.180   119275945.315 5      4527.364    22697464.940    92942324.499 5      3527.816    22697465.460    92942327.500 7      3527.816
G08  21061356.120   110678162.144 7      1280.351    21061354.260   110678162.146 7      1280.351    21061363.480    86242757.777 7       997.676    21061364.360    86242759.775 8       997.676
G01  20921066.860   109940937.396 7      2584.265    20921065.860   109940937.398 6      2584.265    20921070.440    85668283.577 6      2013.713    20921070.880    85668284.580 8      2013.713
R03  20389524.780   109146723.351 8      5129.490    20389524.220   109146723.374 7      5129.490    20389538.100    84891955.586 8      3989.603    20389538.320    84891955.588 8      3989.603
R18  20860354.260   111353977.643 7      3503.055    20860353.320   111353977.641 7      3503.055    20860365.000    86608695.001 8      2724.598    20860364.580    86608698.008 8      2724.598
R02  21439035.460   114402792.302 7      1208.558    21439034.740   114402792.298 7      1208.558    21439045.640    88979996.799 7       939.990    21439046.660    88979997.796 7       939.990
R17  21438331.320   114720830.000 7      1838.279    21438331.720   114720830.017 7      1838.279    21438343.900    89227365.506 8      1429.773    21438343.920    89227366.510 7      1429.773
R16  21448105.300   114571917.516 8      1245.166    21448106.180   114571917.515 7      1245.166    21448119.040    89111545.273 8       968.463    21448119.500    89111545.274 8       968.463
R04  22948268.380   122886952.479 7      7140.244    22948269.140   122886952.529 7      7140.244    22948297.840    95578903.486 7      5553.523    22948297.360    95578906.491 7      5553.523
R15  22751309.700   121576055.360 7     -1006.611    22751308.580   121576055.361 7     -1006.611    22751333.080    94559234.148 7      -782.920    22751333.040    94559238.149 7      -782.920
G22  24595944.380   129252559.414 7      5248.708    24595942.500   129252559.427 4      5248.708    24595951.520   100716303.725 4      4089.903
G32  24859238.060   130636175.113 6      1758.641    24859236.340   130636175.110 5      1758.641    24859249.580   101794470.122 5      1370.370    24859250.440   101794475.118 7      1370.370
G27  23950832.940   125862441.374 6       -65.647    23950830.440   125862441.371 6       -65.647    23950851.860    98074694.257 6       -51.154    23950852.020    98074696.249 7       -51.154
G17  24615173.440   129353604.799 7      5563.798    24615173.060   129353604.796 5      5563.798    24615181.840   100795027.425 5      4335.427    24615182.440   100795063.420 7      4335.427
R09  23409772.980   125006874.156 7      4534.384    23409773.660   125006874.165 7      4534.384    23409785.400    97227625.131 6      3526.743    23409786.100    97227625.140 7      3526.743
> 2025 04 04 16 38 13.0000000  0 17
G02  21945000.360   115321742.824 7      1678.724    21944998.520   115321742.829 6      1678.724    21945002.780    89861111.504 6      1308.097
G03  20243553.880   106380588.594 7      4228.699    20243552.340   106380588.601 8      4228.699    20243560.040    82893997.668 8      3295.090    20243561.660    82894002.670 8      3295.090
G14  22696597.040   119271417.939 7      4527.187    22696595.580   119271417.949 5      4527.187    22696603.400    92938796.688 5      3527.678    22696603.900    92938799.687 7      3527.678
G08  21061112.500   110676881.671 7      1280.379    21061110.600   110676881.673 7      1280.379    21061119.820    86241760.005 7       997.698    21061120.840    86241762.004 8       997.698
G01  20920574.940   109938352.893 7      2584.526    20920574.080   109938352.898 6      2584.526    20920578.680    85666269.681 6      2013.916    20920579.160    85666270.684 8      2013.916
R03  20388566.380   109141593.870 7      5129.236    20388565.840   109141593.888 7      5129.236    20388580.020    84887965.992 8      3989.406    20388579.780    84887965.992 8      3989.406
R18  20859697.860   111350474.339 7      3503.403    20859697.060   111350474.337 7      3503.403    20859708.640    86605970.217 8      2724.869    20859708.380    86605973.224 8      2724.869
R02  21438808.820   114401583.802 8      1208.241    21438808.340   114401583.800 7      1208.241    21438819.340    88979056.852 7       939.743    21438819.960    88979057.851 7       939.743
R17  21437987.500   114718991.501 7      1838.545    21437987.960   114718991.518 7      1838.545    21438000.540    89225935.563 7      1429.979    21438000.300    89225936.570 8      1429.979
R16  21447872.420   114570672.423 8      1244.969    21447873.200   114570672.427 7      1244.969    21447886.060    89110576.866 8       968.309    21447886.200    89110576.868 8       968.309
R04  22946935.080   122879812.036 7      7140.570    22946936.000   122879812.077 7      7140.570    22946964.600    95573349.841 7      5553.777    22946963.880    95573352.848 7      5553.777
R15  22751498.120   121577061.725 7     -1006.242    22751497.140   121577061.718 7     -1006.242    22751521.400    94560016.848 7      -782.633    22751521.060    94560020.849 7      -782.633
G22  24594945.580   129247310.624 7      5248.699    24594943.560   129247310.640 4      5248.699    24594952.760   100712213.763 4      4089.895
G32  24858903.340   130634416.376 6      1758.566    24858901.640   130634416.373 5      1758.566    24858914.800   101793099.686 5      1370.311    24858915.660   101793104.692 7      1370.311
G27  23950845.540   125862506.700 6       -65.366    23950842.900   125862506.699 6       -65.366    23950864.480    98074745.139 6       -50.934    23950864.880    98074747.127 7       -50.934
G17  24614114.060   129348040.518 6      5564.544    24614114.100   129348040.515 5      5564.544    24614123.120   100790691.625 5      4336.009    24614123.340   100790727.621 7      4336.009
R09  23408923.800   125002339.806 7      4534.028    23408924.160   125002339.805 7      4534.028    23408936.100    97224098.408 6      3526.466    23408936.640    97224098.417 7      3526.466
> 2025 04 04 16 38 14.0000000  0 17
G02  21944680.840   115320063.935 7      1679.207    21944679.140   115320063.937 6      1679.207    21944683.300    89859803.275 6      1308.473
G03  20242749.360   106376360.059 8      4228.487    20242747.660   106376360.064 8      4228.487    20242755.520    82890702.705 8      3294.925    20242757.060    82890707.705 8      3294.925
G14  22695735.540   119266890.805 7      4527.056    22695734.180   119266890.812 5      4527.056    22695742.060    92935269.051 5      3527.576    22695742.420    92935272.048 7      3527.576
G08  21060868.640   110675601.279 7      1280.441    21060866.900   110675601.284 7      1280.441    21060876.160    86240762.295 7       997.747    21060877.220    86240764.294 8       997.747
G01  20920082.880   109935768.241 7      2584.817    20920082.360   109935768.249 6      2584.817    20920086.820    85664255.670 6      2014.143    20920087.160    85664256.679 8      2014.143
R03  20387607.980   109136464.749 7      5129.060    20387607.780   109136464.775 7      5129.060    20387621.760    84883976.686 8      3989.269    20387621.540    84883976.688 8      3989.269
R18  20859041.520   111346970.738 7      3503.813    20859040.840   111346970.741 7      3503.813    20859052.240    86603245.192 8      2725.188    20859052.140    86603248.199 8      2725.188
R02  21438582.540   114400375.784 8      1207.819    21438581.760   114400375.777 7      1207.819    21438593.120    88978117.280 7       939.415    21438593.600    88978118.281 7       939.415
R17  21437643.660   114717152.790 7      1838.881    21437644.640   114717152.813 7      1838.881    21437656.840    89224505.453 7      1430.241    21437656.620    89224506.458 8      1430.241
R16  21447639.440   114569427.731 7      1244.568    21447640.060   114569427.735 8      1244.568    21447653.140    89109608.770 8       967.998    21447653.320    89109608.768 8       967.998
R04  22945601.280   122872671.335 7      7140.910    22945602.200   122872671.377 7      7140.910    22945631.120    95567795.990 7      5554.041    22945630.480    95567798.993 7      5554.041
R15  22751686.820   121578067.828 7     -1005.855    22751685.460   121578067.829 7     -1005.855    22751709.720    94560799.360 7      -782.331    22751709.600    94560803.359 7      -782.331
G22  24593946.660   129242061.837 7      5248.994    24593944.740   129242061.847 4      5248.994    24593954.080   100708123.799 4      4090.126
G32  24858568.280   130632657.854 6      1758.451    24858567.100   130632657.854 5      1758.451    24858580.180   101791729.408 5      1370.221    24858581.280   101791734.414 7      1370.221
G27  23950857.860   125862571.925 6       -65.101    23950855.320   125862571.920 6       -65.101    23950876.880    98074795.938 6       -50.728    23950877.640    98074797.924 7       -50.728
G17  24613055.160   129342475.888 7      5564.974    24613055.220   129342475.877 5      5564.974    24613064.040   100786355.551 5      4336.344    24613064.220   100786391.545 7      4336.344
R09  23408074.600   124997805.831 7      4533.845    23408074.600   124997805.840 7      4533.845    23408087.480    97220571.987 6      3526.324    23408087.380    97220571.990 7      3526.324
> 2025 04 04 16 38 15.0000000  0 17
G02  21944361.220   115318385.019 7      1679.003    21944359.740   115318385.024 6      1679.003    21944364.000    89858495.031 6      1308.314
G03  20241944.720   106372132.067 7      4227.708    20241943.020   106372132.075 8      4227.708    20241950.860    82887408.172 8      3294.318    20241952.540    82887413.174 8      3294.318
G14  22694874.320   119262364.154 7      4526.306    22694872.740   119262364.162 5      4526.306    22694880.620    92931741.794 5      3526.992    22694880.820    92931744.798 7      3526.992
G08  21060625.020   110674321.244 7      1279.875    21060623.400   110674321.249 7      1279.875    21060632.580    86239764.868 7       997.305    21060633.700    86239766.868 8       997.305
G01  20919591.280   109933183.715 7      2584.521    20919590.400   109933183.722 6      2584.521    20919594.940    85662241.757 6      2013.912    20919595.240    85662242.763 8      2013.912
R03  20386650.200   109131336.278 8      5128.148    20386649.820   109131336.309 7      5128.148    20386663.900    84879987.885 8      3988.559    20386663.700    84879987.887 8      3988.559
R18  20858385.240   111343467.116 7      3503.633    20858384.720   111343467.116 7      3503.633    20858395.900    86600520.159 8      2725.048    20858395.840    86600523.166 8      2725.048
R02  21438356.340   114399168.503 7      1206.877    21438355.900   114399168.501 7      1206.877    21438366.660    88977178.286 7       938.682    21438367.500    88977179.287 7       938.682
R17  21437300.020   114715314.141 7      1838.666    21437301.040   114715314.170 7      1838.666    21437313.280    89223075.398 8      1430.074    21437313.000    89223076.400 8      1430.074
R16  21447406.460   114568183.656 7      1243.745    21447407.200   114568183.657 7      1243.745    21447420.100    89108641.149 8       967.357    21447420.580    89108641.150 8       967.357
R04  22944267.500   122865530.610 7      7140.775    22944268.600   122865530.641 7      7140.775    22944297.260    95562242.132 7      5553.936    22944297.120    95562245.135 7      5553.936
R15  22751874.900   121579073.988 7     -1006.124    22751873.900   121579073.986 7     -1006.124    22751898.260    94561581.893 7      -782.541    22751898.020    94561585.894 7      -782.541
G22  24592948.060   129236813.402 7      5248.232    24592946.320   129236813.417 4      5248.232    24592955.280   100704034.113 4      4089.532
G32  24858233.920   130630899.785 6      1757.818    24858232.800   130630899.782 5      1757.818    24858245.680   101790359.481 5      1369.728    24858246.400   101790364.473 7      1369.728
G27  23950870.300   125862637.293 6       -65.204    23950867.900   125862637.287 6       -65.204    23950889.340    98074846.859 6       -50.808    23950889.440    98074848.849 7       -50.808
G17  24611996.360   129336911.113 6      5564.933    24611996.380   129336911.102 5      5564.933    24612005.220   100782019.365 5      4336.312    24612005.480   100782055.375 7      4336.312
R09  23407225.700   124993272.555 7      4532.892    23407225.380   124993272.561 7      4532.892    23407237.960    97217046.107 6      3525.582    23407238.700    97217046.098 7      3525.582
> 2025 04 04 16 38 16.0000000  0 17
G02  21944041.960   115316706.035 7      1679.005    21944040.260   115316706.040 6      1679.005    21944044.460    89857186.734 6      1308.316
G03  20241140.260   106367904.570 8      4227.202    20241138.560   106367904.575 8      4227.202    20241146.440    82884114.019 8      3293.924    20241147.880    82884119.021 8      3293.924
G14  22694012.880   119257837.934 7      4526.046    22694011.640   119257837.942 5      4526.046    22694019.260    92928214.866 5      3526.789    22694019.580    92928217.867 7      3526.789
G08  21060381.540   110673041.498 7      1279.579    21060379.920   110673041.498 7      1279.579    21060388.940    86238767.659 7       997.075    21060390.060    86238769.658 8       997.075
G01  20919099.480   109930599.257 7      2584.448    20919098.560   109930599.262 6      2584.448    20919103.080    85660227.896 6      2013.855    20919103.560    85660228.897 8      2013.855
R03  20385691.880   109126208.390 8      5127.605    20385692.160   109126208.413 7      5127.605    20385705.820    84875999.530 8      3988.137    20385705.500    84875999.530 8      3988.137
R18  20857728.900   111339963.427 7      3503.710    20857728.320   111339963.422 7      3503.710    20857739.700    86597795.063 8      2725.107    20857739.500    86597798.070 8      2725.107
R02  21438130.480   114397961.904 8      1206.288    21438129.600   114397961.900 7      1206.288    21438140.460    88976239.816 7       938.224    21438140.920    88976240.815 7       938.224
R17  21436956.880   114713475.471 7      1838.691    21436957.780   114713475.494 7      1838.691    21436969.860    89221645.315 7      1430.093    21436969.580    89221646.321 8      1430.093
R16  21447173.680   114566940.139 7      1243.236    21447174.120   114566940.142 7      1243.236    21447187.380    89107673.967 8       966.961    21447187.720    89107673.964 8       966.961
R04  22942934.220   122858389.794 7      7140.872    22942935.600   122858389.836 7      7140.872    22942963.580    95556688.204 7      5554.011    22942963.740    95556691.209 7      5554.011
R15  22752062.700   121580080.061 7     -1005.971    22752062.000   121580080.055 7     -1005.971    22752086.400    94562364.364 7      -782.422    22752086.000    94562368.360 7      -782.422
G22  24591949.500   129231565.172 6      5247.996    24591947.600   129231565.187 4      5247.996    24591956.520   100699944.583 4      4089.348
G32  24857899.340   130629142.081 6      1757.506    24857898.160   130629142.077 5      1757.506    24857911.260   101788989.844 5      1369.485    24857911.640   101788994.844 7      1369.485
G27  23950882.300   125862702.820 6       -65.554    23950880.400   125862702.820 6       -65.554    23950901.820    98074897.905 6       -51.081    23950902.000    98074899.895 7       -51.081
G17  24610937.660   129331346.174 7      5565.076    24610937.480   129331346.164 5      5565.076    24610946.300   100777683.058 5      4336.422    24610946.580   100777719.058 7      4336.422
R09  23406376.640   124988739.836 7      4532.441    23406376.500   124988739.837 7      4532.441    23406389.260    97213520.654 7      3525.232    23406389.700    97213520.669 7      3525.232
> 2025 04 04 16 38 17.0000000  0 17
G02  21943722.340   115315027.023 7      1679.075    21943720.600   115315027.028 6      1679.075    21943724.920    89855878.414 6      1308.370
G03  20240335.840   106363677.624 8      4226.716    20240334.200   106363677.635 8      4226.716    20240342.020    82880820.305 8      3293.545    20240343.420    82880825.309 8      3293.545
G14  22693151.740   119253312.240 7      4525.465    22693150.340   119253312.247 5      4525.465    22693158.120    92924688.353 5      3526.337    22693158.440    92924691.363 7      3526.337
G08  21060137.980   110671762.115 7      1279.207    21060136.480   110671762.120 7      1279.207    21060145.540    86237770.737 7       996.785    21060146.580    86237772.736 8       996.785
G01  20918607.680   109928014.928 7      2584.337    20918606.900   109928014.932 6      2584.337    20918611.260    85658214.131 6      2013.769    20918611.820    85658215.137 8      2013.769
R03  20384734.520   109121081.182 8      5126.897    20384734.320   109121081.197 7      5126.897    20384747.940    84872011.704 8      3987.587    20384747.920    84872011.702 8      3987.587
R18  20857072.340   111336459.738 7      3503.726    20857071.760   111336459.739 7      3503.726    20857083.320    86595069.982 8      2725.120    20857083.220    86595072.991 8      2725.120
R02  21437904.740   114396756.098 8      1205.410    21437903.480   114396756.091 7      1205.410    21437914.600    88975301.969 7       937.541    21437915.300    88975302.968 7       937.541
R17  21436613.340   114711636.841 7      1838.695    21436613.680   114711636.861 7      1838.695    21436626.340    89220215.265 8      1430.096    21436626.020    89220216.271 8      1430.096
R16  21446940.840   114565697.316 7      1242.496    21446941.580   114565697.323 7      1242.496    21446954.820    89106707.325 8       966.386    21446954.940    89106707.324 8       966.386
R04  22941600.520   122851248.992 7      7140.846    22941601.720   122851249.028 7      7140.846    22941630.260    95551134.282 7      5553.991    22941630.200    95551137.287 7      5553.991
R15  22752251.280   121581086.167 7     -1006.020    22752250.500   121581086.166 7     -1006.020    22752274.520    94563146.865 7      -782.460    22752274.520    94563150.871 7      -782.460
G22  24590950.740   129226317.233 7      5247.794    24590948.940   129226317.246 4      5247.794    24590957.840   100695855.276 4      4089.190
G32  24857565.560   130627384.865 6      1757.042    24857563.940   130627384.870 5      1757.042    24857576.880   101787620.589 5      1369.123    24857577.180   101787625.593 7      1369.123
G27  23950894.780   125862768.521 6       -65.764    23950893.140   125862768.513 6       -65.764    23950914.320    98074949.080 6       -51.244    23950914.640    98074951.069 7       -51.244
G17  24609878.840   129325781.142 7      5565.067    24609878.480   129325781.128 5      5565.067    24609887.440   100773346.673 5      4336.416    24609887.620   100773382.671 7      4336.416
R09  23405528.580   124984207.810 7      4531.636    23405528.140   124984207.813 7      4531.636    23405540.680    97209995.752 7      3524.606    23405540.660    97209995.747 7      3524.606
> 2025 04 04 16 38 18.0000000  0 17
G02  21943402.920   115313347.936 7      1679.006    21943401.140   115313347.941 6      1679.006    21943405.360    89854570.033 6      1308.317
G03  20239531.660   106359451.170 8      4226.126    20239529.900   106359451.175 8      4226.126    20239537.740    82877526.966 8      3293.085    20239539.360    82877531.970 8      3293.085
G14  22692290.560   119248786.958 7      4524.960    22692289.260   119248786.968 5      4524.960    22692297.080    92921162.165 5      3525.943    22692297.580    92921165.169 7      3525.943
G08  21059894.640   110670483.011 7      1278.869    21059893.120   110670483.016 7      1278.869    21059902.080    86236774.030 7       996.521    21059903.300    86236776.029 8       996.521
G01  20918115.880   109925430.656 7      2584.170    20918115.020   109925430.656 6      2584.170    20918119.540    85656200.415 6      2013.639    20918119.960    85656201.416 8      2013.639
R03  20383776.600   109115954.528 8      5126.328    20383776.460   109115954.546 7      5126.328    20383790.240    84868024.313 8      3987.144    20383790.180    84868024.315 8      3987.144
R18  20856416.000   111332955.979 7      3503.638    20856415.320   111332955.983 7      3503.638    20856426.900    86592344.845 8      2725.052    20856426.560    86592347.852 8      2725.052
R02  21437678.740   114395550.954 8      1204.760    21437677.900   114395550.952 7      1204.760    21437689.000    88974364.641 7       937.036    21437689.300    88974365.642 7       937.036
R17  21436269.720   114709798.176 7      1838.544    21436270.120   114709798.202 7      1838.544    21436282.880    89218785.195 8      1429.978    21436282.420    89218786.200 7      1429.978
R16  21446708.100   114564455.060 7      1241.867    21446709.160   114564455.066 7      1241.867    21446722.100    89105741.126 8       965.897    21446722.480    89105741.125 8       965.897
R04  22940266.980   122844108.074 7      7140.830    22940268.060   122844108.121 7      7140.830    22940296.460    95545580.280 7      5553.979    22940296.520    95545583.286 7      5553.979
R15  22752439.620   121582092.228 7     -1006.217    22752438.820   121582092.229 7     -1006.217    22752462.780    94563929.336 7      -782.613    22752462.700    94563933.339 7      -782.613
G22  24589952.060   129221069.523 7      5247.547    24589950.240   129221069.533 4      5247.547    24589959.060   100691766.154 4      4088.998
G32  24857230.660   130625628.049 6      1756.421    24857229.540   130625628.054 5      1756.421    24857242.500   101786251.645 5      1368.639    24857242.920   101786256.652 7      1368.639
G27  23950907.340   125862834.275 6       -65.787    23950905.620   125862834.272 6       -65.787    23950926.760    98075000.303 6       -51.263    23950927.020    98075002.291 7       -51.263
G17  24608819.700   129320215.854 7      5565.384    24608819.420   129320215.843 5      5565.384    24608828.500   100769010.091 5      4336.663    24608828.640   100769046.100 7      4336.663
R09  23404679.920   124979676.354 7      4531.048    23404679.380   124979676.363 7      4531.048    23404692.060    97206471.287 7      3524.148    23404692.500    97206471.288 7      3524.148
> 2025 04 04 16 38 19.0000000  0 17
G02  21943083.440   115311668.900 7      1678.819    21943081.640   115311668.905 6      1678.819    21943085.720    89853261.693 6      1308.171
G03  20238727.460   106355225.344 8      4225.399    20238725.760   106355225.351 8      4225.399    20238733.620    82874234.121 8      3292.519    20238735.180    82874239.123 8      3292.519
G14  22691429.360   119244262.262 7      4524.343    22691428.280   119244262.270 5      4524.343    22691436.020    92917636.430 5      3525.462    22691436.600    92917639.434 7      3525.462
G08  21059651.200   110669204.324 7      1278.456    21059649.820   110669204.329 7      1278.456    21059658.820    86235777.653 7       996.199    21059659.920    86235779.652 8       996.199
G01  20917624.140   109922846.577 7      2583.877    20917623.380   109922846.576 6      2583.877    20917627.760    85654186.847 6      2013.410    20917628.160    85654187.854 8      2013.410
R03  20382819.160   109110828.635 7      5125.465    20382819.100   109110828.655 7      5125.465    20382832.680    84864037.515 8      3986.472    20382832.520    84864037.515 8      3986.472
R18  20855759.740   111329452.269 7      3503.598    20855759.100   111329452.267 7      3503.598    20855770.520    86589619.729 8      2725.020    20855770.220    86589622.736 8      2725.020
R02  21437453.100   114394346.661 8      1203.815    21437452.200   114394346.662 7      1203.815    21437462.940    88973427.971 7       936.301    21437463.880    88973428.970 7       936.301
R17  21435926.220   114707959.655 7      1838.338    21435926.700   114707959.668 7      1838.338    21435939.220    89217355.228 7      1429.818    21435938.660    89217356.229 8      1429.818
R16  21446475.860   114563213.567 7      1241.017    21446476.760   114563213.576 7      1241.017    21446489.820    89104775.519 8       965.236    21446490.120    89104775.517 8       965.236
R04  22938933.380   122836967.288 7      7140.583    22938934.640   122836967.332 7      7140.583    22938962.980    95540026.375 7      5553.787    22938963.220    95540029.380 7      5553.787
R15  22752627.800   121583098.393 7     -1006.410    22752627.160   121583098.391 7     -1006.410    22752650.900    94564711.886 7      -782.763    22752651.040    94564715.889 7      -782.763
G22  24588953.720   129215822.186 7      5247.095    24588951.760   129215822.199 4      5247.095    24588960.580   100687677.324 4      4088.645
G32  24856896.900   130623871.750 6      1755.690    24856895.320   130623871.753 5      1755.690    24856908.260   101784883.107 5      1368.070    24856908.960   101784888.124 7      1368.070
G27  23950919.980   125862900.307 6       -66.111    23950918.220   125862900.301 6       -66.111    23950939.400    98075051.740 6       -51.515    23950939.620    98075053.728 7       -51.515
G17  24607760.680   129314650.604 7      5565.191    24607760.460   129314650.598 5      5565.191    24607769.480   100764673.536 5      4336.513    24607769.300   100764709.543 7      4336.513
R09  23403831.320   124975145.617 7      4530.279    23403830.200   124975145.618 7      4530.279    23403843.480    97202947.387 7      3523.550    23403843.900    97202947.379 7      3523.550
> 2025 04 04 16 38 20.0000000  0 17
G02  21942764.000   115309989.801 7      1679.096    21942762.080   115309989.803 6      1679.096    21942766.220    89851953.304 6      1308.387
G03  20237923.500   106351000.025 8      4225.075    20237921.760   106351000.032 8      4225.075    20237929.560    82870941.668 8      3292.266    20237930.880    82870946.672 8      3292.266
G14  22690568.420   119239738.026 7      4524.013    22690567.400   119239738.031 5      4524.013    22690575.040    92914111.057 5      3525.205    22690575.540    92914114.059 7      3525.205
G08  21059407.960   110667926.000 7      1278.163    21059406.700   110667926.002 7      1278.163    21059415.560    86234781.550 7       995.972    21059416.580    86234783.551 8       995.972
G01  20917132.440   109920262.586 7      2583.924    20917131.580   109920262.594 6      2583.924    20917136.120    85652173.352 6      2013.448    20917136.580    85652174.355 8      2013.448
R03  20381861.860   109105703.370 8      5124.945    20381862.000   109105703.393 7      5124.945    20381875.160    84860051.208 8      3986.069    20381874.920    84860051.211 8      3986.069
R18  20855103.480   111325948.500 7      3503.735    20855102.540   111325948.496 7      3503.735    20855114.080    86586894.575 8      2725.127    20855114.040    86586897.584 8      2725.127
R02  21437227.720   114393143.078 8      1203.205    21437226.760   114393143.073 7      1203.205    21437237.580    88972491.850 7       935.826    21437238.480    88972492.850 7       935.826
R17  21435582.600   114706121.172 7      1838.382    21435582.900   114706121.185 7      1838.382    21435595.660    89215925.295 7      1429.852    21435595.460    89215926.300 7      1429.852
R16  21446243.620   114561972.716 7      1240.427    21446244.420   114561972.730 7      1240.427    21446257.440    89103810.414 8       964.776    21446257.700    89103810.411 8       964.776
R04  22937599.860   122829826.477 7      7140.708    22937601.800   122829826.514 7      7140.708    22937629.520    95534472.447 7      5553.884    22937629.140    95534475.452 7      5553.884
R15  22752816.520   121584104.576 7     -1006.280    22752815.220   121584104.582 7     -1006.280    22752839.380    94565494.444 7      -782.662    22752839.160    94565498.447 7      -782.662
G22  24587955.380   129210575.133 7      5246.847    24587953.180   129210575.146 4      5246.847    24587962.140   100683588.715 4      4088.452
G32  24856562.700   130622115.864 6      1755.522    24856561.000   130622115.872 5      1755.522    24856574.100   101783514.895 5      1367.940    24856574.980   101783519.905 7      1367.940
G27  23950932.560   125862966.492 6       -66.263    23950930.900   125862966.491 6       -66.263    23950952.000    98075103.292 6       -51.634    23950952.360    98075105.282 7       -51.634
G17  24606701.800   129309085.166 7      5565.459    24606701.300   129309085.158 5      5565.459    24606710.180   100760336.832 5      4336.722    24606710.660   100760372.832 7      4336.722
R09  23402983.320   124970615.540 7      4529.734    23402982.200   124970615.530 7      4529.734    23402994.540    97199423.976 7      3523.126    23402995.600    97199423.986 7      3523.126
> 2025 04 04 16 38 21.0000000  0 17
G02  21942444.320   115308310.859 7      1679.137    21942442.480   115308310.858 6      1679.137    21942446.760    89850645.040 6      1308.419
G03  20237119.360   106346775.439 8      4224.577    20237117.820   106346775.446 8      4224.577    20237125.620    82867649.789 8      3291.879    20237126.900    82867654.793 8      3291.879
G14  22689707.640   119235214.463 7      4523.636    22689706.560   119235214.470 5      4523.636    22689714.160    92910586.201 5      3524.911    22689714.800    92910589.203 7      3524.911
G08  21059164.780   110666648.172 7      1277.929    21059163.520   110666648.175 7      1277.929    21059172.380    86233785.838 7       995.789    21059173.400    86233787.839 8       995.789
G01  20916640.640   109917678.882 7      2583.994    20916639.920   109917678.887 6      2583.994    20916644.600    85650160.078 6      2013.501    20916645.020    85650161.084 8      2013.501
R03  20380904.300   109100578.922 8      5124.467    20380904.580   109100578.939 7      5124.467    20380917.840    84856065.526 8      3985.697    20380917.800    84856065.524 8      3985.697
R18  20854446.920   111322444.899 7      3503.905    20854446.120   111322444.898 7      3503.905    20854457.760    86584169.555 8      2725.260    20854457.720    86584172.561 8      2725.260
R02  21437002.160   114391940.407 8      1202.567    21437001.360   114391940.410 7      1202.567    21437012.120    88971556.444 7       935.330    21437012.920    88971557.441 7       935.330
R17  21435238.720   114704282.901 7      1838.574    21435239.480   114704282.913 7      1838.574    21435252.480    89214495.526 7      1430.002    21435251.840    89214496.527 7      1430.002
R16  21446011.680   114560732.716 7      1239.964    21446012.320   114560732.723 7      1239.964    21446025.260    89102845.964 8       964.416    21446025.640    89102845.960 8       964.416
R04  22936266.580   122822685.779 7      7141.061    22936267.920   122822685.826 7      7141.061    22936296.200    95528918.608 7      5554.159    22936295.720    95528921.615 7      5554.159
R15  22753004.680   121585110.952 7     -1006.148    22753003.780   121585110.969 7     -1006.148    22753027.640    94566277.162 7      -782.559    22753027.640    94566281.161 7      -782.559
G22  24586956.660   129205328.522 7      5246.786    24586954.940   129205328.537 4      5246.786    24586963.680   100679500.448 4      4088.405
G32  24856228.540   130620360.590 6      1755.396    24856226.960   130620360.595 5      1755.396    24856240.040   101782147.151 5      1367.841    24856240.740   101782152.153 7      1367.841
G27  23950945.360   125863032.992 6       -66.216    23950943.600   125863032.983 6       -66.216    23950964.700    98075155.093 6       -51.597    23950965.100    98075157.084 7       -51.597
G17  24605642.800   129303519.795 7      5565.658    24605641.920   129303519.786 5      5565.658    24605650.920   100756000.185 5      4336.876    24605651.380   100756036.183 7      4336.876
R09  23402134.980   124966086.239 7      4529.270    23402133.660   124966086.235 7      4529.270    23402146.700    97195901.193 6      3522.765    23402147.300    97195901.186 7      3522.765
> 2025 04 04 16 38 22.0000000  0 17
G02  21942124.640   115306631.670 7      1679.071    21942123.000   115306631.675 6      1679.071    21942127.260    89849336.583 6      1308.367
G03  20236315.540   106342551.202 8      4223.829    20236314.000   106342551.204 8      4223.829    20236321.820    82864358.176 8      3291.296    20236323.120    82864363.176 8      3291.296
G14  22688846.880   119230691.199 7      4522.897    22688845.800   119230691.204 5      4522.897    22688853.460    92907061.582 5      3524.335    22688853.820    92907064.585 7      3524.335
G08  21058921.620   110665370.495 7      1277.363    21058920.420   110665370.499 7      1277.363    21058929.360    86232790.245 7       995.348    21058930.240    86232792.246 8       995.348
G01  20916148.980   109915095.121 7      2583.607    20916148.280   109915095.126 6      2583.607    20916152.880    85648146.759 6      2013.200    20916153.200    85648147.765 8      2013.200
R03  20379947.040   109095454.891 8      5123.571    20379947.200   109095454.911 7      5123.571    20379960.520    84852080.177 8      3985.000    20379960.620    84852080.180 8      3985.000
R18  20853790.440   111318941.122 7      3503.687    20853789.940   111318941.126 7      3503.687    20853801.280    86581444.403 8      2725.090    20853801.280    86581447.410 8      2725.090
R02  21436776.860   114390738.310 8      1201.560    21436776.100   114390738.305 7      1201.560    21436786.980    88970621.475 7       934.547    21436787.660    88970622.474 7       934.547
R17  21434895.380   114702444.474 7      1838.244    21434895.940   114702444.486 7      1838.244    21434909.080    89213065.634 8      1429.745    21434908.140    89213066.640 7      1429.745
R16  21445779.980   114559493.182 7      1239.067    21445780.220   114559493.191 7      1239.067    21445793.160    89101881.881 8       963.719    21445793.460    89101881.880 8       963.719
R04  22934933.100   122815544.910 7      7140.702    22934934.160   122815544.957 7      7140.702    22934962.380    95523364.640 7      5553.879    22934962.360    95523367.639 7      5553.879
R15  22753192.740   121586117.183 7     -1006.411    22753191.880   121586117.192 7     -1006.411    22753216.100    94567059.757 7      -782.764    22753216.040    94567063.760 7      -782.764
G22  24585958.460   129200082.036 7      5246.148    24585956.640   129200082.054 4      5246.148    24585965.240   100675412.282 4      4087.908
G32  24855894.540   130618605.614 6      1754.588    24855893.280   130618605.613 5      1754.588    24855906.000   101780779.638 5      1367.211    24855907.340   101780784.644 6      1367.211
G27  23950957.800   125863099.473 6       -66.670    23950956.280   125863099.462 6       -66.670    23950977.340    98075206.879 6       -51.950    23950978.060    98075208.875 7       -51.950
G17  24604583.760   129297954.089 7      5565.575    24604582.900   129297954.086 5      5565.575    24604591.860   100751663.278 5      4336.812    24604592.140   100751699.278 7      4336.812
R09  23401286.740   124961557.430 6      4528.403    23401285.740   124961557.428 7      4528.403    23401298.320    97192378.788 6      3522.091    23401299.300    97192378.785 7      3522.091
> 2025 04 04 16 38 23.0000000  0 17
G02  21941805.260   115304952.607 7      1679.278    21941803.560   115304952.612 6      1679.278    21941807.800    89848028.220 6      1308.528
G03  20235511.800   106338327.630 8      4223.514    20235510.320   106338327.635 8      4223.514    20235518.080    82861067.087 8      3291.050    20235519.420    82861072.089 8      3291.050
G14  22687986.140   119226168.552 7      4522.566    22687985.140   119226168.560 5      4522.566    22687992.860    92903537.446 5      3524.077    22687993.540    92903540.454 7      3524.077
G08  21058678.740   110664093.316 7      1277.146    21058677.480   110664093.318 7      1277.146    21058686.340    86231795.037 7       995.179    21058687.220    86231797.036 8       995.179
G01  20915657.320   109912511.595 7      2583.723    20915656.660   109912511.600 6      2583.723    20915661.060    85646133.623 6      2013.290    20915661.660    85646134.628 8      2013.290
R03  20378990.260   109090331.628 8      5123.102    20378990.320   109090331.651 7      5123.102    20379003.340    84848095.428 8      3984.635    20379003.700    84848095.430 8      3984.635
R18  20853134.380   111315437.455 7      3503.922    20853133.740   111315437.450 7      3503.922    20853144.960    86578719.324 8      2725.273    20853145.060    86578722.329 8      2725.273
R02  21436551.540   114389537.122 7      1200.994    21436550.880   114389537.115 7      1200.994    21436561.860    88969687.216 7       934.106    21436562.580    88969688.215 7       934.106
R17  21434551.780   114700606.162 7      1838.526    21434552.200   114700606.177 7      1838.526    21434565.280    89211635.836 7      1429.965    21434564.780    89211636.841 8      1429.965
R16  21445547.820   114558254.416 7      1238.629    21445548.220   114558254.420 7      1238.629    21445561.180    89100918.389 8       963.378    21445561.720    89100918.387 8       963.378
R04  22933599.320   122808404.142 7      7140.938    22933600.760   122808404.194 7      7140.938    22933629.360    95517810.741 7      5554.063    22933628.980    95517813.750 7      5554.063
R15  22753381.300   121587123.556 7     -1006.185    22753380.600   121587123.560 7     -1006.185    22753404.480    94567842.465 7      -782.589    22753404.160    94567846.468 7      -782.589
G22  24584960.060   129194835.950 7      5246.202    24584958.320   129194835.963 4      5246.202    24584966.940   100671324.427 4      4087.949
G32  24855560.460   130616851.202 6      1754.337    24855559.300   130616851.212 5      1754.337    24855572.120   101779412.572 5      1367.016    24855572.900   101779417.580 6      1367.016
G27  23950970.720   125863166.241 6       -66.672    23950969.160   125863166.243 6       -66.672    23950990.100    98075258.895 6       -51.952    23950990.600    98075260.888 7       -51.952
G17  24603524.660   129292388.403 7      5565.931    24603523.820   129292388.397 5      5565.931    24603532.800   100747326.383 5      4337.089    24603533.100   100747362.385 7      4337.089
R09  23400438.800   124957029.395 6      4527.899    23400437.160   124957029.393 7      4527.899    23400450.540    97188856.981 6      3521.699    23400451.100    97188856.986 7      3521.699
> 2025 04 04 16 38 24.0000000  0 17
G02  21941485.780   115303273.490 7      1679.165    21941483.960   115303273.494 6      1679.165    21941488.320    89846719.815 6      1308.440
G03  20234708.380   106334104.605 8      4222.758    20234706.720   106334104.610 8      4222.758    20234714.500    82857776.422 8      3290.461    20234715.880    82857781.422 8      3290.461
G14  22687125.920   119221646.366 7      4522.038    22687124.540   119221646.373 5      4522.038    22687132.400    92900013.664 5      3523.666    22687132.820    92900016.666 7      3523.666
G08  21058435.680   110662816.432 8      1276.748    21058434.500   110662816.437 8      1276.748    21058443.340    86230800.062 7       994.868    21058444.460    86230802.065 8       994.868
G01  20915165.880   109909928.170 7      2583.412    20915165.020   109909928.172 6      2583.412    20915169.540    85644120.566 6      2013.048    20915170.220    85644121.567 8      2013.048
R03  20378033.200   109085208.997 8      5122.350    20378033.480   109085209.020 7      5122.350    20378046.400    84844111.164 8      3984.050    20378046.740    84844111.164 8      3984.050
R18  20852478.060   111311933.704 7      3503.793    20852477.080   111311933.708 7      3503.793    20852488.640    86575994.193 8      2725.173    20852488.280    86575997.198 8      2725.173
R02  21436326.500   114388336.674 8      1200.181    21436326.060   114388336.669 7      1200.181    21436336.980    88968753.540 7       933.474    21436337.520    88968754.540 7       933.474
R17  21434208.380   114698767.893 7      1838.287    21434208.840   114698767.908 7      1838.287    21434221.860    89210206.073 7      1429.779    21434221.240    89210207.075 8      1429.779
R16  21445315.940   114557016.243 7      1237.888    21445316.200   114557016.247 7      1237.888    21445329.360    89099955.361 8       962.802    21445329.880    89099955.360 8       962.802
R04  22932265.420   122801263.361 7      7140.772    22932267.460   122801263.405 7      7140.772    22932295.720    95512256.831 7      5553.934    22932295.420    95512259.847 7      5553.934
R15  22753569.660   121588129.881 7     -1006.345    22753569.000   121588129.890 7     -1006.345    22753592.720    94568625.137 7      -782.713    22753592.600    94568629.140 7      -782.713
G22  24583962.000   129189590.153 6      5245.704    24583959.940   129189590.163 4      5245.704    24583968.680   100667236.793 4      4087.562
G32  24855226.560   130615097.228 6      1753.783    24855225.560   130615097.231 5      1753.783    24855238.340   101778045.836 5      1366.584    24855238.900   101778050.846 7      1366.584
G27  23950983.540   125863233.166 6       -67.060    23950981.920   125863233.166 6       -67.060    23951002.900    98075311.023 6       -52.254    23951003.300    98075313.015 7       -52.254
G17  24602465.200   129286822.569 7      5565.900    24602464.620   129286822.563 5      5565.900    24602473.760   100742989.376 5      4337.065    24602473.600   100743025.376 7      4337.065
R09  23399590.980   124952502.011 6      4527.046    23399589.860   124952502.009 7      4527.046    23399602.660    97185335.685 7      3521.036    23399603.400    97185335.679 7      3521.036
> 2025 04 04 16 38 25.0000000  0 17
G02  21941166.360   115301594.440 7      1679.167    21941164.420   115301594.442 6      1679.167    21941168.800    89845411.465 6      1308.442
G03  20233904.760   106329882.218 8      4222.139    20233903.180   106329882.223 8      4222.139    20233910.980    82854486.255 8      3289.978    20233912.360    82854491.257 8      3289.978
G14  22686265.380   119217124.794 7      4521.331    22686264.060   119217124.809 5      4521.331    22686271.880    92896490.369 5      3523.115    22686272.100    92896493.371 7      3523.115
G08  21058192.820   110661540.015 7      1276.346    21058191.700   110661540.017 7      1276.346    21058200.400    86229805.450 7       994.555    21058201.300    86229807.448 8       994.555
G01  20914674.300   109907344.958 7      2583.241    20914673.360   109907344.960 6      2583.241    20914678.000    85642107.673 6      2012.915    20914678.420    85642108.681 8      2012.915
R03  20377076.620   109080087.140 8      5121.594    20377076.700   109080087.160 7      5121.594    20377089.520    84840127.501 8      3983.462    20377089.480    84840127.499 8      3983.462
R18  20851821.700   111308430.048 8      3503.758    20851821.040   111308430.046 7      3503.758    20851832.300    86573269.125 8      2725.145    20851832.020    86573272.129 8      2725.145
R02  21436101.660   114387137.085 8      1199.322    21436101.080   114387137.072 7      1199.322    21436112.100    88967820.522 7       932.806    21436112.580    88967821.522 7       932.806
R17  21433864.980   114696929.803 7      1838.109    21433865.120   114696929.821 7      1838.109    21433878.500    89208776.448 7      1429.640    21433877.900    89208777.449 8      1429.640
R16  21445084.500   114555778.808 7      1237.199    21445084.760   114555778.809 7      1237.199    21445097.600    89098992.903 8       962.266    21445098.360    89098992.904 8       962.266
R04  22930932.300   122794122.700 7      7140.723    22930933.600   122794122.739 7      7140.723    22930961.900    95506703.017 7      5553.896    22930961.880    95506706.023 7      5553.896
R15  22753757.860   121589136.302 7     -1006.467    22753757.340   121589136.314 7     -1006.467    22753781.200    94569407.890 7      -782.808    22753781.060    94569411.887 7      -782.808
G22  24582963.600   129184344.752 6      5245.308    24582961.820   129184344.763 4      5245.308    24582970.300   100663149.470 4      4087.253
G32  24854892.640   130613343.807 6      1753.192    24854891.740   130613343.812 5      1753.192    24854904.600   101776679.533 5      1366.123    24854905.400   101776684.548 7      1366.123
G27  23950996.120   125863300.326 6       -67.075    23950994.640   125863300.320 6       -67.075    23951015.720    98075363.332 6       -52.266    23951016.020    98075365.320 7       -52.266
G17  24601405.980   129281256.706 7      5565.946    24601405.600   129281256.705 5      5565.946    24601414.560   100738652.346 5      4337.101    24601414.460   100738688.350 7      4337.101
R09  23398743.180   124947975.370 6      4526.328    23398741.940   124947975.365 7      4526.328    23398755.140    97181814.957 7      3520.478    23398755.820    97181814.960 7      3520.478
> 2025 04 04 16 38 26.0000000  0 17
G02  21940846.920   115299915.393 7      1678.996    21940844.900   115299915.395 6      1678.996    21940849.360    89844103.123 6      1308.309
G03  20233101.400   106325660.391 8      4221.454    20233099.860   106325660.398 8      4221.454    20233107.640    82851196.522 8      3289.445    20233109.080    82851201.524 8      3289.445
G14  22685404.860   119212603.737 7      4520.759    22685403.860   119212603.750 5      4520.759    22685411.660    92892967.470 5      3522.669    22685411.900    92892970.468 7      3522.669
G08  21057950.040   110660263.969 7      1275.904    21057948.840   110660263.969 7      1275.904    21057957.680    86228811.126 7       994.211    21057958.740    86228813.127 8       994.211
G01  20914182.680   109904761.905 7      2582.841    20914181.940   109904761.915 6      2582.841    20914186.580    85640094.913 6      2012.603    20914186.860    85640095.919 8      2012.603
R03  20376120.160   109074965.978 8      5120.721    20376120.060   109074966.001 7      5120.721    20376132.760    84836144.384 8      3982.783    20376133.140    84836144.382 8      3982.783
R18  20851165.360   111304926.404 7      3503.560    20851164.780   111304926.410 7      3503.560    20851176.000    86570544.073 8      2724.991    20851175.820    86570547.077 8      2724.991
R02  21435877.060   114385938.232 8      1198.389    21435876.480   114385938.230 7      1198.389    21435887.460    88966888.092 7       932.080    21435887.880    88966889.093 7       932.080
R17  21433521.300   114695091.799 7      1837.948    21433521.800   114695091.814 7      1837.948    21433535.160    89207346.881 8      1429.515    21433534.300    89207347.884 8      1429.515
R16  21444853.000   114554542.040 7      1236.378    21444853.240   114554542.047 7      1236.378    21444866.080    89098030.979 8       961.628    21444866.780    89098030.980 8       961.628
R04  22929598.820   122786982.053 7      7140.507    22929600.320   122786982.098 7      7140.507    22929628.620    95501149.224 7      5553.728    22929628.280    95501152.232 7      5553.728
R15  22753946.420   121590142.772 7     -1006.651    22753945.460   121590142.778 7     -1006.651    22753969.420    94570190.667 7      -782.951    22753969.260    94570194.670 7      -782.951
G22  24581965.700   129179099.654 7      5244.928    24581963.560   129179099.667 4      5244.928    24581972.360   100659062.382 4      4086.957
G32  24854559.200   130611590.843 6      1752.698    24854558.080   130611590.853 5      1752.698    24854570.740   101775313.595 5      1365.739    24854571.680   101775318.608 7      1365.739
G27  23951009.020   125863367.693 6       -67.470    23951007.680   125863367.692 6       -67.470    23951028.380    98075415.818 6       -52.574    23951028.400    98075417.810 7       -52.574
G17  24600346.940   129275690.756 7      5565.924    24600346.500   129275690.753 5      5565.924    24600355.380   100734315.242 5      4337.084    24600355.540   100734351.242 7      4337.084
R09  23397896.060   124943449.361 7      4525.573    23397894.520   124943449.362 7      4525.573    23397907.740    97178294.735 7      3519.890    23397908.200    97178294.742 7      3519.890
> 2025 04 04 16 38 27.0000000  0 17
G02  21940527.280   115298236.351 7      1679.325    21940525.360   115298236.354 6      1679.325    21940529.800    89842794.774 6      1308.565
G03  20232298.160   106321439.150 8      4221.244    20232296.600   106321439.157 8      4221.244    20232304.380    82847907.249 8      3289.281    20232305.860    82847912.251 8      3289.281
G14  22684544.740   119208083.216 7      4520.568    22684543.660   119208083.224 5      4520.568    22684551.480    92889444.980 5      3522.520    22684551.760    92889447.978 7      3522.520
G08  21057707.340   110658988.312 8      1275.714    21057706.180   110658988.314 8      1275.714    21057714.900    86227817.108 7       994.063    21057715.900    86227819.108 8       994.063
G01  20913691.200   109902178.977 7      2583.136    20913690.480   109902178.987 6      2583.136    20913695.020    85638082.244 6      2012.833    20913695.520    85638083.249 8      2012.833
R03  20375163.260   109069845.505 8      5120.392    20375163.460   109069845.522 7      5120.392    20375176.140    84832161.797 8      3982.527    20375176.380    84832161.793 8      3982.527
R18  20850509.080   111301422.793 7      3503.899    20850508.160   111301422.793 7      3503.899    20850519.600    86567819.042 8      2725.255    20850519.480    86567822.044 8      2725.255
R02  21435652.720   114384740.142 8      1197.975    21435652.020   114384740.138 7      1197.975    21435663.140    88965956.238 7       931.758    21435663.520    88965957.237 7       931.758
R17  21433177.960   114693253.835 7      1838.224    21433178.240   114693253.858 7      1838.224    21433191.760    89205917.356 8      1429.730    21433190.940    89205918.357 8      1429.730
R16  21444621.360   114553305.999 7      1235.994    21444621.980   114553306.003 7      1235.994    21444634.540    89097069.605 8       961.329    21444635.220    89097069.608 8       961.329
R04  22928265.740   122779841.398 7      7140.996    22928266.980   122779841.437 7      7140.996    22928295.120    95495595.411 7      5554.108    22928294.820    95495598.416 7      5554.108
R15  22754134.800   121591149.300 7     -1006.327    22754134.220   121591149.311 7     -1006.327    22754158.020    94570973.499 7      -782.699    22754157.640    94570977.502 7      -782.699
G22  24580967.540   129173854.885 6      5244.904    24580965.440   129173854.892 4      5244.904    24580974.260   100654975.549 4      4086.938
G32  24854225.280   130609838.396 6      1752.355    24854224.660   130609838.404 5      1752.355    24854237.500   101773948.053 5      1365.471    24854238.660   101773953.057 7      1365.471
G27  23951021.740   125863435.249 6       -67.172    23951020.520   125863435.243 6       -67.172    23951041.180    98075468.438 6       -52.342    23951041.340    98075470.426 7       -52.342
G17  24599287.640   129270124.712 7      5566.445    24599287.260   129270124.709 5      5566.445    24599296.260   100729978.067 5      4337.490    24599296.300   100730014.065 7      4337.490
R09  23397048.820   124938924.065 7      4525.179    23397047.020   124938924.069 7      4525.179    23397060.360    97174775.067 7      3519.584    23397060.600    97174775.057 7      3519.584
> 2025 04 04 16 38 28.0000000  0 17
G02  21940207.880   115296557.294 7      1678.796    21940205.780   115296557.296 6      1678.796    21940210.240    89841486.414 6      1308.153
G03  20231495.100   106317218.473 8      4220.162    20231493.440   106317218.476 8      4220.162    20231501.200    82844618.412 8      3288.438    20231502.700    82844623.412 8      3288.438
G14  22683684.620   119203563.163 7      4519.498    22683683.620   119203563.173 5      4519.498    22683691.460    92885922.869 5      3521.687    22683691.600    92885925.881 7      3521.687
G08  21057464.700   110657713.007 7      1274.786    21057463.600   110657713.009 7      1274.786    21057472.240    86226823.361 7       993.340    21057473.160    86226825.360 8       993.340
G01  20913199.800   109899596.192 7      2582.458    20913198.940   109899596.197 6      2582.458    20913203.500    85636069.685 6      2012.305    20913203.960    85636070.688 8      2012.305
R03  20374206.960   109064725.676 8      5119.217    20374207.000   109064725.699 7      5119.217    20374219.700    84828179.714 8      3981.613    20374219.840    84828179.715 8      3981.613
R18  20849852.380   111297919.184 7      3503.277    20849851.980   111297919.187 7      3503.277    20849863.320    86565094.017 8      2724.771    20849863.240    86565097.023 8      2724.771
R02  21435428.200   114383542.813 8      1196.607    21435427.560   114383542.806 7      1196.607    21435438.640    88965024.976 7       930.694    21435439.060    88965025.977 7       930.694
R17  21432834.500   114691415.933 7      1837.597    21432834.500   114691415.948 7      1837.597    21432848.260    89204487.874 7      1429.242    21432847.640    89204488.877 8      1429.242
R16  21444389.980   114552070.636 7      1234.731    21444390.560   114552070.640 7      1234.731    21444403.460    89096108.764 8       960.346    21444404.000    89096108.766 8       960.346
R04  22926932.320   122772700.753 7      7140.297    22926933.220   122772700.798 7      7140.297    22926961.620    95490041.618 7      5553.564    22926961.400    95490044.625 7      5553.564
R15  22754322.780   121592155.902 7     -1006.978    22754322.340   121592155.920 7     -1006.978    22754346.280    94571756.387 7      -783.205    22754346.240    94571760.386 7      -783.205
G22  24579969.760   129168610.430 6      5243.905    24579967.380   129168610.440 4      5243.905    24579976.300   100650888.963 4      4086.160
G32  24853891.980   130608086.354 6      1751.538    24853891.260   130608086.364 5      1751.538    24853904.020   101772582.831 5      1364.835    24853905.080   101772587.846 6      1364.835
G27  23951034.720   125863503.018 6       -68.231    23951033.600   125863503.020 6       -68.231    23951054.160    98075521.225 6       -53.167    23951054.560    98075523.215 7       -53.167
G17  24598228.440   129264558.562 7      5565.934    24598227.920   129264558.554 5      5565.934    24598237.120   100725640.812 5      4337.091    24598236.860   100725676.806 7      4337.091
R09  23396201.080   124934399.400 6      4523.961    23396199.900   124934399.406 7      4523.961    23396212.920    97171255.874 7      3518.636    23396212.980    97171255.871 7      3518.636
> 2025 04 04 16 38 29.0000000  0 17
G02  21939888.060   115294878.092 7      1679.256    21939886.300   115294878.092 6      1679.256    21939890.740    89840177.943 6      1308.511
G03  20230692.020   106312998.215 8      4220.098    20230690.320   106312998.217 8      4220.098    20230698.080    82841329.903 8      3288.388    20230699.360    82841334.903 8      3288.388
G14  22682824.300   119199043.512 7      4519.520    22682823.680   119199043.528 5      4519.520    22682831.460    92882401.069 5      3521.704    22682831.440    92882404.069 7      3521.704
G08  21057222.000   110656437.922 7      1274.994    21057221.020   110656437.924 7      1274.994    21057229.600    86225829.787 7       993.502    21057230.580    86225831.786 8       993.502
G01  20912708.280   109897013.395 7      2582.882    20912707.500   109897013.397 6      2582.882    20912712.000    85634057.113 6      2012.636    20912712.440    85634058.117 8      2012.636
R03  20373250.320   109059606.367 8      5119.054    20373250.920   109059606.390 7      5119.054    20373263.500    84824198.040 8      3981.486    20373263.620    84824198.038 8      3981.486
R18  20849195.800   111294415.415 7      3503.902    20849195.680   111294415.410 7      3503.902    20849206.860    86562368.863 8      2725.257    20849206.960    86562371.864 8      2725.257
R02  21435204.160   114382346.124 8      1196.430    21435203.100   114382346.111 7      1196.430    21435214.440    88964094.220 7       930.556    21435215.000    88964095.219 7       930.556
R17  21432490.880   114689577.955 7      1838.062    21432491.320   114689577.965 7      1838.062    21432504.760    89203058.334 7      1429.604    21432504.000    89203059.333 8      1429.604
R16  21444159.080   114550835.808 7      1234.584    21444159.360   114550835.812 7      1234.584    21444172.540    89095148.341 8       960.232    21444172.840    89095148.348 8       960.232
R04  22925598.880   122765559.996 7      7140.807    22925599.820   122765560.043 7      7140.807    22925628.020    95484487.731 7      5553.961    22925627.900    95484490.736 7      5553.961
R15  22754511.260   121593162.404 7     -1006.398    22754510.840   121593162.413 7     -1006.398    22754534.600    94572539.199 7      -782.754    22754534.740    94572543.198 7      -782.754
G22  24578971.800   129163366.123 7      5244.187    24578969.520   129163366.133 4      5244.187    24578978.420   100646802.492 4      4086.380
G32  24853558.400   130606334.704 6      1751.446    24853558.140   130606334.709 5      1751.446    24853570.660   101771217.911 5      1364.763    24853571.760   101771222.917 6      1364.763
G27  23951047.800   125863570.797 6       -67.807    23951046.520   125863570.797 6       -67.807    23951066.960    98075574.021 6       -52.837    23951067.160    98075576.018 7       -52.837
G17  24597169.160   129258992.166 7      5566.592    24597168.620   129258992.158 5      5566.592    24597177.640   100721303.360 5      4337.604    24597177.780   100721339.358 7      4337.604
R09  23395353.720   124929875.252 7      4523.820    23395352.600   124929875.256 7      4523.820    23395365.720    97167737.099 7      3518.526    23395366.060    97167737.102 7      3518.526
> 2025 04 04 16 38 30.0000000  0 17
G02  21939568.620   115293198.796 7      1679.125    21939566.720   115293198.798 6      1679.125    21939571.220    89838869.402 6      1308.409
G03  20229889.080   106308778.453 8      4219.354    20229887.380   106308778.460 8      4219.354    20229895.080    82838041.783 8      3287.808    20229896.260    82838046.787 8      3287.808
G14  22681964.360   119194524.284 7      4518.902    22681963.420   119194524.300 5      4518.902    22681971.280    92878879.599 5      3521.222    22681971.740    92878882.601 7      3521.222
G08  21056979.460   110655163.140 7      1274.456    21056978.400   110655163.142 8      1274.456    21056987.180    86224836.448 7       993.083    21056988.040    86224838.449 8       993.083
G01  20912216.780   109894430.676 7      2582.488    20912216.000   109894430.684 6      2582.488    20912220.420    85632044.613 6      2012.328    20912221.000    85632045.621 8      2012.328
R03  20372293.840   109054487.619 8      5118.311    20372294.880   109054487.640 7      5118.311    20372307.220    84820216.792 8      3980.908    20372307.300    84820216.792 8      3980.908
R18  20848539.420   111290911.592 7      3503.584    20848539.040   111290911.591 7      3503.584    20848550.460    86559643.676 8      2725.010    20848550.300    86559646.683 8      2725.010
R02  21434980.080   114381150.161 8      1195.434    21434979.160   114381150.145 7      1195.434    21434990.320    88963164.024 7       929.782    21434990.820    88963165.021 7       929.782
R17  21432147.480   114687739.986 7      1837.791    21432147.540   114687739.996 7      1837.791    21432161.260    89201628.796 8      1429.393    21432160.660    89201629.795 8      1429.393
R16  21443927.860   114549601.580 7      1233.692    21443928.540   114549601.584 7      1233.692    21443941.320    89094188.382 8       959.538    21443941.900    89094188.387 8       959.538
R04  22924265.540   122758419.164 7      7140.778    22924266.300   122758419.206 7      7140.778    22924294.280    95478933.786 7      5553.938    22924294.220    95478936.791 7      5553.938
R15  22754699.820   121594168.894 7     -1006.607    22754699.320   121594168.893 7     -1006.607    22754722.780    94573321.981 7      -782.916    22754723.300    94573325.982 7      -782.916
G22  24577973.820   129158122.070 6      5243.789    24577971.620   129158122.080 4      5243.789    24577980.700   100642716.221 4      4086.069
G32  24853225.440   130604583.390 6      1751.000    24853224.820   130604583.394 5      1751.000    24853237.380   101769853.255 5      1364.416    24853238.500   101769858.277 6      1364.416
G27  23951060.560   125863638.705 6       -68.155    23951059.460   125863638.702 6       -68.155    23951080.060    98075626.918 6       -53.108    23951079.880    98075628.915 7       -53.108
G17  24596109.940   129253425.588 6      5566.560    24596109.360   129253425.583 5      5566.560    24596118.500   100716965.771 5      4337.580    24596118.100   100717001.777 7      4337.580
R09  23394506.380   124925351.724 7      4523.015    23394505.420   124925351.725 7      4523.015    23394519.020    97164218.797 7      3517.900    23394518.860    97164218.798 7      3517.900
> 2025 04 04 16 38 31.0000000  0 17
G02  21939248.960   115291519.631 7      1679.263    21939247.240   115291519.635 6      1679.263    21939251.740    89837560.962 6      1308.516
G03  20229086.200   106304559.400 8      4218.845    20229084.600   106304559.403 8      4218.845    20229092.300    82834754.210 8      3287.412    20229093.460    82834759.212 8      3287.412
G14  22681104.700   119190005.718 7      4518.461    22681103.740   119190005.731 5      4518.461    22681111.220    92875358.641 5      3520.879    22681111.900    92875361.642 7      3520.879
G08  21056736.900   110653888.857 7      1274.175    21056735.900   110653888.859 7      1274.175    21056744.540    86223843.504 7       992.864    21056745.360    86223845.501 8       992.864
G01  20911725.560   109891848.221 7      2582.460    20911724.580   109891848.225 6      2582.460    20911729.080    85630032.310 6      2012.306    20911729.800    85630033.314 8      2012.306
R03  20371337.620   109049369.667 8      5117.685    20371338.560   109049369.693 7      5117.685    20371351.080    84816236.173 8      3980.421    20371351.160    84816236.173 8      3980.421
R18  20847883.220   111287407.890 7      3503.748    20847882.860   111287407.891 7      3503.748    20847893.900    86556918.581 8      2725.138    20847893.660    86556921.585 8      2725.138
R02  21434756.000   114379955.110 8      1194.740    21434755.340   114379955.100 7      1194.740    21434766.600    88962234.542 7       929.242    21434766.840    88962235.541 7       929.242
R17  21431804.420   114685902.220 7      1837.831    21431804.100   114685902.230 7      1837.831    21431817.920    89200199.414 8      1429.424    21431817.280    89200200.413 8      1429.424
R16  21443697.360   114548368.141 7      1233.153    21443697.640   114548368.147 7      1233.153    21443710.780    89093229.028 8       959.119    21443710.880    89093229.031 8       959.119
R04  22922932.280   122751278.480 7      7140.838    22922932.220   122751278.524 7      7140.838    22922960.920    95473379.976 7      5553.985    22922960.760    95473382.984 7      5553.985
R15  22754888.800   121595175.508 7     -1006.496    22754887.760   121595175.506 7     -1006.496    22754911.320    94574104.872 7      -782.830    22754911.380    94574108.870 7      -782.830
G22  24576975.820   129152878.472 6      5243.603    24576973.840   129152878.488 4      5243.603    24576982.760   100638630.305 4      4085.924
G32  24852892.080   130602832.743 6      1750.462    24852891.500   130602832.750 5      1750.462    24852904.100   101768489.114 5      1363.997    24852905.180   101768494.129 6      1363.997
G27  23951073.300   125863706.903 6       -68.212    23951072.580   125863706.900 6       -68.212    23951092.900    98075680.035 6       -53.152    23951092.800    98075682.037 7       -53.152
G17  24595050.600   129247859.069 6      5566.621    24595050.180   129247859.060 5      5566.621    24595059.220   100712628.228 5      4337.627    24595059.120   100712664.236 7      4337.627
R09  23393660.060   124920828.992 6      4522.384    23393658.660   124920828.990 7      4522.384    23393672.140    97160701.118 7      3517.410    23393671.560    97160701.115 7      3517.410
> 2025 04 04 16 38 32.0000000  0 17
G02  21938929.580   115289840.615 7      1679.001    21938927.700   115289840.620 6      1679.001    21938932.120    89836252.642 6      1308.312
G03  20228283.200   106300341.055 8      4218.046    20228281.940   106300341.059 8      4218.046    20228289.440    82831467.195 8      3286.789    20228290.980    82831472.195 8      3286.789
G14  22680245.280   119185487.822 7      4517.667    22680244.040   119185487.833 5      4517.667    22680251.380    92871838.204 5      3520.260    22680251.800    92871841.202 7      3520.260
G08  21056494.540   110652615.097 7      1273.504    21056493.540   110652615.102 7      1273.504    21056502.180    86222850.962 7       992.340    21056503.120    86222852.958 8       992.340
G01  20911233.800   109889266.049 7      2582.119    20911233.120   109889266.053 6      2582.119    20911237.620    85628020.230 6      2012.041    20911238.420    85628021.233 8      2012.041
R03  20370381.860   109044252.542 8      5116.802    20370382.580   109044252.570 7      5116.802    20370395.300    84812256.195 8      3979.735    20370395.400    84812256.195 8      3979.735
R18  20847227.060   111283904.391 7      3503.500    20847226.860   111283904.381 7      3503.500    20847237.740    86554193.624 8      2724.944    20847237.760    86554196.629 8      2724.944
R02  21434532.300   114378760.982 8      1193.775    21434531.360   114378760.967 7      1193.775    21434542.780    88961305.776 7       928.491    21434543.040    88961306.775 7       928.491
R17  21431460.720   114684064.658 7      1837.439    21431460.540   114684064.680 7      1837.439    21431474.220    89198770.211 7      1429.119    21431473.500    89198771.210 7      1429.119
R16  21443466.340   114547135.505 8      1232.371    21443467.080   114547135.519 7      1232.371    21443479.840    89092270.319 8       958.511    21443480.220    89092270.324 8       958.511
R04  22921598.500   122744137.980 7      7140.486    22921599.160   122744138.027 7      7140.486    22921627.260    95467826.292 7      5553.711    22921627.280    95467829.297 7      5553.711
R15  22755076.480   121596182.293 7     -1006.954    22755076.480   121596182.302 7     -1006.954    22755099.560    94574887.922 7      -783.186    22755099.840    94574891.929 7      -783.186
G22  24575978.280   129147635.329 6      5242.912    24575976.040   129147635.337 4      5242.912    24575985.120   100634544.741 4      4085.386
G32  24852559.240   130601082.698 6      1749.670    24852558.540   130601082.700 5      1749.670    24852571.140   101767125.443 5      1363.379    24852572.580   101767130.447 6      1363.379
G27  23951086.520   125863775.465 6       -68.642    23951085.780   125863775.462 6       -68.642    23951105.980    98075733.443 6       -53.487    23951106.260    98075735.428 7       -53.487
G17  24593991.160   129242292.565 7      5566.564    24593991.020   129242292.559 5      5566.564    24593999.820   100708290.700 5      4337.583    24593999.520   100708326.698 7      4337.583
R09  23392812.980   124916307.047 7      4521.552    23392812.080   124916307.050 7      4521.552    23392825.100    97157184.054 7      3516.763    23392825.180    97157184.053 7      3516.763
> 2025 04 04 16 38 33.0000000  0 17
G02  21938609.900   115288161.461 7      1679.285    21938608.260   115288161.463 6      1679.285    21938612.460    89834944.206 6      1308.534
G03  20227480.540   106296123.132 7      4217.812    20227479.220   106296123.137 8      4217.812    20227486.800    82828180.502 8      3286.607    20227488.240    82828185.502 8      3286.607
G14  22679385.560   119180970.292 7      4517.381    22679384.560   119180970.299 5      4517.381    22679391.660    92868318.053 5      3520.037    22679392.060    92868321.048 7      3520.037
G08  21056252.260   110651341.560 7      1273.511    21056251.280   110651341.562 7      1273.511    21056260.000    86221858.589 7       992.347    21056260.820    86221860.586 8       992.347
G01  20910742.540   109886683.879 7      2582.334    20910741.920   109886683.879 6      2582.334    20910746.380    85626008.142 6      2012.209    20910746.920    85626009.147 8      2012.209
R03  20369426.060   109039135.960 8      5116.383    20369426.840   109039135.980 7      5116.383    20369439.280    84808276.639 8      3979.409    20369439.540    84808276.637 8      3979.409
R18  20846570.600   111280400.718 7      3503.822    20846570.480   111280400.713 7      3503.822    20846581.220    86551468.554 8      2725.195    20846581.420    86551471.558 8      2725.195
R02  21434308.580   114377567.447 8      1193.381    21434307.720   114377567.437 7      1193.381    21434318.900    88960377.465 7       928.185    21434319.220    88960378.466 7       928.185
R17  21431117.020   114682226.996 7      1837.758    21431117.400   114682227.019 7      1837.758    21431130.660    89197340.915 8      1429.367    21431130.080    89197341.914 7      1429.367
R16  21443235.760   114545903.446 7      1231.900    21443236.280   114545903.455 7      1231.900    21443249.360    89091312.047 8       958.145    21443249.540    89091312.048 8       958.145
R04  22920265.360   122736997.383 7      7140.720    22920265.560   122736997.417 7      7140.720    22920294.180    95462272.513 7      5553.893    22920293.940    95462275.522 7      5553.893
R15  22755265.100   121597189.008 7     -1006.661    22755264.600   121597189.003 7     -1006.661    22755288.000    94575670.896 7      -782.958    22755288.160    94575674.903 7      -782.958
G22  24574980.640   129142392.364 6      5243.001    24574978.360   129142392.375 4      5243.001    24574987.440   100630459.318 4      4085.455
G32  24852226.480   130599332.973 6      1749.552    24852225.460   130599332.986 5      1749.552    24852238.140   101765762.029 5      1363.287    24852239.540   101765767.029 6      1363.287
G27  23951099.600   125863844.054 6       -68.590    23951098.860   125863844.045 6       -68.590    23951119.140    98075786.869 6       -53.447    23951119.300    98075788.867 7       -53.447
G17  24592932.060   129236725.853 6      5566.780    24592931.560   129236725.847 5      5566.780    24592940.460   100703953.003 5      4337.751    24592940.460   100703989.005 7      4337.751
R09  23391966.240   124911785.623 6      4521.228    23391964.720   124911785.621 7      4521.228    23391978.700    97153667.387 7      3516.510    23391978.280    97153667.396 7      3516.510
> 2025 04 04 16 38 34.0000000  0 17
G02  21938290.340   115286482.064 7      1679.507    21938288.600   115286482.064 6      1679.507    21938292.900    89833635.583 6      1308.707
G03  20226677.880   106291905.582 8      4217.363    20226676.640   106291905.587 8      4217.363    20226684.160    82824894.104 8      3286.257    20226685.440    82824899.106 8      3286.257
G14  22678525.880   119176453.055 7      4517.034    22678524.960   119176453.066 5      4517.034    22678532.100    92864798.130 5      3519.767    22678532.440    92864801.140 7      3519.767
G08  21056009.940   110650068.181 7      1273.257    21056008.980   110650068.188 7      1273.257    21056017.680    86220866.346 8       992.148    21056018.600    86220868.344 8       992.148
G01  20910251.080   109884101.636 7      2582.333    20910250.420   109884101.636 6      2582.333    20910254.920    85623996.006 6      2012.208    20910255.580    85623997.014 8      2012.208
R03  20368470.360   109034019.838 8      5115.854    20368471.140   109034019.859 7      5115.854    20368483.500    84804297.438 8      3978.997    20368484.040    84804297.436 8      3978.997
R18  20845914.100   111276896.821 7      3503.951    20845913.960   111276896.819 7      3503.951    20845924.960    86548743.306 8      2725.296    20845925.020    86548746.311 8      2725.296
R02  21434084.980   114376374.453 8      1192.725    21434084.280   114376374.449 7      1192.725    21434095.320    88959449.585 7       927.675    21434095.680    88959450.586 7       927.675
R17  21430773.440   114680389.179 7      1837.897    21430773.920   114680389.199 7      1837.897    21430787.180    89195911.499 7      1429.475    21430786.660    89195912.496 7      1429.475
R16  21443005.360   114544671.820 8      1231.356    21443005.860   114544671.826 7      1231.356    21443019.000    89090354.112 8       957.722    21443018.940    89090354.115 8       957.722
R04  22918931.640   122729856.530 7      7141.056    22918932.240   122729856.569 7      7141.056    22918960.360    95456718.549 7      5554.154    22918960.600    95456721.559 7      5554.154
R15  22755453.660   121598195.552 7     -1006.578    22755452.940   121598195.547 7     -1006.578    22755476.500    94576453.734 7      -782.894    22755476.500    94576457.735 7      -782.894
G22  24573982.820   129137149.497 6      5242.801    24573980.600   129137149.505 4      5242.801    24573989.940   100626373.967 4      4085.299
G32  24851893.320   130597583.462 6      1749.701    24851892.440   130597583.466 5      1749.701    24851905.220   101764398.771 5      1363.403    24851906.060   101764403.769 6      1363.403
G27  23951113.000   125863912.614 6       -68.584    23951112.240   125863912.605 6       -68.584    23951132.200    98075840.274 6       -53.442    23951132.620    98075842.266 7       -53.442
G17  24591872.560   129231158.795 7      5567.185    24591872.160   129231158.789 5      5567.185    24591881.080   100699615.033 5      4338.067    24591881.360   100699651.037 7      4338.067
R09  23391119.560   124907264.682 6      4520.683    23391118.400   124907264.685 7      4520.683    23391132.020    97150151.108 7      3516.087    23391131.700    97150151.108 7      3516.087
> 2025 04 04 16 38 35.0000000  0 17
G02  21937970.840   115284802.734 7      1679.321    21937969.040   115284802.736 6      1679.321    21937973.440    89832327.016 6      1308.562
G03  20225875.420   106287688.642 8      4216.584    20225874.180   106287688.647 8      4216.584    20225881.720    82821608.185 8      3285.650    20225883.020    82821613.187 8      3285.650
G14  22677666.240   119171936.397 7      4516.390    22677665.580   119171936.410 5      4516.390    22677672.680    92861278.664 5      3519.265    22677673.380    92861281.664 7      3519.265
G08  21055767.640   110648795.225 7      1272.768    21055766.740   110648795.224 7      1272.768    21055775.520    86219874.426 7       991.767    21055776.240    86219876.426 8       991.767
G01  20909759.700   109881519.593 7      2581.960    20909759.020   109881519.595 6      2581.960    20909763.460    85621984.025 6      2011.917    20909764.200    85621985.034 8      2011.917
R03  20367515.020   109028904.437 8      5114.985    20367515.520   109028904.457 7      5114.985    20367527.780    84800318.798 8      3978.321    20367528.040    84800318.794 8      3978.321
R18  20845257.760   111273392.980 7      3503.689    20845257.360   111273392.983 7      3503.689    20845268.640    86546018.105 8      2725.091    20845268.340    86546021.110 8      2725.091
R02  21433861.300   114375182.284 8      1191.746    21433860.820   114375182.271 7      1191.746    21433872.020    88958522.340 7       926.914    21433872.180    88958523.339 7       926.914
R17  21430430.140   114678551.507 7      1837.643    21430430.300   114678551.522 7      1837.643    21430443.820    89194482.192 7      1429.278    21430443.280    89194483.192 7      1429.278
R16  21442775.040   114543440.893 8      1230.616    21442775.600   114543440.905 7      1230.616    21442788.720    89089396.722 8       957.146    21442788.540    89089396.727 8       957.146
R04  22917597.660   122722715.757 7      7140.660    22917598.540   122722715.807 7      7140.660    22917627.340    95451164.663 7      5553.847    22917627.140    95451167.674 7      5553.847
R15  22755641.800   121599202.173 7     -1006.665    22755641.440   121599202.169 7     -1006.665    22755665.060    94577236.631 7      -782.961    22755664.980    94577240.632 7      -782.961
G22  24572985.160   129131907.003 7      5242.333    24572982.900   129131907.013 4      5242.333    24572992.360   100622288.912 4      4084.935
G32  24851561.080   130595834.560 6      1748.772    24851559.620   130595834.567 5      1748.772    24851572.440   101763035.995 5      1362.679    24851573.020   101763041.001 6      1362.679
G27  23951126.100   125863981.412 6       -68.907    23951125.340   125863981.409 6       -68.907    23951145.400    98075893.869 6       -53.694    23951145.640    98075895.861 7       -53.694
G17  24590813.000   129225591.710 7      5566.925    24590812.620   129225591.704 5      5566.925    24590821.880   100695277.053 5      4337.864    24590821.860   100695313.063 7      4337.864
R09  23390273.020   124902744.483 6      4519.769    23390271.900   124902744.484 7      4519.769    23390285.620    97146635.389 7      3515.376    23390285.620    97146635.396 7      3515.376
> 2025 04 04 16 38 36.0000000  0 17
G02  21937651.180   115283123.340 7      1679.433    21937649.460   115283123.345 6      1679.433    21937653.900    89831018.395 6      1308.649
G03  20225073.080   106283472.225 8      4216.098    20225071.880   106283472.230 8      4216.098    20225079.380    82818322.671 8      3285.272    20225080.800    82818327.673 8      3285.272
G14  22676807.020   119167420.201 7      4515.967    22676806.060   119167420.214 5      4515.967    22676813.400    92857759.551 5      3518.935    22676814.120    92857762.552 7      3518.935
G08  21055525.480   110647522.581 7      1272.522    21055524.620   110647522.586 7      1272.522    21055533.280    86218882.758 7       991.575    21055534.460    86218884.758 8       991.575
G01  20909268.340   109878937.634 7      2581.876    20909267.700   109878937.633 6      2581.876    20909272.200    85619972.113 6      2011.852    20909272.920    85619973.118 8      2011.852
R03  20366559.460   109023789.651 8      5114.371    20366559.900   109023789.676 7      5114.371    20366572.440    84796340.638 8      3977.844    20366572.720    84796340.636 8      3977.844
R18  20844601.200   111269889.109 7      3503.793    20844600.940   111269889.107 7      3503.793    20844612.240    86543292.872 8      2725.172    20844612.240    86543295.875 8      2725.172
R02  21433638.080   114373990.835 8      1191.116    21433637.600   114373990.825 7      1191.116    21433648.940    88957595.655 7       926.423    21433649.020    88957596.657 7       926.423
R17  21430086.820   114676713.872 7      1837.577    21430087.040   114676713.892 7      1837.577    21430100.460    89193052.919 7      1429.226    21430099.880    89193053.918 7      1429.226
R16  21442544.580   114542210.587 7      1230.011    21442545.140   114542210.604 7      1230.011    21442558.280    89088439.823 8       956.675    21442558.220    89088439.828 8       956.675
R04  22916264.180   122715574.962 7      7140.726    22916265.580   122715575.007 7      7140.726    22916293.800    95445610.745 7      5553.898    22916293.460    95445613.754 7      5553.898
R15  22755830.060   121600208.784 7     -1006.654    22755829.720   121600208.783 7     -1006.654    22755853.100    94578019.523 7      -782.953    22755853.280    94578023.526 7      -782.953
G22  24571987.400   129126664.776 6      5242.035    24571985.400   129126664.789 4      5242.035    24571995.000   100618204.060 4      4084.703
G32  24851228.360   130594086.041 6      1748.467    24851226.860   130594086.049 5      1748.467    24851239.660   101761673.511 5      1362.442    24851240.480   101761678.513 6      1362.442
G27  23951139.240   125864050.351 6       -68.959    23951138.500   125864050.345 6       -68.959    23951158.480    98075947.566 6       -53.734    23951158.980    98075949.559 7       -53.734
G17  24589753.920   129220024.462 7      5567.160    24589753.100   129220024.454 5      5567.160    24589762.460   100690938.942 5      4338.047    24589762.700   100690974.938 7      4338.047
R09  23389426.480   124898224.874 7      4519.281    23389425.800   124898224.873 7      4519.281    23389438.940    97143120.142 6      3514.997    23389438.860    97143120.153 7      3514.997
> 2025 04 04 16 38 37.0000000  0 17
G02  21937331.780   115281443.739 7      1679.999    21937329.820   115281443.741 6      1679.999    21937334.380    89829709.617 6      1309.090
G03  20224270.920   106279256.184 8      4216.029    20224269.540   106279256.189 8      4216.029    20224277.120    82815037.446 8      3285.218    20224278.480    82815042.448 8      3285.218
G14  22675947.780   119162904.339 7      4515.844    22675946.700   119162904.352 5      4515.844    22675954.180    92854240.699 5      3518.840    22675954.460    92854243.703 7      3518.840
G08  21055283.420   110646250.148 7      1272.530    21055282.480   110646250.147 7      1272.530    21055291.160    86217891.247 7       991.581    21055292.220    86217893.246 8       991.581
G01  20908777.100   109876355.614 7      2582.280    20908776.360   109876355.619 6      2582.280    20908780.820    85617960.151 6      2012.166    20908781.460    85617961.157 8      2012.166
R03  20365604.200   109018675.338 8      5114.255    20365604.680   109018675.367 7      5114.255    20365616.920    84792362.847 8      3977.754    20365617.100    84792362.848 8      3977.754
R18  20843944.880   111266385.071 7      3504.344    20843944.560   111266385.063 7      3504.344    20843955.740    86540567.505 8      2725.601    20843955.860    86540570.510 8      2725.601
R02  21433414.840   114372799.997 8      1190.765    21433414.260   114372799.987 7      1190.765    21433425.600    88956669.450 7       926.150    21433425.880    88956670.449 7       926.150
R17  21429743.240   114674876.090 7      1838.081    21429743.900   114674876.105 7      1838.081    21429756.920    89191623.529 7      1429.618    21429756.120    89191624.526 7      1429.618
R16  21442314.460   114540980.806 8      1229.725    21442314.940   114540980.818 7      1229.725    21442328.100    89087483.321 8       956.453    21442328.020    89087483.324 8       956.453
R04  22914930.700   122708433.986 7      7141.291    22914931.380   122708434.028 7      7141.291    22914960.140    95440056.687 7      5554.337    22914959.720    95440059.697 7      5554.337
R15  22756018.100   121601215.221 7     -1006.145    22756018.180   121601215.222 7     -1006.145    22756041.720    94578802.283 7      -782.558    22756041.740    94578806.288 7      -782.558
G22  24570989.880   129121422.668 6      5242.280    24570987.880   129121422.678 4      5242.280    24570997.540   100614119.301 4      4084.894
G32  24850895.720   130592337.806 6      1748.462    24850894.180   130592337.817 5      1748.462    24850906.900   101760311.256 5      1362.438    24850907.820   101760316.260 6      1362.438
G27  23951152.020   125864119.315 6       -68.855    23951151.720   125864119.307 6       -68.855    23951171.580    98076001.280 6       -53.654    23951171.880    98076003.279 7       -53.654
G17  24588694.160   129214456.920 7      5567.789    24588693.700   129214456.912 5      5567.789    24588702.980   100686600.600 5      4338.537    24588703.260   100686636.608 7      4338.537
R09  23388580.300   124893705.749 7      4519.062    23388579.580   124893705.755 7      4519.062    23388592.380    97139605.267 7      3514.826    23388592.740    97139605.280 7      3514.826
> 2025 04 04 16 38 38.0000000  0 17
G02  21937012.120   115279764.087 7      1679.857    21937010.260   115279764.092 6      1679.857    21937014.760    89828400.800 6      1308.980
G03  20223468.940   106275040.634 8      4215.506    20223467.300   106275040.633 8      4215.506    20223474.880    82811752.604 8      3284.810    20223476.400    82811757.608 8      3284.810
G14  22675088.620   119158388.905 7      4515.340    22675087.560   119158388.921 5      4515.340    22675094.920    92850722.187 5      3518.447    22675095.360    92850725.191 7      3518.447
G08  21055041.480   110644977.985 7      1272.169    21055040.480   110644977.985 7      1272.169    21055049.180    86216899.950 7       991.300    21055050.060    86216901.946 8       991.300
G01  20908285.900   109873773.663 7      2582.159    20908285.100   109873773.665 6      2582.159    20908289.500    85615948.245 6      2012.072    20908290.100    85615949.249 8      2012.072
R03  20364648.940   109013561.631 8      5113.562    20364649.480   109013561.657 7      5113.562    20364661.580    84788385.524 8      3977.215    20364661.880    84788385.520 8      3977.215
R18  20843288.700   111262880.928 7      3504.379    20843288.120   111262880.926 7      3504.379    20843299.340    86537842.071 8      2725.628    20843299.340    86537845.076 8      2725.628
R02  21433192.000   114371609.856 8      1190.037    21433191.260   114371609.843 7      1190.037    21433202.480    88955743.787 7       925.585    21433202.960    88955744.784 7       925.585
R17  21429399.840   114673038.319 7      1837.911    21429400.080   114673038.333 7      1837.911    21429413.340    89190194.149 7      1429.486    21429412.780    89190195.146 7      1429.486
R16  21442084.200   114539751.624 7      1229.048    21442084.980   114539751.630 7      1229.048    21442098.060    89086527.280 8       955.926    21442097.980    89086527.283 8       955.926
R04  22913597.280   122701292.961 7      7141.283    22913598.140   122701292.992 7      7141.283    22913626.560    95434502.586 7      5554.331    22913626.320    95434505.595 7      5554.331
R15  22756206.480   121602221.634 7     -1006.201    22756206.680   121602221.633 7     -1006.201    22756230.140    94579585.022 7      -782.601    22756229.920    94579589.029 7      -782.601
G22  24569992.220   129116180.802 6      5242.075    24569990.480   129116180.804 4      5242.075    24570000.000   100610034.730 4      4084.733
G32  24850563.620   130590589.984 6      1747.848    24850561.480   130590589.997 5      1747.848    24850574.240   101758949.325 5      1361.959    24850575.320   101758954.335 6      1361.959
G27  23951165.300   125864188.332 6       -68.845    23951164.920   125864188.326 6       -68.845    23951184.660    98076055.045 6       -53.646    23951184.700    98076057.040 7       -53.646
G17  24587634.780   129208889.189 6      5568.049    24587634.040   129208889.178 5      5568.049    24587643.500   100682262.112 5      4338.740    24587643.720   100682298.114 7      4338.740
R09  23387733.980   124889187.203 6      4518.546    23387733.520   124889187.188 7      4518.546    23387746.540    97136090.832 6      3514.425    23387747.000    97136090.839 7      3514.425
> 2025 04 04 16 38 39.0000000  0 17
G02  21936692.360   115278084.310 7      1679.716    21936690.640   115278084.317 6      1679.716    21936695.120    89827091.885 6      1308.870
G03  20222666.980   106270825.559 8      4214.759    20222665.260   106270825.562 8      4214.759    20222672.820    82808468.135 8      3284.228    20222674.140    82808473.141 8      3284.228
G14  22674229.500   119153873.900 7      4514.626    22674228.420   119153873.915 5      4514.626    22674235.660    92847204.003 5      3517.890    22674236.320    92847207.005 7      3517.890
G08  21054799.560   110643706.088 8      1271.715    21054798.400   110643706.088 7      1271.715    21054807.140    86215908.861 7       990.946    21054807.960    86215910.857 8       990.946
G01  20907794.580   109871191.764 7      2581.765    20907793.800   109871191.766 6      2581.765    20907798.060    85613936.380 6      2011.765    20907798.680    85613937.384 8      2011.765
R03  20363693.580   109008448.494 8      5112.749    20363694.300   109008448.514 7      5112.749    20363706.380    84784408.641 8      3976.582    20363706.840    84784408.639 8      3976.582
R18  20842631.800   111259376.695 7      3504.181    20842632.020   111259376.698 7      3504.181    20842643.000    86535116.560 8      2725.474    20842643.060    86535119.567 8      2725.474
R02  21432969.120   114370420.392 8      1189.038    21432968.440   114370420.387 7      1189.038    21432979.840    88954818.654 7       924.807    21432980.100    88954819.654 7       924.807
R17  21429056.600   114671200.499 7      1837.730    21429056.880   114671200.514 7      1837.730    21429070.020    89188764.729 7      1429.346    21429069.340    89188765.729 7      1429.346
R16  21441854.020   114538523.016 8      1228.250    21441854.940   114538523.017 7      1228.250    21441868.020    89085571.684 8       955.305    21441867.760    89085571.686 8       955.305
R04  22912264.200   122694151.859 7      7141.079    22912264.400   122694151.893 7      7141.079    22912293.100    95428948.427 7      5554.173    22912292.760    95428951.442 7      5554.173
R15  22756394.520   121603227.986 7     -1006.353    22756394.780   121603227.982 7     -1006.353    22756418.240    94580367.713 7      -782.719    22756418.380    94580371.718 7      -782.719
G22  24568995.040   129110939.167 6      5241.396    24568992.980   129110939.174 4      5241.396    24569002.500   100605950.341 4      4084.205
G32  24850230.740   130588842.548 6      1747.175    24850229.080   130588842.551 5      1747.175    24850241.640   101757587.682 5      1361.435    24850242.640   101757592.680 6      1361.435
G27  23951178.540   125864257.467 6       -69.295    23951178.080   125864257.462 6       -69.295    23951197.900    98076108.899 6       -53.996    23951197.760    98076110.895 7       -53.996
G17  24586575.540   129203321.269 6      5568.040    24586574.480   129203321.258 5      5568.040    24586583.860   100677923.477 5      4338.733    24586583.940   100677959.481 7      4338.733
R09  23386888.040   124884669.255 6      4517.521    23386887.380   124884669.240 7      4517.521    23386900.240    97132576.872 6      3513.628    23386901.060    97132576.867 7      3513.628
> 2025 04 04 16 38 40.0000000  0 17
G02  21936372.560   115276404.522 7      1679.792    21936370.860   115276404.527 6      1679.792    21936375.620    89825782.957 6      1308.929
G03  20221864.860   106266611.039 8      4214.316    20221863.240   106266611.047 8      4214.316    20221870.760    82805184.103 8      3283.883    20221872.260    82805189.105 8      3283.883
G14  22673370.680   119149359.396 7      4514.228    22673369.280   119149359.409 5      4514.228    22673376.720    92843686.208 5      3517.581    22673377.060    92843689.206 7      3517.581
G08  21054557.560   110642434.564 8      1271.369    21054556.420   110642434.566 7      1271.369    21054565.120    86214918.065 7       990.678    21054566.020    86214920.059 8       990.678
G01  20907303.300   109868609.981 7      2581.779    20907302.480   109868609.983 6      2581.779    20907306.780    85611924.599 6      2011.776    20907307.240    85611925.604 8      2011.776
R03  20362738.660   109003336.028 8      5112.105    20362739.040   109003336.046 7      5112.105    20362751.280    84780432.283 8      3976.081    20362751.700    84780432.281 8      3976.081
R18  20841975.740   111255872.472 7      3504.259    20841975.400   111255872.473 7      3504.259    20841986.580    86532391.056 8      2725.535    20841986.380    86532394.061 8      2725.535
R02  21432746.220   114369231.664 8      1188.394    21432745.680   114369231.663 7      1188.394    21432756.940    88953894.091 7       924.307    21432757.420    88953895.090 7       924.307
R17  21428713.020   114669362.682 7      1837.807    21428713.560   114669362.705 7      1837.807    21428726.780    89187335.321 7      1429.405    21428726.140    89187336.316 7      1429.405
R16  21441624.380   114537295.051 7      1227.605    21441624.820   114537295.055 7      1227.605    21441638.140    89084616.604 8       954.804    21441638.140    89084616.607 8       954.804
R04  22910930.620   122687010.767 7      7141.071    22910931.080   122687010.790 7      7141.071    22910959.340    95423394.276 7      5554.166    22910959.320    95423397.287 7      5554.166
R15  22756583.200   121604234.373 7     -1006.269    22756583.220   121604234.374 7     -1006.269    22756606.640    94581150.435 7      -782.654    22756606.760    94581154.440 7      -782.654
G22  24567997.520   129105697.855 6      5241.063    24567995.480   129105697.860 4      5241.063    24568005.000   100601866.202 4      4083.945
G32  24849898.060   130587095.533 6      1746.932    24849896.600   130587095.540 5      1746.932    24849909.280   101756226.378 5      1361.246    24849910.240   101756231.384 6      1361.246
G27  23951191.780   125864326.776 6       -69.357    23951191.420   125864326.770 6       -69.357    23951211.100    98076162.887 6       -54.045    23951211.000    98076164.881 7       -54.045
G17  24585515.920   129197753.246 7      5568.194    24585515.020   129197753.233 5      5568.194    24585524.240   100673584.762 5      4338.853    24585524.520   100673620.766 7      4338.853
R09  23386041.820   124880151.935 6      4516.888    23386041.180   124880151.930 6      4516.888    23386054.520    97129063.411 7      3513.135    23386054.680    97129063.404 7      3513.135
