     3.05           OBSERVATION DATA    MIXED               RINEX VERSION / TYPE
TPS2RIN 1.0.28.3459 TPS-USER            20250407 105838 UTC PGM / RUN BY / DATE
Win64 build Jun 01, 2022 (c) Topcon Positioning Systems     COMMENT
SRC: 20250404_grav_20250404_164034.tps                      COMMENT
Observer            Agency                                  OBSERVER / AGENCY
O0M3X53SBGM         TPS HIPER_SR        4.8 HSR Jul,08,2022 REC # / TYPE / VERS
FW: 4.8 HSR Jul,08,2022 p3                                  COMMENT
SN: HiPer SR 1212-12575                                     COMMENT
000                 TPSHIPER_SR     NONE                    ANT # / TYPE
        1.8000        0.0000        0.0000                  ANTENNA: DELTA H/E/N
DELTA H stands for **SLANT** height here!                   COMMENT
Oro04                                                       MARKER NAME
  5385293.6619 -1595165.8551  3013897.9828                  APPROX POSITION XYZ
  2025     4     4    14    41    0.0000000     GPS         TIME OF FIRST OBS
  2025     4     4    14    57    4.0000000     GPS         TIME OF LAST OBS
     1.000                                                  INTERVAL
   965 EPOCHS                                               COMMENT
G   12 C1C L1C D1C C1W L1W D1W C2W L2W D2W C2X L2X D2X      SYS / # / OBS TYPES
R   12 C1C L1C D1C C1P L1P D1P C2P L2P D2P C2C L2C D2C      SYS / # / OBS TYPES
    15                                                      # OF SATELLITES
   G01   965   965   965   965   965   965   965   965   965PRN / # OF OBS
         965   965   965                                    PRN / # OF OBS
   G02   965   965   965   965   965   965   965   965   965PRN / # OF OBS
           0     0     0                                    PRN / # OF OBS
   G07   308   308   308   290   290   290   290   290   290PRN / # OF OBS
         273   273   273                                    PRN / # OF OBS
   G08   965   965   965   965   965   965   965   965   965PRN / # OF OBS
         965   965   965                                    PRN / # OF OBS
   G10   965   965   965   965   965   965   965   965   965PRN / # OF OBS
         965   965   965                                    PRN / # OF OBS
   G16   965   965   965   965   965   965   965   965   965PRN / # OF OBS
           0     0     0                                    PRN / # OF OBS
   G27   965   965   965   965   965   965   965   965   965PRN / # OF OBS
         965   965   965                                    PRN / # OF OBS
   R01   703   703   703   697   697   697   697   697   697PRN / # OF OBS
         696   696   696                                    PRN / # OF OBS
   R02   269   269   269   256   256   256   256   256   256PRN / # OF OBS
         254   254   254                                    PRN / # OF OBS
   R14   965   965   965   965   965   965   965   965   965PRN / # OF OBS
         965   965   965                                    PRN / # OF OBS
   R15   965   965   965   965   965   965   965   965   965PRN / # OF OBS
         965   965   965                                    PRN / # OF OBS
   R16   965   965   965   965   965   965   965   965   965PRN / # OF OBS
         965   965   965                                    PRN / # OF OBS
   R17   965   965   965   965   965   965   965   965   965PRN / # OF OBS
         965   965   965                                    PRN / # OF OBS
   R18   965   965   965   965   965   965   965   965   965PRN / # OF OBS
         965   965   965                                    PRN / # OF OBS
   R24   965   965   965   965   965   965   965   965   965PRN / # OF OBS
         965   965   965                                    PRN / # OF OBS
G L1C                                                       SYS / PHASE SHIFT
G L1W -0.25000                                              SYS / PHASE SHIFT
G L2W  0.00000                                              SYS / PHASE SHIFT
G L2X  0.25000                                              SYS / PHASE SHIFT
R L1C                                                       SYS / PHASE SHIFT
R L1P -0.25000                                              SYS / PHASE SHIFT
R L2P -0.25000                                              SYS / PHASE SHIFT
R L2C                                                       SYS / PHASE SHIFT
  8 R01  1 R02 -4 R14 -7 R15  0 R16 -1 R17  4 R18 -3 R24  2 GLONASS SLOT / FRQ #
                                                            GLONASS COD/PHS/BIS
    18                  GPS                                 LEAP SECONDS
                                                            END OF HEADER
> 2025 04 04 14 41  0.0000000  0 12
G27  21450897.980   112725223.848 7      1544.837    21450896.540   112725223.847 7      1544.837    21450905.040    87837868.102 7      1203.769    21450905.860    87837869.104 7      1203.769
G02  21043701.020   110585395.395 7      2568.448    21043698.580   110585395.397 6      2568.448    21043702.480    86170444.874 6      2001.388
R15  19918246.280   106437067.406 8      3065.554    19918245.080   106437067.407 8      3065.554    19918255.100    82784424.685 8      2384.319    19918255.460    82784425.689 8      2384.319
G08  20851353.060   109574596.548 7      3355.390    20851351.660   109574596.553 8      3355.390    20851359.940    85382832.577 7      2614.589    20851360.780    85382836.580 8      2614.589
R17  20543885.880   109934481.011 7      2214.270    20543885.380   109934481.031 7      2214.270    20543895.860    85504644.022 8      1722.210    20543896.020    85504644.022 8      1722.210
R14  20804918.800   110901916.959 8      -775.911    20804918.940   110901916.957 7      -775.911    20804930.060    86257096.072 8      -603.486    20804931.000    86257101.067 8      -603.486
G01  21990725.940   115562045.128 7      4489.609    21990725.040   115562045.128 6      4489.609    21990732.960    90048373.140 6      3498.397    21990733.120    90048379.143 8      3498.397
G10  22861154.580   120136175.598 6       859.912    22861151.900   120136175.598 6       859.912    22861163.820    93612636.844 6       670.062    22861164.260    93612641.855 7       670.062
R24  22309518.540   119299009.335 7       374.938    22309518.340   119299009.331 7       374.938    22309532.300    92788179.454 7       291.619    22309531.920    92788179.459 7       291.619
R18  22203857.340   118525695.519 7      4114.323    22203858.880   118525695.549 6      4114.323    22203870.080    92186712.576 7      3200.029    22203870.820    92186712.583 7      3200.029
G16  22296016.520   117166355.852 7      -302.972    22296015.020   117166355.860 5      -302.972    22296024.060    91298472.680 5      -236.082
R16  23174769.680   123795464.872 6      6301.707    23174769.060   123795464.889 6      6301.707    23174785.140    96285417.828 7      4901.328    23174783.940    96285412.814 7      4901.328
> 2025 04 04 14 41  1.0000000  0 12
G27  21450603.960   112723678.536 7      1545.387    21450602.460   112723678.541 7      1545.387    21450610.980    87836663.974 7      1204.198    21450611.640    87836664.981 7      1204.198
G02  21043212.340   110582826.647 7      2568.723    21043209.880   110582826.649 6      2568.723    21043213.680    86168443.260 6      2001.603
R15  19917672.700   106434001.789 8      3065.348    19917671.420   106434001.782 7      3065.348    19917681.600    82782040.320 8      2384.159    19917681.760    82782041.324 8      2384.159
G08  20850714.700   109571240.827 7      3355.835    20850713.180   109571240.832 7      3355.835    20850721.320    85380217.740 8      2614.936    20850722.060    85380221.745 8      2614.936
R17  20543472.060   109932266.352 7      2214.766    20543471.560   109932266.359 7      2214.766    20543482.160    85502921.512 8      1722.596    20543482.340    85502921.512 8      1722.596
R14  20805064.340   110902692.698 8      -775.866    20805064.520   110902692.695 8      -775.866    20805075.660    86257699.428 8      -603.451    20805076.580    86257704.425 8      -603.451
G01  21989871.360   115557555.286 7      4489.806    21989870.580   115557555.288 6      4489.806    21989878.480    90044874.576 6      3498.551    21989879.000    90044880.585 8      3498.551
G10  22860990.880   120135315.357 6       860.179    22860988.300   120135315.364 6       860.179    22861000.040    93611966.545 6       670.269    22861000.660    93611971.557 7       670.269
R24  22309448.000   119298633.856 7       375.635    22309447.900   119298633.860 7       375.635    22309462.300    92787887.431 7       292.161    22309461.960    92787887.432 7       292.161
R18  22203086.160   118521580.778 6      4114.837    22203087.460   118521580.803 6      4114.837    22203099.420    92183512.239 7      3200.429    22203100.160    92183512.244 7      3200.429
G16  22296074.020   117166658.595 7      -302.805    22296072.560   117166658.597 5      -302.805    22296081.580    91298708.585 5      -235.952
R16  23173590.440   123789162.835 6      6302.003    23173589.080   123789162.849 6      6302.003    23173605.320    96280516.262 7      4901.558    23173604.360    96280511.250 7      4901.558
> 2025 04 04 14 41  2.0000000  0 12
G27  21450309.900   112722132.547 7      1546.434    21450308.220   112722132.552 7      1546.434    21450316.880    87835459.317 7      1205.014    21450317.640    87835460.326 7      1205.014
G02  21042723.360   110580257.310 7      2569.666    21042721.040   110580257.315 6      2569.666    21042724.860    86166441.192 6      2002.337
R15  19917098.860   106430936.107 8      3065.821    19917097.580   106430936.108 8      3065.821    19917108.060    82779655.911 8      2384.528    19917108.140    82779656.913 8      2384.528
G08  20850076.020   109567884.362 7      3357.025    20850074.420   109567884.367 7      3357.025    20850082.580    85377602.317 7      2615.863    20850083.440    85377606.322 8      2615.863
R17  20543058.140   109930050.901 8      2215.947    20543057.380   109930050.913 7      2215.947    20543068.060    85501198.395 8      1723.514    20543068.260    85501198.394 8      1723.514
R14  20805209.840   110903468.049 8      -775.137    20805209.800   110903468.052 8      -775.137    20805221.020    86258302.485 8      -602.884    20805222.020    86258307.480 8      -602.884
G01  21989016.980   115553064.877 7      4490.828    21989016.000   115553064.882 6      4490.828    21989023.960    90041375.572 6      3499.347    21989024.320    90041381.579 8      3499.347
G10  22860827.200   120134454.784 6       860.903    22860824.320   120134454.784 6       860.903    22860836.220    93611295.965 6       670.833    22860836.820    93611300.971 7       670.833
R24  22309377.480   119298257.390 7       377.025    22309377.480   119298257.402 7       377.025    22309391.880    92787594.627 7       293.242    22309391.560    92787594.625 7       293.242
R18  22202315.260   118517465.395 6      4115.768    22202315.760   118517465.422 6      4115.768    22202328.460    92180311.398 7      3201.153    22202329.020    92180311.405 7      3201.153
G16  22296131.580   117166960.722 7      -301.609    22296130.100   117166960.730 5      -301.609    22296139.100    91298944.016 5      -235.020
R16  23172410.220   123782860.315 6      6303.056    23172408.700   123782860.324 6      6303.056    23172425.300    96275614.304 7      4902.377    23172424.460    96275609.288 7      4902.377
> 2025 04 04 14 41  3.0000000  0 12
G27  21450015.180   112720585.759 7      1547.103    21450013.980   112720585.761 7      1547.103    21450022.600    87834254.031 7      1205.535    21450023.280    87834255.037 7      1205.535
G02  21042234.320   110577687.253 7      2570.406    21042231.960   110577687.256 6      2570.406    21042235.700    86164438.554 6      2002.914
R15  19916525.200   106427870.281 8      3065.879    19916523.620   106427870.272 7      3065.879    19916534.420    82777271.380 8      2384.573    19916534.520    82777272.380 8      2384.573
G08  20849437.160   109564527.059 7      3357.710    20849435.620   109564527.067 8      3357.710    20849443.780    85374986.259 8      2616.397    20849444.640    85374990.262 8      2616.397
R17  20542644.040   109927834.575 7      2216.745    20542643.220   109927834.584 7      2216.745    20542653.920    85499474.595 8      1724.135    20542654.180    85499474.595 8      1724.135
R14  20805355.020   110904242.894 8      -774.661    20805355.480   110904242.895 8      -774.661    20805366.540    86258905.140 8      -602.514    20805367.400    86258910.133 8      -602.514
G01  21988162.500   115548573.805 7      4491.435    21988161.500   115548573.807 6      4491.435    21988169.440    90037876.050 6      3499.819    21988169.680    90037882.057 8      3499.819
G10  22860663.120   120133593.665 6       861.226    22860660.440   120133593.667 6       861.226    22860672.400    93610624.973 6       671.085    22860672.980    93610629.990 7       671.085
R24  22309306.840   119297879.841 7       378.155    22309306.680   119297879.845 7       378.155    22309321.380    92787300.980 7       294.121    22309321.060    92787300.978 7       294.121
R18  22201544.020   118513349.163 6      4116.649    22201544.140   118513349.190 6      4116.649    22201557.020    92177109.902 7      3201.838    22201557.940    92177109.897 7      3201.838
G16  22296189.000   117167262.185 7      -301.147    22296187.480   117167262.193 5      -301.147    22296196.380    91299178.930 5      -234.660
R16  23171230.060   123776557.242 6      6303.229    23171229.340   123776557.264 6      6303.229    23171245.740    96270711.935 7      4902.512    23171244.700    96270706.919 7      4902.512
> 2025 04 04 14 41  4.0000000  0 12
G27  21449720.760   112719038.358 7      1547.755    21449719.160   112719038.361 7      1547.755    21449728.200    87833048.279 7      1206.043    21449728.780    87833049.287 7      1206.043
G02  21041745.120   110575116.745 7      2570.909    21041742.960   110575116.745 6      2570.909    21041746.580    86162435.569 6      2003.306
R15  19915951.460   106424804.546 8      3065.834    19915949.880   106424804.542 7      3065.834    19915960.780    82774886.930 8      2384.537    19915960.560    82774887.932 8      2384.537
G08  20848798.080   109561169.149 7      3358.358    20848796.660   109561169.157 8      3358.358    20848804.800    85372369.718 8      2616.902    20848805.580    85372373.721 8      2616.902
R17  20542229.860   109925617.644 7      2217.380    20542229.240   109925617.656 7      2217.380    20542239.620    85497750.328 8      1724.629    20542240.000    85497750.328 8      1724.629
R14  20805500.700   110905017.441 8      -774.196    20805500.900   110905017.444 7      -774.196    20805511.960    86259507.568 8      -602.153    20805512.640    86259512.563 8      -602.153
G01  21987307.540   115544082.334 7      4491.781    21987306.740   115544082.336 6      4491.781    21987314.840    90034376.217 6      3500.089    21987315.260    90034382.220 8      3500.089
G10  22860499.300   120132732.268 6       861.702    22860496.380   120132732.265 6       861.702    22860508.480    93609953.760 6       671.456    22860509.120    93609958.773 7       671.456
R24  22309236.180   119297501.448 7       379.015    22309236.340   119297501.444 7       379.015    22309250.800    92787006.672 7       294.789    22309250.280    92787006.672 7       294.789
R18  22200772.960   118509232.413 6      4117.177    22200772.740   118509232.430 6      4117.177    22200785.780    92173908.002 7      3202.248    22200786.360    92173908.007 7      3202.248
G16  22296246.260   117167563.173 7      -300.540    22296244.820   117167563.178 5      -300.540    22296253.640    91299413.464 5      -234.187
R16  23170050.580   123770253.741 6      6303.771    23170049.700   123770253.748 6      6303.771    23170065.420    96265809.204 7      4902.933    23170064.680    96265804.188 7      4902.933
> 2025 04 04 14 41  5.0000000  0 12
G27  21449426.220   112717490.448 7      1548.175    21449424.600   112717490.445 7      1548.175    21449433.760    87831842.122 7      1206.370    21449434.500    87831843.127 8      1206.370
G02  21041255.900   110572545.848 7      2571.074    21041253.700   110572545.852 6      2571.074    21041257.240    86160432.289 6      2003.435
R15  19915377.720   106421739.006 8      3065.531    19915376.320   106421739.010 7      3065.531    19915387.000    82772502.635 8      2384.302    19915386.900    82772503.636 8      2384.302
G08  20848159.140   109557810.701 7      3358.725    20848157.700   109557810.703 7      3358.725    20848165.680    85369752.750 8      2617.188    20848166.420    85369756.753 8      2617.188
R17  20541815.780   109923400.157 7      2217.883    20541814.920   109923400.169 7      2217.883    20541825.200    85496025.619 8      1725.020    20541825.220    85496025.620 8      1725.020
R14  20805646.060   110905791.737 8      -774.142    20805646.240   110905791.738 8      -774.142    20805657.240    86260109.800 8      -602.111    20805657.920    86260114.795 8      -602.111
G01  21986452.900   115539590.464 7      4492.062    21986451.920   115539590.464 6      4492.062    21986459.940    90030876.075 6      3500.308    21986460.320    90030882.082 8      3500.308
G10  22860335.560   120131870.660 6       861.640    22860332.640   120131870.662 6       861.640    22860344.540    93609282.396 6       671.408    22860345.200    93609287.411 7       671.408
R24  22309165.560   119297122.282 7       379.682    22309164.960   119297122.275 7       379.682    22309180.080    92786711.765 7       295.308    22309179.240    92786711.765 7       295.308
R18  22200001.220   118505115.156 6      4117.541    22200001.440   118505115.170 6      4117.541    22200014.900    92170705.712 7      3202.532    22200015.140    92170705.717 7      3202.532
G16  22296303.480   117167863.792 7      -300.471    22296302.120   117167863.797 5      -300.471    22296310.880    91299647.719 5      -234.133
R16  23168870.220   123763949.955 6      6303.859    23168869.860   123763949.961 6      6303.859    23168885.820    96260906.274 7      4903.002    23168884.680    96260901.262 7      4903.002
> 2025 04 04 14 41  6.0000000  0 12
G27  21449131.620   112715941.886 7      1548.966    21449129.900   112715941.889 7      1548.966    21449138.940    87830635.456 7      1206.986    21449139.700    87830636.462 7      1206.986
G02  21040766.580   110569974.367 7      2571.928    21040764.400   110569974.372 6      2571.928    21040768.000    86158428.548 6      2004.100
R15  19914804.080   106418673.480 8      3065.628    19914802.700   106418673.484 7      3065.628    19914813.420    82770118.343 8      2384.377    19914813.280    82770119.346 8      2384.377
G08  20847520.080   109554451.559 8      3359.562    20847518.440   109554451.558 8      3359.562    20847526.540    85367135.247 8      2617.841    20847527.380    85367139.251 8      2617.841
R17  20541401.160   109921181.947 7      2218.699    20541400.440   109921181.965 7      2218.699    20541410.760    85494300.362 8      1725.654    20541410.880    85494300.362 8      1725.654
R14  20805791.320   110906565.634 8      -773.592    20805791.140   110906565.626 7      -773.592    20805802.440    86260711.711 8      -601.683    20805803.220    86260716.702 8      -601.683
G01  21985598.100   115535098.102 7      4492.660    21985597.160   115535098.107 6      4492.660    21985605.060    90027375.550 6      3500.774    21985605.440    90027381.559 8      3500.774
G10  22860171.620   120131008.679 6       862.295    22860168.920   120131008.681 6       862.295    22860180.620    93608610.737 6       671.918    22860181.300    93608615.752 7       671.918
R24  22309094.360   119296742.163 7       380.589    22309093.580   119296742.162 7       380.589    22309109.260    92786416.144 7       296.014    22309108.260    92786416.141 7       296.014
R18  22199229.600   118500997.268 6      4118.417    22199229.760   118500997.280 6      4118.417    22199243.820    92167502.923 7      3203.213    22199243.980    92167502.930 7      3203.213
G16  22296360.600   117168163.850 7      -299.688    22296359.140   117168163.855 5      -299.688    22296368.060    91299881.532 5      -233.523
R16  23167690.400   123757645.693 6      6304.484    23167688.520   123757645.700 6      6304.484    23167705.240    96256002.963 7      4903.488    23167704.540    96255997.949 7      4903.488
> 2025 04 04 14 41  7.0000000  0 12
G27  21448836.840   112714392.500 7      1549.744    21448834.980   112714392.499 7      1549.744    21448844.200    87829428.152 7      1207.593    21448845.020    87829429.162 8      1207.593
G02  21040276.880   110567402.200 7      2572.539    21040275.020   110567402.205 6      2572.539    21040278.340    86156424.275 6      2004.576
R15  19914230.360   106415607.742 8      3065.844    19914228.960   106415607.746 7      3065.844    19914239.600    82767733.891 8      2384.546    19914239.620    82767734.895 8      2384.546
G08  20846880.580   109551091.544 8      3360.381    20846878.940   109551091.552 8      3360.381    20846887.100    85364517.068 8      2618.479    20846888.040    85364521.075 8      2618.479
R17  20540986.440   109918962.838 7      2219.556    20540986.100   109918962.853 7      2219.556    20540996.300    85492574.393 8      1726.321    20540996.320    85492574.393 8      1726.321
R14  20805936.200   110907338.984 8      -773.068    20805936.080   110907338.979 8      -773.068    20805947.800    86261313.210 8      -601.275    20805948.460    86261318.203 8      -601.275
G01  21984743.020   115530605.050 7      4493.399    21984742.340   115530605.054 6      4493.399    21984749.920    90023874.484 6      3501.350    21984750.320    90023880.495 8      3501.350
G10  22860007.540   120130146.191 6       862.746    22860004.700   120130146.193 6       862.746    22860016.580    93607938.677 6       672.270    22860017.240    93607943.685 7       672.270
R24  22309023.140   119296360.864 7       381.905    22309022.240   119296360.862 7       381.905    22309037.660    92786119.572 7       297.037    22309036.960    92786119.564 7       297.037
R18  22198458.120   118496878.562 6      4119.233    22198457.800   118496878.568 6      4119.233    22198471.860    92164299.504 7      3203.848    22198472.580    92164299.507 7      3203.848
G16  22296417.540   117168463.203 7      -298.987    22296416.140   117168463.210 5      -298.987    22296425.040    91300114.800 5      -232.977
R16  23166510.280   123751340.745 6      6305.439    23166509.140   123751340.741 6      6305.439    23166524.720    96251099.115 7      4904.230    23166524.180    96251094.094 7      4904.230
> 2025 04 04 14 41  8.0000000  0 12
G27  21448541.880   112712842.322 7      1550.536    21448540.060   112712842.324 7      1550.536    21448549.220    87828220.230 7      1208.210    21448549.880    87828221.237 7      1208.210
G02  21039787.440   110564829.369 7      2573.120    21039785.600   110564829.374 6      2573.120    21039788.820    86154419.479 6      2005.029
R15  19913656.460   106412541.911 8      3065.830    19913655.420   106412541.915 7      3065.830    19913665.980    82765349.364 8      2384.535    19913666.020    82765350.368 8      2384.535
G08  20846240.920   109547730.744 8      3361.090    20846239.420   109547730.751 8      3361.090    20846247.600    85361898.271 8      2619.031    20846248.480    85361902.276 8      2619.031
R17  20540571.460   109916742.919 7      2220.293    20540571.220   109916742.937 7      2220.293    20540581.380    85490847.801 8      1726.895    20540581.300    85490847.801 8      1726.895
R14  20806081.180   110908111.886 8      -772.720    20806081.460   110908111.876 8      -772.720    20806092.660    86261914.352 8      -601.005    20806093.400    86261919.345 8      -601.005
G01  21983888.000   115526111.395 7      4493.912    21983887.180   115526111.397 6      4493.912    21983894.740    90020372.947 6      3501.750    21983895.220    90020378.953 8      3501.750
G10  22859842.960   120129283.241 6       863.091    22859840.560   120129283.246 6       863.091    22859852.280    93607266.256 6       672.538    22859852.720    93607271.268 7       672.538
R24  22308951.740   119295978.484 7       382.878    22308950.780   119295978.488 7       382.878    22308966.440    92785822.181 7       297.794    22308965.360    92785822.180 7       297.794
R18  22197686.600   118492759.111 6      4119.719    22197685.780   118492759.131 6      4119.719    22197700.360    92161095.509 7      3204.226    22197700.580    92161095.516 7      3204.226
G16  22296474.500   117168761.904 7      -298.347    22296473.160   117168761.909 5      -298.347    22296481.940    91300347.552 5      -232.478
R16  23165329.500   123745035.228 6      6305.848    23165328.340   123745035.227 6      6305.848    23165344.700    96246194.842 7      4904.549    23165343.920    96246189.822 7      4904.549
> 2025 04 04 14 41  9.0000000  0 12
G27  21448246.480   112711291.537 7      1551.314    21448244.880   112711291.537 7      1551.314    21448254.140    87827011.834 7      1208.816    21448254.840    87827012.836 7      1208.816
G02  21039298.080   110562256.049 7      2573.680    21039295.920   110562256.054 6      2573.680    21039299.120    86152414.309 6      2005.465
R15  19913082.740   106409476.144 8      3065.887    19913081.520   106409476.153 7      3065.887    19913092.320    82762964.891 8      2384.579    19913092.600    82762965.893 8      2384.579
G08  20845601.260   109544369.287 7      3361.981    20845599.660   109544369.297 8      3361.981    20845607.900    85359278.966 8      2619.726    20845608.840    85359282.971 8      2619.726
R17  20540156.560   109914522.352 7      2221.000    20540156.200   109914522.370 7      2221.000    20540166.380    85489120.708 8      1727.444    20540166.060    85489120.708 8      1727.444
R14  20806226.320   110908884.469 8      -772.285    20806226.400   110908884.461 8      -772.285    20806237.660    86262515.258 8      -600.666    20806238.360    86262520.251 8      -600.666
G01  21983032.820   115521617.263 7      4494.526    21983031.840   115521617.265 6      4494.526    21983039.580    90016871.038 6      3502.228    21983039.960    90016877.045 8      3502.228
G10  22859678.480   120128419.980 6       863.439    22859676.300   120128419.980 6       863.439    22859688.100    93606593.592 6       672.810    22859688.340    93606598.610 7       672.810
R24  22308880.440   119295595.224 7       383.857    22308879.460   119295595.228 7       383.857    22308894.860    92785524.095 7       298.555    22308893.780    92785524.093 7       298.555
R18  22196914.660   118488639.030 6      4120.617    22196913.480   118488639.050 6      4120.617    22196928.160    92157891.014 7      3204.925    22196929.000    92157891.023 7      3204.925
G16  22296531.400   117169060.120 7      -297.819    22296529.980   117169060.130 5      -297.819    22296538.600    91300579.934 5      -232.066
R16  23164149.040   123738729.249 6      6306.375    23164148.220   123738729.269 6      6306.375    23164164.400    96241290.209 7      4904.958    23164163.660    96241285.190 7      4904.958
> 2025 04 04 14 41 10.0000000  0 12
G27  21447951.260   112709739.991 7      1551.933    21447949.660   112709739.993 7      1551.933    21447959.000    87825802.841 7      1209.299    21447959.900    87825803.840 8      1209.299
G02  21038808.260   110559682.065 7      2574.177    21038806.060   110559682.070 6      2574.177    21038809.380    86150408.617 6      2005.852
R15  19912509.040   106406410.289 8      3065.805    19912507.860   106406410.287 7      3065.805    19912518.500    82760580.339 8      2384.515    19912518.500    82760581.341 8      2384.515
G08  20844961.420   109541007.060 7      3362.500    20844959.960   109541007.062 8      3362.500    20844968.040    85356659.051 8      2620.130    20844968.700    85356663.056 8      2620.130
R17  20539741.140   109912300.958 7      2221.651    20539741.320   109912300.976 7      2221.651    20539751.220    85487392.968 8      1727.951    20539751.160    85487392.970 8      1727.951
R14  20806371.080   110909656.577 8      -771.958    20806371.200   110909656.569 8      -771.958    20806382.500    86263115.786 8      -600.412    20806383.300    86263120.779 8      -600.412
G01  21982177.720   115517122.526 7      4494.933    21982176.580   115517122.530 6      4494.933    21982184.400    90013368.660 6      3502.545    21982184.540    90013374.671 8      3502.545
G10  22859514.760   120127556.239 6       863.883    22859512.160   120127556.239 6       863.883    22859523.640    93605920.549 6       673.156    22859523.880    93605925.565 7       673.156
R24  22308808.380   119295210.932 7       384.625    22308807.760   119295210.941 7       384.625    22308823.120    92785225.214 7       299.153    22308821.920    92785225.212 7       299.153
R18  22196143.280   118484518.239 6      4121.129    22196142.260   118484518.251 6      4121.129    22196156.460    92154685.971 7      3205.322    22196156.700    92154685.976 7      3205.322
G16  22296588.000   117169357.702 7      -297.370    22296586.460   117169357.707 5      -297.370    22296595.020    91300811.818 5      -231.717
R16  23162968.700   123732422.728 6      6306.690    23162967.260   123732422.740 6      6306.690    23162983.680    96236385.141 7      4905.203    23162982.640    96236380.133 7      4905.203
> 2025 04 04 14 41 11.0000000  0 12
G27  21447655.960   112708187.864 7      1552.473    21447654.400   112708187.868 7      1552.473    21447663.620    87824593.406 7      1209.719    21447664.500    87824594.409 7      1209.719
G02  21038318.220   110557107.599 7      2574.787    21038316.360   110557107.604 6      2574.787    21038319.480    86148402.548 6      2006.328
R15  19911935.540   106403344.500 8      3065.793    19911934.100   106403344.499 7      3065.793    19911944.800    82758195.845 8      2384.505    19911944.860    82758196.852 8      2384.505
G08  20844321.500   109537644.197 7      3363.250    20844320.100   109537644.202 8      3363.250    20844328.120    85354038.653 8      2620.714    20844328.740    85354042.656 8      2620.714
R17  20539325.860   109910078.891 7      2222.417    20539326.320   109910078.911 7      2222.417    20539336.140    85485664.701 8      1728.547    20539336.060    85485664.706 8      1728.547
R14  20806515.840   110910428.386 8      -771.646    20806516.040   110910428.384 8      -771.646    20806527.520    86263716.085 8      -600.169    20806528.100    86263721.082 8      -600.169
G01  21981322.380   115512627.347 7      4495.450    21981321.180   115512627.352 6      4495.450    21981328.820    90009865.942 6      3502.948    21981329.120    90009871.947 8      3502.948
G10  22859350.440   120126692.227 6       864.135    22859347.760   120126692.224 6       864.135    22859359.280    93605247.299 6       673.352    22859359.660    93605252.315 7       673.352
R24  22308736.320   119294825.750 7       385.684    22308735.760   119294825.757 7       385.684    22308751.440    92784925.623 7       299.976    22308750.020    92784925.615 7       299.976
R18  22195371.140   118480396.904 6      4121.639    22195369.660   118480396.913 6      4121.639    22195384.420    92151480.511 7      3205.719    22195384.880    92151480.518 7      3205.719
G16  22296644.460   117169654.795 7      -296.793    22296642.960   117169654.800 5      -296.793    22296651.660    91301043.322 5      -231.267
R16  23161787.820   123726115.822 6      6307.175    23161787.260   123726115.818 6      6307.175    23161803.120    96231479.765 7      4905.580    23161802.200    96231474.753 7      4905.580
> 2025 04 04 14 41 12.0000000  0 12
G27  21447360.600   112706635.140 7      1552.899    21447358.800   112706635.145 7      1552.899    21447368.240    87823383.495 7      1210.051    21447368.880    87823384.496 8      1210.051
G02  21037828.080   110554532.658 7      2575.147    21037826.340   110554532.658 6      2575.147    21037829.620    86146396.107 6      2006.608
R15  19911361.580   106400278.760 8      3065.631    19911360.420   106400278.761 7      3065.631    19911371.100    82755811.391 8      2384.380    19911371.280    82755812.395 8      2384.380
G08  20843681.440   109534280.707 8      3363.712    20843680.060   109534280.714 8      3363.712    20843688.140    85351417.761 8      2621.074    20843688.900    85351421.766 8      2621.074
R17  20538910.740   109907856.194 8      2222.954    20538910.840   109907856.209 7      2222.954    20538920.720    85483935.937 8      1728.965    20538920.680    85483935.939 8      1728.965
R14  20806660.700   110911199.852 8      -771.396    20806660.500   110911199.850 8      -771.396    20806672.320    86264316.113 8      -599.975    20806672.800    86264321.107 8      -599.975
G01  21980466.820   115508131.720 7      4495.799    21980465.600   115508131.724 6      4495.799    21980473.320    90006362.868 6      3503.220    21980473.800    90006368.873 8      3503.220
G10  22859185.880   120125827.887 6       864.505    22859183.440   120125827.889 6       864.505    22859194.840    93604573.801 6       673.640    22859195.320    93604578.809 7       673.640
R24  22308664.200   119294439.653 7       386.518    22308663.300   119294439.655 7       386.518    22308679.080    92784625.328 7       300.625    22308677.900    92784625.324 7       300.625
R18  22194599.040   118476274.936 6      4122.224    22194596.740   118476274.961 6      4122.224    22194611.880    92148274.561 7      3206.174    22194612.580    92148274.566 7      3206.174
G16  22296700.740   117169951.413 7      -296.476    22296699.280   117169951.421 5      -296.476    22296708.160    91301274.455 5      -231.021
R16  23160607.720   123719808.502 6      6307.636    23160606.020   123719808.498 6      6307.636    23160622.160    96226574.085 7      4905.939    23160621.120    96226569.075 7      4905.939
> 2025 04 04 14 41 13.0000000  0 12
G27  21447064.780   112705081.770 7      1553.778    21447063.180   112705081.772 7      1553.778    21447072.780    87822173.079 7      1210.736    21447073.420    87822174.084 8      1210.736
G02  21037338.200   110551957.197 7      2575.819    21037336.320   110551957.202 6      2575.819    21037339.480    86144389.264 6      2007.132
R15  19910787.940   106397213.068 8      3065.795    19910787.020   106397213.072 7      3065.795    19910797.320    82753426.974 8      2384.507    19910797.620    82753427.978 8      2384.507
G08  20843041.060   109530916.567 8      3364.535    20843040.000   109530916.574 8      3364.535    20843048.040    85348796.360 8      2621.716    20843048.520    85348800.362 8      2621.716
R17  20538495.920   109905632.818 7      2223.855    20538495.820   109905632.833 7      2223.855    20538504.880    85482206.657 8      1729.665    20538504.920    85482206.659 8      1729.665
R14  20806805.280   110911970.982 8      -770.869    20806805.140   110911970.977 7      -770.869    20806817.100    86264915.883 8      -599.565    20806817.480    86264920.878 8      -599.565
G01  21979611.320   115503635.627 7      4496.454    21979609.860   115503635.629 6      4496.454    21979617.880    90002859.429 6      3503.730    21979618.040    90002865.426 8      3503.730
G10  22859021.760   120124963.276 6       864.815    22859019.060   120124963.281 6       864.815    22859030.400    93603900.084 6       673.882    22859030.340    93603905.091 7       673.882
R24  22308591.660   119294052.645 7       387.575    22308590.860   119294052.662 7       387.575    22308606.520    92784324.332 7       301.447    22308605.660    92784324.328 7       301.447
R18  22193826.660   118472152.389 6      4123.137    22193824.640   118472152.395 6      4123.137    22193839.800    92145068.131 7      3206.885    22193839.660    92145068.138 7      3206.885
G16  22296756.800   117170247.519 7      -295.701    22296755.760   117170247.523 5      -295.701    22296764.480    91301505.190 5      -230.416
R16  23159426.720   123713500.827 6      6308.005    23159424.960   123713500.818 6      6308.005    23159441.340    96221668.115 7      4906.226    23159441.080    96221663.103 7      4906.226
> 2025 04 04 14 41 14.0000000  0 12
G27  21446768.900   112703527.593 7      1554.341    21446767.280   112703527.593 7      1554.341    21446777.120    87820962.036 7      1211.175    21446777.760    87820963.038 8      1211.175
G02  21036847.940   110549381.010 7      2576.472    21036846.160   110549381.015 6      2576.472    21036849.200    86142381.856 6      2007.640
R15  19910214.400   106394147.218 8      3065.780    19910213.420   106394147.225 7      3065.780    19910223.560    82751042.437 8      2384.495    19910223.600    82751043.443 8      2384.495
G08  20842401.060   109527551.555 7      3365.265    20842399.560   109527551.565 8      3365.265    20842407.660    85346174.287 8      2622.285    20842408.700    85346178.290 8      2622.285
R17  20538079.700   109903408.564 7      2224.497    20538080.220   109903408.587 7      2224.497    20538089.360    85480476.696 8      1730.164    20538089.440    85480476.699 8      1730.164
R14  20806949.640   110912741.560 8      -770.358    20806949.480   110912741.558 8      -770.358    20806961.600    86265515.224 8      -599.167    20806962.120    86265520.219 8      -599.167
G01  21978755.340   115499138.835 7      4497.032    21978754.220   115499138.837 6      4497.032    21978762.140    89999355.448 6      3504.181    21978762.380    89999361.453 8      3504.181
G10  22858856.960   120124098.068 6       865.369    22858854.320   120124098.073 6       865.369    22858865.600    93603225.913 6       674.313    22858865.760    93603230.928 7       674.313
R24  22308519.020   119293664.514 7       388.583    22308518.280   119293664.523 7       388.583    22308533.820    92784022.463 7       302.231    22308533.240    92784022.455 7       302.231
R18  22193054.420   118468029.027 6      4123.695    22193052.480   118468029.028 6      4123.695    22193067.680    92141861.089 7      3207.318    22193067.680    92141861.100 7      3207.318
G16  22296813.380   117170542.920 7      -295.126    22296812.140   117170542.925 5      -295.126    22296820.820    91301735.373 5      -229.968
R16  23158245.180   123707192.442 6      6308.607    23158243.800   123707192.445 6      6308.607    23158260.420    96216761.620 7      4906.694    23158259.680    96216756.608 7      4906.694
> 2025 04 04 14 41 15.0000000  0 12
G27  21446472.980   112701972.723 7      1555.372    21446471.620   112701972.725 7      1555.372    21446481.060    87819750.463 7      1211.978    21446481.740    87819751.465 7      1211.978
G02  21036357.460   110546804.285 7      2577.243    21036355.800   110546804.290 6      2577.243    21036358.760    86140374.033 6      2008.242
R15  19909640.860   106391081.390 8      3066.094    19909639.680   106391081.388 7      3066.094    19909649.620    82748657.903 8      2384.739    19909649.980    82748658.910 8      2384.739
G08  20841760.380   109524185.860 7      3366.297    20841759.260   109524185.867 8      3366.297    20841767.060    85343551.677 8      2623.088    20841768.140    85343555.678 8      2623.088
R17  20537663.960   109901183.601 7      2225.645    20537664.620   109901183.618 7      2225.645    20537673.540    85478746.176 8      1731.057    20537673.680    85478746.178 8      1731.057
R14  20807094.360   110913511.821 8      -769.798    20807094.060   110913511.816 8      -769.798    20807106.420    86266114.316 8      -598.731    20807106.780    86266119.309 8      -598.731
G01  21977899.620   115494641.555 7      4497.768    21977898.500   115494641.557 6      4497.768    21977906.240    89995851.090 6      3504.754    21977906.560    89995857.097 8      3504.754
G10  22858692.060   120123232.548 6       866.018    22858689.420   120123232.556 6       866.018    22858700.880    93602551.484 6       674.820    22858701.060    93602556.492 7       674.820
R24  22308446.240   119293275.444 7       389.883    22308445.520   119293275.456 7       389.883    22308461.540    92783719.855 7       303.242    22308460.560    92783719.853 7       303.242
R18  22192281.540   118463905.034 6      4124.445    22192279.420   118463905.035 6      4124.445    22192294.840    92138653.557 7      3207.901    22192295.420    92138653.566 7      3207.901
G16  22296869.480   117170837.780 7      -294.393    22296868.220   117170837.787 5      -294.393    22296876.920    91301965.134 5      -229.397
R16  23157064.360   123700883.597 6      6309.395    23157062.340   123700883.617 6      6309.395    23157079.400    96211854.751 7      4907.307    23157078.660    96211849.743 7      4907.307
> 2025 04 04 14 41 16.0000000  0 12
G27  21446176.880   112700417.177 7      1555.769    21446175.500   112700417.174 7      1555.769    21446185.260    87818538.352 7      1212.287    21446186.000    87818539.355 7      1212.287
G02  21035867.100   110544226.950 7      2577.629    21035865.560   110544226.955 6      2577.629    21035868.160    86138365.728 6      2008.542
R15  19909067.180   106388015.548 8      3065.733    19909065.840   106388015.544 7      3065.733    19909075.820    82746273.370 8      2384.459    19909076.380    82746274.374 8      2384.459
G08  20841119.940   109520819.426 7      3366.736    20841118.660   109520819.431 8      3366.736    20841126.500    85340928.495 8      2623.431    20841127.220    85340932.493 8      2623.431
R17  20537248.160   109898957.889 7      2226.051    20537248.940   109898957.909 7      2226.051    20537257.560    85477015.075 8      1731.373    20537257.500    85477015.077 8      1731.373
R14  20807238.720   110914281.709 8      -769.759    20807238.540   110914281.704 7      -769.759    20807250.720    86266713.115 8      -598.702    20807251.120    86266718.110 8      -598.702
G01  21977043.500   115490143.699 7      4498.046    21977042.420   115490143.704 6      4498.046    21977050.260    89992346.284 6      3504.971    21977050.560    89992352.287 8      3504.971
G10  22858526.920   120122366.610 6       866.062    22858524.620   120122366.626 6       866.062    22858536.100    93601876.742 6       674.854    22858535.960    93601881.752 7       674.854
R24  22308373.120   119292885.398 7       390.478    22308372.580   119292885.411 7       390.478    22308388.660    92783416.490 7       303.705    22308387.480    92783416.482 7       303.705
R18  22191508.720   118459780.349 6      4124.975    22191507.140   118459780.339 6      4124.975    22191522.060    92135445.473 7      3208.314    22191522.500    92135445.480 7      3208.314
G16  22296925.740   117171132.036 7      -293.971    22296924.180   117171132.043 5      -293.971    22296932.780    91302194.430 5      -229.069
R16  23155883.040   123694574.220 6      6309.838    23155882.460   123694574.213 6      6309.838    23155898.340    96206947.448 7      4907.652    23155897.480    96206942.436 7      4907.652
> 2025 04 04 14 41 17.0000000  0 12
G27  21445881.020   112698860.880 7      1556.522    21445879.620   112698860.882 7      1556.522    21445889.120    87817325.665 7      1212.874    21445889.780    87817326.666 8      1212.874
G02  21035376.440   110541649.037 7      2578.034    21035374.980   110541649.045 6      2578.034    21035377.620    86136356.977 6      2008.858
R15  19908493.460   106384949.660 8      3065.688    19908492.180   106384949.656 7      3065.688    19908502.240    82743888.793 8      2384.424    19908502.640    82743889.800 8      2384.424
G08  20840479.300   109517452.273 7      3367.237    20840477.880   109517452.288 7      3367.237    20840485.740    85338304.751 8      2623.821    20840486.640    85338308.754 8      2623.821
R17  20536831.900   109896731.398 8      2226.663    20536832.820   109896731.426 7      2226.663    20536841.800    85475283.374 8      1731.849    20536841.720    85475283.377 8      1731.849
R14  20807382.980   110915051.186 8      -769.477    20807383.140   110915051.181 8      -769.477    20807395.420    86267311.604 8      -598.482    20807395.540    86267316.597 8      -598.482
G01  21976187.440   115485645.305 7      4498.447    21976186.420   115485645.309 6      4498.447    21976194.260    89988841.049 6      3505.283    21976194.660    89988847.057 8      3505.283
G10  22858362.120   120121500.278 6       866.302    22858359.860   120121500.291 6       866.302    22858371.240    93601201.688 6       675.040    22858370.980    93601206.702 7       675.040
R24  22308300.100   119292494.358 7       391.297    22308299.140   119292494.360 7       391.297    22308315.500    92783112.335 7       304.342    22308314.440    92783112.327 7       304.342
R18  22190736.200   118455654.994 6      4125.408    22190733.720   118455654.997 6      4125.408    22190749.180    92132236.894 7      3208.650    22190749.880    92132236.899 7      3208.650
G16  22296981.580   117171425.742 7      -293.714    22296979.900   117171425.744 5      -293.714    22296988.760    91302423.297 5      -228.868
R16  23154702.880   123688264.371 6      6309.854    23154699.680   123688264.367 6      6309.854    23154717.220    96202039.800 7      4907.664    23154716.160    96202034.788 7      4907.664
> 2025 04 04 14 41 18.0000000  0 12
G27  21445584.680   112697303.989 7      1557.350    21445583.240   112697303.991 7      1557.350    21445592.840    87816112.509 7      1213.520    21445593.460    87816113.505 8      1213.520
G02  21034885.960   110539070.604 7      2578.743    21034884.220   110539070.612 6      2578.743    21034887.020    86134347.819 6      2009.410
R15  19907919.640   106381883.819 8      3065.879    19907918.380   106381883.812 7      3065.879    19907928.560    82741504.262 8      2384.573    19907928.860    82741505.268 8      2384.573
G08  20839838.260   109514084.444 7      3368.230    20839837.120   109514084.452 8      3368.230    20839844.760    85335680.473 8      2624.594    20839845.620    85335684.476 8      2624.594
R17  20536415.480   109894504.209 7      2227.621    20536416.720   109894504.235 7      2227.621    20536425.540    85473551.127 8      1732.594    20536425.580    85473551.129 8      1732.594
R14  20807527.400   110915820.317 8      -768.890    20807527.180   110915820.318 8      -768.890    20807539.720    86267909.823 8      -598.026    20807539.940    86267914.816 8      -598.026
G01  21975331.360   115481146.414 7      4499.230    21975330.260   115481146.418 6      4499.230    21975337.940    89985335.434 6      3505.894    21975338.420    89985341.446 8      3505.894
G10  22858197.000   120120633.628 6       866.761    22858195.100   120120633.638 6       866.761    22858206.260    93600526.382 6       675.398    22858206.140    93600531.403 7       675.398
R24  22308226.800   119292102.350 7       392.534    22308226.480   119292102.351 7       392.534    22308242.520    92782807.446 7       305.304    22308241.140    92782807.441 7       305.304
R18  22189962.860   118451528.979 6      4126.493    22189960.820   118451528.975 6      4126.493    22189976.380    92129027.789 7      3209.495    22189976.800    92129027.798 7      3209.495
G16  22297037.240   117171718.900 7      -292.869    22297035.800   117171718.904 5      -292.869    22297044.460    91302651.733 5      -228.209
R16  23153522.140   123681954.012 6      6310.694    23153519.740   123681954.029 6      6310.694    23153535.900    96197131.767 7      4908.318    23153534.900    96197126.753 7      4908.318
> 2025 04 04 14 41 19.0000000  0 12
G27  21445288.160   112695746.262 7      1558.221    21445286.860   112695746.267 7      1558.221    21445296.480    87814898.705 7      1214.198    21445296.880    87814899.706 8      1214.198
G02  21034395.040   110536491.456 8      2579.498    21034393.520   110536491.464 6      2579.498    21034396.320    86132338.103 6      2009.999
R15  19907345.740   106378817.830 8      3066.098    19907344.940   106378817.831 7      3066.098    19907354.700    82739119.614 8      2384.743    19907354.920    82739120.623 8      2384.743
G08  20839197.080   109510715.756 7      3369.164    20839195.980   109510715.766 8      3369.164    20839203.800    85333055.531 8      2625.323    20839204.500    85333059.534 8      2625.323
R17  20535999.240   109892276.137 7      2228.471    20536000.580   109892276.165 7      2228.471    20536009.120    85471818.194 8      1733.256    20536009.380    85471818.195 8      1733.256
R14  20807671.520   110916588.896 8      -768.323    20807671.460   110916588.889 8      -768.323    20807683.820    86268507.599 8      -597.585    20807684.060    86268512.594 8      -597.585
G01  21974474.980   115476646.863 7      4499.942    21974474.160   115476646.868 6      4499.942    21974481.680    89981829.305 6      3506.448    21974482.080    89981835.313 8      3506.448
G10  22858032.200   120119766.442 6       867.372    22858030.140   120119766.452 6       867.372    22858041.220    93599850.663 6       675.874    22858041.260    93599855.680 7       675.874
R24  22308153.280   119291709.246 7       393.680    22308153.320   119291709.247 7       393.680    22308169.000    92782501.694 7       306.196    22308167.940    92782501.691 8       306.196
R18  22189189.320   118447402.186 6      4127.253    22189187.880   118447402.200 6      4127.253    22189203.260    92125818.085 7      3210.085    22189204.120    92125818.088 7      3210.085
G16  22297093.060   117172011.382 7      -292.166    22297091.560   117172011.384 5      -292.166    22297100.200    91302879.645 5      -227.662
R16  23152340.760   123675643.027 6      6311.545    23152337.740   123675643.042 6      6311.545    23152354.320    96192223.230 7      4908.979    23152353.700    96192218.216 7      4908.979
> 2025 04 04 14 41 20.0000000  0 12
G27  21444992.000   112694187.992 7      1558.575    21444990.340   112694187.994 7      1558.575    21444999.960    87813684.472 7      1214.474    21445000.480    87813685.471 8      1214.474
G02  21033904.220   110533911.859 7      2579.809    21033902.640   110533911.867 6      2579.809    21033905.400    86130328.040 6      2010.241
R15  19906772.200   106375751.959 8      3065.741    19906771.140   106375751.962 8      3065.741    19906781.060    82736735.063 8      2384.465    19906781.300    82736736.071 8      2384.465
G08  20838556.040   109507346.519 8      3369.437    20838554.860   109507346.526 8      3369.437    20838562.680    85330430.162 8      2625.536    20838563.160    85330434.167 8      2625.536
R17  20535582.460   109890047.469 7      2228.885    20535583.800   109890047.494 7      2228.885    20535592.780    85470084.790 8      1733.577    20535592.700    85470084.792 8      1733.577
R14  20807815.660   110917357.188 8      -768.244    20807815.500   110917357.177 8      -768.244    20807827.860    86269105.161 8      -597.523    20807828.160    86269110.158 8      -597.523
G01  21973618.660   115472146.918 7      4500.059    21973617.780   115472146.923 6      4500.059    21973625.460    89978322.869 6      3506.540    21973625.860    89978328.873 8      3506.540
G10  22857867.340   120118898.999 6       867.546    22857865.140   120118899.004 6       867.546    22857876.300    93599174.742 6       676.010    22857876.460    93599179.754 7       676.010
R24  22308079.800   119291315.283 7       394.316    22308079.640   119291315.295 7       394.316    22308095.200    92782195.296 7       306.690    22308094.000    92782195.284 8       306.690
R18  22188415.600   118443274.872 6      4127.480    22188414.700   118443274.886 6      4127.480    22188430.420    92122607.969 7      3210.262    22188431.200    92122607.972 7      3210.262
G16  22297148.600   117172303.399 7      -291.792    22297147.200   117172303.398 5      -291.792    22297155.980    91303107.189 5      -227.371
R16  23151159.200   123669331.795 6      6311.350    23151157.520   123669331.790 6      6311.350    23151172.640    96187314.487 7      4908.828    23151172.140    96187309.476 7      4908.828
> 2025 04 04 14 41 21.0000000  0 12
G27  21444695.440   112692629.028 7      1559.248    21444693.640   112692629.030 7      1559.248    21444703.280    87812469.709 7      1214.998    21444703.920    87812470.708 8      1214.998
G02  21033413.180   110531331.695 8      2580.424    21033411.820   110531331.702 6      2580.424    21033414.560    86128317.528 6      2010.720
R15  19906197.960   106372686.045 8      3065.860    19906197.660   106372686.046 8      3065.860    19906207.280    82734350.467 8      2384.558    19906207.720    82734351.478 8      2384.558
G08  20837914.760   109503976.530 7      3370.338    20837913.580   109503976.535 8      3370.338    20837921.320    85327804.207 8      2626.237    20837922.060    85327808.208 8      2626.237
R17  20535166.040   109887818.053 7      2229.662    20535167.360   109887818.084 7      2229.662    20535176.140    85468350.808 8      1734.181    20535176.140    85468350.813 8      1734.181
R14  20807959.740   110918125.079 8      -767.803    20807959.560   110918125.077 8      -767.803    20807971.940    86269702.416 8      -597.180    20807972.240    86269707.411 8      -597.180
G01  21972762.140   115467646.409 7      4500.754    21972761.320   115467646.419 6      4500.754    21972768.900    89974815.993 6      3507.081    21972769.360    89974822.004 8      3507.081
G10  22857702.380   120118031.174 6       867.912    22857700.320   120118031.182 6       867.912    22857711.100    93598498.515 6       676.295    22857711.120    93598503.527 7       676.295
R24  22308006.100   119290920.318 7       395.508    22308005.920   119290920.324 7       395.508    22308021.480    92781888.102 7       307.617    22308020.380    92781888.095 8       307.617
R18  22187642.640   118439146.899 6      4128.289    22187641.220   118439146.889 6      4128.289    22187656.860    92119397.313 7      3210.892    22187657.720    92119397.316 7      3210.892
G16  22297203.920   117172594.859 7      -291.149    22297202.700   117172594.861 5      -291.149    22297211.320    91303334.303 5      -226.869
R16  23149977.140   123663019.993 6      6311.761    23149975.140   123663020.018 6      6311.761    23149991.400    96182405.342 7      4909.148    23149990.560    96182400.326 7      4909.148
> 2025 04 04 14 41 22.0000000  0 12
G27  21444398.800   112691069.446 7      1560.010    21444396.880   112691069.448 7      1560.010    21444406.560    87811254.455 7      1215.593    21444407.100    87811255.450 8      1215.593
G02  21032922.160   110528751.018 7      2581.116    21032920.620   110528751.023 6      2581.116    21032923.360    86126306.617 6      2011.259
R15  19905624.360   106369620.157 8      3065.996    19905623.660   106369620.158 7      3065.996    19905633.520    82731965.898 8      2384.664    19905634.140    82731966.907 8      2384.664
G08  20837273.280   109500605.895 7      3371.179    20837272.300   109500605.906 8      3371.179    20837280.000    85325177.749 8      2626.892    20837280.780    85325181.750 8      2626.892
R17  20534749.040   109885587.980 7      2230.508    20534750.700   109885588.011 7      2230.508    20534759.340    85466616.311 8      1734.839    20534759.500    85466616.313 8      1734.839
R14  20808103.780   110918892.667 8      -767.315    20808103.440   110918892.662 7      -767.315    20808116.120    86270299.426 8      -596.801    20808116.440    86270304.422 8      -596.801
G01  21971905.740   115463145.463 7      4501.304    21971904.700   115463145.470 6      4501.304    21971912.480    89971308.779 6      3507.509    21971912.800    89971314.780 8      3507.509
G10  22857536.960   120117163.024 6       868.535    22857535.380   120117163.026 6       868.535    22857546.080    93597822.034 6       676.781    22857546.160    93597827.040 7       676.781
R24  22307931.980   119290524.457 7       396.515    22307931.860   119290524.466 7       396.515    22307947.200    92781580.219 7       308.401    22307946.360    92781580.209 7       308.401
R18  22186869.480   118435018.293 6      4128.934    22186867.520   118435018.291 6      4128.934    22186883.240    92116186.208 7      3211.393    22186883.920    92116186.213 7      3211.393
G16  22297259.340   117172885.833 7      -290.557    22297258.020   117172885.832 5      -290.557    22297266.880    91303561.034 5      -226.408
R16  23148795.420   123656707.799 6      6312.334    23148793.300   123656707.813 6      6312.334    23148809.400    96177495.851 7      4909.593    23148808.840    96177490.835 7      4909.593
> 2025 04 04 14 41 23.0000000  0 12
G27  21444102.060   112689509.229 7      1560.608    21444100.120   112689509.231 7      1560.608    21444109.700    87810038.707 7      1216.059    21444110.380    87810039.704 8      1216.059
G02  21032430.860   110526169.826 7      2581.441    21032429.440   110526169.831 6      2581.441    21032432.120    86124295.311 6      2011.512
R15  19905050.720   106366554.289 8      3065.902    19905050.120   106366554.287 7      3065.902    19905060.000    82729581.338 8      2384.590    19905060.120    82729582.349 8      2384.590
G08  20836631.960   109497234.625 7      3371.648    20836630.620   109497234.630 8      3371.648    20836638.400    85322550.789 8      2627.258    20836639.020    85322554.794 8      2627.258
R17  20534332.120   109883357.203 7      2231.188    20534334.100   109883357.234 7      2231.188    20534342.760    85464881.275 8      1735.368    20534342.640    85464881.273 8      1735.368
R14  20808247.660   110919659.943 8      -767.049    20808247.280   110919659.935 8      -767.049    20808260.320    86270896.192 8      -596.593    20808260.300    86270901.187 8      -596.593
G01  21971049.160   115458644.021 7      4501.680    21971047.760   115458644.025 6      4501.680    21971056.020    89967801.172 6      3507.803    21971056.480    89967807.179 8      3507.803
G10  22857371.400   120116294.569 7       868.711    22857370.240   120116294.569 6       868.711    22857380.860    93597145.318 6       676.918    22857380.800    93597150.326 7       676.918
R24  22307857.940   119290127.705 7       397.266    22307857.740   119290127.712 7       397.266    22307872.820    92781271.647 7       308.984    22307872.040    92781271.637 7       308.984
R18  22186096.460   118430889.070 6      4129.556    22186093.240   118430889.053 6      4129.556    22186109.780    92112974.593 7      3211.877    22186110.240    92112974.595 7      3211.877
G16  22297314.660   117173176.276 7      -290.104    22297313.120   117173176.276 5      -290.104    22297322.060    91303787.351 5      -226.055
R16  23147612.820   123650395.097 6      6312.915    23147611.580   123650395.112 6      6312.915    23147627.760    96172585.976 7      4910.045    23147627.000    96172580.960 7      4910.045
> 2025 04 04 14 41 24.0000000  0 12
G27  21443804.760   112687948.307 7      1561.296    21443803.220   112687948.307 7      1561.296    21443812.560    87808822.407 7      1216.594    21443813.120    87808823.402 8      1216.594
G02  21031939.480   110523588.030 8      2582.067    21031938.020   110523588.037 6      2582.067    21031940.820    86122283.532 6      2012.000
R15  19904476.700   106363488.383 8      3065.902    19904476.180   106363488.387 7      3065.902    19904486.060    82727196.757 8      2384.591    19904486.560    82727197.768 8      2384.591
G08  20835990.060   109493862.597 7      3372.462    20835989.160   109493862.602 8      3372.462    20835996.760    85319923.247 8      2627.893    20835997.200    85319927.244 8      2627.893
R17  20533915.460   109881125.664 7      2231.950    20533916.840   109881125.695 7      2231.950    20533925.700    85463145.641 8      1735.961    20533925.420    85463145.641 8      1735.961
R14  20808391.760   110920426.792 8      -766.535    20808391.280   110920426.793 8      -766.535    20808404.500    86271492.635 8      -596.194    20808404.260    86271497.628 8      -596.194
G01  21970192.240   115454142.013 7      4502.390    21970191.120   115454142.018 6      4502.390    21970199.160    89964293.124 6      3508.356    21970199.700    89964299.132 8      3508.356
G10  22857206.240   120115425.683 7       869.167    22857205.140   120115425.683 6       869.167    22857215.440    93596468.272 6       677.273    22857215.480    93596473.295 7       677.273
R24  22307783.580   119289729.957 7       398.413    22307783.180   119289729.955 7       398.413    22307798.360    92780962.281 7       309.877    22307798.180    92780962.275 7       309.877
R18  22185322.500   118426759.133 6      4130.380    22185319.620   118426759.112 6      4130.380    22185335.800    92109762.431 7      3212.518    22185336.680    92109762.430 7      3212.518
G16  22297370.020   117173466.125 7      -289.517    22297368.260   117173466.135 5      -289.517    22297377.220    91304013.218 5      -225.598
R16  23146431.360   123644081.859 6      6313.726    23146429.260   123644081.876 6      6313.726    23146445.980    96167675.688 7      4910.676    23146445.200    96167670.676 7      4910.676
> 2025 04 04 14 41 25.0000000  0 12
G27  21443507.500   112686386.600 7      1562.118    21443506.100   112686386.600 7      1562.118    21443515.380    87807605.498 7      1217.235    21443515.780    87807606.495 7      1217.235
G02  21031448.180   110521005.566 7      2582.841    21031446.560   110521005.571 6      2582.841    21031449.260    86120271.225 6      2012.603
R15  19903903.040   106360422.410 8      3066.029    19903902.540   106360422.411 7      3066.029    19903912.280    82724812.120 8      2384.689    19903912.860    82724813.130 8      2384.689
G08  20835348.500   109490489.763 7      3373.271    20835347.380   109490489.771 8      3373.271    20835354.920    85317295.077 8      2628.523    20835355.260    85317299.078 8      2628.523
R17  20533498.240   109878893.287 7      2232.804    20533499.660   109878893.315 7      2232.804    20533508.280    85461409.356 8      1736.626    20533508.440    85461409.359 8      1736.626
R14  20808535.460   110921193.127 8      -766.043    20808534.920   110921193.122 8      -766.043    20808547.840    86272088.669 8      -595.811    20808547.980    86272093.664 8      -595.811
G01  21969335.560   115449639.389 7      4502.991    21969334.260   115449639.393 6      4502.991    21969342.220    89960784.602 5      3508.824    21969342.900    89960790.605 8      3508.824
G10  22857040.780   120114556.311 7       869.629    22857040.100   120114556.319 6       869.629    22857049.960    93595790.856 6       677.633    22857049.860    93595795.870 7       677.633
R24  22307709.040   119289331.171 7       399.334    22307708.240   119289331.177 7       399.334    22307724.080    92780652.118 7       310.593    22307723.200    92780652.112 7       310.593
R18  22184548.060   118422628.501 6      4130.988    22184546.480   118422628.481 6      4130.988    22184562.080    92106549.726 7      3212.991    22184562.900    92106549.725 7      3212.991
G16  22297425.060   117173755.326 7      -288.819    22297423.480   117173755.328 5      -288.819    22297432.120    91304238.567 5      -225.054
R16  23145249.020   123637768.120 6      6314.121    23145247.840   123637768.127 6      6314.121    23145264.160    96162765.015 7      4910.983    23145263.360    96162759.997 7      4910.983
> 2025 04 04 14 41 26.0000000  0 12
G27  21443210.440   112684824.325 7      1562.700    21443208.800   112684824.328 7      1562.700    21443218.020    87806388.149 7      1217.689    21443218.680    87806389.149 8      1217.689
G02  21030956.520   110518422.661 7      2583.159    21030955.060   110518422.666 6      2583.159    21030957.920    86118258.586 6      2012.851
R15  19903329.420   106357356.558 8      3065.914    19903328.900   106357356.561 8      3065.914    19903338.420    82722427.576 8      2384.600    19903338.880    82722428.589 8      2384.600
G08  20834706.340   109487116.332 8      3373.936    20834705.460   109487116.343 8      3373.936    20834712.960    85314666.440 8      2629.041    20834713.480    85314670.447 8      2629.041
R17  20533081.120   109876660.321 8      2233.380    20533082.240   109876660.352 7      2233.380    20533091.060    85459672.618 8      1737.074    20533091.000    85459672.622 8      1737.074
R14  20808678.820   110921959.134 8      -765.810    20808678.820   110921959.135 8      -765.810    20808691.600    86272684.459 8      -595.630    20808691.780    86272689.456 8      -595.630
G01  21968478.740   115445136.354 7      4503.345    21968477.520   115445136.361 6      4503.345    21968485.220    89957275.760 5      3509.100    21968486.000    89957281.766 8      3509.100
G10  22856875.520   120113686.682 7       869.918    22856874.940   120113686.689 6       869.918    22856884.480    93595113.232 6       677.858    22856884.520    93595118.251 7       677.858
R24  22307634.160   119288931.468 7       400.316    22307633.280   119288931.469 7       400.316    22307649.660    92780341.238 7       311.357    22307648.480    92780341.232 7       311.357
R18  22183774.300   118418497.266 6      4131.691    22183772.280   118418497.251 6      4131.691    22183788.460    92103336.566 7      3213.538    22183788.860    92103336.565 7      3213.538
G16  22297479.900   117174044.098 7      -288.519    22297478.560   117174044.100 5      -288.519    22297487.040    91304463.588 5      -224.820
R16  23144066.660   123631453.992 6      6314.289    23144065.760   123631454.012 6      6314.289    23144081.760    96157854.047 7      4911.113    23144081.520    96157849.035 7      4911.113
> 2025 04 04 14 41 27.0000000  0 12
G27  21442912.940   112683261.480 7      1563.140    21442911.440   112683261.483 7      1563.140    21442920.700    87805170.354 7      1218.031    21442921.460    87805171.352 7      1218.031
G02  21030464.840   110515839.256 7      2583.691    21030463.520   110515839.264 6      2583.691    21030466.320    86116245.554 6      2013.266
R15  19902756.020   106354290.769 8      3065.772    19902755.280   106354290.770 8      3065.772    19902764.680    82720043.080 8      2384.490    19902765.120    82720044.089 8      2384.490
G08  20834064.480   109483742.308 8      3374.402    20834063.480   109483742.316 8      3374.402    20834070.920    85312037.336 8      2629.404    20834071.380    85312041.337 8      2629.404
R17  20532663.720   109874426.729 8      2234.014    20532664.640   109874426.758 7      2234.014    20532673.660    85457935.388 8      1737.566    20532673.860    85457935.388 8      1737.566
R14  20808822.660   110922724.822 8      -765.514    20808822.300   110922724.820 8      -765.514    20808835.400    86273279.991 8      -595.400    20808835.760    86273284.988 8      -595.400
G01  21967621.960   115440632.881 7      4503.731    21967620.500   115440632.888 6      4503.731    21967628.200    89953766.572 5      3509.401    21967628.800    89953772.578 8      3509.401
G10  22856710.120   120112816.784 7       870.146    22856709.660   120112816.792 7       870.146    22856719.060    93594435.392 6       678.036    22856718.760    93594440.407 7       678.036
R24  22307559.240   119288530.888 7       401.074    22307558.600   119288530.886 7       401.074    22307574.640    92780029.682 7       311.946    22307573.640    92780029.670 7       311.946
R18  22183000.440   118414365.500 6      4132.093    22182998.280   118414365.498 6      4132.093    22183014.580    92100122.989 7      3213.850    22183014.920    92100122.992 7      3213.850
G16  22297534.780   117174332.373 7      -288.059    22297533.260   117174332.373 5      -288.059    22297542.000    91304688.218 5      -224.462
R16  23142885.100   123625139.480 6      6314.864    23142882.940   123625139.473 6      6314.864    23142899.680    96152942.745 7      4911.561    23142899.420    96152937.729 7      4911.561
> 2025 04 04 14 41 28.0000000  0 12
G27  21442615.340   112681697.939 7      1563.957    21442613.880   112681697.941 7      1563.957    21442623.220    87803952.015 7      1218.668    21442623.740    87803953.016 8      1218.668
G02  21029973.020   110513255.290 8      2584.397    21029971.920   110513255.295 6      2584.397    21029974.560    86114232.077 6      2013.816
R15  19902181.700   106351224.933 7      3065.910    19902181.680   106351224.934 7      3065.910    19902191.040    82717658.549 8      2384.597    19902191.480    82717659.560 8      2384.597
G08  20833422.220   109480367.561 7      3375.177    20833421.320   109480367.569 8      3375.177    20833428.720    85309407.669 8      2630.008    20833429.340    85309411.670 8      2630.008
R17  20532245.800   109872192.370 7      2234.829    20532247.360   109872192.403 7      2234.829    20532255.960    85456197.563 8      1738.200    20532256.180    85456197.566 8      1738.200
R14  20808966.240   110923490.144 8      -765.096    20808965.880   110923490.144 8      -765.096    20808979.180    86273875.244 8      -595.075    20808979.200    86273880.237 8      -595.075
G01  21966764.580   115436128.876 7      4504.338    21966763.480   115436128.884 6      4504.338    21966771.240    89950256.971 5      3509.874    21966772.100    89950262.980 8      3509.874
G10  22856544.360   120111946.487 7       870.570    22856544.080   120111946.500 6       870.570    22856553.420    93593757.257 6       678.366    22856553.400    93593762.274 7       678.366
R24  22307484.180   119288129.334 7       402.136    22307483.100   119288129.344 7       402.136    22307499.560    92779717.377 7       312.772    22307498.540    92779717.369 7       312.772
R18  22182226.340   118410233.078 6      4132.750    22182224.220   118410233.076 6      4132.750    22182240.040    92096908.899 7      3214.361    22182240.660    92096908.902 7      3214.361
G16  22297589.500   117174620.089 7      -287.356    22297587.900   117174620.089 5      -287.356    22297596.700    91304912.415 5      -223.914
R16  23141703.640   123618824.492 6      6315.424    23141700.960   123618824.485 6      6315.424    23141717.500    96148031.086 7      4911.997    23141717.360    96148026.074 7      4911.997
> 2025 04 04 14 41 29.0000000  0 12
G27  21442317.880   112680133.746 7      1564.414    21442316.100   112680133.749 7      1564.414    21442325.520    87802733.179 7      1219.024    21442325.960    87802734.177 7      1219.024
G02  21029481.360   110510670.800 8      2584.580    21029480.120   110510670.808 6      2584.580    21029482.760    86112218.202 6      2013.958
R15  19901608.260   106348159.126 8      3065.634    19901608.160   106348159.124 8      3065.634    19901617.360    82715274.039 8      2384.382    19901617.800    82715275.049 8      2384.382
G08  20832779.920   109476992.133 8      3375.629    20832779.000   109476992.141 8      3375.629    20832786.340    85306777.478 8      2630.360    20832787.140    85306781.481 8      2630.360
R17  20531828.340   109869957.261 8      2235.337    20531829.660   109869957.295 7      2235.337    20531838.380    85454459.156 8      1738.595    20531838.640    85454459.158 8      1738.595
R14  20809109.620   110924255.154 8      -765.014    20809109.280   110924255.149 8      -765.014    20809122.800    86274470.252 8      -595.011    20809122.800    86274475.245 8      -595.011
G01  21965907.420   115431624.360 7      4504.675    21965906.220   115431624.365 6      4504.675    21965914.100    89946746.970 5      3510.136    21965914.960    89946752.984 8      3510.136
G10  22856378.360   120111075.867 7       870.610    22856378.480   120111075.872 6       870.610    22856387.860    93593078.856 6       678.397    22856387.660    93593083.872 7       678.397
R24  22307408.880   119287726.891 7       402.825    22307407.920   119287726.903 7       402.825    22307424.300    92779404.371 7       313.308    22307423.200    92779404.361 7       313.308
R18  22181452.240   118406100.012 6      4133.256    22181450.540   118406099.997 6      4133.256    22181465.520    92093694.301 7      3214.755    22181466.500    92093694.304 7      3214.755
G16  22297644.320   117174907.279 7      -287.054    22297642.660   117174907.279 5      -287.054    22297651.440    91305136.201 5      -223.678
R16  23140520.560   123612509.002 6      6315.817    23140518.960   123612508.995 6      6315.817    23140535.100    96143119.052 7      4912.302    23140535.020    96143114.036 7      4912.302
> 2025 04 04 14 41 30.0000000  0 12
G27  21442019.680   112678569.002 7      1564.979    21442018.500   112678568.999 7      1564.979    21442027.660    87801513.898 7      1219.464    21442028.400    87801514.895 7      1219.464
G02  21028989.600   110508085.838 8      2585.152    21028988.300   110508085.848 6      2585.152    21028990.980    86110203.960 6      2014.404
R15  19901034.560   106345093.433 8      3065.578    19901034.440   106345093.434 7      3065.578    19901043.560    82712889.620 8      2384.338    19901044.160    82712890.630 8      2384.338
G08  20832137.620   109473616.112 8      3376.249    20832136.760   109473616.122 8      3376.249    20832143.800    85304146.818 8      2630.843    20832144.580    85304150.821 8      2630.843
R17  20531410.680   109867721.556 7      2235.945    20531412.020   109867721.586 7      2235.945    20531420.760    85452720.284 8      1739.068    20531420.820    85452720.286 8      1739.068
R14  20809253.160   110925019.933 8      -764.729    20809252.680   110925019.931 8      -764.729    20809266.480    86275065.078 8      -594.789    20809266.440    86275070.075 8      -594.789
G01  21965050.180   115427119.467 7      4504.974    21965048.700   115427119.475 6      4504.974    21965056.620    89943236.677 5      3510.370    21965057.620    89943242.693 8      3510.370
G10  22856212.720   120110204.955 7       871.025    22856212.820   120110204.957 7       871.025    22856221.980    93592400.234 6       678.721    22856221.800    93592405.256 7       678.721
R24  22307333.220   119287323.605 7       403.687    22307333.000   119287323.614 7       403.687    22307348.540    92779090.709 7       313.979    22307347.780    92779090.701 7       313.979
R18  22180677.600   118401966.412 6      4133.668    22180675.660   118401966.400 6      4133.668    22180691.580    92090479.298 7      3215.075    22180691.860    92090479.296 7      3215.075
G16  22297698.940   117175194.034 7      -286.667    22297697.300   117175194.036 5      -286.667    22297705.960    91305359.648 5      -223.377
R16  23139338.880   123606193.175 6      6316.053    23139337.340   123606193.184 6      6316.053    23139352.340    96138206.762 7      4912.486    23139352.560    96138201.747 7      4912.486
> 2025 04 04 14 41 31.0000000  0 12
G27  21441721.820   112677003.453 7      1565.762    21441720.440   112677003.455 7      1565.762    21441729.900    87800294.000 7      1220.074    21441730.660    87800295.001 7      1220.074
G02  21028497.720   110505500.211 8      2585.854    21028496.400   110505500.218 6      2585.854    21028498.700    86108189.193 6      2014.951
R15  19900461.080   106342027.624 8      3065.751    19900460.780   106342027.633 7      3065.751    19900469.680    82710505.114 8      2384.473    19900470.140    82710506.126 8      2384.473
G08  20831495.220   109470239.261 8      3377.162    20831494.160   109470239.271 8      3377.162    20831501.340    85301515.518 8      2631.555    20831502.160    85301519.518 8      2631.555
R17  20530992.680   109865485.031 7      2236.788    20530993.800   109865485.052 7      2236.788    20531002.920    85450980.767 8      1739.724    20531002.720    85450980.770 8      1739.724
R14  20809396.900   110925784.221 8      -764.153    20809396.160   110925784.216 8      -764.153    20809409.980    86275659.522 8      -594.341    20809409.780    86275664.517 8      -594.341
G01  21964193.040   115422613.897 7      4505.789    21964191.540   115422613.902 6      4505.789    21964199.340    89939725.857 5      3511.005    21964200.220    89939731.863 8      3511.005
G10  22856046.900   120109333.563 7       871.545    22856046.900   120109333.565 7       871.545    22856056.240    93591721.235 6       679.126    22856055.860    93591726.253 7       679.126
R24  22307257.760   119286919.180 7       404.907    22307257.220   119286919.192 7       404.907    22307273.420    92778776.164 7       314.927    22307272.280    92778776.157 7       314.927
R18  22179903.180   118397831.982 6      4134.828    22179901.120   118397831.962 6      4134.828    22179917.360    92087263.632 7      3215.977    22179917.480    92087263.633 7      3215.977
G16  22297752.980   117175480.089 7      -285.870    22297751.840   117175480.091 5      -285.870    22297760.540    91305582.557 5      -222.756
R16  23138155.640   123599876.731 6      6316.638    23138153.640   123599876.767 6      6316.638    23138170.080    96133294.011 7      4912.940    23138170.100    96133288.999 7      4912.940
> 2025 04 04 14 41 32.0000000  0 12
G27  21441423.780   112675437.361 7      1566.177    21441422.380   112675437.360 7      1566.177    21441431.840    87799073.672 7      1220.398    21441432.440    87799074.672 7      1220.398
G02  21028005.400   110502914.131 8      2586.142    21028004.140   110502914.139 6      2586.142    21028006.760    86106174.075 6      2015.176
R15  19899887.480   106338961.969 8      3065.395    19899887.340   106338961.975 7      3065.395    19899896.220    82708120.724 8      2384.196    19899896.500    82708121.732 8      2384.196
G08  20830852.440   109466861.852 7      3377.528    20830851.560   109466861.857 8      3377.528    20830858.580    85298883.775 8      2631.840    20830859.520    85298887.774 8      2631.840
R17  20530574.440   109863247.932 8      2237.257    20530575.580   109863247.955 7      2237.257    20530584.800    85449240.812 8      1740.088    20530584.620    85449240.812 8      1740.088
R14  20809539.960   110926548.213 8      -763.999    20809539.440   110926548.211 7      -763.999    20809553.400    86276253.744 8      -594.221    20809553.360    86276258.742 8      -594.221
G01  21963335.580   115418107.925 7      4506.099    21963334.120   115418107.933 5      4506.099    21963341.860    89936214.725 5      3511.246    21963342.780    89936220.738 8      3511.246
G10  22855880.960   120108461.907 7       871.731    22855881.100   120108461.912 6       871.731    22855890.300    93591042.035 6       679.271    22855890.180    93591047.056 7       679.271
R24  22307182.260   119286513.934 7       405.562    22307181.600   119286513.941 7       405.562    22307197.740    92778460.971 7       315.437    22307196.360    92778460.959 7       315.437
R18  22179128.580   118393697.094 6      4134.854    22179126.000   118393697.071 6      4134.854    22179141.940    92084047.632 7      3215.998    22179143.000    92084047.631 7      3215.998
G16  22297807.400   117175765.713 7      -285.464    22297806.180   117175765.718 5      -285.464    22297814.840    91305805.123 5      -222.440
R16  23136973.120   123593559.964 6      6316.660    23136971.420   123593560.000 6      6316.660    23136987.720    96128380.973 7      4912.958    23136987.600    96128375.963 7      4912.958
> 2025 04 04 14 41 33.0000000  0 12
G27  21441125.660   112673870.569 7      1567.087    21441124.280   112673870.566 7      1567.087    21441133.680    87797852.802 7      1221.107    21441134.420    87797853.799 7      1221.107
G02  21027513.300   110500327.477 7      2586.904    21027511.840   110500327.484 6      2586.904    21027514.600    86104158.510 6      2015.769
R15  19899313.560   106335896.274 8      3065.697    19899313.640   106335896.275 7      3065.697    19899322.480    82705736.298 8      2384.431    19899322.860    82705737.307 8      2384.431
G08  20830209.440   109463483.715 7      3378.390    20830208.580   109463483.723 8      3378.390    20830215.740    85296251.471 8      2632.512    20830216.400    85296255.474 8      2632.512
R17  20530156.440   109861010.097 7      2238.150    20530157.440   109861010.125 7      2238.150    20530166.440    85447500.292 8      1740.783    20530166.580    85447500.294 8      1740.783
R14  20809683.280   110927311.776 8      -763.427    20809683.080   110927311.782 8      -763.427    20809696.580    86276847.631 8      -593.777    20809696.520    86276852.630 8      -593.777
G01  21962478.020   115413601.435 7      4506.675    21962476.500   115413601.445 5      4506.675    21962484.240    89932703.188 5      3511.695    21962484.960    89932709.208 8      3511.695
G10  22855715.040   120107589.887 7       872.254    22855715.440   120107589.889 6       872.254    22855724.560    93590362.541 6       679.679    22855724.240    93590367.559 7       679.679
R24  22307106.260   119286107.710 7       406.722    22307105.500   119286107.716 7       406.722    22307121.680    92778145.025 7       316.339    22307120.420    92778145.013 7       316.339
R18  22178353.500   118389561.524 6      4135.828    22178351.920   118389561.499 6      4135.828    22178366.760    92080831.085 7      3216.755    22178368.200    92080831.077 7      3216.755
G16  22297861.540   117176050.778 7      -284.742    22297860.480   117176050.783 5      -284.742    22297869.140    91306027.251 5      -221.877
R16  23135790.620   123587242.690 6      6317.577    23135789.700   123587242.694 6      6317.577    23135804.820    96123467.531 7      4913.671    23135804.600    96123462.517 7      4913.671
> 2025 04 04 14 41 34.0000000  0 12
G27  21440827.460   112672303.362 7      1567.413    21440826.060   112672303.362 7      1567.413    21440835.560    87796631.608 7      1221.361    21440836.120    87796632.606 7      1221.361
G02  21027021.060   110497740.528 7      2587.028    21027019.460   110497740.538 6      2587.028    21027022.280    86102142.714 6      2015.866
R15  19898740.100   106332830.827 8      3065.379    19898740.120   106332830.829 8      3065.379    19898748.760    82703352.071 8      2384.183    19898749.220    82703353.079 8      2384.183
G08  20829566.520   109460105.130 8      3378.771    20829565.760   109460105.134 8      3378.771    20829572.840    85293618.813 8      2632.809    20829573.260    85293622.816 8      2632.809
R17  20529738.080   109858771.750 7      2238.568    20529739.280   109858771.779 7      2238.568    20529748.240    85445759.360 8      1741.108    20529748.320    85445759.360 8      1741.108
R14  20809826.560   110928075.201 8      -763.355    20809826.040   110928075.199 8      -763.355    20809839.960    86277441.401 8      -593.721    20809839.800    86277446.401 8      -593.721
G01  21961620.240   115409094.675 7      4506.875    21961619.040   115409094.688 6      4506.875    21961626.620    89929191.441 5      3511.851    21961627.440    89929197.457 8      3511.851
G10  22855549.440   120106717.751 7       872.167    22855549.580   120106717.750 7       872.167    22855558.660    93589682.964 7       679.611    22855558.740    93589687.985 7       679.611
R24  22307030.200   119285700.811 7       407.231    22307029.440   119285700.821 7       407.231    22307045.520    92777828.549 7       316.735    22307044.240    92777828.541 7       316.735
R18  22177578.740   118385425.552 6      4136.183    22177576.440   118385425.534 6      4136.183    22177592.280    92077614.238 7      3217.031    22177593.000    92077614.233 7      3217.031
G16  22297915.800   117176335.580 7      -284.758    22297914.660   117176335.582 5      -284.758    22297923.220    91306249.175 5      -221.890
R16  23134607.280   123580925.218 6      6317.750    23134607.160   123580925.214 6      6317.750    23134621.920    96118553.935 7      4913.805    23134622.240    96118548.923 7      4913.805
> 2025 04 04 14 41 35.0000000  0 12
G27  21440529.060   112670735.570 7      1568.253    21440527.680   112670735.559 7      1568.253    21440537.240    87795409.952 7      1222.015    21440538.120    87795410.951 7      1222.015
G02  21026528.760   110495153.072 8      2587.840    21026527.140   110495153.074 6      2587.840    21026529.940    86100126.521 6      2016.499
R15  19898166.540   106329765.437 8      3065.508    19898166.100   106329765.433 8      3065.508    19898175.020    82700967.880 8      2384.284    19898175.520    82700968.893 8      2384.284
G08  20828923.620   109456725.921 8      3379.633    20828922.640   109456725.929 8      3379.633    20828929.800    85290985.675 8      2633.480    20828930.480    85290989.680 8      2633.480
R17  20529319.360   109856532.709 8      2239.490    20529320.880   109856532.742 7      2239.490    20529329.960    85444017.895 8      1741.826    20529329.680    85444017.904 8      1741.826
R14  20809969.900   110928838.316 8      -762.810    20809969.360   110928838.314 8      -762.810    20809983.020    86278034.936 8      -593.297    20809982.760    86278039.933 8      -593.297
G01  21960762.580   115404587.460 7      4507.617    21960761.360   115404587.470 5      4507.617    21960768.640    89925679.338 5      3512.429    21960769.720    89925685.356 8      3512.429
G10  22855383.320   120105845.312 7       872.713    22855383.660   120105845.317 7       872.713    22855392.520    93589003.152 6       680.036    22855392.520    93589008.171 7       680.036
R24  22306954.120   119285292.988 7       408.434    22306953.540   119285293.000 7       408.434    22306969.360    92777511.359 7       317.671    22306968.040    92777511.349 7       317.671
R18  22176803.680   118381288.992 6      4137.128    22176802.360   118381288.967 6      4137.128    22176817.340    92074396.918 7      3217.766    22176818.240    92074396.919 7      3217.766
G16  22297970.220   117176619.851 7      -283.882    22297968.640   117176619.856 5      -283.882    22297977.360    91306470.685 5      -221.206
R16  23133424.340   123574607.324 6      6318.310    23133424.220   123574607.344 6      6318.310    23133439.420    96113640.045 7      4914.241    23133439.140    96113635.029 7      4914.241
> 2025 04 04 14 41 36.0000000  0 12
G27  21440230.560   112669167.220 7      1568.615    21440229.300   112669167.220 7      1568.615    21440238.840    87794187.873 7      1222.298    21440239.560    87794188.871 7      1222.298
G02  21026036.200   110492565.196 8      2588.076    21026034.600   110492565.201 6      2588.076    21026037.360    86098110.004 6      2016.683
R15  19897592.620   106326700.140 8      3065.248    19897592.740   106326700.139 8      3065.248    19897601.320    82698583.771 8      2384.082    19897601.800    82698584.779 8      2384.082
G08  20828280.360   109453346.129 8      3380.096    20828279.440   109453346.137 8      3380.096    20828286.620    85288352.080 8      2633.841    20828287.160    85288356.081 8      2633.841
R17  20528901.320   109854293.132 7      2239.783    20528902.560   109854293.154 7      2239.783    20528911.500    85442276.006 8      1742.053    20528911.400    85442276.011 8      1742.053
R14  20810112.920   110929601.200 8      -762.786    20810112.360   110929601.195 8      -762.786    20810126.100    86278628.285 8      -593.278    20810126.040    86278633.284 8      -593.278
G01  21959904.660   115400079.861 7      4507.837    21959903.500   115400079.879 5      4507.837    21959910.940    89922166.942 6      3512.600    21959912.060    89922172.955 8      3512.600
G10  22855217.300   120104972.614 7       872.859    22855217.740   120104972.619 6       872.859    22855226.520    93588323.138 7       680.150    22855226.640    93588328.158 7       680.150
R24  22306877.660   119284884.331 7       409.166    22306877.100   119284884.335 7       409.166    22306892.740    92777193.510 7       318.240    22306891.520    92777193.500 7       318.240
R18  22176029.100   118377151.904 6      4137.403    22176027.500   118377151.884 6      4137.403    22176042.640    92071179.202 7      3217.980    22176043.100    92071179.203 7      3217.980
G16  22298024.160   117176903.712 7      -283.594    22298022.740   117176903.717 5      -283.594    22298031.540    91306691.880 5      -220.982
R16  23132241.960   123568289.083 6      6318.409    23132240.900   123568289.103 6      6318.409    23132256.620    96108725.865 7      4914.318    23132256.400    96108720.849 7      4914.318
> 2025 04 04 14 41 37.0000000  0 12
G27  21439932.120   112667598.427 7      1569.201    21439930.720   112667598.424 7      1569.201    21439940.140    87792965.441 7      1222.754    21439940.800    87792966.440 7      1222.754
G02  21025543.620   110489976.980 8      2588.510    21025542.020   110489976.988 6      2588.510    21025544.760    86096093.227 6      2017.021
R15  19897019.080   106323635.084 8      3065.101    19897019.300   106323635.088 8      3065.101    19897028.040    82696199.851 8      2383.968    19897028.440    82696200.859 8      2383.968
G08  20827637.160   109449965.864 8      3380.771    20827636.300   109449965.875 8      3380.771    20827643.480    85285718.119 8      2634.367    20827644.140    85285722.120 8      2634.367
R17  20528482.700   109852053.046 7      2240.479    20528484.240   109852053.074 7      2240.479    20528492.560    85440533.726 8      1742.594    20528492.860    85440533.730 8      1742.594
R14  20810256.160   110930363.926 8      -762.504    20810255.580   110930363.929 8      -762.504    20810269.300    86279221.525 8      -593.059    20810269.320    86279226.524 8      -593.059
G01  21959046.820   115395571.973 7      4508.196    21959045.620   115395571.981 5      4508.196    21959053.200    89918654.310 6      3512.880    21959054.060    89918660.322 8      3512.880
G10  22855051.240   120104099.792 7       872.975    22855051.600   120104099.799 7       872.975    22855060.380    93587643.029 7       680.240    22855060.280    93587648.051 7       680.240
R24  22306801.060   119284474.957 7       409.820    22306800.560   119284474.958 7       409.820    22306816.440    92776875.113 7       318.749    22306815.160    92776875.103 7       318.749
R18  22175253.540   118373014.400 6      4137.793    22175252.560   118373014.385 6      4137.793    22175267.520    92067961.163 7      3218.283    22175268.340    92067961.171 7      3218.283
G16  22298078.020   117177187.253 7      -283.192    22298076.680   117177187.255 5      -283.192    22298085.420    91306912.820 5      -220.669
R16  23131059.180   123561970.588 6      6318.787    23131058.980   123561970.619 6      6318.787    23131073.720    96103811.491 7      4914.612    23131073.760    96103806.475 7      4914.612
> 2025 04 04 14 41 38.0000000  0 12
G27  21439633.580   112666029.008 7      1569.640    21439632.200   112666029.007 7      1569.640    21439641.500    87791742.525 7      1223.096    21439641.740    87791743.525 7      1223.096
G02  21025051.080   110487388.250 7      2588.881    21025049.440   110487388.258 6      2588.881    21025052.200    86094076.041 6      2017.310
R15  19896445.340   106320570.084 8      3064.875    19896445.780   106320570.082 8      3064.875    19896454.060    82693815.966 8      2383.791    19896454.700    82693816.976 8      2383.791
G08  20826993.740   109446584.961 8      3381.232    20826992.960   109446584.963 8      3381.232    20827000.120    85283083.649 8      2634.726    20827000.440    85283087.652 8      2634.726
R17  20528063.740   109849812.313 8      2240.973    20528065.280   109849812.347 7      2240.973    20528073.880    85438790.948 8      1742.979    20528074.060    85438790.955 8      1742.979
R14  20810399.080   110931126.356 8      -762.363    20810398.600   110931126.359 8      -762.363    20810412.340    86279814.526 8      -592.949    20810412.280    86279819.528 8      -592.949
G01  21958188.960   115391063.587 7      4508.575    21958187.760   115391063.594 6      4508.575    21958195.180    89915141.294 5      3513.175    21958196.040    89915147.309 8      3513.175
G10  22854885.320   120103226.625 7       873.190    22854885.320   120103226.636 7       873.190    22854894.240    93586962.648 6       680.408    22854894.460    93586967.666 7       680.408
R24  22306724.520   119284064.642 7       410.695    22306723.760   119284064.651 7       410.695    22306739.620    92776555.985 7       319.430    22306738.540    92776555.975 8       319.430
R18  22174478.600   118368876.298 6      4138.311    22174477.160   118368876.264 6      4138.311    22174492.320    92064742.629 7      3218.686    22174492.960    92064742.628 7      3218.686
G16  22298131.860   117177470.276 7      -282.871    22298130.640   117177470.278 5      -282.871    22298139.360    91307133.358 5      -220.419
R16  23129876.660   123555651.634 6      6319.065    23129875.420   123555651.635 6      6319.065    23129890.720    96098896.744 7      4914.828    23129890.660    96098891.728 7      4914.828
> 2025 04 04 14 41 39.0000000  0 12
G27  21439334.780   112664458.979 7      1570.174    21439333.460   112664458.984 7      1570.174    21439342.720    87790519.139 7      1223.513    21439343.280    87790520.136 7      1223.513
G02  21024558.360   110484799.010 7      2589.467    21024556.460   110484799.020 6      2589.467    21024559.520    86092058.465 6      2017.766
R15  19895872.040   106317505.158 8      3064.818    19895871.980   106317505.157 8      3064.818    19895880.500    82691432.147 8      2383.748    19895880.640    82691433.156 8      2383.748
G08  20826350.300   109443203.412 8      3381.799    20826349.500   109443203.422 8      3381.799    20826356.560    85280448.694 8      2635.168    20826357.040    85280452.697 8      2635.168
R17  20527644.960   109847570.919 8      2241.574    20527646.480   109847570.945 7      2241.574    20527655.040    85437047.646 8      1743.446    20527655.260    85437047.653 8      1743.446
R14  20810541.960   110931888.472 8      -762.013    20810541.540   110931888.470 8      -762.013    20810555.180    86280407.285 8      -592.677    20810555.220    86280412.285 8      -592.677
G01  21957330.680   115386554.766 7      4508.881    21957329.640   115386554.779 6      4508.881    21957337.000    89911627.944 5      3513.414    21957337.920    89911633.959 8      3513.414
G10  22854719.060   120102353.157 7       873.527    22854719.280   120102353.167 7       873.527    22854728.120    93586282.029 7       680.671    22854728.320    93586287.044 7       680.671
R24  22306647.400   119283653.433 7       411.606    22306646.820   119283653.440 7       411.606    22306662.760    92776236.162 7       320.138    22306661.780    92776236.150 8       320.138
R18  22173703.160   118364737.574 6      4138.843    22173701.400   118364737.564 6      4138.843    22173716.740    92061523.661 7      3219.100    22173717.820    92061523.666 7      3219.100
G16  22298185.720   117177752.802 7      -282.306    22298184.500   117177752.810 5      -282.306    22298193.180    91307353.512 5      -219.979
R16  23128694.260   123549332.279 6      6319.375    23128692.320   123549332.299 6      6319.375    23128707.660    96093981.711 7      4915.069    23128707.780    96093976.693 7      4915.069
> 2025 04 04 14 41 40.0000000  0 12
G27  21439035.700   112662888.588 7      1570.646    21439034.560   112662888.590 7      1570.646    21439043.740    87789295.457 7      1223.880    21439044.240    87789296.455 7      1223.880
G02  21024065.800   110482209.547 8      2589.684    21024063.860   110482209.557 6      2589.684    21024066.940    86090040.706 6      2017.936
R15  19895298.420   106314440.556 8      3064.588    19895298.420   106314440.560 8      3064.588    19895307.000    82689048.574 8      2383.569    19895307.740    82689049.581 8      2383.569
G08  20825706.760   109439821.476 8      3382.290    20825705.920   109439821.478 8      3382.290    20825713.080    85277813.421 8      2635.551    20825713.540    85277817.426 8      2635.551
R17  20527226.080   109845329.057 8      2242.224    20527227.780   109845329.083 7      2242.224    20527236.220    85435303.984 8      1743.952    20527236.280    85435303.991 8      1743.952
R14  20810684.900   110932650.511 8      -761.820    20810684.580   110932650.514 8      -761.820    20810698.180    86280999.978 8      -592.526    20810698.120    86281004.977 8      -592.526
G01  21956472.700   115382045.707 7      4509.331    21956471.660   115382045.722 5      4509.331    21956479.060    89908114.407 5      3513.764    21956480.020    89908120.419 8      3513.764
G10  22854552.880   120101479.623 7       873.641    22854553.080   120101479.631 7       873.641    22854562.000    93585601.358 7       680.759    22854562.200    93585606.374 7       680.759
R24  22306571.000   119283241.573 7       412.281    22306570.100   119283241.582 7       412.281    22306585.800    92775915.831 7       320.663    22306584.600    92775915.819 7       320.663
R18  22172928.340   118360598.542 6      4139.278    22172926.520   118360598.533 6      4139.278    22172940.980    92058304.419 7      3219.439    22172942.400    92058304.419 7      3219.439
G16  22298239.280   117178035.095 7      -282.060    22298238.020   117178035.100 5      -282.060    22298246.860    91307573.483 5      -219.787
R16  23127511.020   123543012.780 6      6319.584    23127509.120   123543012.791 6      6319.584    23127525.100    96089066.560 7      4915.232    23127524.720    96089061.548 7      4915.232
> 2025 04 04 14 41 41.0000000  0 12
G27  21438737.020   112661317.537 7      1571.346    21438735.740   112661317.537 7      1571.346    21438744.840    87788071.270 7      1224.425    21438745.300    87788072.274 7      1224.425
G02  21023572.880   110479619.508 7      2590.332    21023571.040   110479619.515 6      2590.332    21023573.960    86088022.504 6      2018.440
R15  19894725.040   106311375.965 8      3064.557    19894724.760   106311375.961 7      3064.557    19894733.520    82686665.009 8      2383.545    19894734.020    82686666.016 8      2383.545
G08  20825063.260   109436438.851 8      3382.976    20825062.340   109436438.854 8      3382.976    20825069.420    85275177.618 8      2636.085    20825070.000    85275181.621 8      2636.085
R17  20526807.240   109843086.492 8      2242.877    20526808.800   109843086.515 7      2242.877    20526817.160    85433559.775 8      1744.460    20526817.340    85433559.781 8      1744.460
R14  20810827.860   110933412.152 8      -761.456    20810827.420   110933412.155 8      -761.456    20810841.140    86281592.372 8      -592.244    20810841.100    86281597.369 8      -592.244
G01  21955614.680   115377536.169 7      4509.798    21955613.420   115377536.179 5      4509.798    21955620.940    89904600.492 5      3514.128    21955621.600    89904606.510 8      3514.128
G10  22854386.620   120100605.724 7       874.136    22854386.840   120100605.731 7       874.136    22854395.700    93584920.403 7       681.145    22854395.620    93584925.422 7       681.145
R24  22306493.160   119282828.747 7       413.367    22306492.600   119282828.765 7       413.367    22306508.320    92775594.754 7       321.507    22306507.500    92775594.742 7       321.507
R18  22172152.840   118356458.876 6      4139.961    22172150.820   118356458.858 6      4139.961    22172166.100    92055084.693 7      3219.969    22172166.640    92055084.696 7      3219.969
G16  22298292.960   117178316.846 7      -281.545    22298291.700   117178316.854 5      -281.545    22298300.520    91307793.031 5      -219.385
R16  23126328.120   123536692.850 6      6320.038    23126326.660   123536692.854 6      6320.038    23126341.800    96084151.059 7      4915.585    23126341.620    96084146.045 7      4915.585
> 2025 04 04 14 41 42.0000000  0 12
G27  21438437.840   112659745.730 7      1572.298    21438436.620   112659745.724 7      1572.298    21438445.680    87786846.489 7      1225.167    21438446.240    87786847.491 7      1225.167
G02  21023080.060   110477028.859 8      2590.951    21023077.980   110477028.869 6      2590.951    21023080.860    86086003.825 6      2018.923
R15  19894151.420   106308311.251 8      3064.806    19894151.120   106308311.249 8      3064.806    19894159.940    82684281.351 8      2383.738    19894160.620    82684282.362 8      2383.738
G08  20824419.220   109433055.441 8      3383.846    20824418.640   109433055.449 8      3383.846    20824425.540    85272541.205 8      2636.763    20824425.980    85272545.208 8      2636.763
R17  20526388.300   109840843.121 8      2243.844    20526389.600   109840843.146 7      2243.844    20526397.780    85431814.935 7      1745.212    20526398.200    85431814.945 8      1745.212
R14  20810970.660   110934173.293 8      -760.790    20810970.260   110934173.290 8      -760.790    20810983.920    86282184.362 8      -591.725    20810984.140    86282189.363 8      -591.725
G01  21954756.580   115373026.016 7      4510.536    21954755.060   115373026.021 5      4510.536    21954762.780    89901086.102 5      3514.704    21954763.380    89901092.117 8      3514.704
G10  22854220.460   120099731.402 7       874.583    22854220.480   120099731.409 7       874.583    22854229.260    93584239.123 7       681.493    22854229.480    93584244.144 7       681.493
R24  22306415.740   119282414.911 7       414.465    22306415.360   119282414.928 7       414.465    22306430.920    92775272.877 7       322.362    22306429.940    92775272.867 7       322.362
R18  22171377.080   118352318.476 6      4140.698    22171375.860   118352318.458 6      4140.698    22171390.880    92051864.398 7      3220.543    22171391.220    92051864.399 7      3220.543
G16  22298346.640   117178597.959 7      -280.751    22298345.220   117178597.964 5      -280.751    22298353.960    91308012.078 5      -218.767
R16  23125145.500   123530372.331 6      6320.845    23125142.180   123530372.335 6      6320.845    23125158.220    96079235.110 7      4916.213    23125158.240    96079230.090 7      4916.213
> 2025 04 04 14 41 43.0000000  0 12
G27  21438138.500   112658173.313 7      1572.724    21438137.380   112658173.310 7      1572.724    21438146.660    87785621.235 7      1225.499    21438146.620    87785622.239 7      1225.499
G02  21022586.760   110474437.667 7      2591.529    21022584.940   110474437.675 6      2591.529    21022588.000    86083984.720 6      2019.373
R15  19893577.900   106305246.587 8      3064.701    19893577.780   106305246.580 8      3064.701    19893586.260    82681897.724 8      2383.656    19893586.880    82681898.730 8      2383.656
G08  20823775.340   109429671.375 8      3384.465    20823774.620   109429671.380 8      3384.465    20823781.500    85269904.276 8      2637.246    20823781.960    85269908.281 8      2637.246
R17  20525968.700   109838599.075 8      2244.438    20525970.280   109838599.104 8      2244.438    20525978.840    85430069.581 8      1745.674    20525978.660    85430069.585 8      1745.674
R14  20811113.280   110934934.084 8      -760.547    20811112.860   110934934.087 8      -760.547    20811126.620    86282776.092 8      -591.537    20811126.740    86282781.092 8      -591.537
G01  21953898.280   115368515.396 7      4510.874    21953896.640   115368515.401 5      4510.874    21953904.440    89897571.343 5      3514.967    21953905.300    89897577.365 8      3514.967
G10  22854053.840   120098856.727 7       874.959    22854054.020   120098856.729 7       874.959    22854062.860    93583557.557 6       681.786    22854063.080    93583562.571 7       681.786
R24  22306338.220   119282000.141 7       415.316    22306338.020   119282000.153 7       415.316    22306353.100    92774950.281 7       323.023    22306352.680    92774950.269 7       323.023
R18  22170601.340   118348177.422 6      4141.446    22170600.360   118348177.412 6      4141.446    22170614.840    92048643.595 7      3221.125    22170615.760    92048643.595 7      3221.125
G16  22298399.820   117178878.549 7      -280.220    22298398.540   117178878.554 5      -280.220    22298407.360    91308230.726 5      -218.354
R16  23123962.480   123524051.387 6      6321.347    23123960.300   123524051.388 6      6321.347    23123974.900    96074318.820 7      4916.603    23123974.960    96074313.804 7      4916.603
> 2025 04 04 14 41 44.0000000  0 12
G27  21437839.320   112656600.426 7      1573.071    21437838.200   112656600.425 7      1573.071    21437847.100    87784395.617 7      1225.770    21437847.180    87784396.621 7      1225.770
G02  21022093.660   110471846.167 7      2591.525    21022091.880   110471846.172 6      2591.525    21022094.980    86081965.378 6      2019.370
R15  19893004.580   106302182.161 8      3064.276    19893004.140   106302182.152 8      3064.276    19893013.000    82679514.290 8      2383.326    19893013.520    82679515.298 8      2383.326
G08  20823131.080   109426286.840 8      3384.711    20823130.520   109426286.848 8      3384.711    20823137.440    85267266.991 8      2637.437    20823138.120    85267270.994 8      2637.437
R17  20525549.220   109836354.533 7      2244.740    20525550.840   109836354.555 7      2244.740    20525559.520    85428323.831 8      1745.909    20525559.460    85428323.838 8      1745.909
R14  20811256.160   110935694.747 8      -760.622    20811255.580   110935694.745 8      -760.622    20811269.360    86283367.717 8      -591.595    20811269.340    86283372.717 8      -591.595
G01  21953039.600   115364004.479 7      4511.023    21953038.320   115364004.484 5      4511.023    21953046.160    89894056.355 5      3515.083    21953046.600    89894062.368 8      3515.083
G10  22853887.200   120097981.924 7       874.802    22853887.500   120097981.932 6       874.802    22853896.200    93582875.902 6       681.664    22853896.420    93582880.921 7       681.664
R24  22306260.500   119281584.666 7       415.752    22306259.920   119281584.683 7       415.752    22306275.260    92774627.144 7       323.363    22306274.600    92774627.134 7       323.363
R18  22169825.880   118344035.972 6      4141.708    22169824.360   118344035.963 6      4141.708    22169839.480    92045422.476 7      3221.328    22169840.020    92045422.468 7      3221.328
G16  22298453.320   117179158.853 7      -280.233    22298451.900   117179158.855 5      -280.233    22298460.720    91308449.144 5      -218.364
R16  23122778.500   123517730.176 6      6321.441    23122776.860   123517730.185 6      6321.441    23122791.860    96069402.337 7      4916.676    23122791.860    96069397.319 7      4916.676
> 2025 04 04 14 41 45.0000000  0 12
G27  21437540.040   112655027.058 7      1573.701    21437538.820   112655027.052 7      1573.701    21437547.740    87783169.618 7      1226.261    21437548.300    87783170.619 7      1226.261
G02  21021600.200   110469254.255 7      2592.110    21021598.580   110469254.263 6      2592.110    21021601.660    86079945.719 6      2019.826
R15  19892430.640   106299117.923 8      3064.174    19892430.320   106299117.921 8      3064.174    19892439.600    82677131.008 8      2383.246    19892440.140    82677132.020 8      2383.246
G08  20822486.960   109422901.785 8      3385.331    20822486.460   109422901.793 8      3385.331    20822493.240    85264629.296 8      2637.920    20822493.900    85264633.301 8      2637.920
R17  20525129.620   109834109.446 8      2245.372    20525131.040   109834109.467 7      2245.372    20525139.900    85426577.662 8      1746.400    20525139.880    85426577.666 8      1746.400
R14  20811398.840   110936455.234 8      -760.373    20811398.560   110936455.240 8      -760.373    20811412.000    86283959.214 8      -591.401    20811411.960    86283964.211 8      -591.401
G01  21952181.020   115359493.212 7      4511.473    21952179.820   115359493.217 5      4511.473    21952187.600    89890541.096 5      3515.433    21952188.240    89890547.110 8      3515.433
G10  22853720.520   120097106.921 7       875.086    22853721.120   120097106.929 7       875.086    22853729.820    93582194.086 7       681.886    22853729.960    93582199.100 7       681.886
R24  22306182.420   119281168.442 7       416.460    22306181.920   119281168.459 7       416.460    22306197.280    92774303.424 7       323.913    22306196.920    92774303.414 7       323.913
R18  22169049.980   118339894.032 6      4142.177    22169048.220   118339894.033 6      4142.177    22169063.160    92042200.985 7      3221.693    22169064.000    92042200.978 7      3221.693
G16  22298506.640   117179438.752 7      -279.729    22298505.140   117179438.757 5      -279.729    22298514.120    91308667.247 5      -217.971
R16  23121594.280   123511408.700 6      6321.519    23121593.560   123511408.722 6      6321.519    23121608.120    96064485.657 7      4916.737    23121608.160    96064480.641 7      4916.737
> 2025 04 04 14 41 46.0000000  0 12
G27  21437240.660   112653453.177 7      1574.353    21437239.280   112653453.172 7      1574.353    21437248.320    87781943.222 7      1226.769    21437248.760    87781944.225 7      1226.769
G02  21021106.760   110466661.962 7      2592.599    21021105.200   110466661.972 6      2592.599    21021108.300    86077925.760 6      2020.207
R15  19891857.240   106296053.865 8      3064.056    19891856.960   106296053.867 8      3064.056    19891866.360    82674747.858 8      2383.155    19891866.800    82674748.867 8      2383.155
G08  20821842.780   109419516.189 8      3386.033    20821842.180   109419516.192 8      3386.033    20821849.000    85261991.172 8      2638.468    20821849.520    85261995.181 8      2638.468
R17  20524710.240   109831863.788 8      2246.098    20524711.160   109831863.811 7      2246.098    20524720.080    85424831.042 8      1746.965    20524720.140    85424831.049 8      1746.965
R14  20811541.520   110937215.474 8      -759.918    20811541.060   110937215.475 8      -759.918    20811554.780    86284550.503 8      -591.047    20811554.640    86284555.502 8      -591.047
G01  21951322.800   115354981.588 7      4511.964    21951321.300   115354981.596 5      4511.964    21951329.100    89887025.555 5      3515.816    21951329.580    89887031.571 8      3515.816
G10  22853553.840   120096231.682 7       875.569    22853554.560   120096231.692 7       875.569    22853563.280    93581512.090 7       682.262    22853563.380    93581517.104 7       682.262
R24  22306104.760   119280751.394 7       417.613    22306104.320   119280751.409 7       417.613    22306119.240    92773979.046 7       324.810    22306118.580    92773979.040 7       324.810
R18  22168273.780   118335751.595 6      4142.842    22168272.440   118335751.591 6      4142.842    22168287.460    92038979.098 7      3222.211    22168287.600    92038979.095 7      3222.211
G16  22298560.040   117179718.249 7      -279.090    22298558.380   117179718.251 5      -279.090    22298567.400    91308885.037 5      -217.473
R16  23120411.160   123505086.925 6      6322.023    23120410.600   123505086.929 6      6322.023    23120424.740    96059568.708 7      4917.129    23120424.900    96059563.690 7      4917.129
> 2025 04 04 14 41 47.0000000  0 12
G27  21436941.060   112651878.745 7      1574.683    21436939.480   112651878.737 7      1574.683    21436948.560    87780716.402 7      1227.026    21436948.980    87780717.405 7      1227.026
G02  21020613.620   110464069.235 7      2592.759    21020611.940   110464069.243 6      2592.759    21020614.940    86075905.455 6      2020.331
R15  19891283.980   106292989.899 8      3063.846    19891283.600   106292989.895 7      3063.846    19891293.100    82672364.782 8      2382.992    19891293.420    82672365.790 8      2382.992
G08  20821198.500   109416130.023 8      3386.347    20821197.900   109416130.028 8      3386.347    20821204.620    85259352.611 8      2638.712    20821205.320    85259356.616 8      2638.712
R17  20524290.400   109829617.532 8      2246.464    20524291.560   109829617.558 7      2246.464    20524300.460    85423083.969 8      1747.250    20524300.680    85423083.972 8      1747.250
R14  20811684.000   110937975.447 8      -759.885    20811683.640   110937975.445 8      -759.885    20811697.260    86285141.595 8      -591.021    20811697.360    86285146.594 8      -591.021
G01  21950463.980   115350469.570 7      4512.098    21950462.600   115350469.578 6      4512.098    21950470.580    89883509.714 5      3515.921    21950470.980    89883515.727 8      3515.921
G10  22853387.400   120095356.235 7       875.425    22853387.900   120095356.240 7       875.425    22853396.660    93580829.927 7       682.149    22853396.680    93580834.936 7       682.149
R24  22306026.500   119280333.502 7       418.227    22306026.680   119280333.516 7       418.227    22306041.080    92773654.022 7       325.288    22306040.700    92773654.012 7       325.288
R18  22167497.460   118331608.667 6      4143.065    22167496.900   118331608.650 6      4143.065    22167511.660    92035756.825 7      3222.384    22167511.680    92035756.822 7      3222.384
G16  22298613.180   117179997.333 7      -278.878    22298611.560   117179997.335 5      -278.878    22298620.420    91309102.510 5      -217.307
R16  23119227.400   123498764.774 6      6322.297    23119226.220   123498764.791 6      6322.297    23119241.180    96054651.500 7      4917.342    23119241.340    96054646.490 7      4917.342
> 2025 04 04 14 41 48.0000000  0 12
G27  21436641.260   112650303.953 7      1575.088    21436639.900   112650303.952 7      1575.088    21436648.820    87779489.301 7      1227.341    21436648.860    87779490.307 7      1227.341
G02  21020120.300   110461476.225 7      2593.266    21020118.620   110461476.235 6      2593.266    21020121.600    86073884.938 6      2020.727
R15  19890710.580   106289926.235 8      3063.633    19890710.240   106289926.225 8      3063.633    19890719.860    82669981.936 8      2382.826    19890720.080    82669982.945 8      2382.826
G08  20820554.180   109412743.460 8      3386.826    20820553.420   109412743.465 8      3386.826    20820560.220    85256713.739 8      2639.085    20820561.060    85256717.742 8      2639.085
R17  20523870.600   109827370.878 8      2246.952    20523871.740   109827370.899 8      2246.952    20523880.820    85421336.578 8      1747.629    20523880.640    85421336.585 8      1747.629
R14  20811826.680   110938735.353 8      -759.827    20811826.340   110938735.357 8      -759.827    20811839.700    86285732.635 8      -590.977    20811839.800    86285737.637 8      -590.977
G01  21949605.560   115345957.342 7      4512.405    21949604.020   115345957.347 5      4512.405    21949611.880    89879993.700 5      3516.159    21949612.480    89879999.719 8      3516.159
G10  22853220.860   120094480.699 7       875.752    22853221.060   120094480.698 7       875.752    22853230.040    93580147.695 7       682.405    22853230.260    93580152.704 7       682.405
R24  22305948.380   119279914.911 7       419.050    22305948.120   119279914.929 7       419.050    22305962.640    92773328.458 7       325.927    22305962.000    92773328.455 7       325.927
R18  22166721.540   118327465.398 6      4143.464    22166720.700   118327465.388 6      4143.464    22166735.820    92032534.301 7      3222.694    22166735.580    92032534.300 7      3222.694
G16  22298665.980   117180276.178 7      -278.674    22298664.720   117180276.183 5      -278.674    22298673.420    91309319.794 5      -217.148
R16  23118044.260   123492442.510 6      6322.417    23118042.960   123492442.516 6      6322.417    23118057.760    96049734.188 7      4917.435    23118057.540    96049729.176 7      4917.435
> 2025 04 04 14 41 49.0000000  0 12
G27  21436341.720   112648728.619 7      1575.551    21436340.240   112648728.619 7      1575.551    21436348.980    87778261.775 7      1227.702    21436349.320    87778262.776 7      1227.702
G02  21019626.960   110458882.794 7      2593.633    21019625.140   110458882.804 6      2593.633    21019628.020    86071864.093 6      2021.012
R15  19890137.460   106286862.686 8      3063.441    19890136.860   106286862.679 8      3063.441    19890146.340    82667599.182 8      2382.676    19890146.760    82667600.188 8      2382.676
G08  20819909.400   109409356.311 8      3387.361    20819908.840   109409356.316 8      3387.361    20819915.620    85254074.414 8      2639.502    20819916.320    85254078.419 8      2639.502
R17  20523450.680   109825123.596 8      2247.525    20523451.860   109825123.616 8      2247.525    20523460.920    85419588.700 8      1748.075    20523460.840    85419588.706 8      1748.075
R14  20811969.020   110939494.991 8      -759.593    20811968.780   110939494.994 8      -759.593    20811982.320    86286323.468 8      -590.795    20811982.520    86286328.468 8      -590.795
G01  21948746.840   115341444.709 7      4512.708    21948745.160   115341444.714 5      4512.708    21948753.320    89876477.379 5      3516.396    21948753.800    89876483.396 8      3516.396
G10  22853054.480   120093604.908 7       875.931    22853054.320   120093604.915 7       875.931    22853063.280    93579465.267 7       682.544    22853063.180    93579470.277 7       682.544
R24  22305869.940   119279495.489 7       419.723    22305869.760   119279495.504 7       419.723    22305884.140    92773002.243 7       326.451    22305883.860    92773002.238 7       326.451
R18  22165945.280   118323321.578 7      4143.937    22165944.420   118323321.577 6      4143.937    22165959.460    92029311.353 7      3223.062    22165959.000    92029311.356 7      3223.062
G16  22298718.800   117180554.580 7      -278.304    22298717.660   117180554.584 5      -278.304    22298726.460    91309536.734 5      -216.860
R16  23116859.920   123486119.846 6      6322.770    23116859.960   123486119.882 6      6322.770    23116874.180    96044816.590 7      4917.710    23116874.000    96044811.578 7      4917.710
> 2025 04 04 14 41 50.0000000  0 12
G27  21436041.680   112647152.852 7      1576.067    21436040.380   112647152.849 7      1576.067    21436049.260    87777033.912 7      1228.104    21436049.420    87777034.918 7      1228.104
G02  21019133.060   110456289.045 7      2594.126    21019131.460   110456289.052 6      2594.126    21019134.460    86069843.000 6      2021.397
R15  19889564.000   106283799.390 8      3063.255    19889563.460   106283799.383 8      3063.255    19889573.120    82665216.629 8      2382.531    19889573.760    82665217.637 8      2382.531
G08  20819264.840   109405968.708 8      3387.961    20819264.120   109405968.713 8      3387.961    20819270.960    85251434.731 8      2639.970    20819271.760    85251438.736 8      2639.970
R17  20523030.620   109822875.813 8      2248.219    20523031.740   109822875.827 8      2248.219    20523040.620    85417840.430 8      1748.614    20523040.780    85417840.439 8      1748.614
R14  20812111.620   110940254.497 8      -759.303    20812111.520   110940254.500 8      -759.303    20812124.720    86286914.196 8      -590.569    20812124.860    86286919.195 8      -590.569
G01  21947888.060   115336931.792 7      4513.206    21947886.400   115336931.800 5      4513.206    21947894.580    89872960.835 5      3516.784    21947894.820    89872966.850 8      3516.784
G10  22852887.760   120092729.009 7       876.082    22852887.640   120092729.016 7       876.082    22852896.740    93578782.761 6       682.661    22852896.600    93578787.769 7       682.661
R24  22305791.720   119279075.346 7       420.588    22305791.680   119279075.358 7       420.588    22305805.600    92772675.467 7       327.124    22305805.100    92772675.461 7       327.124
R18  22165168.940   118319177.332 7      4144.587    22165168.580   118319177.338 6      4144.587    22165182.960    92026088.069 7      3223.568    22165182.940    92026088.074 7      3223.568
G16  22298771.940   117180832.658 7      -277.809    22298770.600   117180832.665 5      -277.809    22298779.520    91309753.422 5      -216.475
R16  23115676.240   123479796.952 6      6323.331    23115676.160   123479796.982 6      6323.331    23115690.520    96039898.789 7      4918.146    23115690.640    96039893.773 7      4918.146
> 2025 04 04 14 41 51.0000000  0 12
G27  21435741.980   112645576.449 7      1576.760    21435740.060   112645576.444 7      1576.760    21435749.180    87775805.550 7      1228.644    21435749.400    87775806.554 7      1228.644
G02  21018639.500   110453694.778 7      2594.584    21018637.780   110453694.786 6      2594.584    21018640.840    86067821.500 6      2021.754
R15  19888990.840   106280736.135 8      3063.237    19888989.960   106280736.125 7      3063.237    19889000.040    82662834.103 8      2382.518    19889000.260    82662835.107 8      2382.518
G08  20818620.140   109402580.450 8      3388.619    20818619.340   109402580.455 8      3388.619    20818626.140    85248794.539 8      2640.482    20818627.000    85248798.544 8      2640.482
R17  20522610.400   109820627.350 8      2248.851    20522611.580   109820627.373 7      2248.851    20522620.540    85416091.641 8      1749.107    20522620.420    85416091.649 8      1749.107
R14  20812253.940   110941013.689 8      -759.004    20812253.860   110941013.692 8      -759.004    20812267.200    86287504.678 8      -590.336    20812267.500    86287509.678 8      -590.336
G01  21947028.980   115332418.408 7      4513.613    21947027.400   115332418.415 5      4513.613    21947035.680    89869443.926 5      3517.101    21947036.120    89869449.944 8      3517.101
G10  22852721.140   120091852.758 7       876.484    22852720.940   120091852.768 7       876.484    22852729.880    93578099.980 6       682.974    22852729.540    93578104.988 7       682.974
R24  22305712.620   119278654.309 7       421.564    22305712.660   119278654.324 7       421.564    22305726.780    92772348.000 7       327.883    22305726.240    92772347.992 7       327.883
R18  22164392.180   118315032.520 6      4145.096    22164392.340   118315032.521 6      4145.096    22164406.720    92022864.334 7      3223.963    22164406.320    92022864.335 7      3223.963
G16  22298824.820   117181110.242 7      -277.308    22298823.340   117181110.252 5      -277.308    22298832.360    91309969.724 5      -216.084
R16  23114492.420   123473473.687 6      6323.646    23114492.540   123473473.701 6      6323.646    23114506.620    96034980.678 7      4918.391    23114506.820    96034975.666 7      4918.391
> 2025 04 04 14 41 52.0000000  0 12
G27  21435441.860   112643999.447 7      1577.218    21435440.240   112643999.449 7      1577.218    21435449.040    87774576.728 7      1229.001    21435449.140    87774577.731 7      1229.001
G02  21018145.520   110451100.031 7      2594.877    21018143.980   110451100.036 6      2594.877    21018147.120    86065799.627 6      2021.982
R15  19888417.460   106277672.970 8      3063.014    19888416.840   106277672.958 7      3063.014    19888426.580    82660451.644 8      2382.345    19888427.160    82660452.652 8      2382.345
G08  20817975.240   109399191.578 8      3389.107    20817974.420   109399191.580 8      3389.107    20817981.260    85246153.865 8      2640.862    20817982.020    85246157.876 8      2640.862
R17  20522190.100   109818378.274 8      2249.282    20522191.420   109818378.292 7      2249.282    20522200.180    85414342.358 8      1749.442    20522200.340    85414342.366 8      1749.442
R14  20812396.340   110941772.567 8      -758.763    20812396.160   110941772.570 8      -758.763    20812409.620    86288094.915 8      -590.149    20812409.820    86288099.916 8      -590.149
G01  21946170.160   115327904.590 7      4513.904    21946168.540   115327904.597 5      4513.904    21946176.720    89865926.677 5      3517.328    21946177.040    89865932.689 8      3517.328
G10  22852554.220   120090976.237 7       876.547    22852553.960   120090976.247 7       876.547    22852563.020    93577416.984 7       683.024    22852562.880    93577421.991 7       683.024
R24  22305633.660   119278232.422 7       422.203    22305634.040   119278232.431 7       422.203    22305647.760    92772019.862 7       328.380    22305647.420    92772019.858 7       328.380
R18  22163616.020   118310887.094 6      4145.633    22163615.780   118310887.092 6      4145.633    22163629.820    92019640.131 7      3224.381    22163629.740    92019640.134 7      3224.381
G16  22298877.680   117181387.340 7      -276.992    22298876.120   117181387.347 5      -276.992    22298885.080    91310185.644 5      -215.838
R16  23113308.020   123467149.965 6      6323.732    23113308.760   123467149.993 6      6323.732    23113323.040    96030062.248 7      4918.459    23113323.140    96030057.234 7      4918.459
> 2025 04 04 14 41 53.0000000  0 12
G27  21435141.520   112642421.817 7      1577.676    21435140.060   112642421.822 7      1577.676    21435148.760    87773347.414 7      1229.358    21435148.860    87773348.420 7      1229.358
G02  21017651.780   110448504.721 7      2595.372    21017650.000   110448504.729 6      2595.372    21017653.180    86063777.322 6      2022.368
R15  19887844.460   106274609.808 8      3062.989    19887843.500   106274609.793 7      3062.989    19887853.540    82658069.197 8      2382.324    19887853.780    82658070.203 8      2382.324
G08  20817330.280   109395802.009 8      3389.751    20817329.440   109395802.016 8      3389.751    20817336.200    85243512.655 8      2641.365    20817336.840    85243516.660 8      2641.365
R17  20521769.420   109816128.477 8      2249.974    20521771.060   109816128.491 7      2249.974    20521779.880    85412592.527 8      1749.980    20521779.760    85412592.532 8      1749.980
R14  20812538.900   110942531.095 8      -758.493    20812538.600   110942531.101 8      -758.493    20812551.920    86288684.881 8      -589.939    20812551.980    86288689.882 8      -589.939
G01  21945311.120   115323390.238 7      4514.481    21945309.420   115323390.246 5      4514.481    21945317.800    89862409.011 5      3517.778    21945318.100    89862415.027 8      3517.778
G10  22852387.360   120090099.352 7       876.863    22852387.080   120090099.360 6       876.863    22852396.300    93576733.706 6       683.270    22852395.960    93576738.712 7       683.270
R24  22305554.720   119277809.532 7       423.264    22305554.920   119277809.552 7       423.264    22305568.500    92771690.958 7       329.206    22305568.320    92771690.958 7       329.206
R18  22162839.180   118306741.024 6      4146.384    22162839.320   118306741.036 6      4146.384    22162853.300    92016415.431 7      3224.965    22162853.300    92016415.436 7      3224.965
G16  22298930.440   117181663.889 7      -276.391    22298928.700   117181663.899 5      -276.391    22298937.580    91310401.137 5      -215.370
R16  23112124.300   123460825.765 6      6324.137    23112124.760   123460825.793 6      6324.137    23112138.980    96025143.445 7      4918.773    23112138.920    96025138.431 7      4918.773
> 2025 04 04 14 41 54.0000000  0 12
G27  21434841.040   112640843.743 7      1578.344    21434839.780   112640843.743 7      1578.344    21434848.480    87772117.752 7      1229.879    21434848.940    87772118.764 7      1229.879
G02  21017157.900   110445909.104 7      2595.893    21017156.180   110445909.114 6      2595.893    21017159.280    86061754.770 6      2022.774
R15  19887271.080   106271546.905 8      3062.838    19887270.420   106271546.893 7      3062.838    19887280.480    82655686.947 8      2382.207    19887280.700    82655687.952 8      2382.207
G08  20816685.120   109392412.004 8      3390.322    20816684.300   109392412.011 8      3390.322    20816691.060    85240871.101 8      2641.809    20816691.820    85240875.108 8      2641.809
R17  20521349.040   109813878.224 8      2250.563    20521350.320   109813878.244 7      2250.563    20521359.320    85410842.341 8      1750.438    20521359.140    85410842.350 8      1750.438
R14  20812681.060   110943289.485 8      -758.269    20812680.620   110943289.491 8      -758.269    20812694.280    86289274.742 8      -589.765    20812694.240    86289279.741 8      -589.765
G01  21944451.960   115318875.648 7      4514.803    21944450.280   115318875.653 5      4514.803    21944458.640    89858891.159 5      3518.028    21944459.100    89858897.174 8      3518.028
G10  22852220.580   120089222.340 7       877.162    22852220.160   120089222.347 7       877.162    22852229.480    93576050.324 7       683.503    22852229.000    93576055.326 7       683.503
R24  22305475.640   119277385.961 7       424.001    22305475.440   119277385.978 7       424.001    22305489.340    92771361.520 7       329.779    22305489.420    92771361.518 7       329.779
R18  22162062.800   118302594.600 6      4146.757    22162062.760   118302594.617 6      4146.757    22162076.240    92013190.449 7      3225.255    22162076.340    92013190.454 7      3225.255
G16  22298983.000   117181940.159 7      -276.064    22298981.360   117181940.167 5      -276.064    22298990.240    91310616.414 5      -215.115
R16  23110940.600   123454501.381 6      6324.373    23110940.560   123454501.408 6      6324.373    23110954.940    96020224.483 7      4918.957    23110955.000    96020219.467 7      4918.957
> 2025 04 04 14 41 55.0000000  0 12
G27  21434540.560   112639265.102 7      1578.992    21434539.240   112639265.104 7      1578.992    21434548.080    87770887.646 7      1230.384    21434548.700    87770888.652 7      1230.384
G02  21016664.100   110443313.051 7      2596.335    21016662.140   110443313.059 6      2596.335    21016665.320    86059731.877 6      2023.118
R15  19886697.920   106268484.107 7      3062.775    19886696.980   106268484.092 7      3062.775    19886707.260    82653304.775 8      2382.158    19886707.640    82653305.779 8      2382.158
G08  20816039.800   109389021.405 8      3390.934    20816039.040   109389021.407 8      3390.934    20816045.940    85238229.078 8      2642.286    20816046.740    85238233.089 8      2642.286
R17  20520928.200   109811627.321 8      2251.280    20520929.840   109811627.344 7      2251.280    20520938.880    85409091.649 8      1750.995    20520938.640    85409091.656 8      1750.995
R14  20812823.340   110944047.544 8      -757.851    20812823.000   110944047.547 8      -757.851    20812836.720    86289864.339 8      -589.439    20812836.580    86289869.339 8      -589.439
G01  21943592.800   115314360.626 7      4515.303    21943590.980   115314360.631 5      4515.303    21943599.340    89855372.973 5      3518.418    21943599.740    89855378.986 8      3518.418
G10  22852053.420   120088345.077 7       877.332    22852053.160   120088345.085 7       877.332    22852062.440    93575366.747 7       683.635    22852062.380    93575371.751 7       683.635
R24  22305396.420   119276961.523 7       424.806    22305396.500   119276961.538 7       424.806    22305409.860    92771031.401 7       330.404    22305409.740    92771031.404 7       330.404
R18  22161285.700   118298447.621 6      4147.264    22161285.660   118298447.627 6      4147.264    22161299.640    92009965.031 7      3225.650    22161299.380    92009965.032 7      3225.650
G16  22299035.260   117182215.964 7      -275.571    22299033.840   117182215.969 5      -275.571    22299042.820    91310831.326 5      -214.731
R16  23109756.700   123448176.601 6      6324.984    23109756.620   123448176.623 6      6324.984    23109770.780    96015305.216 7      4919.432    23109770.980    96015300.204 7      4919.432
> 2025 04 04 14 41 56.0000000  0 12
G27  21434239.940   112637686.079 7      1579.206    21434238.720   112637686.087 7      1579.206    21434247.600    87769657.247 7      1230.550    21434248.040    87769658.257 7      1230.550
G02  21016169.780   110440716.701 8      2596.432    21016168.140   110440716.703 6      2596.432    21016171.340    86057708.751 6      2023.194
R15  19886124.980   106265421.621 7      3062.208    19886123.900   106265421.606 7      3062.208    19886134.120    82650922.852 8      2381.717    19886134.640    82650923.858 8      2381.717
G08  20815394.720   109385630.383 8      3391.147    20815393.700   109385630.386 8      3391.147    20815400.720    85235586.733 8      2642.452    20815401.400    85235590.742 8      2642.452
R17  20520507.480   109809375.966 7      2251.487    20520508.860   109809375.989 7      2251.487    20520518.060    85407340.604 8      1751.157    20520517.860    85407340.610 8      1751.157
R14  20812965.400   110944805.492 8      -757.951    20812965.000   110944805.495 8      -757.951    20812978.980    86290453.854 8      -589.517    20812978.800    86290458.855 8      -589.517
G01  21942733.940   115309845.366 7      4515.342    21942731.840   115309845.368 5      4515.342    21942740.000    89851854.598 5      3518.448    21942740.620    89851860.610 8      3518.448
G10  22851886.600   120087467.704 7       877.310    22851886.020   120087467.707 6       877.310    22851895.440    93574683.082 6       683.618    22851895.580    93574688.090 7       683.618
R24  22305317.180   119276536.403 7       425.377    22305317.120   119276536.426 7       425.377    22305330.220    92770700.759 7       330.849    22305330.180    92770700.762 7       330.849
R18  22160508.700   118294300.254 7      4147.420    22160509.100   118294300.266 6      4147.420    22160522.500    92006739.314 7      3225.771    22160522.640    92006739.321 7      3225.771
G16  22299087.600   117182491.486 7      -275.458    22299086.280   117182491.493 5      -275.458    22299095.240    91311046.022 5      -214.643
R16  23108572.280   123441851.704 6      6324.923    23108572.380   123441851.724 6      6324.923    23108586.860    96010385.862 7      4919.384    23108586.900    96010380.852 7      4919.384
> 2025 04 04 14 41 57.0000000  0 12
G27  21433939.520   112636106.704 7      1579.697    21433938.200   112636106.701 7      1579.697    21433946.920    87768426.561 7      1230.933    21433947.400    87768427.569 7      1230.933
G02  21015675.460   110438120.099 7      2596.820    21015673.980   110438120.103 6      2596.820    21015677.180    86055685.435 6      2023.496
R15  19885551.780   106262359.415 8      3062.167    19885550.840   106262359.403 7      3062.167    19885561.260    82648541.143 8      2381.686    19885561.600    82648542.147 8      2381.686
G08  20814749.180   109382238.973 8      3391.671    20814748.300   109382238.972 8      3391.671    20814755.340    85232944.078 8      2642.861    20814755.940    85232948.089 8      2642.861
R17  20520086.680   109807124.180 8      2252.107    20520088.100   109807124.198 7      2252.107    20520097.360    85405589.215 8      1751.639    20520097.140    85405589.221 8      1751.639
R14  20813107.760   110945563.380 8      -757.721    20813107.300   110945563.386 8      -757.721    20813121.100    86291043.325 8      -589.339    20813120.940    86291048.324 8      -589.339
G01  21941874.560   115305329.885 7      4515.755    21941872.400   115305329.890 5      4515.755    21941880.740    89848336.060 5      3518.770    21941881.540    89848342.071 8      3518.770
G10  22851719.740   120086590.282 7       877.531    22851718.920   120086590.276 7       877.531    22851728.560    93573999.374 6       683.791    22851728.200    93574004.376 7       683.791
R24  22305237.180   119276110.661 7       426.169    22305237.620   119276110.689 7       426.169    22305250.560    92770369.636 7       331.464    22305250.540    92770369.641 7       331.464
R18  22159731.600   118290152.541 7      4148.081    22159732.160   118290152.533 7      4148.081    22159745.800    92003513.314 7      3226.285    22159745.480    92003513.330 7      3226.285
G16  22299139.900   117182766.773 7      -275.089    22299138.880   117182766.784 5      -275.089    22299147.740    91311260.530 5      -214.355
R16  23107388.680   123435526.647 6      6325.254    23107389.260   123435526.666 6      6325.254    23107402.760    96005466.384 7      4919.642    23107403.040    96005461.374 7      4919.642
> 2025 04 04 14 41 58.0000000  0 12
G27  21433638.880   112634526.881 7      1580.101    21433637.520   112634526.872 7      1580.101    21433646.280    87767195.530 7      1231.248    21433646.920    87767196.543 7      1231.248
G02  21015181.340   110435523.152 8      2597.204    21015179.860   110435523.157 6      2597.204    21015182.980    86053661.851 6      2023.795
R15  19884978.900   106259297.434 8      3062.019    19884977.940   106259297.414 7      3062.019    19884988.460    82646159.602 8      2381.570    19884988.520    82646160.608 8      2381.570
G08  20814103.860   109378847.073 8      3392.220    20814102.840   109378847.078 8      3392.220    20814109.920    85230301.051 8      2643.288    20814110.600    85230305.060 8      2643.288
R17  20519665.800   109804871.937 8      2252.585    20519666.860   109804871.957 7      2252.585    20519676.540    85403837.483 8      1752.011    20519676.380    85403837.489 8      1752.011
R14  20813249.860   110946321.139 8      -757.515    20813249.260   110946321.142 8      -757.515    20813263.280    86291632.688 8      -589.178    20813263.360    86291637.688 8      -589.178
G01  21941014.940   115300814.115 7      4516.052    21941013.120   115300814.122 5      4516.052    21941021.560    89844817.286 5      3519.002    21941022.140    89844823.302 8      3519.002
G10  22851552.620   120085712.667 7       877.878    22851551.860   120085712.672 6       877.878    22851561.520    93573315.530 6       684.061    22851561.260    93573320.536 7       684.061
R24  22305157.220   119275684.170 7       427.000    22305157.760   119275684.187 7       427.000    22305170.980    92770037.917 7       332.111    22305171.020    92770037.926 7       332.111
R18  22158954.320   118286004.397 7      4148.546    22158955.600   118286004.398 7      4148.546    22158968.760    92000286.999 7      3226.647    22158968.500    92000287.011 7      3226.647
G16  22299192.180   117183041.717 7      -274.676    22299191.220   117183041.724 5      -274.676    22299200.040    91311474.773 5      -214.033
R16  23106204.180   123429201.386 6      6325.521    23106204.500   123429201.390 6      6325.521    23106218.740    96000546.739 7      4919.849    23106218.940    96000541.733 7      4919.849
> 2025 04 04 14 41 59.0000000  0 12
G27  21433338.460   112632946.528 7      1580.648    21433336.720   112632946.525 7      1580.648    21433345.540    87765964.097 7      1231.674    21433346.320    87765965.106 7      1231.674
G02  21014687.100   110432925.817 7      2597.556    21014685.680   110432925.824 6      2597.556    21014688.920    86051637.961 6      2024.070
R15  19884406.180   106256235.597 8      3061.827    19884404.380   106256235.580 7      3061.827    19884415.380    82643778.184 8      2381.421    19884415.540    82643779.190 8      2381.421
G08  20813458.240   109375454.653 8      3392.704    20813457.200   109375454.653 8      3392.704    20813464.320    85227657.612 8      2643.665    20813465.020    85227661.625 8      2643.665
R17  20519244.720   109802619.177 7      2253.038    20519246.100   109802619.195 7      2253.038    20519255.500    85402085.344 8      1752.363    20519255.240    85402085.353 8      1752.363
R14  20813391.840   110947078.699 8      -757.482    20813391.460   110947078.705 8      -757.482    20813405.540    86292221.907 8      -589.152    20813405.540    86292226.908 8      -589.152
G01  21940155.620   115296298.003 7      4516.258    21940153.800   115296298.010 5      4516.258    21940162.240    89841298.252 5      3519.162    21940162.520    89841304.266 8      3519.162
G10  22851385.720   120084834.879 7       877.999    22851384.940   120084834.889 7       877.999    22851394.480    93572631.554 7       684.155    22851394.300    93572636.564 7       684.155
R24  22305077.860   119275256.834 7       427.863    22305077.840   119275256.851 7       427.863    22305091.160    92769705.546 7       332.782    22305091.040    92769705.549 7       332.782
R18  22158177.080   118281855.809 7      4148.826    22158178.920   118281855.815 7      4148.826    22158191.560    91997060.338 7      3226.865    22158191.080    91997060.349 7      3226.865
G16  22299244.540   117183316.272 7      -274.313    22299243.520   117183316.282 5      -274.313    22299252.320    91311688.716 5      -213.750
R16  23105019.540   123422875.771 6      6325.661    23105020.600   123422875.785 6      6325.661    23105034.400    95995626.832 7      4919.959    23105034.700    95995621.827 7      4919.959
> 2025 04 04 14 42  0.0000000  0 12
G27  21433037.920   112631365.675 7      1581.017    21433036.160   112631365.677 7      1581.017    21433044.620    87764732.273 7      1231.961    21433045.180    87764733.284 7      1231.961
G02  21014192.880   110430328.100 7      2597.698    21014191.400   110430328.108 6      2597.698    21014194.500    86049613.775 6      2024.180
R15  19883833.060   106253173.940 7      3061.454    19883831.520   106253173.919 7      3061.454    19883842.360    82641396.900 8      2381.131    19883842.840    82641397.911 8      2381.131
G08  20812812.460   109372061.711 8      3392.991    20812811.580   109372061.713 8      3392.991    20812818.640    85225013.770 8      2643.889    20812819.300    85225017.780 8      2643.889
R17  20518823.400   109800365.850 8      2253.477    20518824.900   109800365.862 7      2253.477    20518834.420    85400332.761 8      1752.704    20518834.160    85400332.770 8      1752.704
R14  20813533.740   110947836.021 8      -757.352    20813533.620   110947836.026 8      -757.352    20813547.600    86292810.932 8      -589.052    20813547.520    86292815.931 8      -589.052
G01  21939296.020   115291781.528 7      4516.456    21939294.460   115291781.533 5      4516.456    21939302.660    89837778.934 5      3519.316    21939303.140    89837784.945 8      3519.316
G10  22851218.420   120083956.907 7       877.882    22851217.760   120083956.915 7       877.882    22851227.500    93571947.426 6       684.064    22851227.240    93571952.428 7       684.064
R24  22304997.860   119274828.690 7       428.416    22304997.800   119274828.705 7       428.416    22305011.020    92769372.552 7       333.212    22305010.820    92769372.555 7       333.212
R18  22157399.260   118277706.705 6      4149.289    22157401.720   118277706.697 7      4149.289    22157413.800    91993833.261 7      3227.225    22157413.780    91993833.268 7      3227.225
G16  22299296.700   117183590.442 7      -274.061    22299295.600   117183590.450 5      -274.061    22299304.460    91311902.354 5      -213.554
R16  23103835.760   123416549.851 6      6325.764    23103836.900   123416549.865 6      6325.764    23103850.120    95990706.678 7      4920.039    23103850.480    95990701.673 7      4920.039
> 2025 04 04 14 42  1.0000000  0 12
G27  21432737.180   112629784.571 7      1581.330    21432735.120   112629784.573 7      1581.330    21432743.720    87763500.252 7      1232.205    21432744.000    87763501.262 7      1232.205
G02  21013698.640   110427730.205 8      2598.096    21013697.040   110427730.207 6      2598.096    21013700.100    86047589.447 6      2024.490
R15  19883260.280   106250112.696 8      3061.121    19883258.860   106250112.678 7      3061.121    19883269.620    82639015.942 8      2380.872    19883270.140    82639016.950 8      2380.872
G08  20812166.800   109368668.456 8      3393.468    20812165.760   109368668.455 8      3393.468    20812172.960    85222369.680 8      2644.261    20812173.520    85222373.695 8      2644.261
R17  20518402.200   109798112.170 8      2253.941    20518403.740   109798112.188 7      2253.941    20518413.580    85398579.907 8      1753.065    20518413.040    85398579.918 8      1753.065
R14  20813675.860   110948593.363 8      -757.241    20813675.660   110948593.369 8      -757.241    20813689.600    86293399.978 8      -588.965    20813689.620    86293404.975 8      -588.965
G01  21938436.560   115287264.933 7      4516.720    21938434.980   115287264.941 5      4516.720    21938443.360    89834259.523 5      3519.522    21938443.640    89834265.539 8      3519.522
G10  22851051.360   120083078.927 7       878.080    22851050.740   120083078.935 6       878.080    22851060.400    93571263.294 7       684.218    22851059.800    93571268.296 7       684.218
R24  22304917.660   119274400.025 7       428.888    22304916.980   119274400.048 7       428.888    22304930.480    92769039.157 7       333.579    22304930.420    92769039.161 7       333.579
R18  22156622.280   118273557.350 6      4149.441    22156624.440   118273557.361 7      4149.441    22156636.480    91990606.008 7      3227.343    22156636.480    91990606.017 7      3227.343
G16  22299349.060   117183864.474 7      -273.898    22299347.720   117183864.487 5      -273.898    22299356.660    91312115.891 5      -213.427
R16  23102652.260   123410223.818 6      6326.059    23102652.600   123410223.835 6      6326.059    23102665.760    95985786.442 7      4920.268    23102665.960    95985781.436 7      4920.268
> 2025 04 04 14 42  2.0000000  0 12
G27  21432436.020   112628202.952 7      1582.107    21432434.180   112628202.955 7      1582.107    21432442.680    87762267.824 7      1232.811    21432443.100    87762268.832 7      1232.811
G02  21013204.120   110425131.911 7      2598.823    21013202.800   110425131.915 6      2598.823    21013205.720    86045564.812 6      2025.057
R15  19882687.300   106247051.615 8      3061.266    19882685.720   106247051.606 7      3061.266    19882696.800    82636635.114 8      2380.984    19882696.940    82636636.124 8      2380.984
G08  20811520.840   109365274.664 8      3394.332    20811520.000   109365274.664 8      3394.332    20811527.160    85219725.175 8      2644.934    20811527.780    85219729.186 8      2644.934
R17  20517981.100   109795857.877 8      2254.861    20517982.660   109795857.898 7      2254.861    20517992.060    85396826.578 8      1753.780    20517992.000    85396826.589 8      1753.780
R14  20813817.900   110949350.484 8      -756.709    20813817.900   110949350.487 8      -756.709    20813831.720    86293988.844 8      -588.551    20813831.660    86293993.845 8      -588.551
G01  21937577.020   115282747.983 7      4517.350    21937575.480   115282747.991 5      4517.350    21937583.920    89830739.836 5      3520.013    21937584.340    89830745.848 8      3520.013
G10  22850884.340   120082200.756 7       878.589    22850883.480   120082200.763 7       878.589    22850893.120    93570579.011 6       684.615    22850892.700    93570584.013 7       684.615
R24  22304837.460   119273970.625 7       430.017    22304837.080   119273970.637 7       430.017    22304850.180    92768705.177 7       334.458    22304850.220    92768705.179 7       334.458
R18  22155845.480   118269407.480 6      4150.316    22155846.660   118269407.496 7      4150.316    22155858.880    91987378.352 7      3228.024    22155859.040    91987378.359 7      3228.024
G16  22299401.120   117184138.091 7      -273.111    22299399.780   117184138.098 5      -273.111    22299408.720    91312329.095 5      -212.813
R16  23101467.580   123403897.484 6      6326.878    23101468.100   123403897.501 6      6326.878    23101481.740    95980865.966 7      4920.905    23101481.800    95980860.960 7      4920.905
> 2025 04 04 14 42  3.0000000  0 12
G27  21432134.820   112626620.653 7      1582.467    21432133.040   112626620.656 7      1582.467    21432141.580    87761034.868 7      1233.091    21432142.000    87761035.884 7      1233.091
G02  21012709.700   110422533.056 7      2599.019    21012708.160   110422533.061 6      2599.019    21012711.140    86043539.737 6      2025.210
R15  19882114.560   106243990.540 8      3061.009    19882113.060   106243990.531 7      3061.009    19882124.040    82634254.283 8      2380.785    19882124.180    82634255.292 8      2380.785
G08  20810875.040   109361880.161 8      3394.759    20810874.020   109361880.163 8      3394.759    20810881.180    85217080.118 8      2645.267    20810881.760    85217084.129 8      2645.267
R17  20517559.420   109793602.838 8      2255.325    20517560.940   109793602.861 7      2255.325    20517570.840    85395072.667 8      1754.142    20517570.400    85395072.678 8      1754.142
R14  20813959.900   110950107.192 8      -756.569    20813960.020   110950107.195 8      -756.569    20813973.640    86294577.395 8      -588.443    20813973.500    86294582.396 8      -588.443
G01  21936717.600   115278230.489 7      4517.656    21936715.800   115278230.497 5      4517.656    21936724.300    89827219.719 5      3520.251    21936724.460    89827225.733 8      3520.251
G10  22850716.900   120081322.198 7       878.640    22850716.200   120081322.200 7       878.640    22850725.940    93569894.426 6       684.654    22850725.560    93569899.431 7       684.654
R24  22304756.920   119273540.265 7       430.765    22304757.060   119273540.274 7       430.765    22304769.700    92768370.456 7       335.040    22304769.680    92768370.461 7       335.040
R18  22155067.980   118265256.964 6      4150.724    22155069.040   118265256.978 7      4150.724    22155081.220    91984150.181 7      3228.341    22155081.420    91984150.190 7      3228.341
G16  22299453.120   117184411.145 7      -272.898    22299451.680   117184411.153 5      -272.898    22299460.740    91312541.866 5      -212.648
R16  23100283.240   123397570.728 6      6326.867    23100283.660   123397570.740 6      6326.867    23100297.300    95975945.155 7      4920.896    23100297.240    95975940.150 7      4920.896
> 2025 04 04 14 42  4.0000000  0 12
G27  21431833.720   112625037.989 7      1582.576    21431831.880   112625037.986 7      1582.576    21431840.340    87759801.627 7      1233.176    21431840.920    87759802.639 7      1233.176
G02  21012214.860   110419933.924 8      2599.099    21012213.620   110419933.926 6      2599.099    21012216.640    86041514.443 6      2025.272
R15  19881541.640   106240929.748 7      3060.434    19881540.340   106240929.741 7      3060.434    19881551.280    82631873.674 8      2380.338    19881551.380    82631874.684 8      2380.338
G08  20810228.980   109358485.253 8      3394.956    20810227.900   109358485.258 8      3394.956    20810235.060    85214434.745 8      2645.421    20810236.020    85214438.754 8      2645.421
R17  20517138.000   109791347.416 8      2255.424    20517139.660   109791347.434 7      2255.424    20517149.300    85393318.454 8      1754.218    20517149.040    85393318.465 8      1754.218
R14  20814101.780   110950863.852 8      -756.871    20814101.780   110950863.858 8      -756.871    20814115.580    86295165.908 8      -588.677    20814115.600    86295170.907 8      -588.677
G01  21935858.020   115273712.783 7      4517.657    21935856.140   115273712.790 5      4517.657    21935864.660    89823699.441 5      3520.252    21935865.100    89823705.456 8      3520.252
G10  22850549.680   120080443.572 7       878.431    22850549.000   120080443.579 7       878.431    22850558.860    93569209.793 6       684.492    22850558.480    93569214.797 7       684.492
R24  22304676.020   119273109.186 7       431.236    22304675.980   119273109.203 7       431.236    22304688.880    92768035.183 7       335.406    22304689.080    92768035.192 7       335.406
R18  22154290.620   118261106.114 6      4150.793    22154291.820   118261106.139 7      4150.793    22154303.740    91980921.761 7      3228.395    22154304.120    91980921.773 7      3228.395
G16  22299505.000   117184683.955 7      -272.899    22299503.600   117184683.960 5      -272.899    22299512.720    91312754.447 5      -212.649
R16  23099098.400   123391243.815 6      6326.851    23099099.820   123391243.816 6      6326.851    23099112.780    95971024.221 7      4920.884    23099112.700    95971019.219 7      4920.884
> 2025 04 04 14 42  5.0000000  0 12
G27  21431532.340   112623454.844 7      1583.221    21431530.620   112623454.846 7      1583.221    21431539.160    87758568.018 7      1233.679    21431539.780    87758569.032 7      1233.679
G02  21011720.180   110417334.442 7      2599.675    21011719.040   110417334.446 6      2599.675    21011721.860    86039488.885 6      2025.721
R15  19880969.040   106237869.132 8      3060.486    19880967.300   106237869.126 7      3060.486    19880978.620    82629493.207 8      2380.378    19880978.560    82629494.214 8      2380.378
G08  20809583.040   109355089.880 8      3395.565    20809581.840   109355089.882 8      3395.565    20809589.060    85211789.008 8      2645.894    20809590.020    85211793.021 8      2645.894
R17  20516716.300   109789091.494 8      2256.129    20516718.120   109789091.511 7      2256.129    20516727.740    85391563.861 8      1754.767    20516727.280    85391563.869 8      1754.767
R14  20814243.800   110951620.326 8      -756.382    20814243.820   110951620.329 8      -756.382    20814257.440    86295754.274 8      -588.297    20814257.400    86295759.273 8      -588.297
G01  21934997.960   115269194.774 7      4518.174    21934996.280   115269194.779 5      4518.174    21935005.160    89820178.931 5      3520.655    21935005.140    89820184.940 8      3520.655
G10  22850382.380   120079564.772 7       878.884    22850381.740   120079564.777 7       878.884    22850391.740    93568525.016 7       684.845    22850391.540    93568530.024 7       684.845
R24  22304595.240   119272677.336 7       432.267    22304595.140   119272677.343 7       432.267    22304608.240    92767699.294 7       336.208    22304608.520    92767699.302 7       336.208
R18  22153512.700   118256954.829 7      4151.523    22153513.700   118256954.844 7      4151.523    22153526.320    91977692.999 7      3228.963    22153526.200    91977693.004 7      3228.963
G16  22299556.700   117184956.408 7      -272.257    22299555.320   117184956.412 5      -272.257    22299564.400    91312966.748 5      -212.148
R16  23097915.200   123384916.666 6      6327.070    23097915.060   123384916.659 6      6327.070    23097928.260    95966103.113 7      4921.055    23097928.580    95966098.110 7      4921.055
> 2025 04 04 14 42  6.0000000  0 12
G27  21431231.060   112621871.289 7      1583.897    21431229.380   112621871.286 7      1583.897    21431237.860    87757334.079 7      1234.205    21431238.200    87757335.091 7      1234.205
G02  21011225.540   110414734.684 7      2599.822    21011224.360   110414734.688 6      2599.822    21011227.360    86037463.110 6      2025.836
R15  19880396.240   106234808.784 7      3060.157    19880394.980   106234808.782 7      3060.157    19880406.020    82627112.945 8      2380.122    19880406.220    82627113.955 8      2380.122
G08  20808936.760   109351694.063 7      3396.022    20808935.440   109351694.065 8      3396.022    20808942.720    85209142.921 8      2646.251    20808943.720    85209146.932 8      2646.251
R17  20516294.940   109786835.122 8      2256.616    20516296.220   109786835.139 7      2256.616    20516306.080    85389808.909 8      1755.146    20516305.860    85389808.920 8      1755.146
R14  20814385.880   110952376.684 8      -756.255    20814385.460   110952376.685 8      -756.255    20814399.280    86296342.553 8      -588.198    20814399.660    86296347.555 8      -588.198
G01  21934138.380   115264676.507 7      4518.382    21934136.480   115264676.515 6      4518.382    21934145.420    89816658.220 6      3520.817    21934145.380    89816664.227 8      3520.817
G10  22850215.260   120078685.888 7       878.902    22850214.540   120078685.893 7       878.902    22850224.280    93567840.180 6       684.859    22850223.800    93567845.182 7       684.859
R24  22304514.300   119272244.808 7       432.790    22304514.360   119272244.825 7       432.790    22304527.000    92767362.895 7       336.614    22304527.040    92767362.904 7       336.614
R18  22152734.420   118252803.136 6      4152.007    22152736.400   118252803.159 7      4152.007    22152748.660    91974463.915 7      3229.338    22152748.580    91974463.928 7      3229.338
G16  22299608.460   117185228.576 7      -271.998    22299607.240   117185228.581 5      -271.998    22299616.380    91313178.830 5      -211.946
R16  23096730.500   123378589.282 6      6327.354    23096730.420   123378589.286 6      6327.354    23096743.600    95961181.831 7      4921.275    23096743.720    95961176.824 7      4921.275
> 2025 04 04 14 42  7.0000000  0 12
G27  21430929.480   112620287.227 7      1584.317    21430927.740   112620287.229 7      1584.317    21430936.380    87756099.757 7      1234.533    21430936.620    87756100.771 7      1234.533
G02  21010730.780   110412134.463 8      2600.495    21010729.460   110412134.468 6      2600.495    21010732.360    86035436.974 6      2026.360
R15  19879823.620   106231748.572 8      3060.314    19879822.320   106231748.567 7      3060.314    19879833.300    82624732.786 8      2380.244    19879833.400    82624733.794 8      2380.244
G08  20808290.180   109348297.679 8      3396.718    20808289.320   109348297.676 8      3396.718    20808296.560    85206496.394 8      2646.793    20808297.300    85206500.403 8      2646.793
R17  20515873.460   109784578.156 8      2257.284    20515874.300   109784578.174 7      2257.284    20515884.260    85388053.502 8      1755.665    20515884.120    85388053.512 8      1755.665
R14  20814527.660   110953132.785 8      -755.959    20814527.480   110953132.791 8      -755.959    20814541.080    86296930.631 8      -587.968    20814541.200    86296935.633 8      -587.968
G01  21933278.500   115260157.847 7      4518.967    21933276.620   115260157.852 6      4518.967    21933285.440    89813137.196 5      3521.273    21933285.880    89813143.201 8      3521.273
G10  22850048.060   120077806.731 7       879.314    22850047.080   120077806.739 6       879.314    22850057.080    93567155.129 6       685.180    22850056.660    93567160.133 7       685.180
R24  22304433.160   119271811.421 7       433.977    22304433.440   119271811.444 7       433.977    22304445.800    92767025.825 7       337.537    22304446.140    92767025.832 7       337.537
R18  22151956.800   118248650.931 6      4152.630    22151958.620   118248650.945 7      4152.630    22151970.640    91971234.432 7      3229.823    22151970.660    91971234.443 7      3229.823
G16  22299660.340   117185500.319 7      -271.416    22299659.120   117185500.327 5      -271.416    22299668.060    91313390.578 5      -211.493
R16  23095546.300   123372261.511 6      6328.186    23095546.160   123372261.528 6      6328.186    23095559.060    95956260.238 7      4921.923    23095559.220    95956255.234 7      4921.923
> 2025 04 04 14 42  8.0000000  0 12
G27  21430628.080   112618702.760 7      1584.593    21430626.300   112618702.760 7      1584.593    21430634.960    87754865.110 7      1234.748    21430635.220    87754866.125 7      1234.748
G02  21010235.960   110409533.980 7      2600.639    21010234.580   110409533.982 6      2600.639    21010237.640    86033410.630 6      2026.472
R15  19879250.900   106228688.731 8      3059.697    19879249.540   106228688.724 7      3059.697    19879260.700    82622352.911 8      2379.764    19879260.940    82622353.920 8      2379.764
G08  20807643.880   109344900.887 8      3396.864    20807642.860   109344900.889 8      3396.864    20807650.100    85203849.553 8      2646.907    20807651.120    85203853.566 8      2646.907
R17  20515451.400   109782320.741 8      2257.603    20515452.460   109782320.758 7      2257.603    20515462.440    85386297.743 8      1755.914    20515462.400    85386297.753 8      1755.914
R14  20814669.520   110953888.781 8      -755.986    20814669.060   110953888.782 8      -755.986    20814682.880    86297518.629 8      -587.989    20814683.060    86297523.626 8      -587.989
G01  21932418.560   115255638.966 7      4518.994    21932416.820   115255638.965 5      4518.994    21932425.520    89809615.998 5      3521.294    21932426.020    89809622.008 8      3521.294
G10  22849880.520   120076927.509 7       879.227    22849879.760   120076927.516 6       879.227    22849889.740    93566470.032 6       685.112    22849889.540    93566475.032 7       685.112
R24  22304352.100   119271377.428 7       434.327    22304352.400   119271377.445 7       434.327    22304364.420    92766688.274 7       337.810    22304364.800    92766688.287 7       337.810
R18  22151179.040   118244498.376 7      4152.724    22151180.120   118244498.390 7      4152.724    22151192.760    91968004.677 7      3229.896    22151192.900    91968004.689 7      3229.896
G16  22299712.060   117185771.797 7      -271.346    22299710.780   117185771.807 5      -271.346    22299719.760    91313602.121 5      -211.439
R16  23094362.020   123365933.585 6      6328.210    23094361.580   123365933.608 6      6328.210    23094374.340    95951338.532 7      4921.941    23094374.380    95951333.529 7      4921.941
> 2025 04 04 14 42  9.0000000  0 12
G27  21430326.320   112617117.797 7      1585.018    21430324.660   112617117.802 7      1585.018    21430333.240    87753630.084 7      1235.079    21430333.600    87753631.101 7      1235.079
G02  21009741.100   110406933.113 7      2600.910    21009739.680   110406933.118 6      2600.910    21009742.820    86031383.990 6      2026.683
R15  19878678.160   106225629.058 8      3059.469    19878677.220   106225629.051 7      3059.469    19878688.180    82619973.177 8      2379.587    19878688.380    82619974.183 8      2379.587
G08  20806997.420   109341503.554 8      3397.449    20806996.300   109341503.553 8      3397.449    20807003.660    85201202.289 8      2647.363    20807004.440    85201206.300 8      2647.363
R17  20515029.300   109780062.788 8      2258.027    20515030.220   109780062.805 7      2258.027    20515040.580    85384541.563 8      1756.243    20515040.360    85384541.576 8      1756.243
R14  20814811.380   110954644.551 8      -755.817    20814810.960   110954644.554 8      -755.817    20814824.560    86298106.448 8      -587.858    20814824.840    86298111.445 8      -587.858
G01  21931558.700   115251119.730 7      4519.310    21931556.920   115251119.729 6      4519.310    21931565.540    89806094.528 5      3521.540    21931566.160    89806100.537 8      3521.540
G10  22849713.140   120076048.087 6       879.371    22849712.200   120076048.097 6       879.371    22849722.260    93565784.772 6       685.224    22849721.720    93565789.774 7       685.224
R24  22304270.800   119270942.637 7       434.994    22304270.640   119270942.660 7       434.994    22304283.080    92766350.116 7       338.329    22304283.420    92766350.127 7       338.329
R18  22150401.200   118240345.348 7      4153.127    22150402.320   118240345.352 7      4153.127    22150414.460    91964774.555 7      3230.210    22150414.880    91964774.564 7      3230.210
G16  22299763.640   117186042.891 7      -271.004    22299762.400   117186042.899 5      -271.004    22299771.400    91313813.365 5      -211.172
R16  23093177.560   123359605.374 6      6328.147    23093177.340   123359605.396 6      6328.147    23093189.720    95946416.604 7      4921.892    23093189.580    95946411.597 7      4921.892
> 2025 04 04 14 42 10.0000000  0 12
G27  21430024.760   112615532.476 7      1585.526    21430023.020   112615532.481 7      1585.526    21430031.580    87752394.777 7      1235.475    21430031.940    87752395.787 7      1235.475
G02  21009246.120   110404331.984 7      2601.335    21009244.720   110404331.986 6      2601.335    21009247.880    86029357.144 6      2027.014
R15  19878105.940   106222569.682 8      3059.275    19878104.640   106222569.675 7      3059.275    19878115.760    82617593.668 8      2379.436    19878115.940    82617594.675 8      2379.436
G08  20806351.040   109338105.837 7      3397.944    20806349.680   109338105.844 8      3397.944    20806357.080    85198554.728 8      2647.749    20806357.900    85198558.739 8      2647.749
R17  20514607.420   109777804.415 8      2258.624    20514608.180   109777804.435 7      2258.624    20514618.460    85382785.063 8      1756.707    20514618.400    85382785.076 8      1756.707
R14  20814953.260   110955400.214 8      -755.577    20814952.800   110955400.217 8      -755.577    20814966.400    86298694.188 8      -587.671    20814966.640    86298699.187 8      -587.671
G01  21930698.640   115246600.286 7      4519.604    21930696.820   115246600.289 5      4519.604    21930705.540    89802572.896 5      3521.770    21930705.960    89802578.903 8      3521.770
G10  22849545.560   120075168.585 7       879.568    22849544.780   120075168.598 6       879.568    22849554.920    93565099.461 6       685.377    22849554.680    93565104.465 7       685.377
R24  22304189.200   119270507.208 7       435.787    22304189.100   119270507.230 7       435.787    22304201.560    92766011.449 7       338.946    22304201.960    92766011.464 7       338.946
R18  22149623.200   118236191.993 7      4153.510    22149623.960   118236191.999 7      4153.510    22149636.680    91961544.182 7      3230.507    22149636.760    91961544.187 7      3230.507
G16  22299815.260   117186313.738 7      -270.708    22299813.860   117186313.749 5      -270.708    22299822.860    91314024.419 5      -210.941
R16  23091992.500   123353276.972 6      6328.510    23091991.980   123353277.003 6      6328.510    23092005.080    95941494.517 7      4922.174    23092005.020    95941489.511 7      4922.174
> 2025 04 04 14 42 11.0000000  0 12
G27  21429723.140   112613946.751 7      1585.814    21429721.220   112613946.758 7      1585.814    21429729.820    87751159.151 7      1235.699    21429730.220    87751160.169 7      1235.699
G02  21008751.160   110401730.557 7      2601.644    21008749.920   110401730.567 6      2601.644    21008752.900    86027330.069 6      2027.255
R15  19877533.840   106219510.549 8      3059.050    19877532.260   106219510.543 7      3059.050    19877543.340    82615214.345 8      2379.261    19877543.420    82615215.351 8      2379.261
G08  20805704.480   109334707.692 7      3398.405    20805703.060   109334707.699 8      3398.405    20805710.420    85195906.831 8      2648.108    20805711.200    85195910.842 8      2648.108
R17  20514185.720   109775545.603 8      2259.164    20514186.020   109775545.610 7      2259.164    20514196.500    85381028.205 8      1757.127    20514196.480    85381028.218 8      1757.127
R14  20815095.000   110956155.766 8      -755.527    20815094.820   110956155.771 8      -755.527    20815108.380    86299281.835 8      -587.632    20815108.440    86299286.832 8      -587.632
G01  21929838.460   115242080.575 7      4519.968    21929836.740   115242080.580 5      4519.968    21929845.460    89799051.055 5      3522.053    21929845.940    89799057.062 8      3522.053
G10  22849378.400   120074288.998 7       879.682    22849377.460   120074289.013 6       879.682    22849387.580    93564414.072 6       685.467    22849387.460    93564419.078 7       685.467
R24  22304107.740   119270071.078 7       436.435    22304107.560   119270071.101 7       436.435    22304120.040    92765672.237 7       339.449    22304120.560    92765672.254 7       339.449
R18  22148845.060   118232038.202 7      4154.130    22148845.640   118232038.211 7      4154.130    22148858.240    91958313.470 7      3230.990    22148858.440    91958313.477 7      3230.990
G16  22299866.780   117186584.312 7      -270.460    22299865.380   117186584.325 5      -270.460    22299874.500    91314235.258 5      -210.748
R16  23090807.840   123346948.381 6      6328.829    23090807.540   123346948.398 6      6328.829    23090820.460    95936572.279 7      4922.422    23090820.520    95936567.276 7      4922.422
> 2025 04 04 14 42 12.0000000  0 12
G27  21429421.280   112612360.584 7      1586.407    21429419.340   112612360.591 7      1586.407    21429428.060    87749923.181 7      1236.161    21429428.300    87749924.197 7      1236.161
G02  21008256.040   110399128.847 7      2601.824    21008254.820   110399128.852 6      2601.824    21008257.740    86025302.764 6      2027.396
R15  19876961.280   106216451.678 8      3058.714    19876959.880   106216451.677 7      3058.714    19876970.920    82612835.231 8      2379.000    19876970.920    82612836.236 8      2379.000
G08  20805057.560   109331309.103 7      3398.811    20805056.380   109331309.105 8      3398.811    20805063.660    85193258.586 8      2648.424    20805064.460    85193262.593 8      2648.424
R17  20513763.380   109773286.309 8      2259.466    20513763.920   109773286.324 8      2259.466    20513774.140    85379270.991 8      1757.362    20513774.200    85379271.002 8      1757.362
R14  20815236.740   110956911.197 8      -755.431    20815236.620   110956911.203 8      -755.431    20815250.020    86299869.390 8      -587.558    20815250.240    86299874.391 8      -587.558
G01  21928978.440   115237560.624 7      4520.071    21928976.600   115237560.629 6      4520.071    21928985.360    89795529.030 6      3522.133    21928985.760    89795535.035 8      3522.133
G10  22849211.360   120073409.284 7       879.745    22849210.020   120073409.296 6       879.745    22849220.140    93563728.589 6       685.515    22849220.100    93563733.589 7       685.515
R24  22304025.900   119269634.221 7       437.226    22304025.920   119269634.235 7       437.226    22304038.080    92765332.457 7       340.065    22304038.540    92765332.470 7       340.065
R18  22148067.320   118227884.067 7      4154.296    22148067.240   118227884.067 7      4154.296    22148079.960    91955082.489 7      3231.119    22148080.260    91955082.492 7      3231.119
G16  22299918.080   117186854.587 7      -270.250    22299916.900   117186854.597 5      -270.250    22299926.040    91314445.863 5      -210.584
R16  23089622.440   123340619.635 6      6328.652    23089622.780   123340619.658 6      6328.652    23089635.620    95931649.940 7      4922.285    23089635.940    95931644.938 7      4922.285
> 2025 04 04 14 42 13.0000000  0 12
G27  21429119.280   112610774.110 7      1586.697    21429117.540   112610774.117 7      1586.697    21429126.220    87748686.973 7      1236.387    21429126.780    87748687.983 7      1236.387
G02  21007760.800   110396526.858 7      2602.284    21007759.620   110396526.863 6      2602.284    21007762.580    86023275.253 6      2027.754
R15  19876388.900   106213393.099 8      3058.567    19876387.700   106213393.092 7      3058.567    19876398.680    82610456.340 8      2378.885    19876398.740    82610457.344 8      2378.885
G08  20804410.800   109327910.146 8      3399.238    20804409.540   109327910.143 8      3399.238    20804416.860    85190610.050 8      2648.757    20804417.640    85190614.061 8      2648.757
R17  20513341.060   109771026.582 7      2260.028    20513341.600   109771026.597 7      2260.028    20513351.880    85377513.430 8      1757.799    20513351.840    85377513.443 8      1757.799
R14  20815378.260   110957666.602 8      -755.356    20815378.220   110957666.610 8      -755.356    20815391.660    86300456.931 8      -587.499    20815391.680    86300461.933 8      -587.499
G01  21928118.120   115233040.450 7      4520.397    21928116.540   115233040.452 6      4520.397    21928125.200    89792006.829 6      3522.388    21928125.660    89792012.836 8      3522.388
G10  22849043.860   120072529.520 7       879.857    22849042.560   120072529.530 6       879.857    22849052.700    93563043.063 6       685.603    22849052.700    93563048.063 7       685.603
R24  22303944.260   119269196.738 7       437.879    22303944.200   119269196.747 7       437.879    22303956.040    92764992.193 7       340.572    22303956.960    92764992.212 7       340.572
R18  22147288.340   118223729.560 7      4154.681    22147288.320   118223729.572 6      4154.681    22147301.720    91951851.223 7      3231.419    22147301.860    91951851.223 7      3231.419
G16  22299969.520   117187124.596 7      -269.749    22299968.240   117187124.601 5      -269.749    22299977.400    91314656.258 5      -210.194
R16  23088437.660   123334290.716 6      6329.101    23088438.320   123334290.736 6      6329.101    23088450.880    95926727.457 7      4922.634    23088450.860    95926722.452 7      4922.634
> 2025 04 04 14 42 14.0000000  0 12
G27  21428817.300   112609187.176 7      1587.182    21428815.620   112609187.178 7      1587.182    21428824.160    87747450.406 7      1236.766    21428824.800    87747451.415 7      1236.766
G02  21007265.700   110393924.572 7      2602.523    21007264.580   110393924.577 6      2602.523    21007267.260    86021247.504 6      2027.940
R15  19875816.400   106210334.775 8      3058.294    19875815.200   106210334.769 7      3058.294    19875826.300    82608077.648 8      2378.673    19875826.520    82608078.659 8      2378.673
G08  20803764.100   109324510.705 8      3399.738    20803762.680   109324510.708 8      3399.738    20803770.020    85187961.147 8      2649.147    20803770.820    85187965.156 8      2649.147
R17  20512918.680   109768766.371 7      2260.502    20512919.400   109768766.381 7      2260.502    20512929.500    85375755.492 8      1758.168    20512929.460    85375755.505 8      1758.168
R14  20815519.980   110958421.881 8      -755.116    20815520.040   110958421.887 8      -755.116    20815533.340    86301044.369 8      -587.313    20815533.480    86301049.368 8      -587.313
G01  21927257.880   115228519.995 7      4520.696    21927256.280   115228520.000 6      4520.696    21927265.160    89788484.411 6      3522.620    21927265.400    89788490.420 8      3522.620
G10  22848876.520   120071649.635 7       879.916    22848875.060   120071649.642 6       879.916    22848885.340    93562357.442 6       685.649    22848885.340    93562362.440 7       685.649
R24  22303862.320   119268758.512 7       438.587    22303861.840   119268758.516 7       438.587    22303874.320    92764651.356 7       341.123    22303874.940    92764651.367 7       341.123
R18  22146510.100   118219574.651 7      4155.142    22146510.420   118219574.649 6      4155.142    22146523.340    91948619.629 7      3231.777    22146523.560    91948619.638 7      3231.777
G16  22300020.700   117187394.303 7      -269.483    22300019.600   117187394.310 5      -269.483    22300028.960    91314866.419 5      -209.986
R16  23087253.060   123327961.588 6      6329.336    23087253.140   123327961.605 6      6329.336    23087265.860    95921804.807 7      4922.817    23087266.200    95921799.801 7      4922.817
> 2025 04 04 14 42 15.0000000  0 12
G27  21428515.640   112607599.742 7      1587.529    21428513.580   112607599.745 7      1587.529    21428522.160    87746213.447 7      1237.035    21428522.600    87746214.460 7      1237.035
G02  21006770.460   110391321.898 7      2602.603    21006769.340   110391321.903 6      2602.603    21006772.180    86019219.454 6      2028.003
R15  19875244.220   106207276.634 8      3057.941    19875243.160   106207276.635 7      3057.941    19875253.960    82605699.106 8      2378.399    19875254.020    82605700.113 8      2378.399
G08  20803117.300   109321110.758 8      3400.042    20803115.720   109321110.760 8      3400.042    20803123.060    85185311.842 8      2649.383    20803123.960    85185315.851 8      2649.383
R17  20512496.500   109766505.635 7      2260.793    20512496.940   109766505.645 7      2260.793    20512507.220    85373997.149 8      1758.394    20512507.080    85373997.155 8      1758.394
R14  20815661.840   110959176.985 8      -755.194    20815661.620   110959176.988 8      -755.194    20815674.720    86301631.665 8      -587.373    20815674.900    86301636.662 8      -587.373
G01  21926397.540   115223999.206 7      4520.808    21926396.040   115223999.209 6      4520.808    21926404.980    89784961.732 6      3522.708    21926405.260    89784967.736 8      3522.708
G10  22848708.640   120070769.514 7       880.066    22848707.760   120070769.519 6       880.066    22848717.840    93561671.638 6       685.765    22848717.940    93561676.638 7       685.765
R24  22303780.440   119268319.491 7       439.288    22303780.060   119268319.501 7       439.288    22303792.380    92764309.900 7       341.668    22303792.800    92764309.909 7       341.668
R18  22145731.640   118215419.288 7      4155.403    22145731.540   118215419.284 6      4155.403    22145744.620    91945387.688 7      3231.980    22145745.020    91945387.697 7      3231.980
G16  22300072.160   117187663.636 7      -269.294    22300070.940   117187663.641 5      -269.294    22300080.200    91315076.287 5      -209.839
R16  23086067.380   123321632.164 6      6329.372    23086068.180   123321632.178 6      6329.372    23086080.880    95916881.919 7      4922.845    23086081.380    95916876.915 7      4922.845
> 2025 04 04 14 42 16.0000000  0 12
G27  21428213.380   112606011.936 7      1588.248    21428211.240   112606011.938 7      1588.248    21428219.960    87744976.199 7      1237.596    21428220.460    87744977.207 7      1237.596
G02  21006275.020   110388718.932 7      2603.244    21006273.960   110388718.942 6      2603.244    21006276.880    86017191.181 6      2028.502
R15  19874671.940   106204218.816 8      3057.863    19874671.220   106204218.814 7      3057.863    19874681.780    82603320.807 8      2378.338    19874681.780    82603321.816 8      2378.338
G08  20802470.080   109317710.385 7      3400.772    20802468.720   109317710.390 8      3400.772    20802475.940    85182662.213 8      2649.952    20802476.660    85182666.218 8      2649.952
R17  20512073.740   109764244.480 8      2261.532    20512074.140   109764244.486 7      2261.532    20512084.560    85372238.478 8      1758.970    20512084.500    85372238.485 8      1758.970
R14  20815803.100   110959931.923 8      -754.700    20815803.280   110959931.923 8      -754.700    20815816.560    86302218.837 8      -586.989    20815816.700    86302223.835 8      -586.989
G01  21925537.160   115219478.181 7      4521.352    21925535.740   115219478.186 6      4521.352    21925544.800    89781438.866 6      3523.131    21925544.800    89781444.875 8      3523.131
G10  22848541.260   120069889.335 7       880.310    22848540.300   120069889.345 6       880.310    22848550.360    93560985.794 6       685.956    22848550.240    93560990.794 7       685.956
R24  22303698.300   119267879.837 7       440.138    22303697.840   119267879.852 7       440.138    22303709.900    92763967.960 7       342.330    22303710.540    92763967.975 7       342.330
R18  22144953.580   118211263.560 7      4156.075    22144952.400   118211263.558 6      4156.075    22144966.420    91942155.473 7      3232.503    22144966.640    91942155.480 7      3232.503
G16  22300123.320   117187932.699 7      -268.786    22300122.180   117187932.707 5      -268.786    22300131.280    91315285.951 5      -209.444
R16  23084882.560   123315302.534 6      6329.929    23084883.120   123315302.551 6      6329.929    23084896.180    95911958.888 7      4923.278    23084896.260    95911953.882 7      4923.278
> 2025 04 04 14 42 17.0000000  0 12
G27  21427910.620   112604423.552 7      1588.854    21427909.080   112604423.559 7      1588.854    21427917.660    87743738.509 7      1238.068    21427918.100    87743739.515 7      1238.068
G02  21005779.680   110386115.524 7      2603.732    21005778.540   110386115.531 6      2603.732    21005781.420    86015162.558 6      2028.882
R15  19874099.820   106201161.075 8      3057.810    19874098.800   106201161.073 7      3057.810    19874109.580    82600942.571 8      2378.297    19874109.460    82600943.575 8      2378.297
G08  20801822.800   109314309.439 8      3401.342    20801821.400   109314309.441 8      3401.342    20801828.860    85180012.129 8      2650.396    20801829.780    85180016.136 8      2650.396
R17  20511651.180   109761982.687 7      2262.235    20511651.440   109761982.702 7      2262.235    20511661.700    85370479.317 8      1759.516    20511661.900    85370479.325 8      1759.516
R14  20815944.680   110960686.547 8      -754.426    20815944.900   110960686.553 8      -754.426    20815958.140    86302805.765 8      -586.776    20815958.220    86302810.762 8      -586.776
G01  21924676.640   115214956.746 7      4521.876    21924675.520   115214956.746 6      4521.876    21924684.400    89777915.678 6      3523.540    21924684.680    89777921.681 8      3523.540
G10  22848373.280   120069008.872 7       880.767    22848372.740   120069008.879 6       880.767    22848382.800    93560299.721 6       686.312    22848383.160    93560304.709 7       686.312
R24  22303616.120   119267439.368 7       440.945    22303615.440   119267439.369 7       440.945    22303627.440    92763625.366 7       342.958    22303628.000    92763625.379 7       342.958
R18  22144175.060   118207107.273 7      4156.612    22144173.900   118207107.288 6      4156.612    22144187.740    91938922.823 7      3232.921    22144188.220    91938922.834 7      3232.921
G16  22300174.500   117188201.316 7      -268.313    22300173.320   117188201.321 5      -268.313    22300182.520    91315495.258 5      -209.075
R16  23083697.580   123308972.546 6      6330.286    23083698.500   123308972.582 6      6330.286    23083711.140    95907035.577 7      4923.556    23083711.320    95907030.575 7      4923.556
> 2025 04 04 14 42 18.0000000  0 12
G27  21427608.400   112602834.797 7      1589.131    21427606.740   112602834.804 7      1589.131    21427615.420    87742500.522 7      1238.284    21427615.780    87742501.534 7      1238.284
G02  21005284.320   110383511.819 7      2604.009    21005283.220   110383511.824 6      2604.009    21005285.980    86013133.703 6      2029.098
R15  19873527.660   106198103.590 8      3057.509    19873526.900   106198103.589 7      3057.509    19873537.320    82598564.531 8      2378.062    19873537.460    82598565.534 8      2378.062
G08  20801175.400   109310908.064 8      3401.703    20801174.120   109310908.067 8      3401.703    20801181.580    85177361.716 8      2650.678    20801182.520    85177365.723 8      2650.678
R17  20511228.160   109759720.442 8      2262.633    20511228.420   109759720.457 7      2262.633    20511239.120    85368719.803 8      1759.825    20511239.020    85368719.812 8      1759.825
R14  20816086.440   110961441.048 8      -754.303    20816086.540   110961441.054 8      -754.303    20816099.720    86303392.599 8      -586.680    20816099.600    86303397.596 8      -586.680
G01  21923816.280   115210435.066 7      4521.973    21923815.000   115210435.069 6      4521.973    21923824.100    89774392.304 6      3523.616    21923824.380    89774398.313 8      3523.616
G10  22848206.080   120068128.317 7       880.792    22848205.060   120068128.330 7       880.792    22848215.300    93559613.587 7       686.331    22848215.400    93559618.579 7       686.331
R24  22303533.760   119266998.201 7       441.639    22303532.460   119266998.197 7       441.639    22303544.780    92763282.240 7       343.497    22303545.740    92763282.255 7       343.497
R18  22143396.600   118202950.616 6      4157.018    22143394.920   118202950.617 6      4157.018    22143409.260    91935689.875 7      3233.236    22143409.360    91935689.885 7      3233.236
G16  22300225.480   117188469.648 7      -268.097    22300224.480   117188469.658 5      -268.097    22300233.640    91315704.355 5      -208.907
R16  23082513.260   123302642.400 6      6330.392    23082513.980   123302642.428 6      6330.392    23082526.120    95902112.128 7      4923.638    23082526.380    95902107.124 7      4923.638
> 2025 04 04 14 42 19.0000000  0 12
G27  21427306.040   112601245.737 7      1589.240    21427304.420   112601245.745 7      1589.240    21427313.100    87741262.296 7      1238.369    21427313.220    87741263.312 7      1238.369
G02  21004788.800   110380907.913 7      2604.112    21004787.620   110380907.917 6      2604.112    21004790.520    86011104.693 6      2029.178
R15  19872955.760   106195046.480 8      3056.929    19872954.960   106195046.481 7      3056.929    19872965.380    82596186.785 8      2377.611    19872965.180    82596187.790 8      2377.611
G08  20800528.040   109307506.343 8      3402.004    20800526.960   109307506.346 8      3402.004    20800534.200    85174711.030 8      2650.912    20800535.280    85174715.035 8      2650.912
R17  20510805.400   109757457.850 8      2262.799    20510805.600   109757457.862 7      2262.799    20510816.320    85366960.015 8      1759.955    20510816.180    85366960.024 8      1759.955
R14  20816227.940   110962195.552 8      -754.445    20816227.940   110962195.552 8      -754.445    20816241.120    86303979.431 8      -586.790    20816241.100    86303984.429 8      -586.790
G01  21922955.660   115205913.214 7      4522.048    21922954.560   115205913.218 6      4522.048    21922963.800    89770868.800 5      3523.674    21922963.940    89770874.812 8      3523.674
G10  22848038.340   120067247.770 7       880.545    22848037.640   120067247.778 6       880.545    22848047.840    93558927.449 6       686.139    22848047.660    93558932.440 7       686.139
R24  22303450.960   119266556.370 7       442.182    22303449.500   119266556.380 7       442.182    22303461.960    92762938.611 7       343.919    22303462.940    92762938.628 7       343.919
R18  22142617.900   118198793.697 6      4157.097    22142616.380   118198793.690 6      4157.097    22142630.400    91932456.724 7      3233.298    22142630.740    91932456.732 7      3233.298
G16  22300276.320   117188737.789 7      -268.067    22300275.440   117188737.799 5      -268.067    22300284.720    91315913.296 5      -208.884
R16  23081328.280   123296312.143 6      6330.319    23081328.440   123296312.171 6      6330.319    23081341.260    95897188.609 7      4923.581    23081341.360    95897183.607 7      4923.581
> 2025 04 04 14 42 20.0000000  0 12
G27  21427003.620   112599656.533 7      1589.137    21427002.000   112599656.530 7      1589.137    21427010.680    87740023.951 7      1238.289    21427011.000    87740024.967 7      1238.289
G02  21004293.300   110378303.977 7      2603.848    21004292.040   110378303.984 6      2603.848    21004295.020    86009075.658 6      2028.973
R15  19872383.480   106191989.891 8      3056.224    19872382.960   106191989.892 7      3056.224    19872393.380    82593809.442 8      2377.063    19872393.260    82593810.444 8      2377.063
G08  20799880.680   109304104.462 8      3401.917    20799879.520   109304104.464 8      3401.917    20799886.900    85172060.219 8      2650.844    20799887.580    85172064.224 8      2650.844
R17  20510382.120   109755195.067 8      2262.742    20510382.580   109755195.077 7      2262.742    20510393.700    85365200.077 8      1759.910    20510393.460    85365200.086 8      1759.910
R14  20816369.660   110962950.218 8      -754.806    20816369.560   110962950.221 8      -754.806    20816382.800    86304566.398 8      -587.072    20816383.000    86304571.398 8      -587.072
G01  21922095.360   115201391.411 7      4521.647    21922094.040   115201391.415 6      4521.647    21922103.280    89767345.328 6      3523.361    21922103.500    89767351.331 8      3523.361
G10  22847871.280   120066367.371 7       880.086    22847870.080   120066367.375 6       880.086    22847880.280    93558241.429 6       685.781    22847880.120    93558246.421 7       685.781
R24  22303367.820   119266114.096 7       442.409    22303366.540   119266114.106 7       442.409    22303379.180    92762594.622 7       344.096    22303380.260    92762594.631 7       344.096
R18  22141839.100   118194636.650 6      4157.057    22141837.360   118194636.645 6      4157.057    22141851.620    91929223.480 7      3233.267    22141852.060    91929223.485 7      3233.267
G16  22300327.500   117189005.891 7      -268.191    22300326.560   117189005.903 5      -268.191    22300335.600    91316122.208 5      -208.980
R16  23080142.800   123289981.939 6      6330.030    23080143.100   123289981.972 6      6330.030    23080156.120    95892265.129 7      4923.357    23080156.400    95892260.125 7      4923.357
> 2025 04 04 14 42 21.0000000  0 12
G27  21426701.360   112598066.945 7      1589.872    21426699.560   112598066.942 7      1589.872    21426708.080    87738785.320 7      1238.861    21426708.500    87738786.333 7      1238.861
G02  21003797.680   110375699.789 7      2604.462    21003796.480   110375699.788 6      2604.462    21003799.520    86007046.427 6      2029.451
R15  19871811.640   106188933.606 8      3056.328    19871810.860   106188933.607 7      3056.328    19871821.600    82591432.340 8      2377.144    19871821.260    82591433.343 8      2377.144
G08  20799233.280   109300702.200 8      3402.614    20799232.120   109300702.199 8      3402.614    20799239.500    85169409.112 8      2651.388    20799240.080    85169413.119 8      2651.388
R17  20509959.460   109752931.843 8      2263.600    20509959.840   109752931.853 7      2263.600    20509971.000    85363439.794 8      1760.578    20509970.420    85363439.803 8      1760.578
R14  20816511.160   110963704.837 8      -754.485    20816510.940   110963704.840 8      -754.485    20816524.320    86305153.322 8      -586.821    20816524.380    86305158.317 8      -586.821
G01  21921234.700   115196869.353 7      4522.339    21921233.600   115196869.358 6      4522.339    21921242.760    89763821.660 6      3523.901    21921243.020    89763827.662 8      3523.901
G10  22847703.760   120065486.874 7       880.705    22847702.580   120065486.884 7       880.705    22847712.520    93557555.332 6       686.263    22847712.660    93557560.325 7       686.263
R24  22303284.780   119265671.156 7       443.462    22303283.840   119265671.171 7       443.462    22303296.760    92762250.117 7       344.915    22303297.260    92762250.134 7       344.915
R18  22141059.920   118190479.264 6      4157.783    22141058.540   118190479.257 6      4157.783    22141072.840    91925989.966 7      3233.832    22141073.200    91925989.977 7      3233.832
G16  22300378.540   117189273.750 7      -267.595    22300377.520   117189273.763 5      -267.595    22300386.460    91316330.930 5      -208.516
R16  23078957.500   123283651.556 6      6330.638    23078957.960   123283651.594 6      6330.638    23078971.160    95887341.506 7      4923.830    23078971.520    95887336.502 7      4923.830
> 2025 04 04 14 42 22.0000000  0 12
G27  21426398.580   112596477.005 7      1590.060    21426397.240   112596477.008 7      1590.060    21426405.580    87737546.409 7      1239.008    21426406.160    87737547.425 7      1239.008
G02  21003302.020   110373095.333 7      2604.548    21003300.900   110373095.335 6      2604.548    21003303.880    86005016.989 6      2029.518
R15  19871239.940   106185877.674 8      3055.740    19871239.420   106185877.673 7      3055.740    19871249.680    82589055.508 8      2376.687    19871249.320    82589056.513 8      2376.687
G08  20798585.820   109297299.535 8      3402.801    20798584.720   109297299.543 8      3402.801    20798591.980    85166757.698 8      2651.533    20798592.920    85166761.705 8      2651.533
R17  20509536.520   109750668.188 8      2263.948    20509536.900   109750668.195 7      2263.948    20509548.000    85361679.180 8      1760.848    20509547.520    85361679.185 8      1760.848
R14  20816652.680   110964459.354 8      -754.463    20816652.660   110964459.362 8      -754.463    20816666.080    86305740.168 8      -586.805    20816665.940    86305745.163 8      -586.805
G01  21920374.340   115192347.090 7      4522.403    21920372.920   115192347.097 6      4522.403    21920382.280    89760297.827 6      3523.951    21920382.480    89760303.835 8      3523.951
G10  22847536.360   120064606.340 7       880.581    22847534.900   120064606.347 6       880.581    22847544.980    93556869.212 6       686.167    22847544.960    93556874.203 7       686.167
R24  22303201.660   119265227.639 7       443.792    22303200.620   119265227.643 7       443.792    22303214.000    92761905.155 7       345.172    22303214.580    92761905.170 7       345.172
R18  22140280.140   118186321.501 6      4158.010    22140279.280   118186321.500 6      4158.010    22140293.720    91922756.172 7      3234.008    22140294.380    91922756.181 7      3234.008
G16  22300429.400   117189541.344 7      -267.391    22300428.300   117189541.355 5      -267.391    22300437.480    91316539.443 5      -208.357
R16  23077772.700   123277321.025 6      6330.703    23077773.820   123277321.048 6      6330.703    23077786.160    95882417.752 7      4923.880    23077786.360    95882412.744 7      4923.880
> 2025 04 04 14 42 23.0000000  0 12
G27  21426096.120   112594886.842 7      1590.270    21426094.500   112594886.852 7      1590.270    21426103.000    87736307.331 7      1239.171    21426103.680    87736308.343 7      1239.171
G02  21002806.360   110370490.777 7      2604.653    21002805.320   110370490.784 6      2604.653    21002808.280    86002987.473 6      2029.600
R15  19870667.980   106182822.215 8      3055.215    19870667.720   106182822.219 7      3055.215    19870677.880    82586679.049 8      2376.279    19870677.660    82586680.051 8      2376.279
G08  20797938.340   109293896.634 8      3403.071    20797937.040   109293896.637 8      3403.071    20797944.460    85164106.091 8      2651.744    20797945.400    85164110.098 8      2651.744
R17  20509113.340   109748404.301 8      2264.113    20509113.540   109748404.313 8      2264.113    20509124.960    85359918.389 8      1760.977    20509124.400    85359918.398 8      1760.977
R14  20816794.560   110965213.924 8      -754.529    20816794.180   110965213.935 8      -754.529    20816807.440    86306327.059 8      -586.856    20816807.360    86306332.056 8      -586.856
G01  21919513.700   115187824.788 7      4522.413    21919512.200   115187824.793 5      4522.413    21919521.680    89756773.966 5      3523.959    21919521.880    89756779.971 8      3523.959
G10  22847368.600   120063725.901 7       880.343    22847367.340   120063725.908 6       880.343    22847377.420    93556183.159 6       685.982    22847377.340    93556188.153 7       685.982
R24  22303119.360   119264783.619 7       444.328    22303117.520   119264783.636 7       444.328    22303130.880    92761559.821 7       345.588    22303131.520    92761559.834 7       345.588
R18  22139501.740   118182163.547 6      4158.081    22139500.160   118182163.561 6      4158.081    22139514.880    91919522.228 7      3234.063    22139515.320    91919522.241 7      3234.063
G16  22300480.460   117189808.876 7      -267.390    22300479.300   117189808.886 5      -267.390    22300488.420    91316747.909 5      -208.356
R16  23076587.900   123270990.527 6      6330.550    23076588.860   123270990.537 6      6330.550    23076600.780    95877494.021 7      4923.761    23076601.500    95877489.015 7      4923.761
> 2025 04 04 14 42 24.0000000  0 12
G27  21425793.300   112593296.348 7      1590.721    21425791.740   112593296.353 7      1590.721    21425800.480    87735067.985 7      1239.523    21425800.860    87735068.995 7      1239.523
G02  21002310.760   110367886.000 7      2604.872    21002309.500   110367886.008 6      2604.872    21002312.580    86000957.783 6      2029.771
R15  19870096.480   106179767.074 8      3054.994    19870096.360   106179767.083 8      3054.994    19870106.100    82584302.834 8      2376.107    19870105.680    82584303.838 8      2376.107
G08  20797290.640   109290493.360 8      3403.433    20797289.500   109290493.365 8      3403.433    20797296.880    85161454.195 8      2652.026    20797297.520    85161458.198 8      2652.026
R17  20508690.160   109746140.036 8      2264.459    20508690.460   109746140.046 7      2264.459    20508701.640    85358157.298 8      1761.246    20508701.100    85358157.309 8      1761.246
R14  20816935.820   110965968.425 8      -754.465    20816935.760   110965968.431 8      -754.465    20816949.000    86306913.885 8      -586.806    20816948.920    86306918.880 8      -586.806
G01  21918653.320   115183302.275 7      4522.659    21918651.520   115183302.277 6      4522.659    21918661.100    89753249.940 6      3524.150    21918661.320    89753255.946 8      3524.150
G10  22847200.860   120062845.398 7       880.526    22847199.880   120062845.406 6       880.526    22847209.820    93555497.056 6       686.124    22847209.900    93555502.045 7       686.124
R24  22303035.760   119264338.994 7       444.988    22303034.780   119264339.004 7       444.988    22303047.580    92761213.994 7       346.102    22303048.520    92761214.006 7       346.102
R18  22138723.100   118178005.269 6      4158.569    22138720.900   118178005.278 6      4158.569    22138735.720    91916288.020 7      3234.443    22138736.120    91916288.029 7      3234.443
G16  22300531.460   117190076.157 7      -267.167    22300530.180   117190076.167 5      -267.167    22300539.380    91316956.182 5      -208.182
R16  23075403.000   123264659.859 6      6330.792    23075403.560   123264659.870 6      6330.792    23075415.660    95872570.176 7      4923.949    23075416.120    95872565.168 7      4923.949
> 2025 04 04 14 42 25.0000000  0 12
G27  21425490.600   112591705.572 7      1590.922    21425489.020   112591705.575 7      1590.922    21425497.740    87733828.424 7      1239.680    21425498.220    87733829.434 7      1239.680
G02  21001814.940   110365281.029 7      2605.023    21001813.980   110365281.034 6      2605.023    21001816.740    85998927.946 6      2029.888
R15  19869524.840   106176712.299 8      3054.588    19869524.640   106176712.306 7      3054.588    19869534.560    82581926.904 8      2375.790    19869534.160    82581927.908 8      2375.790
G08  20796643.020   109287089.763 8      3403.760    20796641.780   109287089.771 8      3403.760    20796649.140    85158802.050 8      2652.281    20796649.680    85158806.055 8      2652.281
R17  20508267.020   109743875.423 7      2264.741    20508267.320   109743875.433 7      2264.741    20508278.540    85356395.939 8      1761.465    20508278.080    85356395.948 8      1761.465
R14  20817077.220   110966722.935 8      -754.559    20817077.440   110966722.943 8      -754.559    20817090.440    86307500.731 8      -586.879    20817090.700    86307505.724 8      -586.879
G01  21917792.560   115178779.621 7      4522.806    21917790.980   115178779.628 6      4522.806    21917800.460    89749725.806 5      3524.264    21917800.640    89749731.814 8      3524.264
G10  22847033.360   120061964.888 7       880.565    22847032.260   120061964.901 6       880.565    22847042.320    93554810.954 6       686.154    22847042.700    93554815.950 7       686.154
R24  22302952.840   119263893.763 6       445.569    22302951.220   119263893.770 7       445.569    22302964.260    92760867.707 7       346.554    22302964.920    92760867.715 7       346.554
R18  22137944.020   118173846.768 6      4158.679    22137942.080   118173846.785 6      4158.679    22137957.200    91913053.649 7      3234.528    22137957.140    91913053.658 7      3234.528
G16  22300582.500   117190343.276 7      -267.070    22300581.020   117190343.289 5      -267.070    22300590.280    91317164.326 5      -208.107
R16  23074217.900   123258329.160 6      6330.623    23074218.520   123258329.175 6      6330.623    23074230.620    95867646.314 7      4923.818    23074231.300    95867641.310 7      4923.818
> 2025 04 04 14 42 26.0000000  0 12
G27  21425187.880   112590114.458 7      1591.210    21425186.360   112590114.465 7      1591.210    21425195.020    87732588.603 7      1239.904    21425195.540    87732589.615 7      1239.904
G02  21001319.140   110362675.827 7      2605.330    21001318.160   110362675.835 6      2605.330    21001320.940    85996897.927 6      2030.128
R15  19868953.240   106173657.869 8      3054.215    19868953.160   106173657.875 7      3054.215    19868962.840    82579551.242 8      2375.501    19868962.820    82579552.245 8      2375.501
G08  20795995.240   109283685.814 8      3404.187    20795994.060   109283685.819 8      3404.187    20796001.380    85156149.626 8      2652.614    20796001.800    85156153.633 8      2652.614
R17  20507843.800   109741610.423 8      2265.153    20507843.680   109741610.432 7      2265.153    20507855.320    85354634.278 8      1761.786    20507854.860    85354634.289 8      1761.786
R14  20817218.680   110967477.414 8      -754.467    20817218.860   110967477.426 8      -754.467    20817231.940    86308087.547 8      -586.808    20817232.260    86308092.544 8      -586.808
G01  21916931.820   115174256.798 7      4522.932    21916930.260   115174256.803 6      4522.932    21916939.800    89746201.542 6      3524.363    21916940.180    89746207.551 8      3524.363
G10  22846865.640   120061084.355 7       880.623    22846864.540   120061084.367 6       880.623    22846874.740    93554124.832 6       686.200    22846874.960    93554129.824 7       686.200
R24  22302869.560   119263447.917 7       446.206    22302868.440   119263447.921 7       446.206    22302880.700    92760520.937 7       347.049    22302881.500    92760520.952 7       347.049
R18  22137164.860   118169687.919 6      4159.087    22137162.820   118169687.928 6      4159.087    22137178.220    91909818.995 7      3234.845    22137178.080    91909819.008 7      3234.845
G16  22300633.280   117190610.140 7      -266.720    22300631.800   117190610.150 5      -266.720    22300641.040    91317372.272 5      -207.834
R16  23073032.540   123251998.304 6      6331.056    23073033.540   123251998.321 6      6331.056    23073045.560    95862722.319 7      4924.154    23073046.100    95862717.313 7      4924.154
> 2025 04 04 14 42 27.0000000  0 12
G27  21424884.940   112588523.246 7      1591.273    21424883.540   112588523.257 7      1591.273    21424892.080    87731348.702 7      1239.953    21424892.720    87731349.716 7      1239.953
G02  21000823.320   110360070.659 7      2605.269    21000822.420   110360070.664 6      2605.269    21000825.340    85994867.932 6      2030.080
R15  19868381.720   106170604.042 8      3053.611    19868381.440   106170604.051 8      3053.611    19868391.320    82577176.050 8      2375.031    19868391.120    82577177.054 8      2375.031
G08  20795347.580   109280281.752 8      3404.261    20795346.340   109280281.759 8      3404.261    20795353.600    85153497.118 8      2652.671    20795354.220    85153501.123 8      2652.671
R17  20507420.600   109739345.267 8      2265.359    20507420.780   109739345.271 7      2265.359    20507432.040    85352872.491 8      1761.946    20507431.680    85352872.499 8      1761.946
R14  20817360.360   110968232.110 8      -754.671    20817360.580   110968232.119 8      -754.671    20817373.600    86308674.528 8      -586.966    20817373.760    86308679.523 8      -586.966
G01  21916071.220   115169734.031 7      4522.838    21916069.440   115169734.033 6      4522.838    21916079.280    89742677.318 6      3524.289    21916079.540    89742683.327 8      3524.289
G10  22846698.520   120060204.034 7       880.452    22846697.320   120060204.044 6       880.452    22846707.200    93553438.870 6       686.066    22846707.520    93553443.860 7       686.066
R24  22302785.840   119263001.728 7       446.488    22302784.940   119263001.727 7       446.488    22302797.140    92760173.896 7       347.269    22302798.180    92760173.915 7       347.269
R18  22136385.560   118165529.017 6      4159.116    22136383.360   118165529.021 6      4159.116    22136398.960    91906584.301 7      3234.868    22136399.040    91906584.311 7      3234.868
G16  22300683.880   117190877.064 7      -266.777    22300682.600   117190877.074 5      -266.777    22300691.760    91317580.265 5      -207.878
R16  23071847.920   123245667.593 6      6330.698    23071848.640   123245667.618 6      6330.698    23071860.380    95857798.438 7      4923.876    23071860.640    95857793.435 7      4923.876
> 2025 04 04 14 42 28.0000000  0 12
G27  21424581.860   112586931.528 7      1591.918    21424580.560   112586931.538 7      1591.918    21424589.160    87730108.408 7      1240.456    21424590.000    87730109.417 7      1240.456
G02  21000327.520   110357465.081 7      2605.687    21000326.440   110357465.086 6      2605.687    21000329.680    85992837.619 6      2030.405
R15  19867810.020   106167550.400 8      3053.468    19867809.980   106167550.409 7      3053.468    19867819.900    82574800.999 8      2374.919    19867819.760    82574802.004 8      2374.919
G08  20794699.620   109276877.164 8      3404.747    20794698.380   109276877.166 8      3404.747    20794705.720    85150844.196 8      2653.049    20794706.140    85150848.203 8      2653.049
R17  20506997.140   109737079.520 7      2265.958    20506997.400   109737079.530 7      2265.958    20507008.600    85351110.255 8      1762.411    20507008.200    85351110.262 8      1762.411
R14  20817501.840   110968986.558 8      -754.386    20817502.160   110968986.564 8      -754.386    20817514.980    86309261.319 8      -586.744    20817515.100    86309266.316 8      -586.744
G01  21915210.620   115165210.907 7      4523.202    21915208.820   115165210.909 6      4523.202    21915218.580    89739152.817 6      3524.573    21915218.800    89739158.829 8      3524.573
G10  22846530.940   120059323.524 7       880.523    22846529.760   120059323.526 6       880.523    22846539.660    93552752.760 6       686.122    22846539.640    93552757.754 7       686.122
R24  22302702.320   119262554.716 7       447.366    22302701.680   119262554.718 7       447.366    22302713.900    92759826.228 7       347.951    22302714.540    92759826.241 7       347.951
R18  22135606.640   118161369.626 6      4159.602    22135603.760   118161369.625 6      4159.602    22135619.720    91903349.232 7      3235.246    22135619.840    91903349.246 7      3235.246
G16  22300734.840   117191143.584 7      -266.415    22300733.340   117191143.594 5      -266.415    22300742.480    91317787.941 5      -207.596
R16  23070662.080   123239336.544 6      6331.164    23070663.260   123239336.575 6      6331.164    23070675.160    95852874.306 7      4924.239    23070675.840    95852869.297 7      4924.239
> 2025 04 04 14 42 29.0000000  0 12
G27  21424279.060   112585339.575 7      1592.168    21424277.600   112585339.580 7      1592.168    21424286.160    87728867.925 7      1240.651    21424286.900    87728868.931 7      1240.651
G02  20999831.580   110354859.377 7      2605.772    20999830.660   110354859.385 6      2605.772    20999833.620    85990807.209 6      2030.472
R15  19867238.900   106164497.196 8      3052.953    19867238.660   106164497.203 7      3052.953    19867248.620    82572426.289 8      2374.519    19867248.400    82572427.291 8      2374.519
G08  20794051.700   109273472.293 8      3405.004    20794050.480   109273472.300 8      3405.004    20794057.740    85148191.062 8      2653.249    20794058.100    85148195.067 8      2653.249
R17  20506573.820   109734813.500 8      2266.205    20506573.900   109734813.507 7      2266.205    20506585.140    85349347.797 8      1762.604    20506584.860    85349347.806 8      1762.604
R14  20817643.740   110969741.006 8      -754.436    20817643.720   110969741.014 8      -754.436    20817656.500    86309848.116 8      -586.784    20817656.660    86309853.111 8      -586.784
G01  21914349.940   115160687.690 7      4523.357    21914348.120   115160687.692 6      4523.357    21914357.920    89735628.243 6      3524.694    21914358.280    89735634.250 8      3524.694
G10  22846363.220   120058443.053 7       880.407    22846362.120   120058443.060 7       880.407    22846372.160    93552066.685 6       686.032    22846371.920    93552071.681 7       686.032
R24  22302618.860   119262107.151 7       447.867    22302617.380   119262107.149 7       447.867    22302630.320    92759478.130 7       348.341    22302630.820    92759478.145 7       348.341
R18  22134827.060   118157209.990 6      4159.874    22134824.380   118157210.005 6      4159.874    22134840.100    91900113.979 7      3235.458    22134840.500    91900113.994 7      3235.458
G16  22300785.360   117191409.988 7      -266.357    22300783.880   117191409.995 5      -266.357    22300793.240    91317995.526 5      -207.551
R16  23069477.100   123233005.496 6      6331.123    23069478.480   123233005.524 6      6331.123    23069489.680    95847950.164 7      4924.207    23069490.560    95847945.156 7      4924.207
> 2025 04 04 14 42 30.0000000  0 12
G27  21423975.960   112583747.268 7      1592.240    21423974.660   112583747.275 7      1592.240    21423983.320    87727627.172 7      1240.706    21423983.980    87727628.188 7      1240.706
G02  20999335.980   110352253.389 7      2606.007    20999334.860   110352253.397 6      2606.007    20999337.740    85988776.577 6      2030.655
R15  19866667.540   106161444.225 8      3052.678    19866667.360   106161444.234 8      3052.678    19866677.200    82570051.764 8      2374.305    19866677.040    82570052.770 8      2374.305
G08  20793403.560   109270067.011 8      3405.362    20793402.540   109270067.019 8      3405.362    20793409.760    85145537.606 8      2653.529    20793410.240    85145541.611 8      2653.529
R17  20506150.100   109732547.068 8      2266.527    20506150.360   109732547.072 7      2266.527    20506161.580    85347585.019 8      1762.854    20506161.160    85347585.028 8      1762.854
R14  20817785.280   110970495.355 8      -754.466    20817785.100   110970495.366 8      -754.466    20817798.140    86310434.830 8      -586.807    20817798.160    86310439.829 8      -586.807
G01  21913488.900   115156164.258 7      4523.355    21913487.600   115156164.263 6      4523.355    21913497.200    89732103.507 6      3524.692    21913497.460    89732109.519 8      3524.692
G10  22846195.620   120057562.488 7       880.428    22846194.660   120057562.493 6       880.428    22846204.540    93551380.539 6       686.048    22846204.360    93551385.535 7       686.048
R24  22302535.300   119261658.879 7       448.493    22302533.600   119261658.886 7       448.493    22302546.480    92759129.487 7       348.828    22302546.940    92759129.498 7       348.828
R18  22134048.140   118153050.042 6      4159.878    22134044.440   118153050.056 6      4159.878    22134060.940    91896878.486 7      3235.461    22134061.260    91896878.499 7      3235.461
G16  22300835.660   117191676.105 7      -266.077    22300834.500   117191676.113 5      -266.077    22300843.960    91318202.893 5      -207.333
R16  23068292.120   123226674.256 6      6331.287    23068292.760   123226674.278 6      6331.287    23068304.560    95843025.864 7      4924.334    23068305.420    95843020.862 7      4924.334
> 2025 04 04 14 42 31.0000000  0 12
G27  21423672.780   112582154.545 7      1592.862    21423671.660   112582154.548 7      1592.862    21423680.260    87726386.092 7      1241.191    21423680.700    87726387.104 7      1241.191
G02  20998839.800   110349647.131 7      2606.429    20998838.840   110349647.136 6      2606.429    20998841.760    85986745.734 6      2030.984
R15  19866096.260   106158391.568 8      3052.599    19866096.040   106158391.572 7      3052.599    19866106.120    82567677.482 8      2374.244    19866105.780    82567678.486 8      2374.244
G08  20792755.620   109266661.320 8      3406.001    20792754.460   109266661.322 8      3406.001    20792761.760    85142883.823 8      2654.027    20792762.440    85142887.830 8      2654.027
R17  20505726.300   109730280.213 8      2267.068    20505726.440   109730280.215 7      2267.068    20505737.940    85345821.918 8      1763.275    20505737.400    85345821.925 8      1763.275
R14  20817926.620   110971249.630 8      -754.224    20817926.760   110971249.638 8      -754.224    20817939.520    86311021.488 8      -586.619    20817939.700    86311026.485 8      -586.619
G01  21912627.920   115151640.566 7      4523.829    21912626.700   115151640.576 6      4523.829    21912636.320    89728578.571 6      3525.062    21912636.700    89728584.584 8      3525.062
G10  22846027.920   120056681.830 7       880.666    22846027.260   120056681.841 6       880.666    22846036.700    93550694.329 6       686.234    22846036.560    93550699.327 7       686.234
R24  22302450.820   119261209.926 7       449.392    22302449.260   119261209.944 7       449.392    22302462.960    92758780.320 7       349.527    22302462.900    92758780.326 7       349.527
R18  22133268.160   118148889.680 6      4160.709    22133266.180   118148889.676 6      4160.709    22133281.980    91893642.649 7      3236.107    22133282.060    91893642.664 7      3236.107
G16  22300886.320   117191941.971 7      -265.733    22300885.140   117191941.981 5      -265.733    22300894.440    91318410.063 5      -207.065
R16  23067106.620   123220342.871 6      6331.505    23067108.220   123220342.904 6      6331.505    23067119.200    95838101.470 7      4924.504    23067119.860    95838096.466 7      4924.504
> 2025 04 04 14 42 32.0000000  0 12
G27  21423369.840   112580561.447 7      1593.042    21423368.480   112580561.449 7      1593.042    21423377.140    87725144.719 7      1241.331    21423377.560    87725145.728 7      1241.331
G02  20998343.960   110347040.602 7      2606.370    20998342.960   110347040.609 6      2606.370    20998345.860    85984714.681 6      2030.938
R15  19865525.320   106155339.249 8      3051.907    19865524.900   106155339.258 7      3051.907    19865534.800    82565303.464 8      2373.705    19865534.700    82565304.466 8      2373.705
G08  20792107.580   109263255.232 8      3406.062    20792106.220   109263255.234 8      3406.062    20792113.640    85140229.735 8      2654.074    20792114.120    85140233.738 8      2654.074
R17  20505303.000   109728012.887 8      2267.355    20505302.600   109728012.894 7      2267.355    20505314.180    85344058.455 8      1763.499    20505314.100    85344058.457 8      1763.499
R14  20818068.500   110972003.864 8      -754.411    20818068.320   110972003.868 8      -754.411    20818081.160    86311608.109 8      -586.764    20818081.180    86311613.106 8      -586.764
G01  21911767.260   115147116.666 7      4523.795    21911765.900   115147116.671 6      4523.795    21911775.500    89725053.464 6      3525.035    21911775.600    89725059.473 8      3525.035
G10  22845860.300   120055801.108 7       880.571    22845859.660   120055801.112 6       880.571    22845869.160    93550008.047 6       686.159    22845869.200    93550013.039 7       686.159
R24  22302366.620   119260760.377 7       449.654    22302364.900   119260760.389 7       449.654    22302378.620    92758430.666 7       349.731    22302379.180    92758430.671 7       349.731
R18  22132489.580   118144728.968 6      4160.701    22132485.940   118144728.961 6      4160.701    22132502.420    91890406.548 7      3236.101    22132502.480    91890406.559 7      3236.101
G16  22300937.080   117192207.550 7      -265.684    22300935.840   117192207.560 6      -265.684    22300945.040    91318617.011 6      -207.026
R16  23065921.380   123214011.345 6      6331.347    23065922.340   123214011.354 6      6331.347    23065933.800    95833176.937 7      4924.381    23065934.960    95833171.931 7      4924.381
> 2025 04 04 14 42 33.0000000  0 12
G27  21423066.860   112578968.149 7      1593.583    21423065.320   112578968.157 7      1593.583    21423074.040    87723903.196 7      1241.753    21423074.260    87723904.208 7      1241.753
G02  20997847.820   110344434.001 7      2606.721    20997846.840   110344434.006 6      2606.721    20997849.800    85982683.572 6      2031.211
R15  19864953.900   106152287.445 8      3051.662    19864953.740   106152287.451 7      3051.662    19864963.880    82562929.847 8      2373.515    19864963.620    82562930.849 8      2373.515
G08  20791459.360   109259848.929 8      3406.559    20791458.000   109259848.928 8      3406.559    20791465.400    85137575.474 8      2654.461    20791466.000    85137579.479 8      2654.461
R17  20504878.960   109725745.369 8      2267.711    20504878.680   109725745.379 7      2267.711    20504890.500    85342294.834 8      1763.775    20504890.140    85342294.838 8      1763.775
R14  20818209.780   110972758.224 8      -754.341    20818209.620   110972758.230 8      -754.341    20818222.640    86312194.835 8      -586.710    20818222.560    86312199.830 8      -586.710
G01  21910906.220   115142592.737 7      4523.965    21910904.740   115142592.742 6      4523.965    21910914.640    89721528.337 6      3525.167    21910914.960    89721534.349 8      3525.167
G10  22845692.840   120054920.469 7       880.803    22845692.020   120054920.474 6       880.803    22845701.600    93549321.843 6       686.340    22845701.780    93549326.845 7       686.340
R24  22302282.480   119260310.427 7       450.253    22302280.900   119260310.431 7       450.253    22302294.400    92758080.698 7       350.196    22302294.820    92758080.701 7       350.196
R18  22131710.340   118140568.110 6      4161.179    22131706.980   118140568.106 6      4161.179    22131722.880    91887170.339 7      3236.473    22131722.980    91887170.347 7      3236.473
G16  22300987.500   117192473.071 7      -265.346    22300986.280   117192473.078 5      -265.346    22300995.640    91318823.909 5      -206.763
R16  23064736.660   123207679.845 6      6331.569    23064737.560   123207679.857 6      6331.569    23064748.840    95828252.446 7      4924.554    23064749.480    95828247.440 7      4924.554
> 2025 04 04 14 42 34.0000000  0 12
G27  21422763.780   112577374.602 7      1593.668    21422762.280   112577374.607 7      1593.668    21422770.820    87722661.475 7      1241.819    21422771.200    87722662.485 7      1241.819
G02  20997352.120   110341827.207 7      2606.911    20997350.820   110341827.212 6      2606.911    20997353.820    85980652.310 6      2031.359
R15  19864382.900   106149236.002 8      3051.333    19864382.740   106149236.011 8      3051.333    19864392.720    82560556.506 8      2373.259    19864392.520    82560557.513 8      2373.259
G08  20790810.960   109256442.302 8      3406.895    20790809.700   109256442.301 8      3406.895    20790817.080    85134920.968 8      2654.723    20790817.660    85134924.975 8      2654.723
R17  20504455.200   109723477.487 8      2268.058    20504454.900   109723477.494 7      2268.058    20504466.660    85340530.930 8      1764.045    20504466.300    85340530.934 8      1764.045
R14  20818351.180   110973512.536 8      -754.216    20818351.260   110973512.539 8      -754.216    20818363.880    86312781.518 8      -586.612    20818363.940    86312786.515 8      -586.612
G01  21910045.400   115138068.646 7      4524.229    21910044.020   115138068.651 6      4524.229    21910053.600    89718003.081 6      3525.374    21910053.860    89718009.091 8      3525.374
G10  22845525.500   120054039.875 7       880.612    22845524.620   120054039.885 6       880.612    22845534.120    93548635.672 6       686.191    22845534.200    93548640.672 7       686.191
R24  22302197.880   119259859.850 7       450.967    22302196.400   119259859.846 7       450.967    22302210.340    92757730.246 7       350.752    22302210.540    92757730.255 7       350.752
R18  22130930.820   118136407.014 6      4161.337    22130926.820   118136407.012 6      4161.337    22130943.000    91883933.950 7      3236.595    22130943.540    91883933.957 7      3236.595
G16  22301038.120   117192738.413 7      -265.142    22301036.900   117192738.421 5      -265.142    22301046.140    91319030.667 5      -206.604
R16  23063551.140   123201348.236 6      6331.722    23063552.420   123201348.250 6      6331.722    23063563.260    95823327.865 7      4924.673    23063564.060    95823322.863 7      4924.673
> 2025 04 04 14 42 35.0000000  0 12
G27  21422460.600   112575780.605 7      1594.137    21422459.000   112575780.615 7      1594.137    21422467.600    87721419.404 7      1242.184    21422467.660    87721420.417 7      1242.184
G02  20996855.940   110339220.092 7      2607.348    20996854.720   110339220.097 6      2607.348    20996857.600    85978620.798 6      2031.700
R15  19863811.800   106146184.769 8      3051.160    19863811.580   106146184.779 7      3051.160    19863821.500    82558183.330 8      2373.125    19863821.760    82558184.338 8      2373.125
G08  20790162.680   109253035.228 8      3407.347    20790161.380   109253035.231 8      3407.347    20790168.660    85132266.112 8      2655.076    20790169.480    85132270.115 8      2655.076
R17  20504031.540   109721209.120 7      2268.620    20504030.780   109721209.122 7      2268.620    20504042.820    85338766.647 8      1764.482    20504042.540    85338766.651 8      1764.482
R14  20818492.800   110974266.680 8      -754.052    20818492.680   110974266.686 8      -754.052    20818505.440    86313368.072 8      -586.485    20818505.600    86313373.068 8      -586.485
G01  21909184.400   115133544.294 7      4524.491    21909182.840   115133544.299 6      4524.491    21909192.640    89714477.625 6      3525.577    21909192.960    89714483.634 8      3525.577
G10  22845357.740   120053159.136 7       880.793    22845357.000   120053159.138 6       880.793    22845366.400    93547949.384 6       686.332    22845366.200    93547954.384 7       686.332
R24  22302114.060   119259408.515 7       451.745    22302112.040   119259408.516 7       451.745    22302126.060    92757379.216 7       351.357    22302126.180    92757379.222 7       351.357
R18  22130150.980   118132245.483 6      4161.858    22130147.360   118132245.476 6      4161.858    22130163.420    91880697.204 7      3237.001    22130163.780    91880697.211 7      3237.001
G16  22301088.720   117193003.435 7      -264.776    22301087.400   117193003.443 6      -264.776    22301096.580    91319237.182 5      -206.319
R16  23062365.840   123195016.392 6      6332.002    23062366.840   123195016.404 6      6332.002    23062377.900    95818403.106 7      4924.890    23062378.900    95818398.100 7      4924.890
> 2025 04 04 14 42 36.0000000  0 12
G27  21422157.220   112574186.356 7      1594.160    21422155.660   112574186.366 7      1594.160    21422164.220    87720177.136 7      1242.203    21422164.500    87720178.145 7      1242.203
G02  20996360.000   110336612.845 7      2607.126    20996358.600   110336612.853 6      2607.126    20996361.320    85976589.188 6      2031.527
R15  19863240.880   106143133.935 8      3050.531    19863240.640   106143133.947 8      3050.531    19863250.700    82555810.469 8      2372.635    19863250.660    82555811.478 8      2372.635
G08  20789514.320   109249627.866 8      3407.422    20789513.020   109249627.871 8      3407.422    20789520.300    85129611.035 8      2655.134    20789521.100    85129615.040 8      2655.134
R17  20503607.640   109718940.473 7      2268.718    20503606.820   109718940.475 7      2268.718    20503618.840    85337002.149 8      1764.558    20503618.380    85337002.154 8      1764.558
R14  20818634.120   110975020.830 8      -754.284    20818634.160   110975020.835 8      -754.284    20818646.980    86313954.629 8      -586.665    20818647.080    86313959.626 8      -586.665
G01  21908323.620   115129019.842 7      4524.351    21908321.800   115129019.847 6      4524.351    21908331.580    89710952.088 6      3525.469    21908331.940    89710958.098 8      3525.469
G10  22845190.240   120052278.421 7       880.552    22845189.340   120052278.431 6       880.552    22845198.860    93547263.125 6       686.145    22845199.160    93547268.125 7       686.145
R24  22302029.680   119258956.613 7       452.088    22302027.520   119258956.617 7       452.088    22302041.780    92757027.745 7       351.624    22302041.580    92757027.749 7       351.624
R18  22129371.120   118128083.712 6      4161.926    22129367.740   118128083.702 6      4161.926    22129383.920    91877460.283 7      3237.053    22129384.060    91877460.284 7      3237.053
G16  22301138.900   117193268.331 7      -264.882    22301137.780   117193268.339 6      -264.882    22301146.860    91319443.594 5      -206.402
R16  23061180.400   123188684.494 6      6331.803    23061181.820   123188684.522 6      6331.803    23061192.540    95813478.315 7      4924.736    23061193.400    95813473.309 7      4924.736
> 2025 04 04 14 42 37.0000000  0 12
G27  21421853.560   112572591.913 7      1594.603    21421852.280   112572591.923 7      1594.603    21421860.660    87718934.721 7      1242.548    21421861.040    87718935.734 7      1242.548
G02  20995863.780   110334005.494 7      2607.544    20995862.280   110334005.499 6      2607.544    20995865.180    85974557.491 6      2031.852
R15  19862669.920   106140083.598 8      3050.172    19862669.880   106140083.610 8      3050.172    19862679.740    82553437.991 8      2372.356    19862679.820    82553438.998 8      2372.356
G08  20788865.940   109246220.309 8      3407.782    20788864.500   109246220.309 8      3407.782    20788871.900    85126955.800 8      2655.414    20788872.840    85126959.807 8      2655.414
R17  20503183.620   109716671.617 7      2269.034    20503182.540   109716671.624 7      2269.034    20503194.820    85335237.498 8      1764.804    20503194.520    85335237.498 8      1764.804
R14  20818775.600   110975775.091 8      -754.210    20818775.580   110975775.097 8      -754.210    20818788.580    86314541.275 8      -586.608    20818788.480    86314546.272 8      -586.608
G01  21907462.680   115124495.352 7      4524.560    21907460.920   115124495.359 6      4524.560    21907470.680    89707426.523 6      3525.631    21907471.120    89707432.537 8      3525.631
G10  22845022.560   120051397.842 7       880.633    22845021.840   120051397.850 6       880.633    22845031.260    93546576.964 6       686.207    22845031.420    93546581.960 7       686.207
R24  22301945.020   119258504.261 7       452.676    22301942.580   119258504.268 7       452.676    22301957.220    92756675.922 7       352.082    22301957.100    92756675.924 7       352.082
R18  22128591.340   118123921.780 6      4162.199    22128587.860   118123921.770 6      4162.199    22128604.120    91874223.242 7      3237.266    22128604.400    91874223.245 7      3237.266
G16  22301189.600   117193533.161 7      -264.714    22301188.140   117193533.169 5      -264.714    22301197.280    91319649.956 5      -206.271
R16  23059995.300   123182352.663 6      6331.789    23059996.720   123182352.686 6      6331.789    23060007.260    95808553.560 7      4924.725    23060007.780    95808548.558 7      4924.725
> 2025 04 04 14 42 38.0000000  0 12
G27  21421549.980   112570997.167 7      1594.844    21421548.920   112570997.169 7      1594.844    21421557.420    87717692.060 7      1242.736    21421557.680    87717693.061 7      1242.736
G02  20995367.480   110331397.956 7      2607.622    20995366.060   110331397.958 6      2607.622    20995369.040    85972525.645 6      2031.913
R15  19862099.340   106137033.640 8      3049.646    19862099.220   106137033.647 7      3049.646    19862109.080    82551065.804 8      2371.947    19862108.940    82551066.810 8      2371.947
G08  20788217.460   109242812.393 8      3408.023    20788216.160   109242812.395 8      3408.023    20788223.320    85124300.290 8      2655.602    20788224.200    85124304.293 8      2655.602
R17  20502759.480   109714402.365 7      2269.302    20502758.340   109714402.372 7      2269.302    20502770.760    85333472.530 8      1765.013    20502770.180    85333472.533 8      1765.013
R14  20818916.980   110976529.342 8      -754.324    20818917.260   110976529.342 8      -754.324    20818930.140    86315127.908 8      -586.696    20818930.080    86315132.905 8      -586.696
G01  21906601.940   115119970.692 7      4524.630    21906600.060   115119970.700 6      4524.630    21906609.840    89703900.827 6      3525.686    21906610.020    89703906.841 8      3525.686
G10  22844855.060   120050517.243 7       880.506    22844854.180   120050517.243 6       880.506    22844863.720    93545890.787 6       686.108    22844863.740    93545895.785 7       686.108
R24  22301860.320   119258051.319 7       453.167    22301857.400   119258051.323 7       453.167    22301872.340    92756323.627 7       352.463    22301872.380    92756323.636 7       352.463
R18  22127811.940   118119759.633 6      4161.787    22127808.200   118119759.623 6      4161.787    22127824.720    91870986.033 7      3236.946    22127824.820    91870986.031 7      3236.946
G16  22301239.880   117193797.768 7      -264.571    22301238.620   117193797.776 6      -264.571    22301247.820    91319856.143 6      -206.159
R16  23058810.140   123176020.726 6      6331.828    23058811.120   123176020.740 6      6331.828    23058821.800    95803628.718 7      4924.755    23058822.680    95803623.714 7      4924.755
> 2025 04 04 14 42 39.0000000  0 12
G27  21421246.440   112569402.077 7      1595.192    21421245.480   112569402.085 7      1595.192    21421253.800    87716449.143 7      1243.007    21421254.320    87716450.146 7      1243.007
G02  20994871.180   110328790.160 7      2607.958    20994869.840   110328790.168 6      2607.958    20994872.920    85970493.609 6      2032.175
R15  19861528.700   106133984.009 8      3049.524    19861528.540   106133984.015 7      3049.524    19861538.340    82548693.872 8      2371.852    19861538.040    82548694.881 8      2371.852
G08  20787568.840   109239404.111 8      3408.438    20787567.480   109239404.121 8      3408.438    20787574.740    85121644.496 8      2655.926    20787575.560    85121648.501 8      2655.926
R17  20502335.340   109712132.671 7      2269.894    20502334.240   109712132.675 7      2269.894    20502346.540    85331707.215 8      1765.473    20502346.180    85331707.217 8      1765.473
R14  20819058.460   110977283.550 8      -754.199    20819058.880   110977283.550 8      -754.199    20819071.520    86315714.512 8      -586.599    20819071.600    86315719.511 8      -586.599
G01  21905740.460   115115445.831 7      4525.000    21905739.060   115115445.844 6      4525.000    21905748.840    89700374.975 6      3525.974    21905749.000    89700380.989 8      3525.974
G10  22844687.540   120049636.583 7       880.732    22844686.660   120049636.580 6       880.732    22844696.220    93545204.558 6       686.285    22844696.380    93545209.558 7       686.285
R24  22301775.620   119257597.740 6       453.852    22301772.840   119257597.742 6       453.852    22301787.500    92755970.846 7       352.996    22301787.420    92755970.857 7       352.996
R18  22127032.260   118115597.090 6      4162.452    22127028.480   118115597.075 6      4162.452    22127044.500    91867748.499 7      3237.463    22127044.640    91867748.500 7      3237.463
G16  22301290.260   117194062.167 7      -264.327    22301289.020   117194062.175 6      -264.327    22301297.960    91320062.168 6      -205.969
R16  23057624.780   123169688.657 6      6332.200    23057625.180   123169688.669 6      6332.200    23057636.080    95798703.777 7      4925.044    23057637.040    95798698.776 7      4925.044
> 2025 04 04 14 42 40.0000000  0 12
G27  21420942.940   112567806.580 7      1595.832    21420942.020   112567806.588 7      1595.832    21420950.100    87715205.898 7      1243.505    21420950.200    87715206.900 7      1243.505
G02  20994374.900   110326182.097 7      2608.259    20994373.500   110326182.104 6      2608.259    20994376.560    85968461.358 6      2032.409
R15  19860958.060   106130934.695 8      3049.253    19860957.580   106130934.701 8      3049.253    19860967.620    82546322.188 8      2371.641    19860967.560    82546323.197 8      2371.641
G08  20786920.040   109235995.429 8      3408.935    20786918.840   109235995.429 8      3408.935    20786926.100    85118988.377 8      2656.313    20786926.960    85118992.382 8      2656.313
R17  20501911.160   109709862.533 7      2270.404    20501909.640   109709862.543 7      2270.404    20501922.460    85329941.561 8      1765.869    20501921.860    85329941.563 8      1765.869
R14  20819200.060   110978037.616 8      -753.850    20819200.300   110978037.617 8      -753.850    20819212.860    86316301.008 8      -586.328    20819213.040    86316306.005 8      -586.328
G01  21904879.420   115110920.757 7      4525.264    21904878.000   115110920.767 6      4525.264    21904887.780    89696848.952 6      3526.179    21904888.020    89696854.963 8      3526.179
G10  22844519.900   120048755.826 7       880.922    22844519.080   120048755.826 6       880.922    22844528.400    93544518.260 6       686.433    22844528.500    93544523.258 7       686.433
R24  22301690.220   119257143.496 6       454.636    22301687.580   119257143.503 6       454.636    22301702.600    92755617.555 7       353.605    22301702.360    92755617.562 7       353.605
R18  22126251.680   118111434.168 6      4163.162    22126248.980   118111434.143 6      4163.162    22126264.680    91864510.682 7      3238.015    22126265.060    91864510.681 7      3238.015
G16  22301340.500   117194326.278 7      -263.910    22301339.340   117194326.282 6      -263.910    22301348.380    91320267.966 6      -205.644
R16  23056439.500   123163356.394 6      6332.546    23056439.860   123163356.419 6      6332.546    23056450.640    95793778.704 7      4925.314    23056451.860    95793773.699 7      4925.314
> 2025 04 04 14 42 41.0000000  0 12
G27  21420639.620   112566210.860 7      1595.769    21420638.320   112566210.865 7      1595.769    21420646.480    87713962.480 7      1243.457    21420646.720    87713963.479 7      1243.457
G02  20993878.580   110323573.883 7      2608.180    20993877.120   110323573.888 6      2608.180    20993880.160    85966428.992 6      2032.348
R15  19860387.340   106127885.793 8      3048.547    19860387.020   106127885.796 8      3048.547    19860397.100    82543950.826 8      2371.092    19860397.020    82543951.836 8      2371.092
G08  20786271.400   109232586.451 8      3408.951    20786270.160   109232586.450 8      3408.951    20786277.400    85116332.040 8      2656.325    20786278.160    85116336.045 8      2656.325
R17  20501487.160   109707592.115 7      2270.366    20501485.200   109707592.127 7      2270.366    20501498.300    85328175.688 8      1765.840    20501497.720    85328175.688 8      1765.840
R14  20819341.500   110978791.731 8      -754.262    20819341.700   110978791.732 8      -754.262    20819354.500    86316887.536 8      -586.648    20819354.600    86316892.533 8      -586.648
G01  21904018.460   115106395.564 7      4525.074    21904016.840   115106395.577 6      4525.074    21904026.760    89693322.844 6      3526.032    21904026.780    89693328.853 8      3526.032
G10  22844352.560   120047875.135 7       880.463    22844351.400   120047875.139 6       880.463    22844360.760    93543832.013 6       686.075    22844360.840    93543837.017 7       686.075
R24  22301605.060   119256688.746 6       454.899    22301602.900   119256688.745 6       454.899    22301617.660    92755263.857 7       353.810    22301617.720    92755263.863 7       353.810
R18  22125471.620   118107271.017 6      4163.021    22125468.740   118107270.999 6      4163.021    22125484.880    91861272.690 7      3237.905    22125485.020    91861272.689 7      3237.905
G16  22301390.660   117194590.241 7      -263.952    22301389.540   117194590.248 6      -263.952    22301398.640    91320473.648 6      -205.677
R16  23055254.020   123157024.104 6      6332.253    23055254.600   123157024.126 6      6332.253    23055265.420    95788853.596 7      4925.085    23055266.300    95788848.594 7      4925.085
> 2025 04 04 14 42 42.0000000  0 12
G27  21420335.700   112564614.974 7      1596.075    21420334.780   112564614.984 7      1596.075    21420342.820    87712718.940 7      1243.695    21420342.820    87712719.942 7      1243.695
G02  20993382.220   110320965.633 7      2608.341    20993380.800   110320965.638 6      2608.341    20993383.920    85964396.598 6      2032.474
R15  19859817.100   106124837.403 8      3048.157    19859816.700   106124837.402 8      3048.157    19859826.520    82541579.858 8      2370.789    19859826.360    82541580.867 8      2370.789
G08  20785622.760   109229177.294 8      3409.286    20785621.500   109229177.301 8      3409.286    20785628.740    85113675.565 8      2656.586    20785629.160    85113679.574 8      2656.586
R17  20501062.640   109705321.511 8      2270.774    20501060.940   109705321.516 7      2270.774    20501073.860    85326409.661 8      1766.158    20501073.460    85326409.661 8      1766.158
R14  20819483.020   110979545.926 8      -754.190    20819483.100   110979545.934 8      -754.190    20819496.080    86317474.138 8      -586.592    20819496.140    86317479.137 8      -586.592
G01  21903157.240   115101870.374 7      4525.292    21903155.800   115101870.390 6      4525.292    21903165.380    89689796.734 6      3526.201    21903165.740    89689802.746 8      3526.201
G10  22844184.960   120046994.588 7       880.412    22844183.800   120046994.590 6       880.412    22844193.100    93543145.879 6       686.035    22844193.380    93543150.885 7       686.035
R24  22301519.580   119256233.550 7       455.553    22301517.660   119256233.551 6       455.553    22301532.860    92754909.821 7       354.319    22301532.720    92754909.830 7       354.319
R18  22124692.160   118103107.725 6      4163.268    22124689.800   118103107.696 6      4163.268    22124705.040    91858034.586 7      3238.098    22124705.080    91858034.581 7      3238.098
G16  22301441.080   117194854.185 7      -263.808    22301439.740   117194854.193 6      -263.808    22301449.040    91320679.321 5      -205.564
R16  23054068.200   123150691.848 6      6332.280    23054068.480   123150691.884 6      6332.280    23054079.860    95783928.525 7      4925.107    23054080.560    95783923.528 7      4925.107
> 2025 04 04 14 42 43.0000000  0 12
G27  21420032.160   112563018.612 7      1596.778    21420031.000   112563018.620 7      1596.778    21420038.960    87711475.020 7      1244.242    21420039.080    87711476.016 7      1244.242
G02  20992885.800   110318356.999 7      2609.056    20992884.520   110318356.999 6      2609.056    20992887.380    85962363.898 6      2033.030
R15  19859246.580   106121789.158 8      3048.392    19859246.200   106121789.151 8      3048.392    19859256.060    82539209.001 8      2370.972    19859255.860    82539210.012 8      2370.972
G08  20784973.960   109225767.622 8      3410.158    20784972.560   109225767.624 8      3410.158    20784979.860    85111018.684 8      2657.266    20784980.500    85111022.689 8      2657.266
R17  20500638.460   109703050.354 7      2271.689    20500636.360   109703050.353 7      2271.689    20500649.420    85324643.210 8      1766.869    20500649.140    85324643.210 8      1766.869
R14  20819624.460   110980299.939 8      -753.699    20819624.540   110980299.950 8      -753.699    20819637.440    86318060.591 8      -586.210    20819637.620    86318065.590 8      -586.210
G01  21902296.360   115097344.861 7      4525.848    21902294.600   115097344.874 6      4525.848    21902304.240    89686270.371 6      3526.634    21902304.540    89686276.378 8      3526.634
G10  22844017.160   120046113.825 7       881.022    22844016.120   120046113.828 6       881.022    22844025.760    93542459.575 6       686.511    22844025.620    93542464.581 7       686.511
R24  22301433.980   119255777.559 7       456.576    22301431.780   119255777.561 6       456.576    22301447.280    92754555.170 7       355.114    22301447.440    92754555.173 7       355.114
R18  22123912.420   118098943.986 6      4164.046    22123909.380   118098943.960 6      4164.046    22123925.000    91854796.133 7      3238.703    22123924.920    91854796.132 7      3238.703
G16  22301491.260   117195117.749 7      -263.148    22301490.040   117195117.757 6      -263.148    22301499.160    91320884.695 6      -205.051
R16  23052882.740   123144359.310 6      6332.747    23052883.900   123144359.332 6      6332.747    23052894.380    95779003.213 7      4925.470    23052895.200    95778998.216 7      4925.470
> 2025 04 04 14 42 44.0000000  0 12
G27  21419728.160   112561421.970 7      1596.760    21419727.220   112561421.980 7      1596.760    21419735.200    87710230.893 7      1244.228    21419735.120    87710231.893 7      1244.228
G02  20992389.300   110315748.179 7      2609.089    20992388.040   110315748.181 6      2609.089    20992391.060    85960331.063 6      2033.057
R15  19858676.120   106118741.309 8      3047.731    19858675.840   106118741.304 7      3047.731    19858685.860    82536838.464 8      2370.457    19858685.680    82536839.472 8      2370.457
G08  20784324.880   109222357.656 7      3410.236    20784323.620   109222357.658 8      3410.236    20784331.020    85108361.573 8      2657.327    20784331.520    85108365.580 8      2657.327
R17  20500213.760   109700778.857 7      2271.751    20500211.860   109700778.861 7      2271.751    20500225.060    85322876.498 8      1766.918    20500224.420    85322876.500 8      1766.918
R14  20819765.940   110981054.003 8      -754.015    20819766.180   110981054.006 8      -754.015    20819778.860    86318647.079 8      -586.456    20819779.140    86318652.078 8      -586.456
G01  21901434.920   115092819.209 7      4525.828    21901433.320   115092819.217 6      4525.828    21901443.000    89682743.897 6      3526.620    21901443.200    89682749.904 8      3526.620
G10  22843849.540   120045233.087 7       880.856    22843848.340   120045233.089 6       880.856    22843858.060    93541773.287 6       686.382    22843858.140    93541778.293 7       686.382
R24  22301348.960   119255320.957 6       456.947    22301346.300   119255320.977 6       456.947    22301361.940    92754200.045 7       355.404    22301361.800    92754200.050 7       355.404
R18  22123131.920   118094779.997 6      4164.061    22123129.560   118094779.995 6      4164.061    22123144.880    91851557.498 7      3238.714    22123145.120    91851557.501 7      3238.714
G16  22301541.320   117195381.147 7      -263.218    22301540.220   117195381.149 6      -263.218    22301549.300    91321089.938 6      -205.105
R16  23051697.800   123138026.675 6      6332.833    23051697.800   123138026.697 6      6332.833    23051708.920    95774077.835 7      4925.536    23051709.380    95774072.835 7      4925.536
> 2025 04 04 14 42 45.0000000  0 12
G27  21419424.240   112559824.983 7      1597.082    21419423.380   112559824.990 7      1597.082    21419431.360    87708986.488 7      1244.479    21419431.440    87708987.487 7      1244.479
G02  20991892.920   110313139.191 7      2608.852    20991891.480   110313139.195 6      2608.852    20991894.500    85958298.091 6      2032.872
R15  19858106.000   106115693.862 8      3047.037    19858105.560   106115693.858 7      3047.037    19858115.480    82534468.230 8      2369.918    19858115.440    82534469.237 8      2369.918
G08  20783675.920   109218947.353 8      3410.284    20783674.640   109218947.358 8      3410.284    20783681.980    85105704.201 8      2657.364    20783682.680    85105708.206 8      2657.364
R17  20499789.400   109698506.972 8      2271.895    20499787.320   109698506.974 7      2271.895    20499800.500    85321109.479 8      1767.029    20499800.120    85321109.481 8      1767.029
R14  20819907.520   110981808.043 8      -754.255    20819907.560   110981808.044 8      -754.255    20819920.380    86319233.552 8      -586.643    20819920.500    86319238.547 8      -586.643
G01  21900573.880   115088293.404 7      4525.643    21900572.240   115088293.414 6      4525.643    21900581.800    89679217.310 6      3526.475    21900582.000    89679223.317 8      3526.475
G10  22843681.840   120044352.353 7       880.530    22843680.820   120044352.350 6       880.530    22843690.480    93541087.003 6       686.128    22843690.440    93541092.009 7       686.128
R24  22301263.520   119254863.779 6       457.233    22301260.880   119254863.797 6       457.233    22301276.480    92753844.465 7       355.625    22301276.280    92753844.470 7       355.625
R18  22122351.900   118090615.706 6      4164.196    22122349.280   118090615.699 6      4164.196    22122364.860    91848318.619 7      3238.819    22122364.980    91848318.620 7      3238.819
G16  22301591.560   117195644.348 7      -263.338    22301590.420   117195644.350 6      -263.338    22301599.420    91321295.032 6      -205.198
R16  23050511.780   123131693.984 6      6332.547    23050512.280   123131694.004 6      6332.547    23050522.940    95769152.417 7      4925.314    23050524.180    95769147.417 7      4925.314
> 2025 04 04 14 42 46.0000000  0 12
G27  21419120.260   112558227.841 7      1597.385    21419119.800   112558227.843 7      1597.385    21419127.420    87707741.960 7      1244.716    21419127.440    87707742.953 7      1244.716
G02  20991396.400   110310530.050 7      2609.422    20991395.020   110310530.049 6      2609.422    20991397.960    85956264.997 6      2033.316
R15  19857535.740   106112646.895 8      3046.925    19857535.160   106112646.890 8      3046.925    19857545.160    82532098.374 8      2369.830    19857545.220    82532099.381 8      2369.830
G08  20783027.220   109215536.793 8      3410.881    20783025.720   109215536.793 8      3410.881    20783033.040    85103046.623 8      2657.829    20783033.820    85103050.624 8      2657.829
R17  20499364.940   109696234.825 7      2272.501    20499362.780   109696234.821 7      2272.501    20499375.960    85319342.257 8      1767.500    20499375.540    85319342.255 8      1767.500
R14  20820049.040   110982562.126 8      -753.907    20820048.860   110982562.134 8      -753.907    20820061.980    86319820.061 8      -586.372    20820061.940    86319825.056 8      -586.372
G01  21899712.580   115083767.500 7      4526.222    21899711.020   115083767.507 6      4526.222    21899720.480    89675690.641 6      3526.926    21899720.840    89675696.645 8      3526.926
G10  22843514.420   120043471.657 7       880.898    22843513.300   120043471.654 6       880.898    22843522.780    93540400.754 6       686.414    22843523.340    93540405.762 7       686.414
R24  22301177.780   119254406.112 6       458.118    22301175.140   119254406.114 6       458.118    22301191.240    92753488.494 7       356.314    22301191.180    92753488.502 7       356.314
R18  22121571.940   118086451.205 6      4164.701    22121570.040   118086451.200 6      4164.701    22121584.540    91845079.573 7      3239.212    22121584.800    91845079.572 7      3239.212
G16  22301641.760   117195907.421 7      -262.891    22301640.500   117195907.428 6      -262.891    22301649.420    91321500.024 6      -204.850
R16  23049327.060   123125361.293 6      6332.787    23049327.000   123125361.326 6      6332.787    23049337.380    95764226.995 7      4925.501    23049338.500    95764222.002 7      4925.501
> 2025 04 04 14 42 47.0000000  0 12
G27  21418816.140   112556630.494 7      1597.158    21418815.800   112556630.496 7      1597.158    21418823.380    87706497.282 7      1244.539    21418823.480    87706498.279 7      1244.539
G02  20990899.840   110307920.880 7      2609.006    20990898.500   110307920.882 6      2609.006    20990901.440    85954231.883 6      2032.991
R15  19856965.980   106109600.493 8      3045.973    19856965.020   106109600.484 7      3045.973    19856975.040    82529728.951 8      2369.090    19856975.020    82529729.958 8      2369.090
G08  20782377.840   109212126.065 8      3410.587    20782376.640   109212126.064 8      3410.587    20782383.880    85100388.921 8      2657.600    20782384.660    85100392.924 8      2657.600
R17  20498940.220   109693962.507 8      2272.187    20498938.020   109693962.506 7      2272.187    20498951.300    85317574.903 8      1767.256    20498950.980    85317574.905 8      1767.256
R14  20820190.460   110983316.382 8      -754.485    20820190.400   110983316.388 8      -754.485    20820203.460    86320406.700 8      -586.822    20820203.520    86320411.697 8      -586.822
G01  21898851.500   115079241.619 7      4525.752    21898849.740   115079241.624 6      4525.752    21898859.400    89672163.991 6      3526.560    21898859.460    89672170.005 8      3526.560
G10  22843346.900   120042591.125 7       880.300    22843345.700   120042591.133 6       880.300    22843355.320    93539714.636 6       685.948    22843355.560    93539719.647 7       685.948
R24  22301092.340   119253948.037 6       458.087    22301089.460   119253948.035 6       458.087    22301105.640    92753132.221 7       356.290    22301105.700    92753132.221 7       356.290
R18  22120791.680   118082286.572 6      4164.584    22120789.380   118082286.552 6      4164.584    22120804.320    91841840.418 7      3239.121    22120804.520    91841840.421 7      3239.121
G16  22301691.320   117196170.475 7      -263.266    22301690.340   117196170.482 6      -263.266    22301699.560    91321704.999 6      -205.142
R16  23048141.140   123119028.696 6      6332.367    23048141.960   123119028.713 6      6332.367    23048152.240    95759301.641 7      4925.175    23048152.960    95759296.646 7      4925.175
> 2025 04 04 14 42 48.0000000  0 12
G27  21418512.360   112555033.005 7      1597.611    21418511.860   112555033.005 7      1597.611    21418519.260    87705252.486 7      1244.891    21418519.560    87705253.483 7      1244.891
G02  20990403.280   110305311.660 7      2609.225    20990401.940   110305311.663 6      2609.225    20990404.860    85952198.738 6      2033.162
R15  19856395.620   106106554.591 8      3045.740    19856394.980   106106554.579 8      3045.740    19856405.200    82527359.921 8      2368.909    19856405.080    82527360.931 8      2368.909
G08  20781728.880   109208715.132 8      3411.063    20781727.480   109208715.137 8      3411.063    20781734.900    85097731.064 8      2657.971    20781735.440    85097735.069 8      2657.971
R17  20498515.260   109691689.953 8      2272.713    20498513.300   109691689.957 7      2272.713    20498526.520    85315807.373 8      1767.666    20498526.200    85315807.374 8      1767.666
R14  20820331.740   110984070.752 8      -754.351    20820331.920   110984070.761 8      -754.351    20820344.740    86320993.435 8      -586.717    20820345.060    86320998.434 8      -586.717
G01  21897989.840   115074715.720 7      4526.060    21897988.380   115074715.727 6      4526.060    21897998.080    89668637.327 6      3526.800    21897998.200    89668643.338 8      3526.800
G10  22843179.120   120041710.742 7       880.320    22843178.260   120041710.749 6       880.320    22843187.800    93539028.631 6       685.964    22843188.160    93539033.641 7       685.964
R24  22301006.220   119253489.485 6       458.894    22301003.280   119253489.481 7       458.894    22301019.900    92752775.567 7       356.917    22301019.900    92752775.572 7       356.917
R18  22120011.580   118078121.822 6      4164.841    22120009.160   118078121.828 6      4164.841    22120024.620    91838601.193 7      3239.320    22120024.300    91838601.198 7      3239.320
G16  22301741.420   117196433.471 7      -262.930    22301740.520   117196433.481 6      -262.930    22301749.600    91321909.935 6      -204.880
R16  23046955.940   123112696.131 6      6332.653    23046956.340   123112696.148 6      6332.653    23046966.480    95754376.319 7      4925.397    23046967.680    95754371.328 7      4925.397
> 2025 04 04 14 42 49.0000000  0 12
G27  21418208.300   112553435.149 7      1598.211    21418207.980   112553435.151 7      1598.211    21418215.160    87704007.409 7      1245.360    21418215.260    87704008.404 7      1245.360
G02  20989906.680   110302702.180 7      2609.595    20989905.540   110302702.185 6      2609.595    20989908.340    85950165.383 6      2033.451
R15  19855825.540   106103508.991 8      3045.494    19855824.860   106103508.979 8      3045.494    19855835.200    82524991.129 8      2368.718    19855835.240    82524992.137 8      2368.718
G08  20781079.660   109205303.841 8      3411.500    20781078.420   109205303.843 8      3411.500    20781085.740    85095072.919 8      2658.312    20781086.420    85095076.924 8      2658.312
R17  20498090.460   109689417.025 8      2273.139    20498088.960   109689417.026 8      2273.139    20498101.960    85314039.542 8      1767.997    20498101.420    85314039.538 8      1767.997
R14  20820473.140   110984825.062 8      -754.283    20820473.580   110984825.070 8      -754.283    20820486.460    86321580.114 8      -586.664    20820486.460    86321585.109 8      -586.664
G01  21897128.700   115070189.621 7      4526.375    21897127.060   115070189.625 6      4526.375    21897136.620    89665110.506 6      3527.045    21897137.000    89665116.522 8      3527.045
G10  22843011.960   120040830.297 7       880.364    22843010.560   120040830.305 6       880.364    22843020.260    93538342.572 6       685.998    22843020.540    93538347.589 7       685.998
R24  22300919.960   119253030.267 6       459.584    22300917.160   119253030.269 7       459.584    22300934.120    92752418.406 7       357.454    22300934.300    92752418.411 7       357.454
R18  22119231.280   118073956.773 6      4165.232    22119229.040   118073956.761 6      4165.232    22119244.200    91835361.711 7      3239.625    22119244.280    91835361.712 7      3239.625
G16  22301791.780   117196696.236 7      -262.634    22301790.400   117196696.246 6      -262.634    22301799.660    91322114.685 6      -204.650
R16  23045770.420   123106363.435 7      6332.801    23045770.720   123106363.457 6      6332.801    23045780.840    95749450.901 7      4925.512    23045781.940    95749445.904 7      4925.512
> 2025 04 04 14 42 50.0000000  0 12
G27  21417904.200   112551837.040 7      1598.226    21417903.980   112551837.053 7      1598.226    21417910.920    87702762.137 7      1245.371    21417911.080    87702763.133 7      1245.371
G02  20989410.080   110300092.530 7      2609.677    20989408.900   110300092.535 6      2609.677    20989411.820    85948131.897 6      2033.515
R15  19855256.040   106100463.741 8      3045.070    19855255.000   106100463.727 8      3045.070    19855265.240    82522622.603 8      2368.388    19855265.220    82522623.612 8      2368.388
G08  20780430.360   109201892.222 8      3411.823    20780429.160   109201892.222 8      3411.823    20780436.440    85092414.519 8      2658.563    20780436.920    85092418.522 8      2658.563
R17  20497666.040   109687143.743 7      2273.439    20497663.980   109687143.739 8      2273.439    20497677.200    85312271.434 8      1768.230    20497676.540    85312271.428 8      1768.230
R14  20820614.560   110985579.334 8      -754.274    20820615.160   110985579.340 8      -754.274    20820627.940    86322166.766 8      -586.658    20820628.000    86322171.763 8      -586.658
G01  21896267.620   115065663.409 7      4526.286    21896265.820   115065663.419 6      4526.286    21896275.340    89661583.602 6      3526.976    21896275.580    89661589.614 8      3526.976
G10  22842844.360   120039949.834 7       880.374    22842843.080   120039949.844 6       880.374    22842852.700    93537656.504 6       686.006    22842853.060    93537661.512 7       686.006
R24  22300833.860   119252570.472 7       460.092    22300831.620   119252570.481 7       460.092    22300848.220    92752060.796 7       357.849    22300848.040    92752060.805 7       357.849
R18  22118450.640   118069791.420 6      4165.341    22118448.800   118069791.418 6      4165.341    22118463.820    91832122.017 7      3239.709    22118464.140    91832122.018 7      3239.709
G16  22301841.640   117196958.811 7      -262.456    22301840.460   117196958.821 6      -262.456    22301849.520    91322319.291 6      -204.511
R16  23044584.680   123100030.615 7      6332.907    23044584.940   123100030.641 6      6332.907    23044595.400    95744525.384 7      4925.595    23044596.880    95744520.388 7      4925.595
> 2025 04 04 14 42 51.0000000  0 12
G27  21417599.980   112550238.697 7      1598.466    21417599.920   112550238.705 7      1598.466    21417606.740    87701516.676 7      1245.558    21417606.980    87701517.669 7      1245.558
G02  20988913.480   110297482.761 7      2609.786    20988912.280   110297482.766 6      2609.786    20988915.060    85946098.315 6      2033.600
R15  19854686.040   106097418.935 8      3044.653    19854685.580   106097418.923 8      3044.653    19854695.360    82520254.429 8      2368.063    19854695.700    82520255.437 8      2368.063
G08  20779781.020   109198480.367 8      3412.056    20779779.880   109198480.369 8      3412.056    20779787.260    85089755.937 8      2658.745    20779787.900    85089759.944 8      2658.745
R17  20497241.040   109684870.170 7      2273.766    20497239.120   109684870.179 7      2273.766    20497252.260    85310503.110 8      1768.485    20497252.000    85310503.106 8      1768.485
R14  20820756.080   110986333.635 8      -754.238    20820756.540   110986333.641 8      -754.238    20820769.280    86322753.440 8      -586.629    20820769.480    86322758.439 8      -586.629
G01  21895406.060   115061137.102 7      4526.391    21895404.540   115061137.115 6      4526.391    21895414.060    89658056.622 6      3527.058    21895414.300    89658062.634 8      3527.058
G10  22842676.640   120039069.456 7       880.391    22842675.460   120039069.460 6       880.391    22842685.140    93536970.498 6       686.019    22842685.460    93536975.511 7       686.019
R24  22300747.940   119252110.241 7       460.420    22300745.260   119252110.253 7       460.420    22300762.320    92751702.851 7       358.105    22300762.180    92751702.852 7       358.105
R18  22117670.300   118065625.846 6      4165.786    22117668.840   118065625.838 6      4165.786    22117683.380    91828882.127 7      3240.056    22117683.600    91828882.135 7      3240.056
G16  22301891.700   117197221.308 7      -262.465    22301890.400   117197221.316 6      -262.465    22301899.620    91322523.830 6      -204.518
R16  23043398.640   123093697.810 6      6332.760    23043399.460   123093697.835 6      6332.760    23043410.060    95739599.874 7      4925.480    23043411.340    95739594.881 7      4925.480
> 2025 04 04 14 42 52.0000000  0 12
G27  21417295.920   112548640.244 7      1598.353    21417295.820   112548640.246 7      1598.353    21417302.620    87700271.128 7      1245.470    21417302.480    87700272.119 7      1245.470
G02  20988416.900   110294872.963 8      2609.780    20988415.560   110294872.968 6      2609.780    20988418.660    85944064.714 6      2033.595
R15  19854116.180   106094374.711 8      3043.877    19854115.460   106094374.704 8      3043.877    19854125.680    82517886.705 8      2367.460    19854125.760    82517887.714 8      2367.460
G08  20779131.800   109195068.362 8      3412.017    20779130.640   109195068.359 8      3412.017    20779138.000    85087097.233 8      2658.715    20779138.560    85087101.242 8      2658.715
R17  20496815.940   109682596.425 7      2273.750    20496814.500   109682596.438 7      2273.750    20496827.480    85308734.650 8      1768.472    20496826.820    85308734.646 8      1768.472
R14  20820897.560   110987088.099 8      -754.547    20820898.060   110987088.107 8      -754.547    20820910.880    86323340.248 8      -586.870    20820911.200    86323345.247 8      -586.870
G01  21894544.960   115056610.835 7      4526.214    21894543.300   115056610.845 6      4526.214    21894552.620    89654529.671 6      3526.920    21894552.940    89654535.681 8      3526.920
G10  22842508.920   120038189.263 7       880.110    22842507.900   120038189.260 6       880.110    22842517.540    93536284.632 6       685.800    22842518.220    93536289.638 7       685.800
R24  22300662.180   119251649.633 7       460.746    22300659.580   119251649.640 7       460.746    22300676.160    92751344.597 7       358.358    22300675.880    92751344.601 7       358.358
R18  22116890.120   118061460.196 6      4165.703    22116888.220   118061460.181 6      4165.703    22116903.180    91825642.184 7      3239.992    22116903.160    91825642.191 7      3239.992
G16  22301941.740   117197483.776 7      -262.569    22301940.260   117197483.781 6      -262.569    22301949.420    91322728.351 6      -204.599
R16  23042213.600   123087365.066 6      6332.663    23042213.280   123087365.096 6      6332.663    23042224.300    95734674.415 7      4925.405    23042225.620    95734669.422 7      4925.405
> 2025 04 04 14 42 53.0000000  0 12
G27  21416991.460   112547041.399 7      1598.851    21416991.520   112547041.407 7      1598.851    21416998.160    87699025.281 7      1245.858    21416997.920    87699026.278 7      1245.858
G02  20987920.080   110292262.921 7      2610.079    20987918.940   110292262.926 6      2610.079    20987921.940    85942030.922 6      2033.828
R15  19853546.560   106091330.832 8      3043.580    19853546.180   106091330.825 8      3043.580    19853556.080    82515519.246 8      2367.229    19853556.300    82515520.254 8      2367.229
G08  20778482.640   109191655.952 8      3412.564    20778481.140   109191655.957 8      3412.564    20778488.560    85084438.223 8      2659.140    20778489.080    85084442.234 8      2659.140
R17  20496390.840   109680322.272 7      2274.293    20496389.320   109680322.273 7      2274.293    20496402.320    85306965.864 8      1768.895    20496401.940    85306965.856 8      1768.895
R14  20821039.220   110987842.499 8      -754.444    20821039.620   110987842.510 8      -754.444    20821052.600    86323927.001 8      -586.790    20821052.800    86323932.000 8      -586.790
G01  21893683.480   115052084.350 7      4526.514    21893682.000   115052084.360 6      4526.514    21893691.260    89651002.554 6      3527.154    21893691.660    89651008.560 8      3527.154
G10  22842341.640   120037308.995 7       880.247    22842340.400   120037308.989 6       880.247    22842350.040    93535598.711 6       685.907    22842350.460    93535603.719 7       685.907
R24  22300576.100   119251188.389 6       461.398    22300573.260   119251188.398 6       461.398    22300589.940    92750985.857 7       358.865    22300589.780    92750985.862 7       358.865
R18  22116109.500   118057294.192 6      4166.124    22116107.740   118057294.174 6      4166.124    22116122.860    91822401.977 7      3240.319    22116122.940    91822401.976 7      3240.319
G16  22301991.620   117197745.987 7      -262.180    22301990.180   117197745.994 6      -262.180    22301999.260    91322932.670 6      -204.296
R16  23041027.680   123081032.204 6      6332.795    23041028.500   123081032.237 6      6332.795    23041038.720    95729748.864 7      4925.507    23041040.120    95729743.875 7      4925.507
> 2025 04 04 14 42 54.0000000  0 12
G27  21416687.400   112545442.455 7      1599.078    21416687.340   112545442.460 7      1599.078    21416693.940    87697779.354 7      1246.035    21416693.960    87697780.348 7      1246.035
G02  20987423.360   110289652.868 8      2610.172    20987422.280   110289652.873 6      2610.172    20987425.120    85939997.123 6      2033.900
R15  19852977.360   106088287.519 8      3043.139    19852976.700   106088287.507 8      3043.139    19852986.400    82513152.229 8      2366.886    19852986.620    82513153.239 8      2366.886
G08  20777833.180   109188243.421 8      3412.662    20777831.760   109188243.426 8      3412.662    20777839.240    85081779.118 8      2659.217    20777839.820    85081783.129 8      2659.217
R17  20495965.740   109678047.949 7      2274.509    20495964.420   109678047.953 7      2274.509    20495977.320    85305196.955 8      1769.062    20495976.740    85305196.949 8      1769.062
R14  20821180.800   110988597.099 8      -754.512    20821181.080   110988597.110 8      -754.512    20821194.180    86324513.912 8      -586.843    20821194.340    86324518.913 8      -586.843
G01  21892822.180   115047557.912 7      4526.473    21892820.520   115047557.922 6      4526.473    21892829.900    89647475.468 6      3527.122    21892830.300    89647481.475 8      3527.122
G10  22842174.260   120036428.900 7       880.124    22842172.960   120036428.902 6       880.124    22842182.560    93534912.931 6       685.811    22842182.860    93534917.941 7       685.811
R24  22300489.280   119250726.685 6       462.054    22300486.640   119250726.692 6       462.054    22300504.080    92750626.756 7       359.375    22300503.600    92750626.761 7       359.375
R18  22115328.520   118053128.121 6      4166.282    22115327.780   118053128.098 6      4166.282    22115342.320    91819161.700 7      3240.441    22115342.420    91819161.701 7      3240.441
G16  22302041.380   117198008.213 7      -262.131    22302040.060   117198008.220 6      -262.131    22302049.180    91323137.005 6      -204.258
R16  23039842.180   123074699.457 6      6332.804    23039842.920   123074699.477 6      6332.804    23039853.140    95724823.396 7      4925.514    23039855.080    95724818.407 7      4925.514
> 2025 04 04 14 42 55.0000000  0 12
G27  21416383.040   112543843.201 7      1599.451    21416383.060   112543843.208 7      1599.451    21416389.680    87696533.186 7      1246.325    21416389.960    87696534.188 7      1246.325
G02  20986926.620   110287042.632 8      2610.300    20986925.640   110287042.637 6      2610.300    20986928.440    85937963.178 6      2034.000
R15  19852407.600   106085244.583 8      3042.740    19852407.240   106085244.565 7      3042.740    19852417.120    82510785.501 8      2366.575    19852417.320    82510786.511 8      2366.575
G08  20777183.780   109184830.557 8      3413.006    20777182.280   109184830.559 8      3413.006    20777189.800    85079119.745 8      2659.485    20777190.500    85079123.759 8      2659.485
R17  20495540.960   109675773.284 7      2274.824    20495539.520   109675773.286 7      2274.824    20495552.240    85303427.775 8      1769.307    20495551.720    85303427.767 8      1769.307
R14  20821322.280   110989351.706 8      -754.597    20821322.740   110989351.710 8      -754.597    20821335.720    86325100.821 8      -586.909    20821335.840    86325105.824 8      -586.909
G01  21891960.680   115043031.308 7      4526.622    21891959.220   115043031.318 6      4526.622    21891968.640    89643948.257 6      3527.238    21891968.920    89643954.268 8      3527.238
G10  22842006.540   120035548.824 7       880.054    22842005.400   120035548.826 6       880.054    22842015.040    93534227.165 6       685.756    22842015.780    93534232.171 7       685.756
R24  22300403.220   119250264.374 6       462.730    22300400.440   119250264.381 6       462.730    22300417.520    92750267.185 7       359.901    22300417.260    92750267.185 7       359.901
R18  22114548.380   118048961.775 6      4166.474    22114547.660   118048961.757 6      4166.474    22114561.700    91815921.227 7      3240.591    22114561.840    91815921.232 7      3240.591
G16  22302091.300   117198270.245 7      -261.988    22302090.060   117198270.255 6      -261.988    22302099.020    91323341.183 6      -204.146
R16  23038657.160   123068366.635 6      6332.774    23038657.660   123068366.652 6      6332.774    23038667.660    95719897.877 7      4925.491    23038669.480    95719892.885 7      4925.491
> 2025 04 04 14 42 56.0000000  0 12
G27  21416079.100   112542243.825 7      1599.515    21416078.820   112542243.838 7      1599.515    21416085.380    87695286.928 7      1246.376    21416085.340    87695287.929 7      1246.376
G02  20986430.000   110284432.353 7      2610.319    20986428.800   110284432.358 6      2610.319    20986431.740    85935929.205 6      2034.015
R15  19851838.020   106082202.141 8      3042.266    19851837.800   106082202.126 7      3042.266    19851847.680    82508419.163 8      2366.207    19851847.980    82508420.174 8      2366.207
G08  20776534.220   109181417.529 8      3413.172    20776532.760   109181417.529 8      3413.172    20776540.300    85076460.252 8      2659.615    20776541.160    85076464.263 8      2659.615
R17  20495115.860   109673498.405 8      2275.027    20495114.440   109673498.410 7      2275.027    20495127.220    85301658.431 8      1769.466    20495126.520    85301658.425 8      1769.466
R14  20821464.220   110990106.421 8      -754.757    20821464.260   110990106.427 8      -754.757    20821477.360    86325687.821 8      -587.033    20821477.200    86325692.820 8      -587.033
G01  21891099.220   115038504.721 7      4526.658    21891097.800   115038504.733 6      4526.658    21891107.400    89640421.056 6      3527.266    21891107.280    89640427.069 8      3527.266
G10  22841839.140   120034668.876 7       879.961    22841837.980   120034668.883 6       879.961    22841847.680    93533541.498 6       685.684    22841848.340    93533546.514 7       685.684
R24  22300316.640   119249801.643 6       463.005    22300313.380   119249801.647 6       463.005    22300331.100    92749907.279 7       360.115    22300330.620    92749907.280 7       360.115
R18  22113768.640   118044795.285 6      4166.620    22113766.820   118044795.278 6      4166.620    22113781.200    91812680.640 7      3240.704    22113781.340    91812680.643 7      3240.704
G16  22302141.120   117198532.253 7      -261.986    22302139.920   117198532.260 6      -261.986    22302148.920    91323545.345 6      -204.145
R16  23037471.180   123062033.862 6      6332.771    23037471.900   123062033.884 6      6332.771    23037482.100    95714972.394 7      4925.488    23037483.800    95714967.409 7      4925.488
> 2025 04 04 14 42 57.0000000  0 12
G27  21415774.640   112540644.379 7      1599.700    21415774.460   112540644.381 7      1599.700    21415780.920    87694040.602 7      1246.520    21415781.180    87694041.603 7      1246.520
G02  20985933.460   110281822.114 8      2610.330    20985932.060   110281822.119 6      2610.330    20985935.000    85933895.261 6      2034.024
R15  19851269.080   106079160.330 8      3041.599    19851268.320   106079160.310 7      3041.599    19851278.460    82506053.312 8      2365.688    19851278.620    82506054.319 8      2365.688
G08  20775884.740   109178004.400 8      3413.320    20775883.280   109178004.399 8      3413.320    20775890.780    85073800.676 8      2659.730    20775891.720    85073804.687 8      2659.730
R17  20494690.740   109671223.433 8      2275.146    20494689.480   109671223.437 7      2275.146    20494702.000    85299889.010 8      1769.558    20494701.720    85299889.004 8      1769.558
R14  20821605.460   110990861.356 8      -754.970    20821605.780   110990861.370 8      -754.970    20821618.980    86326274.997 8      -587.199    20821619.140    86326279.994 8      -587.199
G01  21890238.020   115033978.222 7      4526.586    21890236.420   115033978.235 6      4526.586    21890246.040    89636893.926 6      3527.210    21890245.840    89636899.936 8      3527.210
G10  22841671.820   120033789.178 7       879.700    22841670.520   120033789.185 6       879.700    22841680.180    93532856.023 6       685.480    22841681.220    93532861.033 7       685.480
R24  22300230.420   119249338.562 6       463.403    22300227.520   119249338.566 6       463.403    22300244.460    92749547.105 7       360.425    22300243.860    92749547.109 7       360.425
R18  22112987.660   118040628.771 6      4166.611    22112986.560   118040628.766 6      4166.611    22113000.660    91809440.035 7      3240.697    22113000.620    91809440.036 7      3240.697
G16  22302191.080   117198794.295 7      -261.923    22302189.660   117198794.300 6      -261.923    22302198.860    91323749.530 6      -204.096
R16  23036285.940   123055701.294 6      6332.724    23036285.600   123055701.300 6      6332.724    23036296.600    95710047.062 7      4925.452    23036298.140    95710042.077 7      4925.452
> 2025 04 04 14 42 58.0000000  0 12
G27  21415470.260   112539044.738 7      1599.771    21415469.900   112539044.741 7      1599.771    21415476.440    87692794.133 7      1246.575    21415476.660    87692795.132 7      1246.575
G02  20985436.660   110279211.770 7      2610.384    20985435.380   110279211.775 6      2610.384    20985438.240    85931861.232 6      2034.065
R15  19850700.200   106076118.973 8      3041.169    19850698.940   106076118.958 7      3041.169    19850709.320    82503687.821 8      2365.353    19850709.520    82503688.827 8      2365.353
G08  20775235.020   109174591.047 8      3413.462    20775233.640   109174591.049 8      3413.462    20775241.280    85071140.929 8      2659.841    20775242.080    85071144.940 8      2659.841
R17  20494266.120   109668948.220 8      2275.345    20494264.140   109668948.218 7      2275.345    20494276.820    85298119.404 8      1769.713    20494276.180    85298119.398 8      1769.713
R14  20821747.260   110991616.385 8      -755.009    20821747.480   110991616.396 8      -755.009    20821760.580    86326862.236 8      -587.229    20821760.480    86326867.235 8      -587.229
G01  21889376.480   115029451.661 7      4526.658    21889375.040   115029451.671 6      4526.658    21889384.620    89633366.744 6      3527.266    21889384.640    89633372.755 8      3527.266
G10  22841504.300   120032909.558 7       879.641    22841503.140   120032909.560 6       879.641    22841512.840    93532170.609 6       685.434    22841513.840    93532175.617 7       685.434
R24  22300144.060   119248874.989 6       463.898    22300141.240   119248874.993 6       463.898    22300157.780    92749186.554 7       360.809    22300157.320    92749186.557 7       360.809
R18  22112206.960   118036462.040 6      4166.902    22112206.380   118036462.038 6      4166.902    22112220.060    91806199.253 7      3240.924    22112220.120    91806199.254 7      3240.924
G16  22302240.920   117199056.254 7      -261.902    22302239.480   117199056.258 6      -261.902    22302248.720    91323953.651 6      -204.079
R16  23035100.800   123049368.739 6      6332.574    23035100.700   123049368.737 6      6332.574    23035111.220    95705121.741 7      4925.335    23035112.700    95705116.758 7      4925.335
> 2025 04 04 14 42 59.0000000  0 12
G27  21415166.020   112537444.814 7      1599.974    21415165.440   112537444.819 7      1599.974    21415172.040    87691547.447 7      1246.733    21415172.640    87691548.446 7      1246.733
G02  20984939.980   110276601.247 8      2610.720    20984938.620   110276601.249 6      2610.720    20984941.620    85929827.063 6      2034.327
R15  19850130.880   106073078.065 8      3040.677    19850130.100   106073078.055 7      3040.677    19850140.220    82501322.676 8      2364.971    19850140.400    82501323.683 8      2364.971
G08  20774585.480   109171177.389 8      3413.752    20774584.060   109171177.393 8      3413.752    20774591.720    85068480.944 8      2660.066    20774592.600    85068484.955 8      2660.066
R17  20493840.480   109666672.632 7      2275.803    20493839.000   109666672.636 7      2275.803    20493851.620    85296349.511 8      1770.069    20493851.120    85296349.503 8      1770.069
R14  20821888.560   110992371.414 8      -755.010    20821889.020   110992371.423 8      -755.010    20821902.180    86327449.476 8      -587.230    20821902.340    86327454.473 8      -587.230
G01  21888515.200   115024924.976 7      4526.790    21888513.740   115024924.991 6      4526.790    21888523.060    89629839.471 6      3527.369    21888523.220    89629845.481 8      3527.369
G10  22841336.640   120032029.968 7       879.561    22841335.700   120032029.970 6       879.561    22841345.520    93531485.218 6       685.372    22841346.440    93531490.234 7       685.372
R24  22300057.020   119248410.844 6       464.405    22300054.060   119248410.858 6       464.405    22300070.740    92748825.563 7       361.204    22300070.800    92748825.567 7       361.204
R18  22111426.240   118032295.059 6      4167.190    22111426.220   118032295.065 6      4167.190    22111438.960    91802958.286 7      3241.148    22111439.700    91802958.291 7      3241.148
G16  22302290.640   117199318.031 7      -261.705    22302289.320   117199318.035 6      -261.705    22302298.400    91324157.636 6      -203.926
R16  23033915.300   123043036.059 6      6332.808    23033914.680   123043036.071 6      6332.808    23033925.720    95700196.342 7      4925.517    23033927.260    95700191.359 7      4925.517
> 2025 04 04 14 43  0.0000000  0 12
G27  21414861.280   112535844.635 7      1600.430    21414861.100   112535844.642 7      1600.430    21414867.540    87690300.556 7      1247.088    21414868.000    87690301.557 7      1247.088
G02  20984443.160   110273990.608 7      2610.843    20984441.960   110273990.611 6      2610.843    20984444.700    85927792.805 6      2034.423
R15  19849561.860   106070037.600 8      3040.347    19849560.940   106070037.591 7      3040.347    19849571.240    82498957.875 8      2364.714    19849571.620    82498958.881 8      2364.714
G08  20773935.900   109167763.460 8      3414.156    20773934.480   109167763.462 8      3414.156    20773942.120    85065820.742 8      2660.381    20773943.160    85065824.753 8      2660.381
R17  20493415.200   109664396.757 7      2276.143    20493413.680   109664396.764 7      2276.143    20493426.260    85294579.395 8      1770.333    20493425.680    85294579.387 8      1770.333
R14  20822030.520   110993126.454 8      -754.885    20822030.560   110993126.462 7      -754.885    20822043.720    86328036.729 8      -587.133    20822043.840    86328041.726 8      -587.133
G01  21887653.560   115020398.199 7      4527.026    21887652.340   115020398.209 6      4527.026    21887661.520    89626312.121 6      3527.553    21887661.820    89626318.132 8      3527.553
G10  22841169.460   120031150.430 7       879.629    22841168.460   120031150.429 6       879.629    22841177.980    93530799.864 6       685.426    22841178.980    93530804.872 7       685.426
R24  22299969.840   119247946.177 6       465.054    22299966.900   119247946.178 6       465.054    22299984.100    92748464.149 7       361.708    22299983.800    92748464.152 7       361.708
R18  22110645.780   118028127.880 6      4167.365    22110645.620   118028127.886 6      4167.365    22110658.400    91799717.160 7      3241.284    22110658.780    91799717.167 7      3241.284
G16  22302340.600   117199579.681 7      -261.442    22302339.040   117199579.686 6      -261.442    22302348.320    91324361.519 6      -203.721
R16  23032729.960   123036703.368 6      6332.918    23032729.800   123036703.385 6      6332.918    23032740.160    95695270.926 7      4925.603    23032742.040    95695265.946 7      4925.603
> 2025 04 04 14 43  1.0000000  0 12
G27  21414556.620   112534244.332 7      1600.137    21414556.600   112534244.337 7      1600.137    21414562.940    87689053.571 7      1246.860    21414563.440    87689054.574 7      1246.860
G02  20983946.380   110271379.907 8      2610.589    20983945.200   110271379.909 6      2610.589    20983947.960    85925758.496 6      2034.226
R15  19848993.240   106066997.651 8      3039.589    19848992.300   106066997.634 7      3039.589    19849002.400    82496593.468 8      2364.125    19849002.500    82496594.470 8      2364.125
G08  20773286.240   109164349.332 8      3414.126    20773284.740   109164349.334 8      3414.126    20773292.380    85063160.390 8      2660.358    20773293.420    85063164.401 8      2660.358
R17  20492990.140   109662120.685 7      2276.097    20492988.420   109662120.684 7      2276.097    20493001.040    85292809.114 8      1770.298    20493000.560    85292809.106 8      1770.298
R14  20822171.980   110993881.634 8      -755.374    20822171.980   110993881.646 7      -755.374    20822185.620    86328624.086 8      -587.513    20822185.620    86328629.085 8      -587.513
G01  21886792.060   115015871.427 7      4526.697    21886791.000   115015871.435 6      4526.697    21886800.000    89622784.777 6      3527.296    21886800.400    89622790.784 8      3527.296
G10  22841002.280   120030271.007 7       879.178    22841001.000   120030271.007 6       879.178    22841010.740    93530114.604 6       685.074    22841011.660    93530119.622 7       685.074
R24  22299883.340   119247481.077 6       465.254    22299880.320   119247481.068 6       465.254    22299897.140    92748102.401 7       361.865    22299896.780    92748102.405 7       361.865
R18  22109864.680   118023960.515 6      4167.382    22109864.900   118023960.534 6      4167.382    22109877.600    91796475.898 7      3241.297    22109877.840    91796475.901 7      3241.297
G16  22302390.180   117199841.293 7      -261.703    22302388.840   117199841.303 6      -261.703    22302398.020    91324565.376 6      -203.925
R16  23031544.440   123030370.752 6      6332.451    23031543.520   123030370.766 6      6332.451    23031554.980    95690345.567 7      4925.239    23031556.300    95690340.588 7      4925.239
> 2025 04 04 14 43  2.0000000  0 12
G27  21414252.060   112532643.945 7      1600.515    21414252.020   112532643.947 7      1600.515    21414258.480    87687806.514 7      1247.154    21414258.640    87687807.517 7      1247.154
G02  20983449.660   110268769.252 8      2610.743    20983448.240   110268769.255 6      2610.743    20983451.240    85923724.228 6      2034.345
R15  19848424.240   106063958.325 8      3039.182    19848423.500   106063958.310 7      3039.182    19848433.460    82494229.553 8      2363.809    19848433.600    82494230.558 8      2363.809
G08  20772636.460   109160935.143 8      3414.405    20772635.120   109160935.143 8      3414.405    20772642.740    85060499.988 8      2660.575    20772643.840    85060503.997 8      2660.575
R17  20492564.600   109659844.517 7      2276.406    20492563.160   109659844.523 7      2276.406    20492575.640    85291038.769 8      1770.538    20492575.000    85291038.765 8      1770.538
R14  20822313.660   110994637.034 8      -755.390    20822313.780   110994637.042 8      -755.390    20822327.100    86329211.619 8      -587.526    20822327.480    86329216.614 8      -587.526
G01  21885930.600   115011344.755 7      4526.678    21885929.660   115011344.766 6      4526.678    21885938.580    89619257.510 6      3527.282    21885938.780    89619263.522 8      3527.282
G10  22840834.960   120029391.837 7       879.207    22840833.720   120029391.840 6       879.207    22840843.380    93529429.540 6       685.097    22840844.680    93529434.555 7       685.097
R24  22299796.020   119247015.641 6       465.798    22299792.940   119247015.645 6       465.798    22299810.220    92747740.407 7       362.287    22299809.780    92747740.412 7       362.287
R18  22109084.080   118019793.168 6      4167.535    22109084.580   118019793.177 6      4167.535    22109096.800    91793234.632 7      3241.416    22109097.360    91793234.638 7      3241.416
G16  22302440.040   117200102.962 7      -261.521    22302438.600   117200102.967 6      -261.521    22302447.800    91324769.268 6      -203.783
R16  23030358.840   123024038.296 6      6332.522    23030358.160   123024038.300 6      6332.522    23030369.240    95685420.323 7      4925.295    23030371.220    95685415.345 7      4925.295
> 2025 04 04 14 43  3.0000000  0 12
G27  21413947.220   112531043.030 7      1600.952    21413947.360   112531043.032 7      1600.952    21413953.920    87686559.052 7      1247.495    21413954.160    87686560.059 7      1247.495
G02  20982952.880   110266158.178 8      2610.972    20982951.180   110266158.183 6      2610.972    20982954.360    85921689.635 6      2034.523
R15  19847855.580   106060919.135 8      3038.854    19847854.460   106060919.125 7      3038.854    19847864.780    82491865.745 8      2363.553    19847864.780    82491866.747 8      2363.553
G08  20771986.840   109157520.397 8      3414.788    20771985.280   109157520.405 8      3414.788    20771992.900    85057839.157 8      2660.874    20771993.940    85057843.166 8      2660.874
R17  20492139.300   109657567.800 7      2276.698    20492137.860   109657567.806 7      2276.698    20492150.200    85289267.993 8      1770.765    20492149.720    85289267.989 8      1770.765
R14  20822455.740   110995392.172 8      -755.258    20822455.220   110995392.178 7      -755.258    20822468.960    86329798.940 8      -587.423    20822468.880    86329803.939 8      -587.423
G01  21885069.440   115006817.687 7      4526.939    21885068.300   115006817.700 6      4526.939    21885077.100    89615729.937 6      3527.485    21885077.320    89615735.946 8      3527.485
G10  22840667.760   120028512.447 7       879.198    22840666.380   120028512.454 6       879.198    22840676.020    93528744.309 6       685.090    22840676.840    93528749.319 7       685.090
R24  22299708.620   119246549.391 6       466.439    22299706.220   119246549.384 6       466.439    22299723.080    92747377.762 7       362.786    22299722.800    92747377.765 7       362.786
R18  22108303.180   118015625.295 6      4167.950    22108304.480   118015625.315 6      4167.950    22108315.800    91789992.968 7      3241.739    22108316.460    91789992.975 7      3241.739
G16  22302489.680   117200364.219 7      -261.289    22302488.440   117200364.226 6      -261.289    22302497.500    91324972.847 6      -203.602
R16  23029173.220   123017705.541 6      6332.607    23029172.880   123017705.550 6      6332.607    23029184.080    95680494.853 7      4925.361    23029185.840    95680489.879 7      4925.361
> 2025 04 04 14 43  4.0000000  0 12
G27  21413642.480   112529442.089 7      1600.913    21413642.640   112529442.086 7      1600.913    21413649.260    87685311.567 7      1247.465    21413649.380    87685312.573 7      1247.465
G02  20982455.840   110263547.145 8      2610.973    20982454.380   110263547.147 6      2610.973    20982457.560    85919655.070 6      2034.525
R15  19847287.040   106057880.540 8      3038.297    19847285.740   106057880.533 7      3038.297    19847295.960    82489502.398 8      2363.120    19847296.280    82489503.400 8      2363.120
G08  20771337.000   109154105.565 8      3414.918    20771335.560   109154105.570 8      3414.918    20771343.080    85055178.255 8      2660.975    20771344.180    85055182.268 8      2660.975
R17  20491713.660   109655290.935 7      2276.870    20491712.580   109655290.942 7      2276.870    20491724.900    85287497.101 8      1770.899    20491724.000    85287497.097 8      1770.899
R14  20822597.260   110996147.521 8      -755.467    20822597.120   110996147.529 7      -755.467    20822610.520    86330386.436 8      -587.585    20822610.640    86330391.433 8      -587.585
G01  21884208.220   115002290.716 7      4526.857    21884206.780   115002290.728 6      4526.857    21884215.740    89612202.439 6      3527.421    21884215.820    89612208.454 8      3527.421
G10  22840500.200   120027633.282 7       878.989    22840499.180   120027633.287 6       878.989    22840508.640    93528059.245 6       684.927    22840509.500    93528064.256 7       684.927
R24  22299621.560   119246082.799 6       466.624    22299619.040   119246082.801 6       466.624    22299635.860    92747014.862 7       362.930    22299635.400    92747014.868 7       362.930
R18  22107522.160   118011457.422 6      4167.856    22107523.600   118011457.439 6      4167.856    22107535.120    91786751.306 7      3241.666    22107535.620    91786751.309 7      3241.666
G16  22302539.440   117200625.531 7      -261.428    22302538.060   117200625.538 6      -261.428    22302547.200    91325176.467 6      -203.710
R16  23027987.340   123011372.939 6      6332.472    23027986.760   123011372.956 6      6332.472    23027998.400    95675569.508 7      4925.256    23028000.360    95675564.534 7      4925.256
> 2025 04 04 14 43  5.0000000  0 12
G27  21413337.740   112527840.890 7      1601.163    21413337.840   112527840.889 7      1601.163    21413344.500    87684063.884 7      1247.659    21413345.120    87684064.887 7      1247.659
G02  20981958.900   110260936.005 7      2610.953    20981957.540   110260936.009 6      2610.953    20981960.620    85917620.421 6      2034.509
R15  19846718.180   106054842.403 8      3037.781    19846717.320   106054842.396 7      3037.781    19846727.500    82487139.404 8      2362.719    19846727.860    82487140.405 8      2362.719
G08  20770687.040   109150690.488 8      3415.098    20770685.720   109150690.491 8      3415.098    20770693.240    85052517.160 8      2661.116    20770694.300    85052521.171 8      2661.116
R17  20491287.940   109653013.785 8      2277.075    20491286.900   109653013.800 7      2277.075    20491299.400    85285725.996 8      1771.058    20491298.440    85285725.993 8      1771.058
R14  20822739.000   110996902.925 8      -755.572    20822738.380   110996902.931 7      -755.572    20822752.360    86330973.966 8      -587.667    20822752.460    86330978.964 8      -587.667
G01  21883346.780   114997763.665 7      4526.991    21883345.400   114997763.678 6      4526.991    21883354.260    89608674.877 6      3527.526    21883354.200    89608680.885 8      3527.526
G10  22840332.860   120026754.185 7       878.836    22840331.900   120026754.193 6       878.836    22840341.340    93527374.241 6       684.807    22840342.100    93527379.249 7       684.807
R24  22299534.480   119245615.654 6       467.350    22299531.980   119245615.642 6       467.350    22299548.680    92746651.525 7       363.495    22299548.000    92746651.531 7       363.495
R18  22106741.220   118007289.326 6      4168.018    22106742.520   118007289.340 6      4168.018    22106754.340    91783509.457 7      3241.792    22106754.780    91783509.464 7      3241.792
G16  22302589.140   117200886.714 7      -261.260    22302587.820   117200886.721 6      -261.260    22302596.920    91325379.982 6      -203.579
R16  23026802.340   123005040.352 6      6332.294    23026801.140   123005040.366 6      6332.294    23026813.100    95670644.178 7      4925.117    23026814.760    95670639.197 7      4925.117
> 2025 04 04 14 43  6.0000000  0 12
G27  21413033.200   112526239.691 7      1601.293    21413033.120   112526239.688 7      1601.293    21413039.760    87682816.201 7      1247.761    21413040.280    87682817.210 7      1247.761
G02  20981461.880   110258324.954 8      2610.913    20981460.780   110258324.953 6      2610.913    20981463.800    85915585.838 6      2034.477
R15  19846149.960   106051804.952 8      3037.144    19846148.940   106051804.943 7      3037.144    19846159.000    82484776.949 8      2362.223    19846159.200    82484777.947 8      2362.223
G08  20770037.320   109147275.383 8      3415.106    20770035.800   109147275.390 8      3415.106    20770043.380    85049856.045 8      2661.122    20770044.440    85049860.060 8      2661.122
R17  20490862.560   109650736.610 8      2277.199    20490861.360   109650736.620 7      2277.199    20490873.760    85283954.861 8      1771.155    20490873.100    85283954.859 8      1771.155
R14  20822880.760   110997658.629 8      -755.826    20822880.240   110997658.635 7      -755.826    20822894.140    86331561.731 8      -587.865    20822894.480    86331566.733 8      -587.865
G01  21882485.360   114993236.783 7      4526.720    21882484.100   114993236.794 6      4526.720    21882492.740    89605147.447 6      3527.314    21882493.000    89605153.461 8      3527.314
G10  22840165.700   120025875.386 7       878.540    22840164.740   120025875.388 6       878.540    22840174.260    93526689.469 6       684.577    22840174.960    93526694.475 7       684.577
R24  22299447.080   119245148.298 6       467.479    22299444.880   119245148.291 6       467.479    22299461.140    92746288.031 7       363.595    22299460.600    92746288.034 7       363.595
R18  22105960.660   118003121.242 7      4167.992    22105962.260   118003121.251 6      4167.992    22105973.460    91780267.625 7      3241.772    22105973.720    91780267.628 7      3241.772
G16  22302638.820   117201148.007 7      -261.269    22302637.540   117201148.010 6      -261.269    22302646.820    91325583.587 6      -203.586
R16  23025616.520   122998707.968 6      6332.149    23025615.500   122998707.980 6      6332.149    23025627.880    95665718.988 7      4925.004    23025629.760    95665714.014 7      4925.004
> 2025 04 04 14 43  7.0000000  0 12
G27  21412728.360   112524638.237 7      1601.759    21412728.240   112524638.240 7      1601.759    21412734.980    87681568.317 7      1248.124    21412735.500    87681569.326 7      1248.124
G02  20980964.960   110255713.729 7      2611.446    20980963.780   110255713.731 6      2611.446    20980966.620    85913551.124 6      2034.893
R15  19845581.540   106048767.910 8      3036.940    19845580.760   106048767.911 8      3036.940    19845590.620    82482414.813 8      2362.064    19845591.180    82482415.814 8      2362.064
G08  20769387.480   109143859.972 8      3415.673    20769386.000   109143859.977 8      3415.673    20769393.520    85047194.694 8      2661.563    20769394.480    85047198.706 8      2661.563
R17  20490436.920   109648459.101 7      2277.827    20490435.780   109648459.111 7      2277.827    20490448.060    85282183.471 8      1771.643    20490447.320    85282183.471 8      1771.643
R14  20823022.500   110998414.391 7      -755.678    20823021.920   110998414.396 7      -755.678    20823035.660    86332149.544 8      -587.750    20823036.080    86332154.541 8      -587.750
G01  21881623.760   114988709.760 7      4527.151    21881622.760   114988709.772 6      4527.151    21881631.300    89601619.910 6      3527.650    21881631.440    89601625.924 8      3527.650
G10  22839998.680   120024996.584 7       878.926    22839997.440   120024996.591 6       878.926    22840006.980    93526004.692 6       684.878    22840007.880    93526009.700 7       684.878
R24  22299359.540   119244680.356 6       468.401    22299356.900   119244680.344 6       468.401    22299373.760    92745924.079 7       364.312    22299373.180    92745924.081 7       364.312
R18  22105179.820   117998952.878 7      4168.657    22105181.940   117998952.887 6      4168.657    22105192.100    91777025.570 7      3242.288    22105193.180    91777025.577 7      3242.288
G16  22302688.580   117201409.146 7      -260.913    22302687.300   117201409.151 6      -260.913    22302696.400    91325787.074 6      -203.309
R16  23024430.840   122992375.521 6      6332.600    23024430.180   122992375.527 6      6332.600    23024442.500    95660793.759 7      4925.356    23024443.980    95660788.785 7      4925.356
> 2025 04 04 14 43  8.0000000  0 12
G27  21412423.700   112523036.479 7      1601.821    21412423.380   112523036.479 7      1601.821    21412430.200    87680320.195 7      1248.172    21412430.680    87680321.201 7      1248.172
G02  20980468.020   110253102.336 7      2611.210    20980466.840   110253102.336 6      2611.210    20980469.880    85911516.278 6      2034.709
R15  19845013.360   106045731.261 8      3036.161    19845012.600   106045731.254 7      3036.161    19845022.320    82480052.971 8      2361.459    19845022.980    82480053.971 8      2361.459
G08  20768737.380   109140444.260 8      3415.585    20768735.860   109140444.262 8      3415.585    20768743.460    85044533.104 8      2661.495    20768744.460    85044537.115 8      2661.495
R17  20490011.220   109646181.234 8      2277.809    20490010.460   109646181.246 7      2277.809    20490022.380    85280411.800 8      1771.629    20490021.600    85280411.799 8      1771.629
R14  20823164.300   110999170.136 8      -756.011    20823163.720   110999170.134 7      -756.011    20823177.600    86332737.338 8      -588.008    20823177.880    86332742.337 8      -588.008
G01  21880762.300   114984182.596 7      4526.975    21880761.300   114984182.612 6      4526.975    21880769.780    89598092.261 6      3527.513    21880769.640    89598098.272 8      3527.513
G10  22839831.460   120024117.808 7       878.511    22839830.260   120024117.813 6       878.511    22839839.920    93525319.931 6       684.554    22839840.640    93525324.935 7       684.554
R24  22299271.920   119244211.815 6       468.679    22299269.240   119244211.811 6       468.679    22299286.280    92745559.662 7       364.528    22299285.500    92745559.669 7       364.528
R18  22104398.980   117994784.277 7      4168.510    22104400.900   117994784.286 6      4168.510    22104411.420    91773783.341 7      3242.174    22104411.960    91773783.346 7      3242.174
G16  22302738.240   117201670.108 7      -261.103    22302736.880   117201670.110 6      -261.103    22302745.920    91325990.417 6      -203.457
R16  23023245.700   122986043.009 6      6332.257    23023244.700   122986043.010 6      6332.257    23023257.160    95655868.479 7      4925.089    23023258.720    95655863.502 7      4925.089
